     2.11           OBSERVATION DATA    G (GPS)             RINEX VERSION / TYPE
Linux 2.4.21-27.ELsmp|Opteron|gcc -static|Linux x86_64|=+   COMMENT
HEADER CHANGED BY EPN CB ON 2011-10-14                      COMMENT
TO BE CONFORM WITH THE INFORMATION IN                       COMMENT
ftp://epncb.oma.be/pub/station/log/brus.log                 COMMENT
                                                            COMMENT
teqc  2010Oct21                         20111014 00:01:18UTCPGM / RUN BY / DATE
teqc  2010Oct21                         20111014 00:01:02UTCCOMMENT
teqc  2010Oct21                         20111013 01:01:02UTCCOMMENT
BIT 2 OF LLI FLAGS DATA COLLECTED UNDER A/S CONDITION       COMMENT
BRUS                                                        MARKER NAME
13101M004                                                   MARKER NUMBER
Carine Bruyninx     ROB                                     OBSERVER / AGENCY
RT919994505         ASHTECH Z-XII3T     1L01-1D04           REC # / TYPE / VERS
CR519994604         ASH701945B_M    NONE                    ANT # / TYPE
  4027894.0130   307045.5980  4919474.9120                  APPROX POSITION XYZ
        3.9702        0.0000        0.0000                  ANTENNA: DELTA H/E/N
     1     1                                                WAVELENGTH FACT L1/2
     7    L1    L2    C1    P2    P1    S1    S2            # / TYPES OF OBSERV
    30.0000                                                 INTERVAL
 SNR is mapped to RINEX snr flag value [0-9]                COMMENT
  L1 & L2: min(max(int(snr_dBHz/6), 0), 9)                  COMMENT
pseudorange smoothing corrections not applied               COMMENT
COORDINATES IN ETRF2000                                     COMMENT
Forced Modulo Decimation to 30 seconds                      COMMENT
  2011    10    13     0     0    0.0000000     GPS         TIME OF FIRST OBS
                                                            END OF HEADER
 11 10 13  0  0  0.0000000  0  9G05G16G10G08G13G07G04G02G26
 -15875266.59449 -12354940.81049  21692455.9314   21692457.4604   21692455.9884
       235.0004        189.0004
    998599.54849    943561.96349  24338947.6244   24338950.4164   24338946.7474
       208.0004        140.0004
 -20482205.13549 -15948659.13749  20544848.4904   20544851.5794   20544847.8484
       242.0004        199.0004
 -19622014.19849 -15259510.00249  21225983.4014   21225988.0054   21225983.8004
       241.0004        195.0004
 -12956026.89349  -9792828.71549  22331369.1764   22331372.7854   22331369.7214
       228.0004        165.0004
 -22878897.09849 -17811150.56549  20565050.6364   20565052.8644   20565050.9874
       241.0004        204.0004
    168902.23649    650606.65349  24122676.9814   24122678.4344   24122678.1344
       215.0004        140.0004
 -15665526.56349 -11930893.88949  21930052.5104   21930053.5664   21930051.9334
       230.0004        178.0004
  -2917856.64549  -2252874.81749  23729075.4034   23729079.4164   23729074.0934
       210.0004        140.0004
 11 10 13  0  0 30.0000000  0  9G05G16G10G08G13G07G04G02G26
 -15945290.25949 -12409504.69749  21679130.0054   21679132.6474   21679130.3144
       235.0004        189.0004
   1047172.48149    981411.00249  24348189.4144   24348191.9074   24348190.0374
       206.0004        138.0004
 -20435336.25949 -15912137.94449  20553767.5424   20553770.1344   20553766.4884
       242.0004        199.0004
 -19684098.57249 -15307887.41449  21214170.5474   21214173.1514   21214170.1714
       242.0004        195.0004
 -12870135.33349  -9725900.25949  22347715.4414   22347716.4374   22347716.0864
       230.0004        165.0004
 -22876519.41949 -17809297.82049  20565502.8984   20565505.4344   20565503.3214
       240.0004        204.0004
    277899.47849    735539.61449  24143421.6214   24143422.6294   24143418.6064
       213.0004        141.0004
 -15610244.80249 -11887817.22049  21940573.2614   21940573.0154   21940572.6234
       231.0004        177.0004
  -3026163.65749  -2337269.91349  23708464.5654   23708470.1734   23708465.2234
       206.0004        142.0004
 11 10 13  0  1  0.0000000  0  9G05G16G10G08G13G07G04G02G26
 -16014960.18949 -12463792.94449  21665873.0934   21665876.0094   21665872.7224
       236.0004        191.0004
   1096283.39749   1019679.26049  24357535.4564   24357536.8684   24357534.9214
       209.0004        138.0004
 -20387994.89749 -15875248.58149  20562775.5914   20562778.8484   20562774.9834
       241.0004        199.0004
 -19745722.08849 -15355905.70649  21202443.3014   21202446.7214   21202442.6184
       241.0004        195.0004
 -12784060.79249  -9658829.21249  22364094.7384   22364096.2324   22364094.9624
       229.0004        166.0004
 -22873576.52849 -17807004.65249  20566063.2774   20566065.4304   20566063.4574
       242.0004        204.0004
    386967.38249    820527.48949  24164175.3454   24164179.6814   24164175.1304
       215.0004        145.0004
 -15554445.90349 -11844337.57349  21951190.0724   21951191.5014   21951189.2554
       227.0004        175.0004
  -3134332.40149  -2421557.14349  23687880.0924   23687885.9554   23687881.3424
       210.0004        142.0004
 11 10 13  0  1 30.0000000  0  9G05G16G10G08G13G07G04G02G26
 -16084274.03149 -12517803.71849  21652682.2124   21652685.6624   21652683.4004
       236.0004        191.0004
   1145931.13449   1058365.82449  24366982.1834   24366984.9304   24366983.0864
       210.0004        142.0004
 -20340181.49849 -15837991.40649  20571874.7104   20571877.6124   20571874.0444
       242.0004        198.0004
 -19806883.01449 -15403563.55149  21190804.4654   21190808.0034   21190804.6304
       242.0004        195.0004
 -12697803.32449  -9591615.60849  22380507.9384   22380510.4244   22380509.0884
       229.0004        166.0004
 -22870068.76349 -17804271.32549  20566729.9184   20566732.7674   20566730.7094
       240.0004        204.0004
    496103.11649    905568.27349  24184943.1954   24184945.6704   24184942.2964
       214.0004        143.0004
 -15498132.74249 -11800457.20449  21961906.4834   21961907.8844   21961905.3274
       228.0004        176.0004
  -3242361.09349  -2505735.32049  23667326.9994   23667327.9724   23667325.1394
       215.0004        144.0004
 11 10 13  0  2  0.0000000  0  9G05G16G10G08G13G07G04G02G26
 -16153230.23749 -12571535.82749  21639561.2604   21639562.8104   21639561.2834
       235.0004        190.0004
   1196113.67949   1097469.10449  24376532.7204   24376534.3954   24376533.8234
       211.0004        141.0004
 -20291897.24149 -15800367.31549  20581061.9034   20581065.7014   20581061.9344
       240.0004        198.0004
 -19867580.09949 -15450859.94349  21179254.7864   21179257.6474   21179253.9434
       242.0004        195.0004
 -12611364.71149  -9524260.86349  22396957.7414   22396959.2644   22396958.2004
       229.0004        164.0004
 -22865996.90649 -17801098.44049  20567505.9224   20567508.0034   20567505.9304
       241.0004        204.0004
    605303.84049    990659.79049  24205722.7894   24205724.1994   24205720.2954
       211.0004        135.0004
 -15441307.60449 -11756177.89349  21972719.6364   21972721.3614   21972720.3654
       230.0004        176.0004
  -3350249.02749  -2589803.79549  23646793.2174   23646797.2494   23646793.6334
       211.0004        143.0004
 11 10 13  0  2 30.0000000  0  9G05G16G10G08G13G07G04G02G26
 -16221826.30049 -12624987.30849  21626506.3894   21626509.6364   21626507.2574
       233.0004        190.0004
   1246829.35849   1136987.80849  24386184.3864   24386183.7154   24386183.5884
       212.0004        140.0004
 -20243142.78349 -15762376.84849  20590340.0154   20590343.2584   20590339.7114
       241.0004        198.0004
 -19927812.00149 -15497793.88149  21167791.8664   21167796.4884   21167792.4834
       241.0004        196.0004
 -12524745.97249  -9456765.76549  22413440.6634   22413442.7544   22413440.2474
       229.0004        163.0004
 -22861361.68349 -17797486.58249  20568387.2284   20568389.6204   20568387.6434
       240.0004        204.0004
    714567.16749   1075800.01849  24226513.1374   24226521.8544   24226514.2324
       213.0004        143.0004
 -15383971.96549 -11711500.79949  21983630.3044   21983631.3184   21983630.0254
       228.0004        176.0004
  -3457994.73349  -2673761.41749  23626289.5684   23626294.7744   23626289.7184
       208.0004        144.0004
 11 10 13  0  3  0.0000000  0  9G05G16G10G08G13G07G04G02G26
 -16290060.14149 -12678156.51749  21613522.5954   21613525.9424   21613523.3294
       234.0004        191.0004
   1298076.46449   1176920.63049  24395935.4314   24395936.6324   24395934.9014
       209.0004        141.0004
 -20193918.91149 -15724020.59849  20599707.4404   20599710.6714   20599706.7304
       241.0004        197.0004
 -19987576.95849 -15544363.94849  21156420.5904   21156423.4424   21156419.6024
       242.0004        196.0004
 -12437948.41049  -9389131.30849  22429957.1604   22429960.3014   22429957.7094
       226.0004        161.0004
 -22856163.53849 -17793436.07849  20569377.3284   20569379.1394   20569377.6164
       242.0004        205.0004
    823890.08149   1160986.64549  24247318.5624   24247322.9894   24247318.0444
       210.0004        144.0004
 -15326128.54149 -11666428.02249  21994636.9824   21994638.0144   21994637.4044
       228.0004        174.0004
  -3565596.73749  -2757607.07749  23605815.1584   23605818.8834   23605815.6774
       215.0004        146.0004
 11 10 13  0  3 30.0000000  0  9G05G16G10G08G13G07G04G02G26
 -16357930.03449 -12731042.14149  21600607.3804   21600610.8584   21600608.3704
       234.0004        193.0004
   1349852.79649   1217265.81049  24405789.8004   24405790.6504   24405788.8644
       211.0004        141.0004
 -20144227.12049 -15685299.72549  20609163.3794   20609166.4574   20609162.5104
       242.0004        198.0004
 -20046874.39849 -15590569.73149  21145135.1484   21145138.9794   21145135.0974
       241.0004        196.0004
 -12350974.00449  -9321359.07549  22446508.3544   22446510.2484   22446507.4634
       225.0004        161.0004
 -22850403.39249 -17788947.64949  20570472.7464   20570475.1304   20570473.4064
       241.0004        204.0004
    933269.67149   1246217.45549  24268132.1264   24268135.9734   24268126.7224
       204.0004        133.0004
 -15267780.09849 -11620961.72149  22005740.7924   22005742.3094   22005740.9184
       227.0004        175.0004
  -3673054.32849  -2841340.23549  23585365.7984   23585368.6184   23585365.4274
       215.0004        146.0004
 11 10 13  0  4  0.0000000  0  9G05G16G10G08G13G07G04G02G26
 -16425433.10449 -12783641.93049  21587761.8024   21587765.2804   21587761.8994
       233.0004        191.0004
   1402157.54649   1258022.75749  24415741.1444   24415744.8934   24415741.4404
       211.0004        144.0004
 -20094067.36849 -15646214.21549  20618708.2794   20618711.4274   20618707.9654
       241.0004        197.0004
 -20105702.07449 -15636409.45449  21133942.1204   21133944.5884   21133941.0664
       242.0004        196.0004
 -12263822.98649  -9253449.22749  22463091.6944   22463095.2614   22463091.3424
       226.0004        162.0004
 -22844081.33549 -17784021.35849  20571676.6924   20571678.1354   20571676.4114
       242.0004        204.0004
   1042703.77949   1331490.81049  24288954.8334   24288960.4864   24288954.2114
       203.0004        133.0004
 -15208928.28649 -11575103.17749  22016939.4144   22016941.4684   22016939.4864
       227.0004        175.0004
  -3780365.79849  -2924959.53449  23564942.8704   23564949.2484   23564944.9154
       209.0004        144.0004
 11 10 13  0  4 30.0000000  0  9G05G16G10G08G13G07G04G02G26
 -16492568.22249 -12835954.99549  21574985.9094   21574988.9864   21574987.1144
       235.0004        191.0004
   1454988.19549   1299189.52149  24425794.5554   24425797.3884   24425795.2544
       210.0004        142.0004
 -20043440.91549 -15606765.03649  20628342.0364   20628345.3214   20628341.7184
       241.0004        197.0004
 -20164059.17849 -15681882.50249  21122835.7764   21122839.3894   21122835.6294
       241.0004        196.0004
 -12176497.11849  -9185403.11649  22479709.0354   22479712.4334   22479709.3284
       225.0004        161.0004
 -22837198.93449 -17778658.44849  20572985.3064   20572987.8984   20572985.9084
       241.0004        204.0004
   1152189.14349   1416804.06849  24309789.3634   24309797.2594   24309790.5774
       206.0004        143.0004
 -15149575.60449 -11528854.36349  22028235.5104   22028235.6134   22028234.4584
       231.0004        175.0004
  -3887530.00849  -3008464.03749  23544550.6714   23544556.2414   23544551.3074
       209.0004        146.0004
 11 10 13  0  5  0.0000000  0  9G05G16G10G08G13G07G04G02G26
 -16559332.46049 -12887979.07249  21562281.5194   21562284.8264   21562282.0614
       234.0004        192.0004
   1508343.40149   1340765.01049  24435948.5094   24435950.1684   24435948.2484
       212.0004        142.0004
 -19992348.28149 -15566952.59949  20638065.3044   20638068.4064   20638064.5734
       241.0004        197.0004
 -20221944.02649 -15726987.54849  21111821.8704   21111824.3614   21111821.0244
       242.0004        196.0004
 -12088996.70649  -9117221.02049  22496361.5674   22496364.3014   22496360.5594
       226.0004        161.0004
 -22829755.84449 -17772858.62349  20574402.0314   20574403.9724   20574402.0404
       241.0004        204.0004
   1261723.83749   1502155.69049  24330630.3724   24330641.2054   24330631.7824
       200.0004        136.0004
 -15089724.14849 -11482216.87949  22039623.8504   22039625.1614   22039623.9954
       229.0004        174.0004
  -3994545.14049  -3091852.43849  23524187.0444   23524191.1154   23524188.2804
       211.0004        145.0004
 11 10 13  0  5 30.0000000  0  9G05G16G10G08G13G07G04G02G26
 -16625724.82949 -12939713.37549  21549647.4574   21549650.6294   21549648.0714
       235.0004        193.0004
   1562220.67949   1382747.28149  24446201.3864   24446200.7184   24446200.4624
       212.0004        141.0004
 -19940791.44449 -15526778.44549  20647875.4384   20647878.4954   20647875.0454
       240.0004        197.0004
 -20279356.15749 -15771724.24549  21100895.3424   21100899.1024   21100895.1384
       241.0004        196.0004
 -12001324.24949  -9048904.83449  22513044.6684   22513047.8394   22513044.7634
       224.0004        160.0004
 -22821753.67449 -17766623.16049  20575924.5014   20575927.0874   20575925.0034
       241.0004        204.0004
   1371304.04249   1587542.82549  24351485.7464   24351491.9174   24351487.1584
       208.0004        132.0004
 -15029377.07749 -11435193.21949  22051106.4314   22051108.1644   22051108.1184
       226.0004        173.0004
  -4101411.13749  -3175124.57049  23503850.7704   23503856.0394   23503852.2504
       210.0004        145.0004
 11 10 13  0  6  0.0000000  0  9G05G16G10G08G13G07G04G02G26
 -16691742.56349 -12991155.74949  21537085.0754   21537088.2444   21537085.1944
       235.0004        193.0004
   1616618.69049   1425135.33349  24456552.0574   24456554.0304   24456551.7694
       211.0004        141.0004
 -19888770.75549 -15486242.84949  20657774.7564   20657778.0814   20657774.1324
       240.0004        196.0004
 -20336293.98849 -15816091.37349  21090060.4874   21090064.4264   21090060.7224
       241.0004        196.0004
 -11913480.30249  -8980455.02349  22529759.0744   22529763.2394   22529759.8264
       223.0004        159.0004
 -22813193.24249 -17759952.68249  20577554.1374   20577556.0294   20577554.1014
       241.0004        204.0004
   1480927.52549   1672963.80349  24372345.4144   24372352.9774   24372344.9484
       201.0004        137.0004
 -14968536.27149 -11387784.80449  22062685.5364   22062686.5584   22062685.5294
       229.0004        174.0004
  -4208126.28049  -3258279.16649  23483545.5134   23483550.1244   23483546.1294
       213.0004        150.0004
 11 10 13  0  6 30.0000000  0  9G05G16G10G08G13G07G04G02G26
 -16757383.28049 -13042304.35649  21524593.8704   21524596.7204   21524594.8434
       236.0004        192.0004
   1671535.94249   1467927.98549  24467002.6794   24467004.1254   24467003.2944
       212.0004        142.0004
 -19836286.69349 -15445346.19449  20667762.2624   20667765.3714   20667761.6834
       240.0004        196.0004
 -20392755.73549 -15860087.51649  21079316.5014   21079319.8184   21079316.6264
       242.0004        197.0004
 -11825465.83949  -8911872.36849  22546509.3694   22546511.4954   22546509.0714
       226.0004        163.0004
 -22804074.20949 -17752846.94349  20579288.5824   20579291.1314   20579289.5564
       241.0004        204.0004
   1590591.96449   1758416.56149  24393214.7374   24393222.8294   24393214.5634
       203.0004        138.0004
 -14907203.96349 -11339993.41649  22074357.3524   22074357.2504   22074357.0644
       229.0004        174.0004
  -4314688.63849  -3341314.74249  23463265.1324   23463269.1064   23463265.4714
       208.0004        144.0004
 11 10 13  0  7  0.0000000  0  9G05G16G10G08G13G07G04G02G26
 -16822645.38449 -13093157.94149  21512175.1694   21512177.4884   21512175.8154
       235.0004        192.0004
   1726969.72349   1511123.11349  24477551.9224   24477553.2054   24477551.4914
       211.0004        141.0004
 -19783340.54249 -15404089.46049  20677838.4594   20677840.4624   20677837.0064
       241.0004        196.0004
 -20448740.41849 -15903711.92449  21068663.8174   21068666.5784   21068662.8114
       241.0004        197.0004
 -11737282.53049  -8843158.12949  22563290.8504   22563292.0184   22563290.8924
       226.0004        163.0004
 -22794398.37849 -17745307.32749  20581130.0764   20581132.4044   20581130.3904
       240.0004        204.0004
   1700294.38149   1843898.85049  24414091.8644   24414094.1364   24414092.1544
       206.0004        138.0004
 -14845382.86449 -11291821.13749  22086119.8644   22086121.6054   22086120.2604
       228.0004        173.0004
  -4421097.64649  -3424230.79449  23443014.4094   23443018.8764   23443017.2784
       208.0004        143.0004
 11 10 13  0  7 30.0000000  0  9G05G16G10G08G13G07G04G02G26
 -16887526.55749 -13143714.68649  21499827.5634   21499831.5534   21499828.4174
       235.0004        193.0004
   1782918.27349   1554719.38649  24488197.5344   24488199.6754   24488197.1704
       210.0004        141.0004
 -19729933.11249 -15362473.29649  20688000.3824   20688004.0324   20688000.1844
       241.0004        196.0004
 -20504247.06549 -15946963.83949  21058100.0084   21058103.7384   21058100.2514
       241.0004        197.0004
 -11648931.43949  -8774313.15449  22580102.0154   22580104.6394   22580102.5184
       225.0004        162.0004
 -22784166.17349 -17737334.17349  20583077.0904   20583079.3404   20583077.4074
       241.0004        203.0004
   1810031.96749   1929408.69949  24434975.7964   24434978.9904   24434976.5924
       211.0004        138.0004
 -14783075.14149 -11243269.69749  22097978.0934   22097978.7834   22097977.5154
       229.0004        173.0004
  -4527351.75149  -3507026.19449  23422797.6034   23422800.7884   23422798.2944
       212.0004        146.0004
 11 10 13  0  8  0.0000000  0  9G05G16G10G08G13G07G04G02G26
 -16952025.39249 -13193973.50949  21487555.0644   21487557.8904   21487555.4404
       237.0004        194.0004
   1839379.95149   1598715.47949  24498942.3944   24498944.8184   24498942.4444
       209.0004        141.0004
 -19676065.68049 -15320498.68049  20698251.1934   20698254.6154   20698250.7444
       240.0004        196.0004
 -20559274.73649 -15989842.52749  21047628.9974   21047632.3224   21047628.5894
       241.0004        197.0004
 -11560414.01349  -8705338.56449  22596946.8694   22596949.6454   22596945.9774
       226.0004        161.0004
 -22773379.14149 -17728928.69149  20585129.8464   20585132.6894   20585130.5114
       241.0004        204.0004
   1919801.88849   2014943.72549  24455864.0564   24455867.6874   24455862.5444
       205.0004        135.0004
 -14720283.80049 -11194341.41149  22109925.8744   22109927.7544   22109925.8814
       228.0004        172.0004
  -4633450.32849  -3589700.33849  23402609.9274   23402611.7074   23402607.9504
       213.0004        149.0004
 11 10 13  0  8 30.0000000  0  9G05G16G10G08G13G07G04G02G26
 -17016139.10749 -13243932.25049  21475356.0294   21475356.9174   21475355.3674
       238.0004        194.0004
   1896352.91449   1643109.99349  24509783.4254   24509782.9054   24509781.3614
       208.0004        139.0004
 -19621738.92949 -15278166.16449  20708589.2274   20708593.1924   20708588.7334
       241.0004        196.0004
 -20613821.57949 -16032346.53549  21037249.0234   21037252.5594   21037248.4504
       241.0004        197.0004
 -11471730.69249  -8636234.70549  22613823.7584   22613824.9214   22613823.9414
       226.0004        160.0004
 -22762036.99649 -17720090.64849  20587287.8464   20587290.6354   20587287.9664
       240.0004        203.0004
   2029602.09749   2100502.22549  24476758.2834   24476760.9924   24476758.8814
       209.0004        140.0004
 -14657010.56549 -11145037.60849  22121967.4774   22121967.9874   22121966.4264
       229.0004        173.0004
  -4739391.25349  -3672251.61949  23382447.6614   23382452.8164   23382447.2854
       211.0004        148.0004
 11 10 13  0  9  0.0000000  0  9G05G16G10G08G13G07G04G02G26
 -17079865.69849 -13293589.32549  21463227.5814   21463230.1004   21463227.7634
       237.0004        193.0004
   1953835.21149   1687901.38549  24520722.9454   24520723.7094   24520724.0674
       210.0004        138.0004
 -19566953.80049 -15235476.46949  20719014.6634   20719017.7764   20719014.1224
       241.0004        195.0004
 -20667886.26349 -16074474.84049  21026961.5054   21026963.9024   21026961.0474
       242.0004        197.0004
 -11382883.13549  -8567002.89149  22630730.5044   22630732.0094   22630730.7594
       227.0004        162.0004
 -22750140.93449 -17710820.98849  20589551.9004   20589554.3704   20589552.2774
       240.0004        203.0004
   2139429.56249   2186082.06549  24497659.2564   24497660.3604   24497659.2834
       212.0004        139.0004
 -14593258.14949 -11095360.41749  22134099.1574   22134099.8324   22134099.2474
       228.0004        173.0004
  -4845173.26249  -3754679.15549  23362318.5184   23362320.8444   23362319.0014
       213.0004        145.0004
 11 10 13  0  9 30.0000000  0  9G05G16G10G08G13G07G04G02G26
 -17143203.54449 -13342943.49049  21451175.3754   21451177.7504   21451175.8044
       238.0004        195.0004
   2011824.36949   1733087.76449  24531756.5964   24531762.0174   24531756.4484
       206.0004        139.0004
 -19511711.63849 -15192430.64249  20729526.3554   20729529.9014   20729526.5474
       240.0004        194.0004
 -20721468.44249 -16116227.16549  21016764.0864   21016768.1454   21016764.1404
       241.0004        197.0004
 -11293872.82649  -8497644.21149  22647668.8344   22647670.5734   22647668.7484
       227.0004        162.0004
 -22737692.66149 -17701121.02849  20591920.6854   20591923.0074   20591920.9474
       241.0004        203.0004
   2249281.40049   2271680.89049  24518562.3544   24518563.1894   24518561.0234
       205.0004        132.0004
 -14529029.64749 -11045312.23949  22146319.5834   22146322.0744   22146319.9554
       227.0004        173.0004
  -4950795.76049  -3836982.37849  23342221.8004   23342221.7114   23342220.4814
       215.0004        148.0004
 11 10 13  0 10  0.0000000  0  9G05G16G10G08G13G07G04G02G26
 -17206150.45249 -13391993.02449  21439197.2864   21439199.4034   21439197.2654
       239.0004        195.0004
   2070318.97749   1778667.97749  24542888.2474   24542890.9174   24542888.5224
       205.0004        136.0004
 -19456013.22449 -15149029.29649  20740125.8894   20740129.1614   20740125.5344
       241.0004        195.0004
 -20774565.87249 -16157601.76549  21006659.8334   21006663.9024   21006660.0614
       240.0004        197.0004
 -11204700.06549  -8428158.97749  22664637.3044   22664639.3384   22664637.3334
       225.0004        162.0004
 -22724692.47649 -17690991.00949  20594394.7444   20594397.1754   20594395.2214
       241.0004        204.0004
   2359155.28549   2357296.88049  24539468.6654   24539472.3374   24539471.3254
       210.0004        138.0004
 -14464327.01449 -10994894.64149  22158632.3624   22158634.7584   22158633.8824
       227.0004        172.0004
  -5056256.83349  -3919159.76249  23322151.1254   23322154.3534   23322150.5664
       213.0004        150.0004
 11 10 13  0 10 30.0000000  0  9G05G16G10G08G13G07G04G02G26
 -17268704.48749 -13440736.42649  21427293.1244   21427295.3844   21427293.3854
       238.0004        195.0004
   2129316.64149   1824640.17749  24554115.0854   24554117.1654   24554115.5424
       205.0004        135.0004
 -19399859.71849 -15105273.33349  20750811.4584   20750814.5324   20750810.8244
       241.0004        194.0004
 -20827178.25949 -16198598.40749  20996648.5074   20996652.3844   20996648.3964
       241.0004        198.0004
 -11115366.51549  -8358548.44449  22681635.9924   22681638.7994   22681636.7234
       223.0004        159.0004
 -22711141.01849 -17680431.43049  20596974.0004   20596975.7864   20596974.2184
       242.0004        204.0004
   2469048.11849   2442927.63949  24560382.4834   24560386.9184   24560383.2154
       210.0004        142.0004
 -14399153.00249 -10944109.71449  22171035.0504   22171037.3404   22171034.5824
       227.0004        173.0004
  -5161555.65949  -4001210.70749  23302110.3984   23302115.4404   23302112.0254
       212.0004        147.0004
 11 10 13  0 11  0.0000000  0  9G05G16G10G08G13G07G04G02G26
 -17330863.10649 -13489171.70849  21415464.5634   21415466.9954   21415465.0044
       238.0004        194.0004
   2188815.75149   1871003.11649  24565437.5684   24565440.6234   24565436.7924
       207.0004        136.0004
 -19343251.75049 -15061163.25049  20761583.8134   20761586.7744   20761582.9494
       241.0004        194.0004
 -20879304.49149 -16239216.23049  20986729.4834   20986732.6264   20986729.3974
       244.0004        198.0004
 -11025873.46649  -8288813.63449  22698666.5134   22698669.7314   22698667.0084
       222.0004        157.0004
 -22697039.52849 -17669443.24649  20599656.4624   20599659.1834   20599657.1324
       241.0004        204.0004
   2578957.84649   2528571.55649  24581293.9504   24581300.9404   24581294.1414
       200.0004        133.0004
 -14333509.80149 -10892959.19749  22183526.9394   22183528.3184   22183527.4314
       228.0004        173.0004
  -5266690.87449  -4083134.22049  23282107.3554   23282108.8104   23282107.7494
       217.0004        149.0004
 11 10 13  0 11 30.0000000  0  9G05G16G10G08G13G07G04G02G26
 -17392624.75649 -13537297.66649  21403711.5004   21403714.4834   21403712.1614
       238.0004        194.0004
   2248813.94449   1917754.95449  24576856.1414   24576855.0264   24576855.9004
       210.0004        136.0004
 -19286191.23249 -15016700.53649  20772442.6894   20772445.1204   20772441.9844
       241.0004        195.0004
 -20930943.36949 -16279454.29149  20976902.8994   20976905.9964   20976902.5914
       243.0004        198.0004
 -10936222.31949  -8218955.63049  22715727.2664   22715729.2214   22715728.3024
       223.0004        157.0004
 -22682388.78149 -17658027.08549  20602444.7244   20602447.6224   20602445.1964
       241.0004        204.0004
   2688881.40749   2614226.17849  24602214.0564   24602215.9824   24602214.6624
       208.0004        131.0004
 -14267400.29149 -10841445.30349  22196108.4194   22196109.7244   22196107.2074
       229.0004        172.0004
  -5371661.05149  -4164929.14849  23262132.3064   23262134.6394   23262131.6704
       215.0004        149.0004
 11 10 13  0 12  0.0000000  0  9G05G16G10G08G13G07G04G02G26
 -17453987.05749 -13585112.44549  21392035.5064   21392037.6714   21392035.7994
       238.0004        195.0004
   2309309.81449   1964894.56349  24588368.5554   24588368.6294   24588366.4164
       207.0004        135.0004
 -19228678.15249 -14971885.16249  20783386.4954   20783389.9494   20783386.3524
       241.0004        195.0004
 -20982093.22549 -16319311.30549  20967168.9334   20967172.5834   20967169.0894
       243.0004        198.0004
 -10846413.32349  -8148974.60349  22732816.8724   22732819.4164   22732817.0924
       222.0004        156.0004
 -22667189.52149 -17646183.50749  20605337.1724   20605339.5244   20605337.3614
       241.0004        203.0004
   2798816.52149   2699890.00949  24623134.9154   24623139.7624   24623135.4324
       210.0004        138.0004
 -14200826.57649 -10789569.70349  22208776.2724   22208777.4094   22208776.0414
       228.0004        172.0004
  -5476464.53949  -4246594.11649  23242186.9544   23242190.0094   23242186.3164
       212.0004        148.0004
 11 10 13  0 12 30.0000000  0  9G05G16G10G08G13G07G04G02G26
 -17514948.46449 -13632614.83149  21380434.3764   21380436.5844   21380434.6334
       237.0004        194.0004
   2370300.32949   2012419.60149  24599971.7664   24599976.1144   24599970.2604
       201.0004        132.0004
 -19170714.43749 -14926718.65049  20794416.5444   20794420.0694   20794415.9214
       241.0004        195.0004
 -21032753.69949 -16358786.97849  20957529.9164   20957532.0814   20957528.8894
       244.0004        198.0004
 -10756448.41949  -8078872.10449  22749937.1634   22749938.0264   22749936.9304
       224.0004        157.0004
 -22651443.43049 -17633913.82549  20608333.7694   20608336.1364   20608333.8254
       241.0004        203.0004
   2908759.81449   2785560.07249  24644052.7044   24644061.8384   24644051.5364
       195.0004        135.0004
 -14133792.10549 -10737335.07949  22221530.6944   22221533.1274   22221531.6824
       225.0004        171.0004
  -5581100.91349  -4328128.88549  23222276.6454   23222279.6774   23222276.4694
       216.0004        153.0004
 11 10 13  0 13  0.0000000  0  9G05G16G10G08G13G07G04G02G26
 -17575506.99049 -13679803.28149  21368910.0014   21368912.0614   21368910.5454
       237.0004        193.0004
   2431783.62249   2060328.70449  24611673.2934   24611676.9814   24611675.5204
       206.0004        132.0004
 -19112301.18949 -14881201.85449  20805532.3504   20805535.8494   20805531.9454
       242.0004        195.0004
 -21082923.80149 -16397880.55149  20947981.3074   20947984.9734   20947981.4244
       244.0004        198.0004
 -10666328.77449  -8008649.03149  22767085.0724   22767088.4614   22767086.3724
       221.0004        155.0004
 -22635151.39549 -17621218.73149  20611433.3744   20611436.2134   20611434.0024
       240.0004        204.0004
   3018709.00449   2871234.58749  24664979.0074   24664981.1474   24664978.5654
       207.0004        133.0004
 -14066299.24749 -10684743.27649  22234375.8064   22234378.0104   22234375.0984
       228.0004        174.0004
  -5685568.73349  -4409532.35649  23202395.3114   23202398.3374   23202395.3244
       212.0004        147.0004
 11 10 13  0 13 30.0000000  0  9G05G16G10G08G13G07G04G02G26
 -17635660.22949 -13726675.94949  21357464.4264   21357465.6714   21357464.3604
       238.0004        195.0004
   2493757.70249   2108620.17149  24623467.5384   24623468.9174   24623466.4314
       201.0004        130.0004
 -19053439.32149 -14835335.48149  20816733.5284   20816736.6954   20816732.8124
       241.0004        194.0004
 -21132602.20949 -16436590.98249  20938528.8844   20938531.8144   20938528.5444
       244.0004        199.0004
 -10576055.31949  -7938306.13749  22784262.7844   22784266.5494   22784263.9654
       219.0004        154.0004
 -22618314.44349 -17608099.02449  20614637.9904   20614640.0644   20614638.2734
       241.0004        204.0004
   3128661.24249   2956911.74149  24685901.5714   24685901.6864   24685899.7474
       210.0004        131.0004
 -13998350.51349 -10631796.23449  22247306.8234   22247307.2034   22247304.9554
       228.0004        173.0004
  -5789866.75949  -4490803.47649  23182547.2904   23182551.3204   23182547.9534
       214.0004        146.0004
 11 10 13  0 14  0.0000000  0  9G05G16G10G08G13G07G04G02G26
 -17695405.61649 -13773230.78349  21346093.8054   21346097.4914   21346094.4094
       236.0004        194.0004
   2556221.21549   2157292.99149  24635350.9334   24635352.9214   24635352.3834
       200.0004        128.0004
 -18994129.20149 -14789119.82349  20828019.0954   20828022.9604   20828019.1394
       242.0004        195.0004
 -21181786.97049 -16474916.74449  20929168.4214   20929171.8094   20929168.1284
       243.0004        198.0004
 -10485628.47649  -7867843.67249  22801472.1154   22801475.0554   22801472.6344
       222.0004        157.0004
 -22600932.66049 -17594554.76949  20617945.5694   20617947.8024   20617945.8554
       241.0004        204.0004
   3238615.09149   3042590.17549  24706821.0634   24706830.2614   24706826.0514
       193.0004        133.0004
 -13929947.70149 -10578495.35049  22260322.3104   22260322.8894   22260322.7344
       227.0004        170.0004
  -5893992.38849  -4571940.33149  23162734.2354   23162736.9054   23162734.5884
       215.0004        150.0004
 11 10 13  0 14 30.0000000  0  9G05G16G10G08G13G07G04G02G26
 -17754742.38749 -13819467.21349  21334802.7864   21334805.8964   21334803.8994
       238.0004        195.0004
   2619170.98249   2206344.79949  24647332.0714   24647332.0694   24647331.4924
       203.0004        129.0004
 -18934373.36449 -14742556.85449  20839391.0504   20839393.9964   20839390.2084
       242.0004        195.0004
 -21230478.56349 -16512858.22649  20919903.2374   20919906.1484   20919902.3654
       244.0004        198.0004
 -10395050.64649  -7797263.56549  22818707.2174   22818713.0044   22818707.1024
       220.0004        156.0004
 -22583008.23649 -17580587.68149  20621356.0724   20621358.7194   20621356.6234
       241.0004        204.0004
   3348566.51149   3128266.40549  24727747.5044   24727754.2124   24727747.5494
       205.0004        139.0004
 -13861094.80449 -10524843.77249  22273424.9514   22273426.0734   22273424.9164
       226.0004        170.0004
  -5997946.17849  -4652943.18649  23142952.8484   23142955.5674   23142953.7254
       217.0004        152.0004
 11 10 13  0 15  0.0000000  0  9G05G16G10G08G13G07G04G02G26
 -17813667.98349 -13865383.26549  21323590.5674   21323592.0814   21323590.3704
       238.0004        195.0004
   2682605.59849   2255774.32349  24659402.0034   24659405.5294   24659401.3304
       201.0004        130.0004
 -18874171.82249 -14695646.57749  20850846.2984   20850850.3014   20850846.5264
       241.0004        195.0004
 -21278675.23249 -16550414.06349  20910730.9424   20910734.9164   20910731.4374
       243.0004        199.0004
 -10304322.09049  -7726566.02249  22835973.0794   22835976.5634   22835973.8584
       223.0004        155.0004
 -22564541.62849 -17566198.11249  20624870.4484   20624872.4214   20624870.7184
       241.0004        204.0004
   3458513.31949   3213939.20449  24748668.6334   24748673.5964   24748669.9614
       206.0004        136.0004
 -13791793.58449 -10470842.83649  22286613.4924   22286614.7094   22286612.2314
       227.0004        170.0004
  -6101725.57049  -4733810.18349  23123204.4634   23123207.7324   23123203.4884
       214.0004        151.0004
 11 10 13  0 15 30.0000000  0  9G05G16G10G08G13G07G04G02G26
 -17872180.87549 -13910977.71949  21312454.7284   21312457.6134   21312455.3794
       237.0004        194.0004
   2746522.00749   2305579.27149  24671566.2214   24671566.9824   24671566.8724
       199.0004        129.0004
 -18813526.56449 -14648390.55349  20862387.7424   20862390.9544   20862386.9364
       244.0004        195.0004
 -21326376.40249 -16587583.78349  20901655.3574   20901657.2504   20901654.3894
       245.0004        200.0004
 -10213444.98249  -7655752.73149  22853268.0794   22853268.9934   22853267.2224
       225.0004        158.0004
 -22545534.53149 -17551387.38249  20628487.1814   20628489.7924   20628487.4184
       241.0004        204.0004
   3568452.80049   3299606.44949  24769592.0924   24769595.2704   24769589.6904
       198.0004        126.0004
 -13722047.27549 -10416495.10049  22299883.8884   22299885.8484   22299884.1574
       226.0004        171.0004
  -6205330.37149  -4814541.18449  23103487.6764   23103491.3024   23103489.0454
       214.0004        147.0004
 11 10 13  0 16  0.0000000  0  9G05G16G10G08G13G07G04G02G26
 -17930278.10149 -13956248.27549  21301398.9164   21301402.4964   21301399.5774
       236.0004        195.0004
   2810919.13049   2355758.85949  24683821.3804   24683822.2384   24683817.6204
       203.0004        131.0004
 -18752438.02149 -14600789.10649  20874012.1124   20874015.4564   20874011.4674
       242.0004        195.0004
 -21373580.38949 -16624366.08849  20892671.5384   20892674.6334   20892671.2634
       244.0004        199.0004
 -10122419.16249  -7584823.55249  22870588.9834   22870591.8314   22870588.3884
       223.0004        158.0004
 -22525987.36549 -17536155.81849  20632207.2814   20632209.3724   20632207.8604
       242.0004        204.0004
   3678382.85549   3385266.17649  24790507.8324   24790519.2144   24790510.3024
       201.0004        132.0004
 -13651858.25049 -10361802.37049  22313240.7084   22313242.2994   22313241.2284
       225.0004        171.0004
  -6308758.43149  -4895134.42649  23083807.4494   23083811.1124   23083806.9504
       217.0004        153.0004
 11 10 13  0 16 30.0000000  0  9G05G16G10G08G13G07G04G02G26
 -17987958.05849 -14001193.67749  21290423.4664   21290426.2694   21290423.9874
       237.0004        195.0004
   2875794.22749   2406310.89949  24696165.6054   24696167.2474   24696164.8284
       205.0004        133.0004
 -18690907.40049 -14552843.19249  20885720.9804   20885724.3674   20885720.1604
       242.0004        194.0004
 -21420286.70049 -16660760.59949  20883783.8944   20883786.7944   20883783.6264
       244.0004        200.0004
 -10031246.26449  -7513779.76749  22887938.5254   22887939.9864   22887938.3424
       226.0004        158.0004
 -22505901.52449 -17520504.50149  20636029.0264   20636031.6624   20636029.5344
       241.0004        204.0004
   3788300.51949   3470916.20549  24811425.4674   24811431.2314   24811428.3334
       207.0004        142.0004
 -13581229.12049 -10306766.71549  22326681.3244   22326683.3754   22326681.0294
       226.0004        169.0004
  -6412008.63049  -4975589.04749  23064158.2974   23064161.9114   23064157.7894
       215.0004        153.0004
 11 10 13  0 17  0.0000000  0  9G05G16G10G08G13G07G04G02G26
 -18045219.02449 -14045812.61649  21279527.9254   21279529.9354   21279527.6644
       237.0004        196.0004
   2941145.30549   2457233.73649  24708601.5214   24708604.4774   24708602.5244
       203.0004        135.0004
 -18628935.92049 -14504553.74749  20897514.2224   20897516.8434   20897513.5284
       242.0004        194.0004
 -21466494.50149 -16696766.65249  20874990.0804   20874994.0704   20874989.9104
       244.0004        200.0004
  -9939927.37449  -7442622.20549  22905317.2784   22905316.9064   22905317.8134
       225.0004        158.0004
 -22485278.17449 -17504434.35549  20639954.0304   20639956.3054   20639954.3684
       242.0004        204.0004
   3898203.23949   3556554.69949  24832335.8414   24832350.2224   24832339.0684
       190.0004        127.0004
 -13510162.92649 -10251390.47749  22340204.3074   22340205.8754   22340204.1324
       225.0004        166.0004
  -6515079.76749  -5055904.18549  23044545.1114   23044547.5584   23044545.9404
       217.0004        150.0004
 11 10 13  0 17 30.0000000  0  9G05G16G10G08G13G07G04G02G26
 -18102058.74249 -14090103.29049  21268710.1714   21268713.4544   21268710.5424
       237.0004        195.0004
   3006970.18249   2508525.80349  24721126.4814   24721128.2344   24721129.3154
       201.0004        132.0004
 -18566524.76849 -14455921.70249  20909390.5474   20909393.5964   20909389.9144
       242.0004        194.0004
 -21512202.42449 -16732383.20349  20866293.9504   20866296.1294   20866293.0444
       245.0004        200.0004
  -9848463.31549  -7371351.52849  22922720.1914   22922724.0264   22922720.2114
       222.0004        156.0004
 -22464118.16949 -17487946.03549  20643979.8684   20643982.8164   20643980.3854
       241.0004        204.0004
   4008088.66449   3642179.65849  24853250.5864   24853255.1074   24853252.4094
       202.0004        127.0004
 -13438662.04349 -10195675.52849  22353810.5994   22353811.7664   22353810.5934
       224.0004        166.0004
  -6617970.41949  -5136078.66249  23024964.5164   23024968.9314   23024965.2644
       216.0004        152.0004
 11 10 13  0 18  0.0000000  0  9G05G16G10G08G13G07G04G02G26
 -18158475.75249 -14134064.59049  21257974.7044   21257977.6414   21257975.3604
       238.0004        196.0004
   3073266.19549   2560185.02849  24733742.0994   24733744.7634   24733742.0054
       202.0004        131.0004
 -18503675.83949 -14406948.52449  20921350.0124   20921353.1904   20921349.3044
       242.0004        194.0004
 -21557410.25549 -16767610.06649  20857689.7244   20857692.6934   20857689.4644
       244.0004        200.0004
  -9756855.88549  -7299969.15449  22940152.0144   22940155.1574   22940153.1424
       222.0004        155.0004
 -22442423.41249 -17471041.02649  20648108.8354   20648110.8864   20648109.4464
       242.0004        204.0004
   4117953.22349   3727788.44549  24874156.4874   24874163.8094   24874157.7064
       205.0004        139.0004
 -13366729.63849 -10139624.31949  22367498.7374   22367500.3584   22367499.0614
       223.0004        169.0004
  -6720679.85749  -5216111.94049  23005418.9754   23005423.4954   23005420.5174
       216.0004        153.0004
 11 10 13  0 18 30.0000000  0  9G05G16G10G08G13G07G04G02G26
 -18214467.72149 -14177694.69349  21247321.1204   21247323.2974   21247320.9124
       238.0004        197.0004
   3140031.22849   2612209.71649  24746447.9444   24746447.9984   24746449.6774
       206.0004        132.0004
 -18440389.74649 -14357634.71049  20933393.2844   20933396.1524   20933392.2594
       242.0004        193.0004
 -21602116.49149 -16802446.07749  20849182.4624   20849185.9164   20849182.4044
       244.0004        200.0004
  -9665105.72249  -7228475.53649  22957613.6404   22957615.5894   22957613.2194
       222.0004        155.0004
 -22420194.55049 -17453719.82249  20652338.8484   20652341.0324   20652339.2684
       241.0004        203.0004
   4227795.34049   3813379.64349  24895060.8234   24895066.4294   24895059.0384
       197.0004        133.0004
 -13294367.96649 -10083238.62849  22381269.7074   22381271.1434   22381270.2354
       226.0004        169.0004
  -6823206.16449  -5296002.54649  22985911.6914   22985913.0444   22985911.2404
       216.0004        154.0004
 11 10 13  0 19  0.0000000  0  9G05G16G10G08G13G07G04G02G26
 -18270032.34849 -14220991.79549  21236746.2974   21236749.2684   21236746.8794
       238.0004        196.0004
   3207263.42649   2664598.39849  24759242.0674   24759243.8244   24759239.6084
       204.0004        133.0004
 -18376667.58749 -14307981.09949  20945518.2224   20945521.8054   20945517.9964
       241.0004        193.0004
 -21646320.23149 -16836890.53049  20840770.3214   20840774.1464   20840770.2384
       243.0004        200.0004
  -9573213.60249  -7156871.30849  22975097.5244   22975100.1994   22975098.3804
       219.0004        154.0004
 -22397432.50849 -17435983.16149  20656669.9634   20656673.0374   20656670.4764
       241.0004        204.0004
   4337612.57549   3898951.34949  24915954.5284   24915968.3034   24915954.5234
       200.0004        126.0004
 -13221579.87249 -10026520.67449  22395120.9234   22395121.4854   22395120.9964
       224.0004        167.0004
  -6925548.01349  -5375749.38649  22966434.8324   22966439.3594   22966435.1494
       218.0004        152.0004
 11 10 13  0 19 30.0000000  0  9G05G16G10G08G13G07G04G02G26
 -18325168.72049 -14263955.20249  21226254.7554   21226256.2204   21226254.8974
       238.0004        195.0004
   3274959.80549   2717348.76149  24772124.2004   24772126.3154   24772123.7594
       202.0004        130.0004
 -18312511.26049 -14257989.17849  20957727.2174   20957731.0934   20957726.7774
       241.0004        193.0004
 -21690021.59349 -16870943.52449  20832454.5234   20832458.0044   20832454.6014
       243.0004        200.0004
  -9481182.04349  -7085158.43049  22992611.8494   22992615.7054   22992611.6034
       221.0004        155.0004
 -22374139.58449 -17417832.83049  20661102.9014   20661104.5284   20661103.4214
       241.0004        203.0004
   4447401.17849   3984501.00549  24936847.3584   24936845.4294   24936846.8834
       207.0004        124.0004
 -13148368.56749  -9969472.92549  22409052.1434   22409052.2604   22409052.0854
       224.0004        165.0004
  -7027704.95649  -5455352.12949  22946995.3064   22946998.2834   22946994.9604
       217.0004        155.0004
 11 10 13  0 20  0.0000000  0  9G05G16G10G08G13G07G04G02G26
 -18379874.03649 -14306582.71749  21215844.1194   21215846.6124   21215845.0514
       239.0004        197.0004
   3343118.75049   2770459.61649  24785094.1194   24785095.7524   24785095.1434
       200.0004        130.0004
 -18247921.38849 -14207659.43149  20970018.7184   20970021.8564   20970018.1204
       241.0004        193.0004
 -21733218.88449 -16904603.73149  20824233.8754   20824237.7814   20824233.8504
       242.0004        200.0004
  -9389010.92749  -7013336.83549  23010153.0034   23010153.6434   23010151.5114
       222.0004        155.0004
 -22350316.17349 -17399269.12149  20665636.3254   20665638.5354   20665636.9954
       242.0004        204.0004
   4557159.50449   4070027.07349  24957735.2424   24957744.4854   24957735.2344
       199.0004        135.0004
 -13074736.45249  -9912097.27049  22423063.4974   22423064.6814   22423063.9954
       225.0004        167.0004
  -7129674.80949  -5534809.15149  22927591.3984   22927593.9024   22927590.5174
       217.0004        151.0004
 11 10 13  0 20 30.0000000  0  9G05G16G10G08G13G07G04G02G26
 -18434146.02549 -14348872.57349  21205517.2384   21205519.8144   21205517.4104
       239.0004        198.0004
   3411738.23949   2823929.35549  24798151.9154   24798154.2204   24798151.1584
       205.0004        132.0004
 -18182898.91249 -14156992.59049  20982391.5404   20982394.7764   20982390.8834
       240.0004        192.0004
 -21775910.89249 -16937870.21649  20816110.3504   20816113.7484   20816110.2134
       243.0004        200.0004
  -9296701.22049  -6941407.22749  23027717.2154   23027719.8984   23027718.5384
       223.0004        156.0004
 -22325962.88149 -17380292.52649  20670270.2624   20670272.6844   20670270.7994
       242.0004        204.0004
   4666885.59549   4155527.65349  24978613.7444   24978621.9424   24978616.2604
       200.0004        132.0004
 -13000686.19549  -9854395.78049  22437156.4604   22437157.0104   22437156.1664
       227.0004        167.0004
  -7231455.90449  -5614119.04049  22908221.3224   22908225.6514   22908220.8044
       214.0004        151.0004
 11 10 13  0 21  0.0000000  0  9G05G16G10G08G13G07G04G02G26
 -18487983.49149 -14390823.83149  21195271.9414   21195274.7004   21195271.8564
       239.0004        197.0004
   3480815.24049   2877755.53849  24811296.8764   24811301.5054   24811297.8914
       204.0004        133.0004
 -18117445.96349 -14105990.32049  20994847.7884   20994849.9284   20994846.9254
       239.0004        192.0004
 -21818097.85149 -16970743.14949  20808082.6854   20808085.8914   20808082.1214
       243.0004        200.0004
  -9204254.53349  -6869370.89249  23045309.1694   23045311.6964   23045309.9334
       222.0004        156.0004
 -22301081.95949 -17360904.78649  20675005.3504   20675006.8054   20675005.6904
       241.0004        203.0004
   4776575.61549   4241000.35949  24999491.0814   24999490.2474   24999492.5884
       213.0004        130.0004
 -12926221.16449  -9796371.11149  22451325.9384   22451327.2594   22451325.8764
       224.0004        167.0004
  -7333047.88949  -5693281.58149  22888890.7374   22888893.4784   22888889.3784
       219.0004        153.0004
 11 10 13  0 21 30.0000000  0  9G05G16G10G08G13G07G04G02G26
 -18541384.70649 -14432435.17449  21185110.5134   21185112.1144   21185111.0784
       240.0004        198.0004
   3550347.27249   2931936.27349  24824528.4064   24824530.2064   24824528.1074
       203.0004        134.0004
 -18051564.05949 -14054653.79349  21007384.0354   21007387.4974   21007383.3784
       238.0004        192.0004
 -21859779.05549 -17003221.99249  20800150.2244   20800153.8524   20800150.4514
       243.0004        200.0004
  -9111671.93649  -6797228.65649  23062928.3124   23062930.4644   23062928.3874
       221.0004        152.0004
 -22275675.42949 -17341107.48149  20679840.0744   20679842.1154   20679840.0364
       241.0004        203.0004
   4886227.10749   4326443.30349  25020358.3974   25020358.2844   25020356.7424
       201.0004        128.0004
 -12851344.19249  -9738025.46649  22465573.4234   22465575.0694   22465574.2324
       224.0004        167.0004
  -7434449.57449  -5772295.85349  22869593.3324   22869596.4174   22869594.7404
       217.0004        154.0004
 11 10 13  0 22  0.0000000  0  9G05G16G10G08G13G07G04G02G26
 -18594346.87349 -14473704.39349  21175030.7794   21175033.6484   21175031.6864
       237.0004        197.0004
   3620333.16249   2986470.71449  24837847.7134   24837848.2064   24837845.3424
       204.0004        134.0004
 -17985253.29149 -14002983.09249  21020002.5854   21020006.2474   21020001.7604
       238.0004        192.0004
 -21900952.54049 -17035305.21449  20792316.0554   20792319.1494   20792315.8154
       243.0004        201.0004
  -9018953.61649  -6724980.63149  23080571.1494   23080575.2534   23080571.3594
       218.0004        150.0004
 -22249742.64349 -17320900.11349  20684775.0464   20684776.8484   20684775.3104
       242.0004        203.0004
   4995838.98349   4411855.05349  25041214.1164   25041228.0844   25041212.9994
       200.0004        127.0004
 -12776057.10749  -9679360.23249  22479901.2904   22479902.1234   22479901.6974
       226.0004        165.0004
  -7535658.70549  -5851160.05649  22850335.9534   22850338.1434   22850335.2864
       217.0004        155.0004
 11 10 13  0 22 30.0000000  0  9G05G16G10G08G13G07G04G02G26
 -18646868.99349 -14514630.70749  21165036.6424   21165040.0184   21165036.9574
       239.0004        197.0004
   3690769.18549   3041355.90549  24851250.6024   24851253.1744   24851251.6934
       204.0004        134.0004
 -17918516.01949 -13950980.05049  21032702.2414   21032705.6084   21032701.1794
       238.0004        191.0004
 -21941618.30949 -17066992.80949  20784577.4414   20784580.6104   20784577.3024
       244.0004        201.0004
  -8926101.90249  -6652628.70749  23098240.0284   23098244.2744   23098241.1354
       217.0004        150.0004
 -22223286.35649 -17300284.81849  20689808.5794   20689811.5664   20689809.1214
       241.0004        203.0004
   5105406.95149   4497232.47849  25062064.0444   25062067.5494   25062065.2494
       211.0004        140.0004
 -12700363.80349  -9620378.43149  22494305.3554   22494306.6734   22494305.1614
       225.0004        167.0004
  -7636674.90649  -5929873.94949  22831111.1694   22831114.2644   22831110.1064
       216.0004        150.0004
 11 10 13  0 23  0.0000000  0  9G05G16G10G08G13G07G04G02G26
 -18698948.20249 -14555211.90749  21155126.5274   21155129.2834   21155127.2414
       239.0004        198.0004
   3761654.15649   3096590.91549  24864739.4284   24864740.7484   24864740.2464
       207.0004        136.0004
 -17851352.97649 -13898645.23549  21045482.1664   21045486.2074   21045482.0224
       237.0004        190.0004
 -21981774.95449 -17098283.67949  20776936.0424   20776939.1314   20776935.7984
       244.0004        201.0004
  -8833117.07849  -6580173.02549  23115935.2504   23115937.6244   23115935.8824
       218.0004        148.0004
 -22196306.77049 -17279261.76649  20694943.5844   20694945.1614   20694943.9834
       243.0004        203.0004
   5214929.39349   4582574.73049  25082906.1064   25082911.3644   25082903.1094
       197.0004        124.0004
 -12624266.57949  -9561081.91749  22508785.1824   22508786.9544   22508785.7624
       221.0004        166.0004
  -7737496.00849  -6008435.82449  22811925.8234   22811928.5024   22811925.8504
       216.0004        154.0004
 11 10 13  0 23 30.0000000  0  9G05G16G10G08G13G07G04G02G26
 -18750583.26249 -14595447.02149  21145300.7664   21145302.9474   21145301.3754
       239.0004        198.0004
   3832985.20449   3152173.50849  24878314.2474   24878315.2404   24878312.5894
       208.0004        136.0004
 -17783765.81849 -13845979.94649  21058344.8194   21058347.4744   21058343.4554
       239.0004        190.0004
 -22021422.56549 -17129177.90549  20769390.9084   20769394.5374   20769390.9544
       244.0004        201.0004
  -8740000.36049  -6507614.56049  23133653.9464   23133656.4974   23133654.7374
       218.0004        150.0004
 -22168806.37249 -17257832.87349  20700176.0964   20700178.7024   20700176.3994
       241.0004        203.0004
   5324404.01649   4667879.69649  25103736.9254                   25103734.9964
       195.0004        121.0004
 -12547768.43249  -9501473.01549  22523341.8394   22523344.6034   22523343.5994
       222.0004        167.0004
  -7838121.25949  -6086845.07049  22792777.0444   22792782.0074   22792776.8314
       216.0004        156.0004
 11 10 13  0 24  0.0000000  0  9G05G16G10G08G13G07G04G02G26
 -18801772.16849 -14635334.48549  21135559.2174   21135562.1264   21135560.1024
       238.0004        197.0004
   3904759.73949   3208101.68949  24891971.5914   24891974.6964   24891969.7844
       205.0004        135.0004
 -17715755.75049 -13792985.09949  21071286.7714   21071289.9824   21071285.9224
       239.0004        191.0004
 -22060560.21449 -17159674.76349  20761943.3964   20761946.8104   20761943.2244
       244.0004        201.0004
  -8646752.71849  -6434954.09849  23151398.8304   23151400.9744   23151400.3744
       217.0004        147.0004
 -22140785.46749 -17235998.40349  20705508.2564   20705511.1664   20705508.7674
       242.0004        203.0004
   5433827.68949   4753144.72949  25124560.5664   25124564.0964   25124561.9294
       211.0004        138.0004
 -12470872.26949  -9441553.95749  22537975.1464   22537978.3284   22537974.5634
       223.0004        169.0004
  -7938549.24849  -6165100.60049  22773666.9374   22773670.6974   22773667.3814
       218.0004        155.0004
 11 10 13  0 24 30.0000000  0  9G05G16G10G08G13G07G04G02G26
 -18852512.98749 -14674872.77549  21125904.2544   21125906.9134   21125904.8134
       239.0004        198.0004
   3976975.63549   3264373.81349  24905713.7374   24905714.9044   24905716.5644
       206.0004        132.0004
 -17647323.88149 -13739661.57349  21084308.7394   21084311.8824   21084307.8524
       239.0004        192.0004
 -22099187.13049 -17189773.63249  20754592.9634   20754596.3884   20754592.4734
       244.0004        201.0004
  -8553375.41849  -6362192.60449  23169167.8774   23169170.1294   23169167.7424
       217.0004        147.0004
 -22112246.02549 -17213759.86949  20710938.9174   20710941.5924   20710939.2444
       241.0004        203.0004
   5543198.09849   4838368.43349  25145372.9854   25145376.2814   25145373.0144
       199.0004        134.0004
 -12393581.00249  -9381327.02449  22552682.2754   22552685.5334   22552684.5674
       224.0004        167.0004
  -8038778.56249  -6243201.33749  22754594.9264   22754597.2194   22754593.8964
       218.0004        155.0004
 11 10 13  0 25  0.0000000  0  9G05G16G10G08G13G07G04G02G26
 -18902804.27349 -14714060.78949  21116334.4914   21116336.7964   21116334.5744
       238.0004        198.0004
   4049630.24249   3320987.76049  24919538.8764   24919540.6954   24919540.6764
       200.0004        132.0004
 -17578472.04149 -13686010.82249  21097410.9904   21097414.5374   21097409.8494
       239.0004        191.0004
 -22137302.94549 -17219474.25349  20747339.4344   20747342.8564   20747339.2774
       243.0004        201.0004
  -8459869.94149  -6289331.21149  23186960.1174   23186964.8244   23186961.5014
       216.0004        144.0004
 -22083189.70949 -17191118.58549  20716469.1544   20716470.7994   20716469.4154
       243.0004        203.0004
   5652512.61449   4923548.53749  25166170.9654                   25166171.7964
       188.0004        118.0004
 -12315897.77049  -9320794.65649  22567466.7814   22567466.9384   22567466.0084
       224.0004        164.0004
  -8138808.34049  -6321146.60049  22735557.6804   22735563.3114   22735559.2904
       217.0004        156.0004
 11 10 13  0 25 30.0000000  0  9G05G16G10G08G13G07G04G02G26
 -18952643.50949 -14752896.55049  21106849.5954   21106851.8274   21106850.3904
       238.0004        197.0004
   4122721.68049   3377942.11449  24933447.7444   24933449.6964   24933448.0634
       201.0004        131.0004
 -17509201.17649 -13632033.53849  21110592.8574   21110596.2024   21110591.8974
       239.0004        191.0004
 -22174906.24849 -17248775.51049  20740183.6744   20740187.4034   20740184.2544
       244.0004        201.0004
  -8366236.24149  -6216369.91449  23204779.2764   23204782.5924   23204777.0694
       214.0004        144.0004
 -22053617.16549 -17168075.03549  20722095.4194   20722097.7764   20722096.0894
       241.0004        202.0004
   5761769.06349   5008683.39049  25186966.6254   25186969.4274   25186968.0194
       205.0004        128.0004
 -12237824.83049  -9259958.60849  22582322.4734   22582324.2544   22582322.9904
       224.0004        166.0004
  -8238636.62449  -6398934.83749  22716561.8774   22716565.7744   22716560.8234
       215.0004        156.0004
 11 10 13  0 26  0.0000000  0  9G05G16G10G08G13G07G04G02G26
 -19002029.37749 -14791379.05249  21097452.8624   21097454.1124   21097452.5224
       239.0004        198.0004
   4196246.93849   3435234.52649  24947440.1674   24947441.1094   24947439.6694
       205.0004        132.0004
 -17439513.21949 -13577731.25749  21123854.5964   21123857.3854   21123853.5384
       239.0004        191.0004
 -22211997.27449 -17277677.58449  20733125.3354   20733128.9414   20733124.8214
       242.0004        200.0004
  -8272476.30449  -6143310.27549  23222622.7544   23222623.5744   23222622.3964
       219.0004        146.0004
 -22023530.45649 -17144630.84349  20727821.4004   20727823.4144   20727822.0344
       243.0004        203.0004
   5870964.62249   5093770.88649  25207746.7794   25207751.1574   25207744.3214
       205.0004        135.0004
 -12159365.71549  -9198821.66349  22597254.9124   22597255.1014   22597253.6844
       224.0004        166.0004
  -8338262.45849  -6476565.29849  22697603.7414   22697607.6244   22697603.5854
       219.0004        156.0004
 11 10 13  0 26 30.0000000  0  9G05G16G10G08G13G07G04G02G26
 -19050959.41949 -14829506.35349  21088141.0714   21088143.4944   21088141.5854
       238.0004        198.0004
   4270203.93849   3492863.36349  24961514.0794   24961516.1144   24961512.7694
       207.0004        133.0004
 -17369409.34549 -13523104.87949  21137193.9054   21137197.2704   21137193.7314
       238.0004        191.0004
 -22248575.27349 -17306179.90649  20726165.8534   20726168.3924   20726165.6934
       245.0004        201.0004
  -8178590.75649  -6070152.74649  23240487.0314   23240489.3354   23240488.0414
       216.0004        144.0004
 -21992930.64049 -17120786.82449  20733644.2614   20733646.6674   20733644.6514
       242.0004        202.0004
   5980096.77949   5178808.86449  25228511.2554   25228519.7994   25228510.8124
       193.0004        130.0004
 -12080523.06449  -9137385.87749  22612257.3444   22612259.0534   22612257.1674
       224.0004        166.0004
  -8437684.57849  -6554037.07349  22678685.3924   22678688.1934   22678686.0204
       222.0004        159.0004
 11 10 13  0 27  0.0000000  0  9G05G16G10G08G13G07G04G02G26
 -19099431.87449 -14867277.09349  21078916.7524   21078919.9944   21078916.5994
       237.0004        198.0004
   4344590.57149   3550826.95249  24975669.9264   24975670.9754   24975668.8954
       207.0004        133.0004
 -17298890.32449 -13468155.00749  21150613.4464   21150616.7614   21150612.7744
       239.0004        191.0004
 -22284639.06949 -17334281.54349  20719301.8524   20719305.8014   20719301.8134
       242.0004        201.0004
  -8084580.09749  -5996897.74349  23258377.9984   23258377.8934   23258379.1544
       215.0004        139.0004
 -21961818.90349 -17096543.90549  20739564.6694   20739566.3184   20739564.7404
       242.0004        202.0004
   6089163.89149   5263796.01949  25249265.2054   25249270.6944   25249265.5394
       198.0004        127.0004
 -12001299.45649  -9075653.21949  22627333.6774   22627333.5464   22627332.7414
       225.0004        164.0004
  -8536901.09649  -6631348.62049  22659804.2904   22659808.0994   22659802.5914
       218.0004        157.0004
 11 10 13  0 27 30.0000000  0  9G05G16G10G08G13G07G04G02G26
 -19147445.96949 -14904690.66849  21069779.5244   21069782.6954   21069780.4734
       238.0004        198.0004
   4419403.45349   3609122.68749  24989904.1874   24989905.7214   24989906.3144
       207.0004        131.0004
 -17227958.70149 -13412883.63149  21164111.9694   21164114.6484   21164111.2764
       240.0004        191.0004
 -22320189.13849 -17361982.88649  20712537.6744   20712540.7554   20712537.4974
       243.0004        201.0004
  -7990446.75649  -5923547.10549  23276291.5274   23276289.5584   23276292.5704
       209.0004        132.0004
 -21930197.78949 -17071904.06949  20745580.9204   20745584.0404   20745581.8614
       241.0004        201.0004
   6198162.04549   5348729.68449  25270009.5814   25270009.7134   25270011.5554
       207.0004        128.0004
 -11921699.00349  -9013626.91449  22642480.0834   22642480.0794   22642480.1774
       223.0004        165.0004
  -8635911.61249  -6708499.64649  22640962.7304   22640966.8914   22640963.3814
       219.0004        160.0004
 11 10 13  0 28  0.0000000  0  9G05G16G10G08G13G07G04G02G26
 -19194998.74249 -14941744.78849  21060731.2824   21060733.2474   21060731.5084
       238.0004        197.0004
   4494640.91549   3667749.23049  25004221.9474   25004223.4264   25004222.8514
       203.0004        130.0004
 -17156615.00249 -13357291.16149  21177687.7364   21177691.0464   21177687.2914
       239.0004        190.0004
 -22355223.79349 -17389282.60349  20705870.8114   20705874.0454   20705870.6294
       243.0004        201.0004
  -7896190.49249  -5850100.69449  23294224.6464   23294231.5564   23294226.4694
       205.0004        132.0004
 -21898067.73649 -17046867.66749  20751696.3724   20751698.1694   20751696.6324
       242.0004        201.0004
   6307089.84349   5433608.59249  25290734.5194   25290744.0804   25290736.6144
       193.0004        126.0004
 -11841723.50349  -8951308.35249  22657700.4464   22657701.0914   22657698.7404
       224.0004        163.0004
  -8734714.22049  -6785488.64349  22622161.6244   22622166.0344   22622160.9014
       219.0004        159.0004
 11 10 13  0 28 30.0000000  0  9G05G16G10G08G13G07G04G02G26
 -19242088.50649 -14978438.10249  21051769.9894   21051772.9254   21051770.0394
       237.0004        198.0004
   4570300.35149   3726704.60449  25018620.8774   25018618.6104   25018618.3134
       204.0004        130.0004
 -17084860.45049 -13301378.54949  21191341.9474   21191345.1604   21191341.5954
       239.0004        191.0004
 -22389742.45449 -17416180.24349  20699302.2234   20699305.3894   20699301.8864
       244.0004        201.0004
  -7801812.46049  -5776559.39349  23312186.3704   23312188.3164   23312185.6494
       207.0004        129.0004
 -21865429.86349 -17021435.55149  20757906.3914   20757908.8434   20757907.0834
       241.0004        201.0004
   6415945.15749   5518430.76249  25311452.4204   25311457.9934   25311452.3704
       195.0004        127.0004
 -11761375.91249  -8888699.85849  22672986.0124   22672990.2294   22672988.1094
       221.0004        163.0004
  -8833307.13049  -6862314.28649  22603398.3094   22603403.6774   22603399.5604
       216.0004        158.0004
 11 10 13  0 29  0.0000000  0  9G05G16G10G08G13G07G04G02G26
 -19288713.71549 -15014769.43049  21042897.8764   21042900.6484   21042897.8494
       238.0004        199.0004
   4646378.98749   3785986.63149  25033097.7934   25033099.5974   25033096.8174
       202.0004        129.0004
 -17012696.99449 -13245147.31349  21205074.8624   21205077.1744   21205074.2134
       241.0004        190.0004
 -22423745.15449 -17442675.84249  20692831.1164   20692834.7224   20692831.5664
       243.0004        202.0004
  -7707314.16549  -5702924.36449  23330168.2814   23330174.8484   23330168.3354
       206.0004        128.0004
 -21832286.45649 -16995609.50949  20764213.4734   20764216.2634   20764214.0654
       241.0004        201.0004
   6524724.42149   5603193.69649  25332150.5284   25332152.2714   25332152.8144
       200.0004        129.0004
 -11680659.80349  -8825804.22749  22688350.0334   22688350.0974   22688348.3344
       223.0004        165.0004
  -8931690.01349  -6938976.24549  22584677.3324   22584682.1004   22584678.1024
       220.0004        158.0004
 11 10 13  0 29 30.0000000  0  9G05G16G10G08G13G07G04G02G26
 -19334872.13649 -15050737.02349  21034113.6764   21034116.4744   21034114.4734
       238.0004        198.0004
   4722874.94849   3845593.83849  25047653.9134   25047655.2194   25047652.8544
       206.0004        133.0004
 -16940125.61649 -13188598.20649  21218884.4224   21218887.7004   21218883.7744
       240.0004        190.0004
 -22457231.04049 -17468768.72149  20686460.2494   20686462.5934   20686459.4494
       243.0004        202.0004
  -7612696.15849  -5629196.09549  23348174.2634   23348172.4604   23348171.1504
       203.0004        129.0004
 -21798638.62349 -16969390.42949  20770616.7154   20770618.8204   20770617.4424
       242.0004        201.0004
   6633426.14549   5687896.34749  25352835.3784   25352837.8604   25352837.5954
       195.0004        124.0004
 -11599577.64349  -8762623.33849  22703777.5044   22703779.3434   22703778.3604
       221.0004        164.0004
  -9029860.71349  -7015472.87549  22565997.6654   22566001.1024   22565997.1234
       221.0004        162.0004
 11 10 13  0 30  0.0000000  0  9G05G16G10G08G13G07G04G02G26
 -19380563.10949 -15086340.38949  21025419.1984   21025421.9944   21025419.7514
       238.0004        199.0004
   4799784.74649   3905523.57449  25062290.6734   25062293.8364   25062287.9564
       208.0004        136.0004
 -16867148.86049 -13131733.22249  21232769.9684   21232774.2394   21232770.3184
       238.0004        190.0004
 -22490200.59049 -17494459.26849  20680184.6744   20680188.5914   20680185.2884
       242.0004        201.0004
  -7517960.26549  -5555375.92249  23366202.1854   23366199.3934   23366200.5524
       203.0004        127.0004
 -21764488.75649 -16942780.13349  20777115.3524   20777117.5844   20777115.7454
       242.0004        201.0004
   6742046.97549   5772536.00049  25373501.9624   25373512.5274   25373505.5844
       195.0004        123.0004
 -11518133.04249  -8699160.04049  22719277.2544   22719278.8764   22719275.1144
       222.0004        163.0004
  -9127818.80149  -7091803.82649  22547356.4594   22547362.0444   22547356.0404
       219.0004        162.0004
 11 10 13  0 30 30.0000000  0  9G05G16G10G08G13G07G04G02G26
 -19425783.70449 -15121577.20349  21016813.5274   21016817.6064   21016813.7274
       238.0004        199.0004
   4877106.75149   3965774.46649  25077004.2224   25077008.0274   25077003.8074
       207.0004        133.0004
 -16793767.15149 -13074552.71249  21246736.5834   21246738.5674   21246735.5184
       241.0004        189.0004
 -22522651.81449 -17519745.91249  20674010.2784   20674013.6874   20674009.9664
       242.0004        202.0004
  -7423106.56049  -5481464.05449  23384251.4524   23384254.4714   23384250.1234
       202.0004        126.0004
 -21729836.89049 -16915778.67049  20783709.5054   20783711.8324   20783710.1224
       243.0004        202.0004
   6850585.47449   5857111.40049  25394160.6584   25394168.3924   25394158.5064
       199.0004        131.0004
 -11436328.12749  -8635415.97949  22734842.3854   22734845.3854   22734842.4374
       221.0004        162.0004
  -9225561.91149  -7167967.24249  22528755.3914   22528759.5404   22528754.9684
       219.0004        159.0004
 11 10 13  0 31  0.0000000  0  9G05G16G10G08G13G07G04G02G26
 -19470533.15249 -15156446.90349  21008299.3154   21008301.7014   21008299.4064
       239.0004        200.0004
   4954837.46949   4026343.88749  25091792.6994   25091795.8264   25091795.1994
       199.0004        127.0004
 -16719983.30849 -13017058.83149  21260776.2004   21260778.9264   21260775.4964
       239.0004        189.0004
 -22554585.42349 -17544629.24149  20667932.6084   20667937.0134   20667933.0564
       242.0004        202.0004
  -7328137.36749  -5407462.06649  23402324.2664   23402325.7884   23402324.7524
       203.0004        127.0004
 -21694685.92749 -16888388.30449  20790397.7614   20790400.6354   20790398.5104
       241.0004        201.0004
   6959037.98449   5941619.70649  25414795.8624   25414802.5634   25414798.7794
       195.0004        128.0004
 -11354167.22249  -8571394.51449  22750477.2784   22750479.7174   22750476.3944
       218.0004        162.0004
  -9323089.91349  -7243963.10749  22510196.3074   22510200.9924   22510196.9424
       218.0004        159.0004
 11 10 13  0 31 30.0000000  0  9G05G16G10G08G13G07G04G02G26
 -19514808.66749 -15190947.30749  20999872.2674   20999875.4424   20999873.1784
       237.0004        198.0004
   5032975.20349   4087230.40349  25106663.2014   25106664.0484   25106665.4404
       198.0004        125.0004
 -16645797.32449 -12959251.59749  21274893.0164   21274896.1314   21274892.1904
       240.0004        189.0004
 -22585999.96649 -17569108.08449  20661956.3234   20661958.7624   20661955.4874
       243.0004        202.0004
  -7233052.47049  -5333369.97749  23420419.7224   23420423.4004   23420416.9194
       202.0004        124.0004
 -21659036.44649 -16860609.48349  20797182.1774   20797184.3824   20797182.4644
       242.0004        199.0004
   7067403.39249   6026060.22649  25435420.9244   25435421.7904   25435422.8994
       201.0004        125.0004
 -11271651.94049  -8507096.92949  22766177.5954   22766181.5034   22766178.7234
       218.0004        162.0004
  -9420400.35949  -7319789.39449  22491679.1324   22491684.0054   22491680.0954
       220.0004        163.0004
 11 10 13  0 32  0.0000000  0  9G05G16G10G08G13G07G04G02G26
 -19558608.78849 -15225077.27549  20991538.0944   20991540.8794   20991538.9824
       239.0004        200.0004
   5111517.35049   4148432.05949  25121611.8454   25121611.4334   25121608.8254
       201.0004        128.0004
 -16571211.26249 -12901132.62649  21289087.1984   21289089.8214   21289085.6774
       238.0004        188.0004
 -22616895.37749 -17593182.42149  20656074.6214   20656079.4404   20656075.6204
       241.0004        201.0004
  -7137852.76449  -5259188.43749  23438534.0674                   23438532.5634
       195.0004        121.0004
 -21622890.31249 -16832443.66349  20804060.7524   20804062.7514   20804061.3314
       242.0004        200.0004
   7175678.81849   6110430.73849  25456024.7064   25456028.6554   25456027.6564
       204.0004        127.0004
 -11188785.89249  -8442526.01349  22781947.2274   22781950.1914   22781948.1864
       218.0004        160.0004
  -9517492.28649  -7395445.40849  22473202.2624   22473207.7294   22473203.0054
       218.0004        160.0004
 11 10 13  0 32 30.0000000  0  9G05G16G10G08G13G07G04G02G26
 -19601932.36249 -15258835.89849  20983293.9994   20983297.0504   20983294.3274
       241.0004        200.0004
   5190460.91449   4209946.49049  25136632.4504   25136635.7274   25136632.7654
       200.0004        130.0004
 -16496226.92249 -12842703.30349  21303355.2954   21303357.9944   21303354.8124
       237.0004        187.0004
 -22647271.63249 -17616852.21049  20650296.1834   20650299.1424   20650295.1714
       242.0004        201.0004
  -7042539.84349  -5184918.63449  23456669.4754                   23456666.6314
       194.0004        119.0004
 -21586249.63649 -16803892.47749  20811032.6774   20811035.0854   20811032.8254
       241.0004        200.0004
   7283861.52349   6194728.90449  25476611.0394   25476614.0924   25476610.5784
       204.0004        128.0004
 -11105572.52649  -8377684.45349  22797781.8484   22797785.9734   22797782.4994
       219.0004        160.0004
  -9614364.86249  -7470930.51049  22454768.7914   22454772.2504   22454769.4684
       221.0004        161.0004
 11 10 13  0 33  0.0000000  0  9G05G16G10G08G13G07G04G02G26
 -19644777.67749 -15292221.85849  20975141.0694   20975143.9284   20975141.6014
       241.0004        201.0004
   5269803.58249   4271771.98149  25151730.8904   25151732.8934   25151727.2534
       200.0004        130.0004
 -16420845.71149 -12783964.71849  21317699.9644   21317703.4054   21317699.4824
       238.0004        187.0004
 -22677128.47449 -17640117.27449  20644613.4844   20644617.6564   20644613.9904
       241.0004        202.0004
  -6947114.80749  -5110561.42149  23474830.4664                   23474831.5954
       194.0004        120.0004
 -21549115.65649 -16774956.90549  20818099.6444   20818101.6934   20818099.6274
       242.0004        200.0004
   7391949.14849   6278952.92749  25497177.6774   25497184.3554   25497178.5614
       195.0004        126.0004
 -11022014.52649  -8312574.34549  22813685.7274   22813685.5454   22813685.3094
       222.0004        161.0004
  -9711016.37949  -7546243.37549  22436376.2674   22436380.8014   22436377.0174
       221.0004        163.0004
 11 10 13  0 33 30.0000000  0  9G05G16G10G08G13G07G04G02G26
 -19687142.05249 -15325233.05649  20967078.9054   20967082.0264   20967079.7174
       240.0004        200.0004
   5349543.08849   4333906.64049  25166905.5374   25166907.1194   25166907.5874
       197.0004        129.0004
 -16345068.74049 -12724917.75549  21332121.0724   21332123.4214   21332120.2214
       238.0004        187.0004
 -22706464.93649 -17662976.83249  20639031.6344   20639034.7644   20639031.3104
       243.0004        202.0004
  -6851578.61249  -5036117.66549  23493008.8884
       189.0004        120.0004
 -21511489.57249 -16745637.87449  20825258.5164   20825261.5184   20825259.3594
       241.0004        200.0004
   7499940.04549   6363101.59549  25517727.3304   25517732.4844   25517727.1714
       196.0004        123.0004
 -10938114.51449  -8247197.73149  22829649.9444   22829651.5424   22829649.9124
       219.0004        160.0004
  -9807444.97949  -7621382.52549  22418025.9634   22418031.0864   22418026.8764
       219.0004        161.0004
 11 10 13  0 34  0.0000000  0  9G05G16G10G08G13G07G04G02G26
 -19729024.04649 -15357868.37849  20959109.4984   20959111.9014   20959110.4324
       242.0004        201.0004
   5429676.62649   4396348.33849  25182154.5354   25182153.7924   25182150.9934
       199.0004        128.0004
 -16268897.43449 -12665563.51449  21346614.6304   21346618.0454   21346613.9924
       236.0004        186.0004
 -22735280.56349 -17685430.55749  20633548.0704   20633551.3564   20633547.8014
       242.0004        202.0004
  -6755931.13549  -4961587.22549  23511206.9904                   23511207.3144
       186.0004        121.0004
 -21473373.38649 -16715936.94449  20832513.4164   20832515.0484   20832513.4514
       243.0004        201.0004
   7607831.47149   6447172.81949  25538261.0144   25538262.3364   25538262.7024
       198.0004        124.0004
 -10853875.45449  -8181556.94049  22845680.4964   22845681.8004   22845680.1324
       220.0004        160.0004
  -9903649.75149  -7696347.25349  22399719.8424   22399723.8774   22399720.5434
       221.0004        162.0004
 11 10 13  0 34 30.0000000  0  9G05G16G10G08G13G07G04G02G26
 -19770422.71849 -15390127.08049  20951232.3104   20951234.4034   20951232.5134
       242.0004        201.0004
   5510201.13049   4459094.68549  25197476.7964   25197480.3974   25197476.3184
       201.0004        130.0004
 -16192334.44549 -12605904.07249  21361184.0244   21361187.5604   21361183.6054
       238.0004        187.0004
 -22763575.76049 -17707478.74849  20628164.4384   20628166.7344   20628163.9024
       243.0004        202.0004
  -6660174.71249  -4886971.91149  23529433.6964   23529439.2454   23529433.3024
       194.0004        122.0004
 -21434768.83749 -16685855.47349  20839858.2114   20839860.8814   20839858.7884
       241.0004        200.0004
   7715620.23449   6531164.01649  25558770.5064   25558779.7054   25558770.5844
       196.0004        125.0004
 -10769301.55849  -8115655.23949  22861776.1964   22861774.6394   22861775.1844
       222.0004        158.0004
  -9999630.06349  -7771137.07449  22381455.5514   22381458.9354   22381455.6564
       223.0004        162.0004
 11 10 13  0 35  0.0000000  0  9G05G16G10G08G13G07G04G02G26
 -19811335.51449 -15422007.18349  20943446.0734   20943448.7334   20943446.8624
       241.0004        202.0004
   5591115.16949   4522144.54349  25212874.1654   25212877.4124   25212873.5364
       201.0004        130.0004
 -16115380.01349 -12545939.61849  21375829.1894   21375831.6554   21375827.9324
       237.0004        186.0004
 -22791349.14949 -17729120.33549  20622878.7374   20622881.9474   20622878.3354
       243.0004        202.0004
  -6564309.22849  -4812271.57849  23547675.0834   23547677.0424   23547675.4854
       199.0004        125.0004
 -21395676.59949 -16655393.98749  20847297.9014   20847300.0054   20847298.1304
       242.0004        200.0004
   7823305.29049   6615074.38749  25579262.5564   25579269.5804   25579262.6374
       195.0004        123.0004
 -10684394.33949  -8049493.79249  22877933.6004   22877932.5214   22877931.1074
       222.0004        158.0004
 -10095383.12749  -7845749.84849  22363233.8964   22363237.9034   22363235.7214
       224.0004        163.0004
 11 10 13  0 35 30.0000000  0  9G05G16G10G08G13G07G04G02G26
 -19851761.25749 -15453507.75949  20935753.1264   20935755.8704   20935753.6994
       242.0004        201.0004
   5672415.23449   4585495.19649  25228344.5224   25228347.5404   25228342.8254
       199.0004        129.0004
 -16038036.80349 -12485672.20949  21390545.5424   21390549.6404   21390545.2204
       235.0004        186.0004
 -22818601.04149 -17750355.56549  20617692.6334   20617695.8924   20617692.3014
       242.0004        202.0004
  -6468336.37249  -4737487.59749  23565936.2784   23565938.0784   23565941.5164
       195.0004        124.0004
 -21356099.16849 -16624554.42849  20854828.7324   20854831.8284   20854829.6184
       241.0004        201.0004
   7930883.84949   6698901.75349  25599733.6794   25599740.7804   25599735.0794
       196.0004        127.0004
 -10599157.73449  -7983075.67849  22894151.5354   22894153.1634   22894151.3164
       220.0004        158.0004
 -10190908.47949  -7920185.14349  22345058.1524   22345060.1434   22345057.2304
       223.0004        164.0004
 11 10 13  0 36  0.0000000  0  9G05G16G10G08G13G07G04G02G26
 -19891698.03649 -15484627.33349  20928154.0344   20928156.1694   20928154.3364
       242.0004        202.0004
   5754098.86649   4649144.76349  25243890.0424   25243890.1334   25243890.7294
       201.0004        128.0004
 -15960305.92949 -12425102.72249  21405337.8904   21405341.1704   21405336.8224
       236.0004        185.0004
 -22845330.97349 -17771184.07149  20612606.8044   20612609.3994   20612606.2444
       243.0004        202.0004
  -6372257.13949  -4662620.67949  23584223.4494   23584224.1814   23584225.6044
       200.0004        127.0004
 -21316038.50949 -16593338.32549  20862453.3514   20862454.6904   20862453.2044
       244.0004        201.0004
   8038353.34949   6782644.13249  25620183.4564   25620192.9934   25620186.9304
       196.0004        125.0004
 -10513594.80249  -7916403.29849  22910434.3614   22910434.6394   22910433.2554
       220.0004        157.0004
 -10286204.61249  -7994441.82549  22326922.6934   22326925.5624   22326922.6604
       224.0004        164.0004
 11 10 13  0 36 30.0000000  0  9G05G16G10G08G13G07G04G02G26
 -19931144.72749 -15515365.01249  20920647.4104   20920650.2094   20920647.8314
       242.0004        202.0004
   5836163.45549   4713091.20249  25259507.0344   25259505.9534   25259507.1704
       201.0004        129.0004
 -15882188.94749 -12364232.37149  21420204.3944   21420207.0264   21420202.9104
       237.0004        186.0004
 -22871539.17149 -17791606.03049  20607619.5104   20607622.3694   20607618.7844
       243.0004        202.0004
  -6276072.52649  -4587671.64649  23602526.4034   23602529.8664   23602528.5044
       196.0004        126.0004
 -21275495.79449 -16561746.59449  20870167.4814   20870169.6944   20870168.2974
       242.0004        201.0004
   8145711.44549   6866299.72249  25640614.2934   25640622.6524   25640614.4014
       193.0004        123.0004
 -10427708.58049  -7849478.99249  22926778.1794   22926778.4174   22926775.5784
       220.0004        157.0004
 -10381270.52749  -8068519.14149  22308831.7264   22308834.5344   22308832.4714
       223.0004        163.0004
 11 10 13  0 37  0.0000000  0  9G05G16G10G08G13G07G04G02G26
 -19970099.16349 -15545719.11849  20913234.8204   20913236.8994   20913235.0534
       242.0004        202.0004
   5918606.23649   4777332.27249  25275193.3264   25275198.7754   25275195.0694
       197.0004        128.0004
 -15803687.19249 -12303062.19949  21435140.8474   21435144.8864   21435140.9934
       235.0004        185.0004
 -22897225.03749 -17811620.97949  20602730.4314   20602734.2144   20602730.4574
       242.0004        202.0004
  -6179783.25949  -4512641.08449  23620846.9144   23620853.1944   23620847.4144
       198.0004        124.0004
 -21234472.68449 -16529780.53649  20877973.9534   20877976.0464   20877974.6224
       243.0004        201.0004
   8252956.04649   6949866.85749  25661022.7824   25661028.5564   25661025.5684
       195.0004        123.0004
 -10341502.16149  -7782305.19949  22943182.2584   22943182.5914   22943181.0154
       218.0004        157.0004
 -10476104.56749  -8142415.76449  22290786.0154   22290787.6784   22290786.4704
       224.0004        164.0004
 11 10 13  0 37 30.0000000  0  9G05G16G10G08G13G07G04G02G26
 -20008559.89449 -15575688.51849  20905915.4844   20905917.9964   20905916.1034
       241.0004        201.0004
   6001425.02249   4841866.27349  25290951.9274   25290957.7804   25290954.5324
       196.0004        128.0004
 -15724802.21049 -12241593.39349  21450152.6244   21450156.5394   21450151.4514
       236.0004        185.0004
 -22922388.00649 -17831228.46949  20597942.4194   20597945.9274   20597942.1754
       242.0004        202.0004
  -6083390.46949  -4437529.86549  23639191.4854   23639194.2464   23639187.9174
       198.0004        124.0004
 -21192970.60849 -16497441.24349  20885872.1554   20885873.3654   20885872.2204
       244.0004        201.0004
   8360084.57649   7033343.56649  25681410.3894                   25681413.1254
       196.0004        120.0004
 -10254978.42249  -7714884.11549  22959645.1034   22959649.5764   22959646.1874
       216.0004        158.0004
 -10570705.24649  -8216130.53849  22272785.0014   22272787.4444   22272783.9774
       224.0004        165.0004
 11 10 13  0 38  0.0000000  0  9G05G16G10G08G13G07G04G02G26
 -20046524.70649 -15605271.49049  20898691.4074   20898693.9754   20898691.9134
       242.0004        202.0004
   6084616.90249   4906690.99649  25306786.6574   25306786.3274   25306784.2704
       200.0004        131.0004
 -15645536.09649 -12179827.63249  21465237.0594   21465240.0924   21465236.2774
       236.0004        185.0004
 -22947028.00449 -17850428.46149  20593254.0474   20593257.2154   20593253.8844
       242.0004        202.0004
  -5986894.85649  -4362338.55549  23657552.7864   23657555.5094   23657554.9124
       196.0004        125.0004
 -21150991.34849 -16464730.12549  20893860.6234   20893862.3724   20893860.7814
       244.0004        201.0004
   8467095.33649   7116728.49849  25701772.2534                   25701772.3794
       190.0004        121.0004
 -10168140.40349  -7647218.15949  22976170.8164   22976173.7764   22976169.9324
       216.0004        158.0004
 -10665071.31249  -8289662.50049  22254827.1664   22254829.9084   22254827.5794
       225.0004        165.0004
 11 10 13  0 38 30.0000000  0  9G05G16G10G08G13G07G04G02G26
 -20083993.33349 -15634467.81849  20891560.5834   20891563.7224   20891561.1984
       240.0004        201.0004
   6168178.99849   4971804.22449  25322687.5204   25322686.1974   25322684.6694
       202.0004        130.0004
 -15565890.91349 -12117766.49349  21480392.7854   21480396.2894   21480391.7144
       235.0004        186.0004
 -22971145.67249 -17869221.43449  20588664.5164   20588667.2924   20588664.3404
       242.0004        202.0004
  -5890297.74349  -4287068.14149  23675936.7214   23675938.0684   23675933.8934
       194.0004        124.0004
 -21108537.51349 -16431649.21049  20901938.4494   20901940.6294   20901938.9584
       243.0004        200.0004
   8573985.00849   7200019.03149  25722112.4274                   25722114.2254
       184.0004        119.0004
 -10080991.93849  -7579310.28849  22992755.0134   22992756.5854   22992755.2914
       220.0004        158.0004
 -10759202.02449  -8363011.06449  22236914.7484   22236916.2324   22236914.5594
       225.0004        165.0004
 11 10 13  0 39  0.0000000  0 10G28G05G16G10G08G13G07G04G02G26
    -67881.91549    -36654.07449  24478072.2554
       204.0004         74.0004
 -20120963.25549 -15663275.55349  20884526.2054   20884528.4474   20884526.5984
       241.0004        202.0004
   6252109.12249   5037204.24349  25338658.0944   25338660.1994   25338656.1634
       201.0004        131.0004
 -15485867.57149 -12055410.67949  21495620.1174   21495624.0304   21495619.6474
       237.0004        185.0004
 -22994740.03149 -17887606.63449  20584174.9714   20584177.7514   20584174.3074
       243.0004        202.0004
  -5793599.76949  -4211719.09649  23694336.1304   23694338.0264   23694336.2924
       200.0004        125.0004
 -21065610.09249 -16398199.27149  20910107.2664   20910109.6044   20910108.1944
       243.0004        201.0004
   8680752.13759   7283214.06659  25742430.0584
       178.0004        116.0004
  -9993535.40449  -7511162.39549  23009398.1124   23009399.3824   23009398.3504
       220.0004        158.0004
 -10853095.24049  -8436174.59449  22219045.5544   22219049.0914   22219046.7044
       222.0004        164.0004
 11 10 13  0 39 30.0000000  0 10G28G05G16G10G08G13G07G04G02G26
   -166828.61449   -113756.77249  24459244.1504
       205.0004        107.0004
 -20157432.76349 -15691693.35149  20877585.7454   20877588.6884   20877586.4334
       241.0004        201.0004
   6336404.81149   5102889.11349  25354699.9254   25354701.1464   25354700.6404
       201.0004        133.0004
 -15405467.63149 -11992761.42049  21510921.4654   21510923.7544   21510919.8404
       238.0004        185.0004
 -23017810.58649 -17905583.67849  20579783.8154   20579787.3814   20579784.0334
       242.0004        202.0004
  -5696801.64049  -4136292.02249  23712755.0234   23712755.9074   23712756.4444
       195.0004        127.0004
 -21022210.56849 -16364381.45149  20918366.8134   20918368.4644   20918366.8694
       244.0004        202.0004
   8787394.71849     39445.17949  25762724.3634
       191.0004         74.0004
  -9905773.83749  -7442776.76449  23026098.2984   23026099.9484   23026097.8344
       220.0004        159.0004
 -10946749.58649  -8509151.96349  22201224.1314   22201228.5064   22201224.8324
       225.0004        167.0004
 11 10 13  0 40  0.0000000  0 10G28G05G16G10G08G13G07G04G02G26
   -265709.01649   -190808.63949  24440427.1154
       207.0004        107.0004
 -20193400.77149 -15719720.37249  20870741.4204   20870744.0724   20870742.1074
       241.0004        201.0004
   6421062.67249   5168856.15049  25370809.4364   25370811.3734   25370807.3584
       203.0004        134.0004
 -15324693.04349 -11929820.21749  21526291.8434   21526294.9894   21526291.2944
       237.0004        186.0004
 -23040357.55749 -17923152.73049  20575494.2174   20575496.8984   20575493.7684
       243.0004        202.0004
  -5599904.78449  -4060787.99949  23731194.5064   23731195.1454   23731192.6174
       201.0004        126.0004
 -20978341.15349 -16330197.49949  20926714.2234   20926716.0984   20926714.7714
       243.0004        201.0004
   8893910.09849    122488.41449  25782994.1264
       184.0004        109.0004
  -9817710.67249  -7374156.16449  23042855.3774   23042857.5054   23042857.0054
       220.0004        157.0004
 -11040164.13349  -8581942.48949  22183448.8604   22183451.8434   22183448.6014
       223.0004        167.0004
 11 10 13  0 40 30.0000000  0  9G05G16G10G08G13G07G04G02G26
 -20228865.52649 -15747355.24249  20863992.8984   20863995.5024   20863993.2434
       241.0004        202.0004
   6506080.70649   5235103.88549  25386988.0364   25386987.8874   25386986.5614
       202.0004        134.0004
 -15243545.14549 -11866588.11449  21541732.9614   21541736.7994   21541732.4804
       237.0004        185.0004
 -23062380.65749 -17940313.57449  20571302.7284   20571306.0854   20571302.7234
       243.0004        202.0004
  -5502909.75249  -3985207.43949  23749651.5494   23749655.0084   23749652.4244
       200.0004        125.0004
 -20934003.39849 -16295648.58949  20935151.3994   20935153.6884   20935151.5744
       243.0004        200.0004
   9000296.29159    205456.61659  25803238.4294
       177.0004        108.0004
  -9729349.15049  -7305303.05049  23059672.1774   23059672.1784   23059672.4404
       222.0004        158.0004
 -11133337.43449  -8654545.01949  22165718.8584   22165721.7004   22165719.0834
       227.0004        167.0004
 11 10 13  0 41  0.0000000  0  9G05G16G10G08G13G07G04G02G26
 -20263825.17349 -15774596.52949  20857339.5764   20857342.8174   20857340.7854
       240.0004        202.0004
   6591456.14149   5301630.07749  25403233.4034   25403237.3704   25403233.1484
       204.0004        130.0004
 -15162025.78049 -11803066.56249  21557246.0834   21557249.7604   21557245.3554
       237.0004        185.0004
 -23083879.86149 -17957066.17649  20567212.1674   20567214.6454   20567211.2134
       243.0004        202.0004
  -5405817.69849  -3909551.37149  23768126.8064   23768131.2324   23768125.9724
       195.0004        124.0004
 -20889198.60149 -16260735.76649  20943677.3194   20943679.7914   20943678.2434
       244.0004        201.0004
   9106550.78759     32346.80259  25823458.2934
       171.0004         74.0004
  -9640691.73149  -7236219.37349  23076542.3644   23076542.4734   23076542.7304
       221.0004        157.0004
 -11226267.62749  -8726958.13249  22148034.1644   22148038.5884   22148033.9884
       225.0004        166.0004
 11 10 13  0 41 30.0000000  0  9G05G16G10G08G13G07G04G02G26
 -20298278.51749 -15801443.28649  20850783.3474   20850786.5034   20850784.4694
       240.0004        201.0004
   6677186.14249   5368432.62449  25419547.3944   25419549.3494   25419545.3744
       201.0004        130.0004
 -15080136.87049 -11739257.05749  21572829.7724   21572832.6304   21572828.1434
       237.0004        185.0004
 -23104855.01349 -17973410.44349  20563220.2684   20563223.3204   20563220.1484
       242.0004        202.0004
  -5308629.46149  -3833820.32449  23786626.8664   23786627.3674   23786621.0384
       197.0004        121.0004
 -20843929.10949 -16225460.82649  20952292.2114   20952293.9434   20952292.3904
       243.0004        200.0004
   9212671.54459    115021.20959  25843652.8214
       167.0004        110.0004
  -9551742.04049  -7166907.96249  23093468.6694   23093470.4464   23093469.4144
       220.0004        157.0004
 -11318953.85749  -8799181.13449  22130396.0254   22130399.8494   22130396.8194
       225.0004        167.0004
 11 10 13  0 42  0.0000000  0  9G05G16G10G08G13G07G04G02G26
 -20332224.11849 -15827894.40849  20844324.1464   20844326.8264   20844324.3924
       239.0004        201.0004
   6763267.83249   5435509.19349  25435928.2154   25435931.5414   25435928.5504
       200.0004        129.0004
 -14997879.90949 -11675160.75549  21588481.2824   21588485.7924   21588481.2404
       236.0004        185.0004
 -23125306.11349 -17989346.35449  20559328.2694   20559331.4114   20559328.0034
       242.0004        202.0004
  -5211345.98849  -3758015.06649  23805138.4554                   23805138.9714
       194.0004        121.0004
 -20798196.51449 -16189825.04649  20960994.0724   20960996.8094   20960995.2724
       243.0004        201.0004
   9318656.60459    197575.99759  25863816.8564
       180.0004        108.0004
  -9462503.12849  -7097371.17749  23110450.3424   23110450.6944   23110452.1354
       220.0004        155.0004
 -11411394.88049  -8871213.06649  22112805.7204   22112809.4094   22112805.7534
       225.0004        168.0004
 11 10 13  0 42 30.0000000  0  8G05G16G10G08G13G07G02G26
 -20365660.60049 -15853948.80849  20837961.1664   20837964.1394   20837961.9604
       240.0004        201.0004
   6849698.54349   5502857.69949  25452376.4014   25452373.4114   25452375.8574
       202.0004        130.0004
 -14915256.94949 -11610779.24549  21604204.7514   21604208.3144   21604203.8534
       237.0004        185.0004
 -23145233.28749 -18004874.00849  20555536.4704   20555539.7874   20555536.3354
       242.0004        202.0004
  -5113968.46849  -3682136.53549  23823668.5244                   23823669.4284
       190.0004        120.0004
 -20752003.04649 -16153830.13349  20969785.8314   20969786.7894   20969785.7724
       244.0004        200.0004
  -9372978.37749  -7027611.65449  23127486.6304   23127485.8534   23127486.6154
       220.0004        155.0004
 -11503589.40449  -8943052.92849  22095263.4484   22095264.3704   22095261.5354
       227.0004        168.0004
 11 10 13  0 43  0.0000000  0  9G28G05G16G10G08G13G07G02G26
    -43361.71949    -21122.85249  24327827.7854
       206.0004         74.0004
 -20398586.08849 -15879605.03049  20831696.1384   20831698.5814   20831696.7484
       240.0004        201.0004
   6936475.80349   5570476.30849  25468889.9444   25468891.0894   25468888.4314
       199.0004        128.0004
 -14832269.57149 -11546113.79049  21619997.7434   21620000.2354   21619996.5514
       237.0004        184.0004
 -23164636.48849 -18019993.37449  20551844.5544   20551847.3574   20551843.9754
       243.0004        202.0004
  -5016497.64049  -3606185.31649  23842214.8434                   23842213.9784
       194.0004        117.0004
 -20705349.92449 -16117477.04749  20978662.7324   20978665.0294   20978663.5174
       243.0004        200.0004
  -9283170.75749  -6957631.72249  23144576.7404   23144577.3424   23144574.8134
       218.0004        154.0004
 -11595535.80349  -9014699.44649  22077763.6084   22077767.8354   22077764.8314
       223.0004        166.0004
 11 10 13  0 43 30.0000000  0  8G05G16G10G08G13G07G02G26
 -20430999.29549 -15904862.07649  20825527.2804   20825530.4584   20825527.9914
       239.0004        201.0004
   7023596.98049   5638362.84349  25485466.9854   25485470.7154   25485466.4864
       200.0004        126.0004
 -14748919.17349 -11481165.45049  21635857.0794   21635861.3884   21635856.8314
       235.0004        184.0004
 -23183515.34049 -18034704.15749  20548252.6374   20548255.1614   20548251.6604
       244.0004        202.0004
  -4918934.43049      4423.69149  23860783.4014
       187.0004         74.0004
 -20658239.18249 -16080767.37549  20987628.2854   20987629.9874   20987628.2054
       242.0004        200.0004
  -9193083.39149  -6887433.81149  23161720.8614   23161719.8334   23161719.7544
       220.0004        154.0004
 -11687232.59649  -9086151.47349  22060315.1834   22060319.4474   22060313.9034
       224.0004        168.0004
 11 10 13  0 44  0.0000000  0  9G28G05G16G10G08G13G07G02G26
   -239950.57449   -174305.84749  24290414.6934
       204.0004        107.0004
 -20462898.49349 -15929718.59449  20819457.7234   20819460.0184   20819458.0484
       240.0004        201.0004
   7111059.15449   5706515.06249  25502110.5654   25502113.6944   25502109.7374
       196.0004        127.0004
 -14665207.56749 -11415935.65649  21651787.8824   21651790.3474   21651786.8014
       237.0004        183.0004
 -23201869.71649 -18049006.25549  20544758.5924   20544761.9774   20544758.4904
       242.0004        202.0004
  -4821279.57249     80508.03849  23879357.3534
       181.0004        101.0004
 -20610672.68549 -16043702.57749  20996678.8044   20996681.1844   20996679.3164
       240.0004        199.0004
  -9102719.22949  -6817020.19749  23178916.6934   23178915.7854   23178914.9754
       219.0004        155.0004
 -11778678.48249  -9157407.96749  22042914.2124   22042917.9004   22042914.0124
       227.0004        169.0004
 11 10 13  0 44 30.0000000  0  8G05G16G10G08G13G07G02G26
 -20494282.37449 -15954173.56049  20813485.4134   20813487.9434   20813485.7914
       240.0004        201.0004
   7198860.16049   5774931.34549  25518820.3614   25518823.0594   25518818.2444
       197.0004        126.0004
 -14581136.05949 -11350425.42249  21667786.9424   21667789.0954   21667786.2274
       237.0004        182.0004
 -23219699.60549 -18062899.66149  20541366.3474   20541369.4914   20541365.8664
       243.0004        203.0004
  -4723533.89049    156625.14849  23897959.3944
       184.0004        112.0004
 -20562651.88049 -16006283.76149  21005816.9444   21005819.6274   21005817.2214
       240.0004        199.0004
  -9012081.17949  -6746393.17849  23196162.4394   23196164.4824   23196163.8764
       215.0004        154.0004
 -11869871.97849  -9228467.80949  22025560.4754   22025564.1354   22025561.2614
       228.0004        170.0004
 11 10 13  0 45  0.0000000  0  8G28G05G16G10G08G07G02G26
    -96609.52549    -51635.30149  24253075.6824
       208.0004         74.0004
 -20525149.66949 -15978225.98849  20807611.8914   20807614.4724   20807612.1024
       241.0004        202.0004
   7286996.65649   5843608.98949  25535590.0094   25535595.4404   25535592.1694
       193.0004        121.0004
 -14496706.82349 -11284636.41049  21683851.4054   21683855.3824   21683851.1904
       234.0004        182.0004
 -23237005.35749 -18076384.64849  20538072.9064   20538076.5224   20538072.8344
       242.0004        203.0004
 -20514178.94449 -15968512.63649  21015041.0534   21015043.7404   21015041.3994
       240.0004        199.0004
  -8921173.20149  -6675555.81749  23213460.8524   23213464.1564   23213461.4494
       215.0004        154.0004
 -11960812.13749  -9299330.23649  22008254.1634   22008257.3764   22008255.5874
       225.0004        168.0004
 11 10 13  0 45 30.0000000  0  9G28G05G16G10G08G13G07G02G26
   -194578.72249   -127974.78549  24234433.3304
       211.0004        138.0004
 -20555499.49849 -16001875.21149  20801836.2674   20801838.7404   20801836.8864
       241.0004        202.0004
   7375465.58749   5912545.72649  25552426.5714                   25552429.2514
       192.0004        120.0004
 -14411922.04449 -11218570.37649  21699985.7584   21699989.0914   21699985.0724
       234.0004        181.0004
 -23253787.39849 -18089461.56249  20534879.7544   20534882.4234   20534879.4534
       243.0004        203.0004
  -4527775.76049     75637.57949  23935209.9904
       176.0004         94.0004
 -20465256.26649 -15930391.08049  21024350.4704   21024352.9534   21024351.0784
       240.0004        197.0004
  -8829998.45549  -6604510.63549  23230812.0824   23230814.4114   23230811.5554
       216.0004        153.0004
 -12051497.87849  -9369994.43349  21990998.9534   21991000.2934   21990998.5804
       228.0004        171.0004
 11 10 13  0 46  0.0000000  0  9G28G05G16G10G08G13G07G02G26
   -292448.22549   -204236.73549  24215807.1934   24215811.1194
       209.0004        138.0004
 -20585329.18849 -16025119.12849  20796159.3224   20796162.6574   20796160.3634
       240.0004        202.0004
   7464265.48749   5981740.37849  25569325.5834                   25569326.2104
       197.0004        122.0004
 -14326782.25249 -11152227.71749  21716188.2314   21716190.9434   21716187.0384
       234.0004        180.0004
 -23270044.64549 -18102129.53549  20531785.4834   20531788.9614   20531785.5554
       243.0004        202.0004
  -4429763.79049    151979.02449  23953866.4004
       187.0004        111.0004
 -20415884.33149 -15891919.44349  21033746.0584   21033748.0984   21033746.3524
       240.0004        197.0004
  -8738558.92449  -6533259.09249  23248212.6024   23248213.6744   23248211.3174
       216.0004        153.0004
 -12141926.59149  -9440458.34449  21973789.9204   21973793.5514   21973789.9624
       226.0004        171.0004
 11 10 13  0 46 30.0000000  0  9G28G05G16G10G08G13G07G02G26
   -390215.90849   -280419.33049  24197202.2654   24197207.2734   24197202.3314
       208.0004        137.0004
 -20614638.07849 -16047957.22149  20790582.6474   20790585.1924   20790583.1914
       241.0004        202.0004
   7553392.88949   6051190.11649  25586285.8774
       193.0004        120.0004
 -14241290.31849 -11085610.64649  21732455.5934   21732460.2324   21732455.0054
       233.0004        180.0004
 -23285777.57149 -18114388.94549  20528791.9774   20528794.5614   20528791.3374
       243.0004        202.0004
  -4331665.20749    228387.92649  23972541.1844
       189.0004        110.0004
 -20366065.66349 -15853099.70249  21043225.9674   21043228.5314   21043226.3574
       239.0004        198.0004
  -8646858.57649  -6461804.31049  23265662.2364   23265663.2264   23265661.1864
       214.0004        152.0004
 -12232097.91149  -9510721.68449  21956632.0504   21956633.9484   21956630.8494
       228.0004        170.0004
 11 10 13  0 47  0.0000000  0  9G28G05G16G10G08G13G07G02G26
   -487878.86349   -356520.32049  24178618.0764   24178621.7384   24178617.6474
       211.0004        137.0004
 -20643424.87649 -16070388.49249  20785104.5624   20785106.9964   20785105.0314
       241.0004        202.0004
   7642845.34149   6120893.21549  25603305.9444
       188.0004        120.0004
 -14155447.63249 -11018720.27149  21748791.3284   21748794.9674   21748790.5394
       233.0004        179.0004
 -23300986.66649 -18126240.18249  20525897.5804   20525900.5964   20525897.3914
       243.0004        202.0004
  -4233480.71159     69503.18859  23991214.5824
       167.0004         88.0004
 -20315802.23749 -15813933.40349  21052790.8534   21052792.9104   21052790.9104
       239.0004        197.0004
  -8554900.58949  -6390148.79849  23283159.2554   23283164.6144   23283160.2334
       213.0004        152.0004
 -12322010.21649  -9580783.19749  21939520.2814   21939524.1144   21939521.1454
       226.0004        171.0004
 11 10 13  0 47 30.0000000  0  9G28G05G16G10G08G13G07G02G26
   -585433.95749   -432537.24349  24160055.3584   24160057.5844   24160053.5484
       211.0004        138.0004
 -20671687.33549 -16092411.18349  20779726.7564   20779729.2584   20779727.0884
       241.0004        203.0004
   7732620.54449   6190847.83949  25620391.5234                   25620387.0734
       189.0004        120.0004
 -14069255.27149 -10951557.42149  21765194.2114   21765197.1044   21765193.1674
       234.0004        180.0004
 -23315671.12149 -18137682.60049  20523103.0454   20523106.1994   20523102.6544
       242.0004        202.0004
  -4135210.40659    146178.99159  24009912.2594
       160.0004        112.0004
 -20265095.32049 -15774421.52149  21062440.1674   21062442.3794   21062440.7684
       240.0004        197.0004
  -8462687.62849  -6318294.57549  23300709.8404   23300711.1204   23300708.7184
       218.0004        153.0004
 -12411661.52849  -9650641.34949  21922460.8594   21922465.0074   21922461.6184
       227.0004        171.0004
 11 10 13  0 48  0.0000000  0  9G28G05G16G10G08G13G07G02G26
   -682879.55049   -508468.85449  24141510.3634   24141515.5594   24141510.2144
       212.0004        140.0004
 -20699425.47449 -16114025.31849  20774447.8874   20774450.5404   20774448.3624
       240.0004        202.0004
   7822714.32649   6261050.60349  25637535.1344                   25637531.6794
       191.0004        118.0004
 -13982716.65949 -10884124.76949  21781660.6284   21781664.9394   21781660.1954
       232.0004        178.0004
 -23329832.59549 -18148717.50549  20520408.3824   20520411.2814   20520408.6254
       243.0004        202.0004
  -4036856.65449    222919.88349  24028635.2144
       184.0004        111.0004
 -20213947.79449 -15734566.30349  21072173.1134   21072175.7724   21072173.3414
       239.0004        197.0004
  -8370223.81949  -6246244.89349  23318305.0584   23318305.4714   23318304.0954
       217.0004        151.0004
 -12501051.68349  -9720295.98549  21905450.8464   21905453.9524   21905450.7744
       227.0004        171.0004
 11 10 13  0 48 30.0000000  0  9G28G05G16G10G08G13G07G02G26
   -780212.07649   -584312.34049  24122990.4034   24122991.3534   24122988.9764
       212.0004        140.0004
 -20726636.98349 -16135229.09649  20769269.3964   20769272.3744   20769270.2344
       241.0004        202.0004
   7913125.39949      8783.59449  25654739.9834
       192.0004         74.0004
 -13895831.99949 -10816422.46949  21798194.7404   21798198.1944   21798193.9024
       233.0004        178.0004
 -23343470.24949 -18159344.23549  20517813.0344   20517816.8544   20517812.4134
       242.0004        202.0004
  -3938419.03349     63260.32749  24047371.9614
       182.0004         74.0004
 -20162360.72349 -15694368.59449  21081990.0504   21081991.9924   21081990.1234
       239.0004        197.0004
  -8277511.58949  -6174001.62349  23335945.9554   23335949.0184   23335945.1544
       213.0004        153.0004
 -12590178.36849  -9789745.33749  21888489.6164   21888493.8334   21888490.0774
       227.0004        171.0004
 11 10 13  0 49  0.0000000  0  9G28G05G16G10G08G13G07G02G26
   -877429.16149   -660065.85649  24104488.0334   24104493.0284   24104486.4524
       207.0004        139.0004
 -20753321.11649 -16156021.92549  20764192.1824   20764194.6344   20764192.9384
       241.0004        203.0004
   8003850.36549     79482.03149  25672006.9074
       188.0004         97.0004
 -13808603.85549 -10748452.51449  21814794.3094   21814797.3594   21814793.8714
       233.0004        178.0004
 -23356584.45049 -18169563.09449  20515317.7174   20515320.2834   20515317.8454
       242.0004        202.0004
  -3839899.05149    140173.84749  24066112.0114
       185.0004        111.0004
 -20110336.34649 -15653830.11849  21091890.0504   21091892.1914   21091890.1534
       240.0004        197.0004
  -8184554.27649  -6101567.42449  23353636.1244   23353637.3934   23353636.4044
       216.0004        153.0004
 -12679040.79449  -9858988.76549  21871580.0224   21871582.4364   21871580.0404
       227.0004        171.0004
 11 10 13  0 49 30.0000000  0  9G28G05G16G10G08G13G07G02G26
   -974527.52649   -735726.90449  24086010.8944   24086016.0764   24086011.1854
       206.0004        138.0004
 -20779475.90749 -16176402.28249  20759214.9294   20759217.5304   20759215.3104
       241.0004        203.0004
   8094887.06949    150432.81249  25689328.0054
       187.0004        110.0004
 -13721033.50049 -10680215.90749  21831458.3664   21831461.7134   21831456.7304
       232.0004        179.0004
 -23369174.80749 -18179373.74549  20512921.6884   20512924.9534   20512921.5254
       243.0004        202.0004
  -3741297.12149    217153.75649  24084877.2494
       187.0004        111.0004
 -20057876.28649 -15612952.15349  21101872.4824   21101874.7464   21101872.6654
       239.0004        197.0004
  -8091354.74149  -6028944.44149  23371372.6014   23371372.8554   23371371.8294
       216.0004        152.0004
 -12767636.81849  -9928024.61549  21854721.6004   21854724.7804   21854721.0674
       229.0004        172.0004
 11 10 13  0 50  0.0000000  0  9G28G05G16G10G08G13G07G02G26
  -1071504.80249   -811293.60749  24067555.7894   24067560.6924   24067557.5724
       205.0004        139.0004
 -20805100.49849 -16196369.50549  20754338.4594   20754341.4004   20754339.5884
       242.0004        203.0004
   8186232.29749      2993.38849  25706709.2354
       184.0004         74.0004
 -13633123.32149 -10611714.49949  21848185.7104   21848190.3694   21848186.0804
       232.0004        179.0004
 -23381241.82549 -18188776.60649  20510626.0804   20510628.6624   20510625.7554
       244.0004        202.0004
  -3642614.55949     57062.28249  24103653.2424
       183.0004         74.0004
 -20004982.93049 -15571736.55749  21111937.6954   21111940.2304   21111937.9174
       239.0004        196.0004
  -7997916.77349  -5956135.65049  23389150.5644   23389154.4034   23389151.0204
       216.0004        151.0004
 -12855965.83949  -9996852.40849  21837912.3994   21837915.8584   21837912.7104
       229.0004        173.0004
 11 10 13  0 50 30.0000000  0  9G28G05G16G10G08G13G07G02G26
  -1168358.60549   -886764.08849  24049127.0724   24049131.3424   24049126.8084
       203.0004        138.0004
 -20830193.79649 -16215922.72449  20749563.8944   20749566.2444   20749564.2854
       241.0004        203.0004
   8277883.04449     74424.00249  25724152.0644
       178.0004        100.0004
 -13544875.33449 -10542949.86949  21864979.6094   21864983.6864   21864979.4944
       233.0004        180.0004
 -23392786.03549 -18197772.08749  20508427.5644   20508431.7894   20508428.0074
       241.0004        201.0004
  -3543852.37549    134077.88249  24122450.7184
       189.0004        111.0004
 -19951658.02449 -15530184.68549  21122085.3524   21122087.3694   21122085.9524
       240.0004        197.0004
  -7904243.36949  -5883143.44449  23406978.9424   23406978.8814   23406977.1274
       219.0004        152.0004
 -12944026.22349 -10065470.87549  21821155.4694   21821158.5044   21821155.1434
       229.0004        173.0004
 11 10 13  0 51  0.0000000  0  9G28G05G16G10G08G13G07G02G26
  -1265085.74849   -962135.84649  24030719.3364   24030723.7084   24030720.2394
       206.0004        139.0004
 -20854754.31849 -16235060.79449  20744889.8044   20744892.5024   20744890.5404
       241.0004        203.0004
   8369837.17949    146149.86149  25741650.6544
       181.0004        109.0004
 -13456290.99749 -10473923.13849  21881836.8404   21881840.6114   21881836.5724
       232.0004        179.0004
 -23403807.47049 -18206360.20849  20506331.9784   20506334.7634   20506331.2214
       243.0004        202.0004
  -3445011.22249    211161.53149  24141259.3734
       187.0004        113.0004
 -19897903.32849 -15488297.90249  21132314.6824   21132317.0194   21132314.4404
       240.0004        197.0004
  -7810337.49849  -5809970.07149  23424847.9324   23424849.8754   23424846.8724
       215.0004        152.0004
 -13031816.64649 -10133878.98249  21804449.4174   21804452.8914   21804449.7054
       229.0004        174.0004
 11 10 13  0 51 30.0000000  0  8G28G05G10G08G13G07G02G26
  -1361683.72349  -1037406.97749  24012337.8644   24012340.9854   24012337.8814
       205.0004        137.0004
 -20878781.02249 -16253782.90149  20740318.3564   20740320.5614   20740318.5554
       242.0004        204.0004
 -13367372.05549 -10404635.67649  21898757.0144   21898760.9694   21898756.5204
       231.0004        178.0004
 -23414306.56649 -18214541.31049  20504333.1604   20504336.6404   20504333.3924
       242.0004        202.0004
  -3346091.98149     50724.66849  24160082.8444
       182.0004         74.0004
 -19843720.74049 -15446077.70549  21142625.4764   21142627.8284   21142625.8674
       241.0004        198.0004
  -7716202.58149  -5736618.23249  23442758.1234   23442761.1664   23442758.9464
       214.0004        149.0004
 -13119335.70049 -10202075.63449  21787794.1284   21787798.2164   21787795.4254
       228.0004        173.0004
 11 10 13  0 52  0.0000000  0  9G28G05G16G10G08G13G07G02G26
  -1458148.95049  -1112574.63049  23993981.3884   23993984.8724   23993980.5884
       209.0004        139.0004
 -20902271.64349 -16272087.28749  20735847.9494   20735850.7104   20735848.4424
       242.0004        204.0004
   8554644.87349     70319.08549  25776820.2994
       181.0004         94.0004
 -13278119.84749 -10335088.52749  21915740.5034   21915744.6634   21915739.6314
       232.0004        178.0004
 -23424282.60849 -18222314.83949  20502435.2134   20502438.0374   20502434.4554
       243.0004        202.0004
  -3247094.86649    127840.55549  24178919.2814
       181.0004        111.0004
 -19789111.59149 -15403525.12849  21153017.0394   21153019.2754   21153017.4394
       241.0004        197.0004
  -7621841.15649  -5663089.87949  23460718.5574   23460718.9914   23460717.9924
       218.0004        152.0004
 -13206581.30649 -10270059.20649  21771193.7714   21771195.2674   21771192.5404
       230.0004        174.0004
 11 10 13  0 52 30.0000000  0  9G28G05G16G10G08G13G07G02G26
  -1554480.17149  -1187637.86549  23975648.5594   23975653.3944   23975647.5154
       209.0004        140.0004
 -20925226.21949 -16289973.98049  20731479.6414   20731481.9584   20731480.6154
       242.0004        203.0004
   8647492.97559    142578.00859  25794485.7954
       176.0004        109.0004
 -13188537.08449 -10265283.81349  21932790.1214   21932792.7384   21932788.4434
       234.0004        179.0004
 -23433737.04649 -18229681.93349  20500636.0694   20500638.9414   20500635.7934
       242.0004        202.0004
  -3148021.55049    205010.16849  24197774.1464
       178.0004        109.0004
 -19734079.25449 -15360642.79549  21163488.7234   21163491.5564   21163489.3644
       239.0004        197.0004
  -7527257.35949  -5589388.24749  23478716.4854   23478718.0774   23478714.6124
       214.0004        152.0004
 -13293553.32949 -10337829.60449  21754642.4584   21754645.5834   21754642.0064
       229.0004        174.0004
 11 10 13  0 53  0.0000000  0  9G28G05G16G10G08G13G07G02G26
  -1650673.72949  -1262593.86949  23957345.6624   23957349.0364   23957344.7374
       209.0004        140.0004
 -20947643.12649 -16307441.70149  20727214.0964   20727216.5664   20727214.3344
       241.0004        203.0004
   8740633.57359    215064.99659  25812211.4754
       174.0004        110.0004
 -13098625.26949 -10195222.69049  21949898.9544   21949902.1104   21949898.1774
       233.0004        178.0004
 -23442669.49849 -18236642.27149  20498936.4674   20498939.1924   20498935.6684
       243.0004        202.0004
  -3048872.97349     44468.89149  24216644.2844
       177.0004         74.0004
 -19678624.61949 -15317431.39549  21174042.1574   21174044.5194   21174042.5654
       241.0004        197.0004
  -7432453.79749  -5515515.40849  23496753.7054   23496757.8764   23496754.7594
       213.0004        148.0004
 -13380249.66049 -10405385.16249  21738143.8584   21738147.7934   21738145.1544
       228.0004        175.0004
 11 10 13  0 53 30.0000000  0  8G28G05G10G08G13G07G02G26
  -1746726.60949  -1337440.24249  23939067.2864   23939069.0424   23939067.0934
       205.0004        136.0004
 -20969520.79849 -16324489.23749  20723050.9924   20723053.4544   20723051.6794
       243.0004        204.0004
 -13008385.85949 -10124906.29249  21967069.5344   21967074.1484   21967068.9714
       232.0004        179.0004
 -23451079.68649 -18243195.65849  20497336.0344   20497338.6234   20497335.8634
       243.0004        202.0004
  -2949649.24549    121881.16749  24235519.0204
       181.0004        110.0004
 -19622749.38049 -15273892.24649  21184674.5684   21184676.9034   21184675.3774
       241.0004        197.0004
  -7337433.23349  -5441473.44249  23514838.2934   23514838.9904   23514836.5604
       214.0004        148.0004
 -13466668.66949 -10472724.63349  21721700.8604   21721702.5844   21721699.2094
       230.0004        174.0004
 11 10 13  0 54  0.0000000  0  8G28G05G10G08G13G07G02G26
  -1842636.25149  -1412175.00149  23920815.2564   23920819.7674   23920814.6814
       210.0004        136.0004
 -20990858.08949 -16341115.70449  20718990.5644   20718992.6474   20718990.7354
       242.0004        203.0004
 -12917820.59449 -10054335.98949  21984305.2624   21984308.4644   21984304.1234
       234.0004        178.0004
 -23458968.60349 -18249342.85349  20495834.7664   20495837.3794   20495834.1444
       243.0004        202.0004
  -2850351.62449    199385.86049  24254420.2884
       191.0004        112.0004
 -19566455.87249 -15230027.17749  21195387.1944   21195389.0424   21195387.6164
       241.0004        197.0004
  -7242199.12749  -5367265.09349  23532961.7964   23532961.5424   23532960.6324
       216.0004        150.0004
 -13552808.95249 -10539846.93749  21705307.1874   21705310.9454   21705308.3654
       229.0004        175.0004
 11 10 13  0 54 30.0000000  0  8G28G05G10G08G13G07G02G26
  -1938400.75149  -1486796.66249  23902593.8454   23902595.1144   23902591.9444
       211.0004        137.0004
 -21011654.76649 -16357320.91049  20715032.7234   20715035.4014   20715033.3024
       242.0004        204.0004
 -12826932.65949  -9983514.26349  22001600.2284   22001603.7934   22001599.5194
       234.0004        178.0004
 -23466337.24249 -18255084.64649  20494432.0414   20494435.3624   20494432.1884
       242.0004        202.0004
  -2750981.56849     38076.97349  24273329.6214
       192.0004         74.0004
 -19509746.75949 -15185838.25249  21206179.0344   21206180.7434   21206179.1784
       241.0004        197.0004
  -7146755.52449  -5292893.48849  23551119.4544   23551124.8684   23551119.8804
       210.0004        148.0004
 -13638670.36949 -10606751.91549  21688969.2464   21688971.6224   21688968.8504
       230.0004        175.0004
 11 10 13  0 55  0.0000000  0  8G28G05G10G08G13G07G02G26
  -2034016.89349  -1561302.69549  23884397.7124   23884402.2104   23884395.8134
       207.0004        137.0004
 -21031909.40149 -16373103.74849  20711178.4874   20711180.9144   20711179.3804
       241.0004        204.0004
 -12735723.42649  -9912442.17149  22018956.6454   22018959.8454   22018956.2194
       234.0004        177.0004
 -23473185.54449 -18260420.97049  20493128.8634   20493132.1704   20493128.7754
       242.0004        202.0004
  -2651539.61959    115472.04159  24292252.4694
       181.0004        109.0004
 -19452623.52749 -15141326.64649  21217048.4404   21217050.7524   21217049.2214
       241.0004        196.0004
  -7051105.26149  -5218360.87349  23569324.2284   23569326.5714   23569324.3354
       212.0004        149.0004
 -13724250.77749 -10673437.92949  21672682.8384   21672687.0314   21672683.4184
       229.0004        176.0004
 11 10 13  0 55 30.0000000  0  8G28G05G10G08G13G07G02G26
  -2129481.52049  -1635690.66649  23866228.0784   23866233.2674   23866228.0304
       208.0004        137.0004
 -21051620.13549 -16388462.76449  20707427.0254   20707430.2754   20707428.1364
       241.0004        204.0004
 -12644193.89549  -9841120.50049  22036373.7044   22036378.2414   22036373.8224
       231.0004        178.0004
 -23479512.91749 -18265351.38349  20491925.2284   20491928.1704   20491925.1914
       243.0004        202.0004
  -2552025.82359    192873.20859  24311185.1004
       162.0004        110.0004
 -19395087.40649 -15096493.30149  21227998.1634   21227999.3914   21227998.0734
       242.0004        197.0004
  -6955250.59449  -5143668.94149  23587562.4384   23587565.2304   23587563.5844
       208.0004        145.0004
 -13809548.21149 -10739903.44749  21656450.7354   21656454.8754   21656451.9674
       229.0004        176.0004
 11 10 13  0 56  0.0000000  0  7G28G05G10G08G07G02G26
  -2224792.33849  -1709958.80449  23848092.8344   23848097.5424   23848094.3264
       207.0004        141.0004
 -21070786.31749 -16403397.45649  20703781.2034   20703782.7814   20703781.4774
       241.0004        204.0004
 -12552346.64949  -9769551.24649  22053853.3974   22053855.6214   22053852.2394
       233.0004        177.0004
 -23485320.38349 -18269876.67149  20490819.7854   20490822.9564   20490819.3184
       242.0004        202.0004
 -19337141.16449 -15051340.38949  21239023.6464   21239026.4784   21239024.3444
       240.0004        196.0004
  -6859195.70149  -5068820.99849  23605842.6704   23605846.6944   23605844.4874
       207.0004        147.0004
 -13894561.90349 -10806147.86649  21640274.4274   21640277.8544   21640273.6704
       230.0004        177.0004
 11 10 13  0 56 30.0000000  0  7G28G05G10G08G07G02G26
  -2319946.43649  -1784104.84549  23829985.8194   23829990.2434   23829986.8524
       210.0004        141.0004
 -21089406.86149 -16417906.97249  20700237.4394   20700239.8834   20700238.0444
       242.0004        204.0004
 -12460183.51549  -9697735.85249  22071390.5844   22071392.7764   22071389.7494
       232.0004        175.0004
 -23490608.50549 -18273997.27849  20489813.4984   20489816.6114   20489812.9904
       242.0004        202.0004
 -19278786.44749 -15005869.18349  21250128.4654   21250130.9934   21250128.9824
       240.0004        196.0004
  -6762943.37649  -4993819.26749  23624160.0004   23624162.1644   23624160.2704
       211.0004        147.0004
 -13979290.22649 -10872169.92249  21624150.2444   21624154.9384   21624150.3534
       229.0004        177.0004
 11 10 13  0 57  0.0000000  0  7G28G05G10G08G07G02G26
  -2414940.92049  -1858126.48049  23811911.0804   23811912.5244   23811909.8974
       215.0004        143.0004
 -21107480.53049 -16431990.35749  20696798.1354   20696800.6684   20696798.3564
       241.0004        204.0004
 -12367706.05249  -9625675.52049  22088987.1004   22088991.8014   22088987.0954
       231.0004        176.0004
 -23495377.29049 -18277713.21249  20488905.8474   20488908.9574   20488906.0604
       242.0004        203.0004
 -19220025.13649 -14960081.14749  21261310.0734   21261312.6074   21261310.7274
       240.0004        195.0004
  -6666496.53549  -4918665.90749  23642515.0874   23642514.4354   23642513.8264
       214.0004        146.0004
 -14063731.73149 -10937968.48349  21608081.4974   21608085.6034   21608081.8914
       229.0004        177.0004
 11 10 13  0 57 30.0000000  0  7G28G05G10G08G07G02G26
  -2509773.58049  -1932021.99549  23793864.3594   23793868.1364   23793863.7714
       215.0004        144.0004
 -21125006.52349 -16445646.97749  20693462.6664   20693465.5914   20693463.2854
       242.0004        204.0004
 -12274916.68549  -9553372.15449  22106645.0294   22106648.9304   22106643.7454
       231.0004        174.0004
 -23499627.78949 -18281025.27849  20488098.1404   20488099.9504   20488097.0834
       243.0004        202.0004
 -19160859.74549 -14913978.24849  21272569.3944   21272571.6544   21272569.8774
       241.0004        196.0004
  -6569858.72349  -4843363.75749  23660903.9204   23660903.7864   23660902.2804
       212.0004        144.0004
 -14147885.50149 -11003542.82749  21592068.3724   21592071.8914   21592067.7804
       230.0004        177.0004
 11 10 13  0 58  0.0000000  0  7G28G05G10G08G07G02G26
  -2604441.36049  -2005789.11249  23775847.9434   23775852.9104   23775848.8994
       215.0004        143.0004
 -21141983.90349 -16458876.10449  20690231.7514   20690234.6344   20690232.4334
       241.0004        204.0004
 -12181816.94849  -9480826.94149  22124361.5514   22124364.4034   22124360.7884
       230.0004        173.0004
 -23503359.89949 -18283933.41149  20487386.2884   20487389.8714   20487386.5894
       242.0004        202.0004
 -19101291.83149 -14867561.69349  21283905.4944   21283906.7444   21283905.5604
       241.0004        195.0004
  -6473033.02949  -4767915.22749  23679329.9734   23679329.5804   23679328.0734
       214.0004        146.0004
 -14231749.73949 -11068891.56749  21576108.5334   21576112.9424   21576109.1364
       229.0004        178.0004
 11 10 13  0 58 30.0000000  0  7G28G05G10G08G07G02G26
  -2698941.26249  -2079425.40349  23757864.9994   23757868.7354   23757866.4984
       212.0004        143.0004
 -21158411.34149 -16471676.71349  20687105.9504   20687108.6564   20687106.5374
       241.0004        205.0004
 -12088408.70549  -9408041.32749  22142137.2714   22142140.7764   22142135.4514
       230.0004        173.0004
 -23506574.20249 -18286438.05249  20486775.6264   20486778.3964   20486775.0614
       243.0004        202.0004
 -19041323.28949 -14820832.95549  21295316.8214   21295318.2284   21295317.1494
       240.0004        195.0004
  -6376022.69549  -4692322.79649  23697787.4724   23697791.3454   23697787.9534
       211.0004        148.0004
 -14315323.06449 -11134013.63249  21560205.2554   21560209.5924   21560205.8264
       230.0004        179.0004
 11 10 13  0 59  0.0000000  0  7G28G05G10G08G07G02G26
  -2793271.24449  -2152929.21849  23739917.5624   23739919.0264   23739916.6294
       217.0004        146.0004
 -21174288.29649 -16484048.37349  20684084.2924   20684087.4534   20684085.3074
       240.0004        205.0004
 -11994694.39849  -9335017.22949  22159968.8554   22159973.0894   22159969.1484
       228.0004        172.0004
 -23509271.58349 -18288539.91149  20486261.9754   20486265.1384   20486262.2254
       243.0004        203.0004
 -18980956.87849 -14773794.19049  21306803.5964   21306805.6964   21306804.2284
       239.0004        195.0004
  -6278831.15749  -4616589.18349  23716283.5914   23716285.5934   23716282.9654
       209.0004        145.0004
 -14398604.44549 -11198908.19049  21544358.3354   21544361.1924   21544358.4704
       231.0004        179.0004
 11 10 13  0 59 30.0000000  0  7G28G05G10G08G07G02G26
  -2887427.77649  -2226297.89849  23721998.7644   23722000.1764   23721998.6354
       217.0004        145.0004
 -21189612.95849 -16495989.66749  20681168.5484   20681171.4004   20681169.3064
       241.0004        205.0004
 -11900674.97149  -9261755.36849  22177860.4034   22177865.0384   22177859.8254
       229.0004        172.0004
 -23511451.64549 -18290238.64649  20485847.3764   20485850.5644   20485846.9534
       243.0004        203.0004
 -18920193.41949 -14726446.04649  21318366.6314   21318368.4164   21318366.9024
       239.0004        193.0004
  -6181460.70249  -4540716.15549  23734812.0444   23734813.3744   23734811.8584
       211.0004        143.0004
 -14481591.80149 -11263573.65349  21528566.1354   21528570.1654   21528566.0994
       233.0004        179.0004
 11 10 13  1  0  0.0000000  0  7G28G05G10G08G07G02G26
  -2981409.00149  -2299529.96949  23704116.2454   23704117.3874   23704114.6894
       218.0004        145.0004
 -21204385.29849 -16507500.58549  20678357.6124   20678360.1104   20678357.8824
       241.0004        205.0004
 -11806353.37149  -9188258.05149  22195811.5144   22195813.5284   22195810.0914
       231.0004        173.0004
 -23513115.60149 -18291535.23049  20485530.5564   20485533.5524   20485530.7714
       244.0004        202.0004
 -18859036.05249 -14678790.95049  21330004.4514   21330006.6304   21330004.5624
       238.0004        194.0004
  -6083915.59349  -4464706.95949  23753374.3664   23753376.6144   23753374.8804
       214.0004        148.0004
 -14564284.54549 -11328009.54449  21512830.2484   21512833.4904   21512830.1964
       232.0004        179.0004
 11 10 13  1  0 30.0000000  0  7G28G05G10G08G07G02G26
  -3075211.22549  -2372622.57149  23686263.9344   23686268.1874   23686264.5354
       216.0004        148.0004
 -21218603.57749 -16518579.76449  20675651.8384   20675654.4244   20675652.7124
       242.0004        205.0004
 -11711730.94449  -9114526.31449  22213815.2174   22213820.9254   22213815.6034
       228.0004        171.0004
 -23514263.26449 -18292429.50249  20485312.3904   20485315.3234   20485311.9514
       243.0004        203.0004
 -18797485.72349 -14630829.65949  21341716.7964   21341719.4314   21341717.3774
       237.0004        194.0004
  -5986198.19749  -4388563.60849  23771968.9834   23771970.3874   23771967.7344
       209.0004        146.0004
 -14646680.40849 -11392214.09249  21497150.1054   21497154.0284   21497150.8714
       232.0004        181.0004
 11 10 13  1  1  0.0000000  0  7G28G05G10G08G07G02G26
  -3168832.21249  -2445573.95549  23668448.2744   23668451.7494   23668448.6234
       214.0004        147.0004
 -21232267.14949 -16529226.71849  20673052.7484   20673054.5934   20673052.9624
       241.0004        205.0004
 -11616809.63149  -9040561.67249  22231878.5294   22231882.5854   22231878.1274
       229.0004        171.0004
 -23514895.71349 -18292922.31649  20485192.0854   20485195.0494   20485191.6914
       243.0004        203.0004
 -18735544.96649 -14582564.14249  21353503.4594   21353506.0704   21353504.2464
       238.0004        194.0004
  -5888311.92549  -4312288.65849  23790596.8594   23790599.3764   23790598.4894
       211.0004        145.0004
 -14728778.60849 -11456186.70949  21481528.8824   21481531.6704   21481527.8514
       233.0004        180.0004
 11 10 13  1  1 30.0000000  0  7G28G05G10G08G07G02G26
  -3262269.54149  -2518382.22249  23650668.5474   23650670.8954   23650669.2384
       215.0004        145.0004
 -21245375.24049 -16539440.81049  20670556.3924   20670560.1704   20670557.4574
       240.0004        205.0004
 -11521591.48449  -8966365.74649  22249999.1774   22250001.0594   22249998.8634
       229.0004        172.0004
 -23515013.30649 -18293013.94149  20485169.7424   20485173.0234   20485169.3984
       242.0004        203.0004
 -18673215.85649 -14533996.00349  21365364.1354   21365366.9894   21365364.7934
       237.0004        193.0004
  -5790260.00649  -4235884.57249  23809256.7054   23809258.9934   23809255.4924
       213.0004        147.0004
 -14810577.51749 -11519926.11249  21465961.9484   21465964.6794   21465962.4014
       232.0004        180.0004
 11 10 13  1  2  0.0000000  0  7G28G05G10G08G07G02G26
  -3355520.42749  -2591045.21949  23632924.5574   23632926.4004   23632923.6144
       216.0004        147.0004
 -21257927.05049 -16549221.44549  20668169.5504   20668171.4084   20668169.6194
       241.0004        205.0004
 -11426079.27249  -8891940.65549  22268173.9064   22268178.1234   22268173.0494
       229.0004        172.0004
 -23514617.07649 -18292705.17749  20485245.5914   20485247.8414   20485245.1004
       244.0004        202.0004
 -18610500.61749 -14485126.99949  21377299.7734   21377301.9564   21377300.1074
       238.0004        195.0004
  -5692045.93449  -4159354.17449  23827948.0174   23827945.9934   23827945.5214
       214.0004        147.0004
 -14892076.23849 -11583431.59249  21450453.7244   21450456.9964   21450453.6174
       234.0004        180.0004
 11 10 13  1  2 30.0000000  0  7G28G05G10G08G07G02G26
  -3448581.85049  -2663560.58449  23615213.6224   23615217.7374   23615213.6034
       214.0004        145.0004
 -21269921.65649 -16558567.89449  20665886.2484   20665889.1474   20665887.0384
       240.0004        205.0004
 -11330274.15249  -8817287.33649  22286405.1584   22286408.8264   22286403.9354
       229.0004        172.0004
 -23513706.83749 -18291995.89849  20485417.9684   20485421.1744   20485418.0334
       243.0004        202.0004
 -18547400.91649 -14435958.40649  21389307.1104   21389309.2144   21389307.2604
       239.0004        194.0004
  -5593672.56649  -4082699.63649  23846663.5694   23846666.7574   23846662.6504
       210.0004        143.0004
 -14973272.92949 -11646701.73349  21435002.5474   21435005.0014   21435003.3424
       234.0004        180.0004
 11 10 13  1  3  0.0000000  0  7G28G05G10G08G07G02G26
  -3541450.76449  -2735925.89849  23597541.1304   23597545.7414   23597541.5474
       213.0004        147.0004
 -21281357.55749 -16567478.98649  20663710.5494   20663713.2754   20663710.7334
       241.0004        205.0004
 -11234177.60449  -8742406.93949  22304691.0884   22304695.8464   22304690.7024
       228.0004        172.0004
 -23512283.12849 -18290886.50449  20485688.9534   20485692.0214   20485688.9444
       243.0004        202.0004
 -18483918.59149 -14386491.65549  21401387.1334   21401389.2174   21401386.8894
       238.0004        194.0004
  -5495142.60249  -4005923.06249  23865415.3424   23865417.3494   23865414.8054
       212.0004        147.0004
 -15054165.83449 -11709735.14349  21419609.2964   21419611.6954   21419608.7994
       233.0004        180.0004
 11 10 13  1  3 30.0000000  0  7G28G05G10G08G07G02G26
  -3634125.35949  -2808139.82549  23579906.3644   23579910.5374   23579907.1944
       214.0004        148.0004
 -21292234.99549 -16575954.91749  20661641.3134   20661642.9294   20661640.9374
       242.0004        205.0004
 -11137792.59749  -8667301.75949  22323033.4884   22323037.3324   22323032.7144
       231.0004        173.0004
 -23510347.46649 -18289378.19149  20486056.9734   20486060.4214   20486057.0664
       242.0004        202.0004
 -18420056.57049 -14336729.05249  21413539.1514   21413542.0154   21413540.1974
       238.0004        194.0004
  -5396460.18449  -3929027.71849  23884189.6084   23884195.9654   23884191.4244
       203.0004        141.0004
 -15134754.42549 -11772531.44249  21404273.0684   21404276.2754   21404273.7164
       233.0004        180.0004
 11 10 13  1  4  0.0000000  0  7G28G05G10G08G07G02G26
  -3726602.07849  -2880199.55349  23562309.5184   23562311.5874   23562307.2394
       215.0004        147.0004
 -21302552.23649 -16583994.32949  20659676.8024   20659679.5944   20659677.3614
       241.0004        205.0004
 -11041120.37049  -8591972.77549  22341430.5164   22341433.6004   22341429.0424
       232.0004        172.0004
 -23507899.45649 -18287470.64449  20486523.2994   20486526.3304   20486523.1604
       243.0004        203.0004
 -18355815.83849 -14286671.34049  21425764.3034   21425766.1384   21425764.8204
       240.0004        194.0004
  -5297627.71949  -3852015.45449  23903001.7294   23903003.9464   23903001.6774
       213.0004        142.0004
 -15215036.58549 -11835088.95549  21388996.7024   21388998.9804   21388996.1774
       233.0004        180.0004
 11 10 13  1  4 30.0000000  0  7G28G05G10G08G07G02G26
  -3818878.78949  -2952103.45649  23544748.8314   23544753.0624   23544748.0104
       213.0004        146.0004
 -21312309.12349 -16591597.10449  20657820.5244   20657823.1174   20657820.9044
       241.0004        205.0004
 -10944163.11849  -8516421.69049  22359880.0594   22359883.0664   22359878.7454
       230.0004        172.0004
 -23504940.66349 -18285165.08349  20487086.6044   20487089.2734   20487085.9024
       243.0004        202.0004
 -18291198.99049 -14236320.54349  21438060.9584   21438062.5754   21438060.6414
       239.0004        193.0004
  -5198648.82149  -3774889.05549  23921834.3944   23921838.0784   23921834.2214
       207.0004        144.0004
 -15295011.43149 -11897407.00249  21373778.0224   21373780.2724   21373777.2784
       233.0004        180.0004
 11 10 13  1  5  0.0000000  0  7G28G05G10G08G07G02G26
  -3910952.75649  -3023849.36149  23527228.1264   23527230.8514   23527225.7714
       213.0004        143.0004
 -21321504.45849 -16598762.29849  20656069.9754   20656073.3424   20656070.7914
       240.0004        205.0004
 -10846923.09749  -8440650.27649  22378381.9784   22378388.8224   22378382.3884
       229.0004        171.0004
 -23501471.27349 -18282461.66049  20487746.6764   20487749.2884   20487746.2254
       243.0004        202.0004
 -18226208.10949 -14185678.30849  21450428.2324   21450430.1374   21450428.2434
       239.0004        193.0004
  -5099526.26449  -3697650.79649  23940700.3604   23940699.4204   23940699.6954
       214.0004        143.0004
 -15374677.17549 -11959484.19049  21358616.7284   21358620.3974   21358617.2824
       233.0004        181.0004
 11 10 13  1  5 30.0000000  0  7G28G05G10G08G07G02G26
  -4002820.40249  -3095434.48849  23509745.2154   23509748.9034   23509745.3194
       213.0004        144.0004
 -21330137.42249 -16605489.29349  20654428.3884   20654430.4904   20654428.6224
       242.0004        206.0004
 -10749401.61549  -8364659.54149  22396942.5554   22396944.3924   22396941.6734
       232.0004        171.0004
 -23497491.59949 -18279360.60649  20488503.8304   20488506.5024   20488503.4164
       243.0004        202.0004
 -18160844.46849 -14134745.59249  21462865.7874   21462868.1564   21462866.2754
       239.0004        193.0004
  -5000263.07749  -3620302.84249  23959587.1554   23959589.3564   23959585.5284
       209.0004        142.0004
 -15454032.28449 -12021319.33549  21343516.7364   21343519.8574   21343516.9324
       232.0004        181.0004
 11 10 13  1  6  0.0000000  0  7G28G05G10G08G07G02G26
  -4094480.50349  -3166857.91049  23492303.0544   23492305.2224   23492303.1774
       212.0004        144.0004
 -21338208.19449 -16611778.21349  20652892.0264   20652894.8204   20652892.4804
       240.0004        206.0004
 -10651602.06049  -8288452.12849  22415553.2114   22415556.0054   22415552.6894
       232.0004        171.0004
 -23493003.34849 -18275863.26549  20489357.4514   20489361.3174   20489357.7324
       243.0004        202.0004
 -18095111.40649 -14083525.03049  21475374.6584   21475376.8394   21475375.2574
       239.0004        193.0004
  -4900863.48049  -3542848.68149  23978502.2334   23978504.9854   23978504.0164
       213.0004        143.0004
 -15533076.57549 -12082912.27549  21328474.9164   21328478.3704   21328475.2804
       233.0004        182.0004
 11 10 13  1  6 30.0000000  0  8G28G05G10G08G07G15G02G26
  -4185929.18649  -3238116.60249  23474901.4624   23474903.5344   23474901.4334
       211.0004        144.0004
 -21345714.99949 -16617627.66749  20651463.0104   20651466.2524   20651463.5854
       241.0004        205.0004
 -10553524.94249  -8212028.42349  22434215.3524   22434218.9574   22434214.3394
       229.0004        171.0004
 -23488006.02249 -18271969.23549  20490309.0764   20490311.8984   20490308.4164
       243.0004        202.0004
 -18029010.21749 -14032017.61549  21487952.7234   21487955.7744   21487953.5814
       238.0004        193.0004
    -30933.09349     -5833.88149  24759565.4844
       204.0004         74.0004
  -4801329.54849  -3465289.81049  23997444.7944   23997446.7894   23997443.5344
       210.0004        144.0004
 -15611807.26949 -12144260.84549  21313492.7244   21313495.4364   21313492.7384
       232.0004        181.0004
 11 10 13  1  7  0.0000000  0  8G28G05G10G08G07G15G02G26
  -4277164.13049  -3309208.68649  23457539.3864   23457543.9124   23457538.3144
       214.0004        147.0004
 -21352657.07249 -16623037.08849  20650142.8004   20650145.0804   20650143.0554
       240.0004        205.0004
 -10455172.42249  -8135390.11549  22452930.4824   22452935.2184   22452930.2294
       229.0004        171.0004
 -23482500.33649 -18267679.08849  20491356.0214   20491358.9974   20491356.0704
       242.0004        202.0004
 -17962542.25849 -13980224.40949  21500601.3224   21500603.8554   21500602.1054
       238.0004        193.0004
   -129622.71849    -82734.54749  24740785.2914
       207.0004        127.0004
  -4701664.44649  -3387628.74749  24016408.8584   24016410.5774   24016410.3084
       208.0004        140.0004
 -15690223.03049 -12205364.02949  21298571.5414   21298573.8054   21298571.1604
       234.0004        182.0004
 11 10 13  1  7 30.0000000  0  7G28G05G10G08G07G02G26
  -4368182.53349  -3380132.08449  23440220.3264   23440222.3874   23440219.7224
       216.0004        148.0004
 -21359034.04049 -16628006.15549  20648928.3404   20648931.6914   20648929.0214
       240.0004        205.0004
 -10356546.81649  -8058539.03649  22471700.5494   22471702.7934   22471699.0234
       231.0004        170.0004
 -23476487.59849 -18262993.82849  20492501.3294   20492503.5584   20492500.7694
       244.0004        203.0004
 -17895710.33349 -13928147.58749  21513319.8354   21513321.3034   21513319.8944
       239.0004        193.0004
  -4601871.56349  -3309868.04149  24035397.2634   24035400.0944   24035397.7924
       206.0004        139.0004
 -15768322.75149 -12266220.93849  21283708.0644   21283712.9274   21283708.5694
       232.0004        182.0004
 11 10 13  1  8  0.0000000  0  7G28G05G10G08G07G02G26
  -4458982.25349  -3450885.07949  23422941.1374   23422944.4554   23422940.7304
       216.0004        150.0004
 -21364845.56949 -16632534.63149  20647822.1124   20647825.5444   20647823.2584
       240.0004        205.0004
 -10257650.53649  -7981477.01849  22490520.4664   22490522.4614   22490519.0644
       229.0004        170.0004
 -23469968.59449 -18257914.09049  20493741.3114   20493743.6864   20493741.1184
       243.0004        202.0004
 -17828516.84649 -13875789.03249  21526105.7384   21526107.8154   21526106.3744
       238.0004        191.0004
  -4501954.49649  -3232010.64449  24054416.1974   24054414.5954   24054413.5644
       213.0004        143.0004
 -15846105.47349 -12326830.84149  21268907.4354   21268910.6224   21268907.3014
       234.0004        183.0004
 11 10 13  1  8 30.0000000  0  8G28G05G10G08G07G15G02G26
  -4549560.07249  -3521465.15849  23405704.2864   23405708.6874   23405704.1854
       217.0004        152.0004
 -21370090.91149 -16636621.91849  20646825.5514   20646827.6764   20646826.1384
       241.0004        205.0004
 -10158485.45449  -7904205.53749  22509389.9474   22509393.9454   22509389.5164
       229.0004        170.0004
 -23462944.30649 -18252440.60049  20495077.9764   20495080.6664   20495077.8754
       243.0004        202.0004
 -17760963.53249 -13823150.08149  21538961.1624   21538963.4984   21538961.4804
       238.0004        192.0004
   -425410.29149    -77495.31549  24684501.0834
       204.0004        118.0004
  -4401915.98849  -3154058.62249  24073448.3934   24073451.5514   24073449.5134
       201.0004        137.0004
 -15923569.67549 -12387192.53949  21254165.8834   21254169.5524   21254166.2664
       233.0004        183.0004
 11 10 13  1  9  0.0000000  0  8G28G05G10G08G07G15G02G26
  -4639913.88849  -3591870.67949  23388509.8244   23388513.7414   23388510.6224
       217.0004        149.0004
 -21374769.41549 -16640267.50749  20645933.7524   20645937.4084   20645934.4424
       239.0004        205.0004
 -10059053.61249  -7826726.20349  22528310.3864   22528314.9544   22528310.7104
       227.0004        168.0004
 -23455415.09249 -18246573.67449  20496511.0464   20496513.6424   20496510.5604
       244.0004        203.0004
 -17693052.67049 -13770232.53149  21551884.4074   21551885.7884   21551884.5804
       239.0004        191.0004
   -523909.90549   -154248.35449  24665757.5094
       204.0004        133.0004
  -4301759.33549  -3076014.54849  24092509.5154   24092510.0484   24092508.5714
       207.0004        138.0004
 -16000713.95049 -12447304.94549  21239486.1204   21239489.6444   21239486.4774
       233.0004        183.0004
 11 10 13  1  9 30.0000000  0  8G28G05G10G08G07G15G02G26
  -4730039.36249  -3662098.29349  23371360.1034   23371364.4874   23371360.0024
       218.0004        150.0004
 -21378879.39849 -16643470.09549  20645152.5634   20645155.1614   20645152.9754
       240.0004        205.0004
  -9959355.89049  -7749039.70449  22547281.9704   22547286.6814   22547282.8004
       226.0004        168.0004
 -23447380.68449 -18240313.08449  20498040.0884   20498042.1814   20498039.3174
       244.0004        203.0004
 -17624784.89349 -13717036.86049  21564874.7744   21564876.9514   21564875.5044
       238.0004        190.0004
   -622358.56049   -230961.44349  24647023.4404   24647023.6224
       205.0004        137.0004
  -4201486.58449  -2997879.94349  24111589.3594   24111591.1124   24111590.3094
       202.0004        138.0004
 -16077535.80649 -12507166.11349  21224868.2274   21224871.2194   21224867.7444
       234.0004        184.0004
 11 10 13  1 10  0.0000000  0  8G28G05G10G08G07G15G02G26
  -4819935.61249  -3732147.32849  23354255.0784   23354256.9434   23354254.2404
       221.0004        152.0004
 -21382421.62949 -16646230.27849  20644478.5844   20644480.8034   20644478.7874
       241.0004        205.0004
  -9859395.71049  -7671148.67349  22566304.0304   22566307.4974   22566304.0714
       227.0004        165.0004
 -23438843.65349 -18233660.85349  20499663.8764   20499667.0254   20499663.9004
       244.0004        203.0004
 -17556163.84349 -13663565.91449  21577932.4684   21577934.8794   21577933.4124
       238.0004        190.0004
   -720756.97949   -307635.48649  24628299.2214   24628299.4024   24628297.3194
       209.0004        142.0004
  -4101102.48649  -2919658.57549  24130695.7874   24130694.7424   24130694.0614
       205.0004        138.0004
 -16154035.37949 -12566776.16349  21210310.0694   21210313.5324   21210310.6504
       234.0004        185.0004
 11 10 13  1 10 30.0000000  0  8G28G05G10G08G07G15G02G26
  -4909599.14949  -3802014.96549  23337190.4114   23337195.2124   23337190.2044
       216.0004        152.0004
 -21385394.95949 -16648547.17249  20643912.9814   20643915.3224   20643913.1734
       241.0004        205.0004
  -9759174.39949  -7593054.16249  22585376.5474   22585379.4794   22585375.6154
       226.0004        166.0004
 -23429804.01349 -18226616.96949  20501384.5964   20501387.0174   20501384.2504
       244.0004        203.0004
 -17487190.91149 -13609820.77149  21591058.5034   21591060.6464   21591058.5124
       237.0004        189.0004
   -819103.33949   -384268.99749  24609582.4584   24609581.1084   24609583.0594
       207.0004        137.0004
  -4000609.23549  -2841352.22149  24149816.0924   24149820.7004   24149814.5574
       208.0004        140.0004
 -16230210.33849 -12626133.25649  21195815.0154   21195818.1714   21195815.5084
       234.0004        185.0004
 11 10 13  1 11  0.0000000  0  8G28G05G10G08G07G15G02G26
  -4999027.58349  -3871699.42449  23320172.3384   23320175.7964   23320172.9984
       217.0004        151.0004
 -21387798.89749 -16650420.37749  20643454.9174   20643457.5484   20643455.5834
       240.0004        205.0004
  -9658694.12349  -7514757.87449  22604496.0394   22604500.1434   22604495.4774
       225.0004        166.0004
 -23420262.48449 -18219182.00249  20503199.2574   20503202.6384   20503199.4164
       243.0004        202.0004
 -17417868.42549 -13555803.24849  21604249.1644   21604251.9554   21604249.6034
       236.0004        189.0004
   -917397.20049   -460861.62749  24590877.3404   24590878.9224   24590878.5654
       204.0004        135.0004
  -3900010.33349  -2762963.55449  24168960.0104   24168960.9934   24168960.3304
       210.0004        143.0004
 -16306059.74749 -12685236.68149  21181382.0924   21181384.2704   21181382.0154
       236.0004        185.0004
 11 10 13  1 11 30.0000000  0  8G28G05G10G08G07G15G02G26
  -5088217.92749  -3941198.36349  23303201.8834   23303204.3744   23303201.1294
       220.0004        153.0004
 -21389632.92449 -16651849.49249  20643106.2384   20643109.0164   20643106.5644
       241.0004        205.0004
  -9557957.23949  -7436261.63349  22623665.7034   22623669.3654   22623665.6404
       225.0004        165.0004
 -23410219.72749 -18211356.47349  20505111.2864   20505114.0294   20505110.8264
       244.0004        203.0004
 -17348198.29949 -13501514.85849  21617507.6774   21617509.8584   21617507.6744
       237.0004        189.0004
  -1015637.29849   -537412.25449  24572184.4174   24572184.7224   24572183.3194
       211.0004        143.0004
  -3799308.52449  -2684494.65549  24188120.9424   24188122.3344   24188124.5254
       205.0004        136.0004
 -16381581.76549 -12744084.99349  21167010.3194   21167012.7244   21167010.2894
       235.0004        185.0004
 11 10 13  1 12  0.0000000  0  8G28G05G10G08G07G15G02G26
  -5177168.21449  -4010510.23649  23286275.6534   23286277.8154   23286274.3854
       221.0004        153.0004
 -21390896.90749 -16652834.42649  20642866.2864   20642868.6464   20642866.4514
       241.0004        205.0004
  -9456965.74949  -7357566.99149  22642885.5764   22642887.2454   22642883.8774
       228.0004        164.0004
 -23399677.35249 -18203141.63149  20507117.0064   20507119.7694   20507116.8394
       244.0004        203.0004
 -17278182.99449 -13446957.48049  21630831.4974   21630833.4834   21630831.9314
       237.0004        191.0004
  -1113823.59149   -613921.04349  24553498.1334   24553499.9624   24553500.0024
       206.0004        141.0004
  -3698507.36149  -2605948.26249  24207303.9714   24207303.0634   24207301.6204
       199.0004        131.0004
 -16456775.63449 -12802677.59949  21152700.5064   21152703.7004   21152700.8324
       234.0004        185.0004
 11 10 13  1 12 30.0000000  0  8G28G05G10G08G07G15G02G26
  -5265875.24249  -4079632.56349  23269394.0814   23269397.5714   23269394.3844
       220.0004        153.0004
 -21391590.09549 -16653374.57349  20642732.7544   20642736.4954   20642733.5944
       239.0004        205.0004
  -9355721.41449  -7278675.32449  22662151.1184   22662154.8704   22662149.4734
       225.0004        166.0004
 -23388635.82749 -18194537.83549  20509218.8344   20509221.3514   20509218.1094
       243.0004        203.0004
 -17207824.16749 -13392132.42549  21644220.3444   21644221.5974   21644220.3874
       237.0004        189.0004
  -1211954.40349   -690386.62349  24534825.9904   24534826.3994   24534824.8434
       206.0004        137.0004
  -3597609.82049  -2527326.86649  24226500.9254   24226507.1724   24226501.5524
       203.0004        139.0004
 -16531639.55649 -12861013.12049  21138454.1824   21138457.7484   21138454.4474
       234.0004        184.0004
 11 10 13  1 13  0.0000000  0  8G28G05G10G08G07G15G02G26
  -5354336.73649  -4148563.58249  23252559.8084   23252562.5494   23252559.3944
       216.0004        151.0004
 -21391712.30449 -16653469.80949  20642710.4564   20642713.3044   20642710.9294
       240.0004        205.0004
  -9254226.48849  -7199588.41049  22681464.2164   22681468.9934   22681463.2764
       225.0004        166.0004
 -23377096.28849 -18185545.99149  20511413.8184   20511417.1194   20511413.7164
       243.0004        203.0004
 -17137123.98849 -13337041.38249  21657674.1344   21657675.7304   21657673.9784
       237.0004        189.0004
  -1310029.17149   -766808.52149  24516162.9654   24516164.0084   24516161.6304
       206.0004        140.0004
  -3496619.45349  -2448633.15649  24245721.6224   24245724.6964   24245721.4564
       208.0004        147.0004
 -16606172.48749 -12919090.71949  21124270.9744   21124274.6394   21124271.0094
       234.0004        184.0004
 11 10 13  1 13 30.0000000  0  8G28G05G10G08G07G15G02G26
  -5442549.70749  -4217300.90849  23235772.8064   23235776.3134   23235773.5174
       217.0004        150.0004
 -21391262.05549 -16653118.97749  20642797.4844   20642798.5114   20642797.3874
       241.0004        205.0004
  -9152482.55549  -7120307.45749  22700825.5334   22700828.3594   22700824.5114
       227.0004        166.0004
 -23365058.91449 -18176166.21149  20513704.7394   20513707.3754   20513704.4904
       243.0004        203.0004
 -17066084.28949 -13281685.77349  21671192.0824   21671193.9974   21671192.3724
       237.0004        189.0004
  -1408046.62349   -843185.73049  24497509.8074   24497510.3654   24497509.4944
       210.0004        142.0004
  -3395538.58949  -2369868.92449  24264956.6974   24264960.9434   24264956.1914
       200.0004        130.0004
 -16680372.47749 -12976908.88049  21110152.3404   21110154.1144   21110150.8724
       235.0004        184.0004
 11 10 13  1 14  0.0000000  0  8G28G05G10G08G07G15G02G26
  -5530511.72549  -4285842.70049  23219035.4304   23219038.6974   23219034.6354
       218.0004        153.0004
 -21390239.97449 -16652322.55149  20642989.8504   20642993.2784   20642990.8394
       240.0004        205.0004
  -9050492.83149  -7040834.96649  22720233.6734   22720237.5864   22720233.4954
       226.0004        165.0004
 -23352525.25449 -18166399.71849  20516090.4914   20516092.7894   20516089.9884
       245.0004        203.0004
 -16994707.68049 -13226067.63449  21684774.6484   21684777.0794   21684774.0284
       237.0004        190.0004
  -1506006.23449   -919517.83249  24478868.0814   24478871.1734   24478868.5604
       204.0004        140.0004
  -3294370.84749  -2291036.88949  24284208.5924                   24284210.5694
       198.0004        123.0004
 -16754238.95649 -13034467.16449  21096093.9044   21096098.4094   21096094.8904
       234.0004        185.0004
 11 10 13  1 14 30.0000000  0  8G28G05G10G08G07G15G02G26
  -5618219.50949  -4354186.36049  23202344.0334   23202348.1094   23202345.2594
       215.0004        152.0004
 -21388644.95949 -16651079.69549  20643294.9004   20643297.2204   20643294.9934
       240.0004        205.0004
  -8948258.17249  -6961171.62149  22739689.2794   22739692.7154   22739687.6454
       227.0004        166.0004
 -23339495.58049 -18156246.72049  20518569.7684   20518572.2604   20518569.1044
       244.0004        203.0004
 -16922995.32449 -13170187.89349  21698420.8364   21698423.1404   21698421.3774
       236.0004        189.0004
  -1603906.44149   -995803.71449  24460237.0674   24460241.6614   24460238.4314
       202.0004        135.0004
  -3193118.83049  -2212139.19649  24303477.0624   24303481.0734   24303477.0254
       216.0004        150.0004
 -16827769.47549 -13091763.65749  21082103.2374   21082106.1394   21082103.2484
       236.0004        186.0004
 11 10 13  1 15  0.0000000  0  8G28G05G10G08G07G15G02G26
  -5705671.10049  -4422330.43549  23185703.1444   23185706.0684   23185703.7884
       218.0004        153.0004
 -21386476.89449 -16649390.29749  20643706.3884   20643709.8694   20643707.2394
       241.0004        205.0004
  -8845780.86649  -6881319.19949  22759189.2734   22759192.6004   22759188.3174
       226.0004        165.0004
 -23325970.71349 -18145707.85949  20521143.4404   20521145.9974   20521143.1894
       244.0004        203.0004
 -16850949.72549 -13114048.47049  21712130.9584   21712132.7754   21712130.8594
       237.0004        189.0004
  -1701746.44549  -1072042.70649  24441619.8354   24441621.9424   24441620.2754
       207.0004        140.0004
  -3091785.65849  -2133178.34449  24322760.3054   24322763.8344   24322760.7524
       207.0004        148.0004
 -16900962.92749 -13148797.50649  21068174.9934   21068178.2894   21068175.3584
       236.0004        187.0004
 11 10 13  1 15 30.0000000  0  8G28G05G10G08G07G15G02G26
  -5792864.22849  -4490273.06849  23169112.6754   23169113.8774   23169111.1314
       219.0004        153.0004
 -21383735.79549 -16647254.38849  20644228.6184   20644231.3344   20644228.7224
       240.0004        205.0004
  -8743063.56849  -6801279.77249  22778735.8324   22778739.8554   22778734.8634
       227.0004        164.0004
 -23311952.37449 -18134784.46849  20523810.6114   20523813.2954   20523810.3284
       244.0004        203.0004
 -16778573.57949 -13057651.47249  21725904.2234   21725905.9784   21725904.1344
       237.0004        189.0004
  -1799525.97749  -1148234.50149  24423012.7604   24423015.7434   24423015.6344
       204.0004        143.0004
  -2990374.85149  -2054157.08349  24342053.0844   24342060.5854   24342050.9254
       193.0004        126.0004
 -16973818.69949 -13205568.22249  21054310.8724   21054313.5544   21054311.2984
       237.0004        187.0004
 11 10 13  1 16  0.0000000  0  8G28G05G10G08G07G15G02G26
  -5879795.42849  -4558011.60649  23152567.9714   23152572.3674   23152567.4204
       217.0004        153.0004
 -21380420.45649 -16644671.01349  20644858.7964   20644861.9824   20644859.5684
       240.0004        204.0004
  -8640107.50749  -6721054.27949  22798327.9744   22798331.3954   22798326.2134
       225.0004        164.0004
 -23297440.91249 -18123476.82949  20526572.4404   20526574.9454   20526571.9314
       245.0004        203.0004
 -16705868.22949 -13000997.96049  21739738.8904   21739741.0994   21739739.3614
       237.0004        189.0004
  -1897243.20649  -1224377.71649  24404418.7024   24404418.5934   24404417.9234
       208.0004        139.0004
  -2888889.25449  -1975077.38749  24361370.9974   24361366.8794   24361370.4964
       217.0004        130.0004
 -17046334.33449 -13262073.90849  21040511.8684   21040514.4014   21040512.0614
       237.0004        187.0004
 11 10 13  1 16 30.0000000  0  8G28G05G10G08G07G15G02G26
  -5966462.60449  -4625544.42649  23136074.3654   23136080.3864   23136075.2114
       216.0004        154.0004
 -21376531.56249 -16641640.71049  20645599.5404   20645602.3314   20645599.5854
       240.0004        205.0004
  -8536915.49149  -6640644.95249  22817964.2794   22817968.4384   22817962.8634
       225.0004        164.0004
 -23282437.76149 -18111786.05849  20529426.9284   20529429.7924   20529426.6824
       244.0004        202.0004
 -16632835.94349 -12944089.68149  21753636.9984   21753638.8354   21753636.8634
       237.0004        189.0004
  -1994897.86249  -1300472.24349  24385835.4884   24385836.6564   24385835.0054
       206.0004        138.0004
  -2787332.23149  -1895941.91649  24380694.8524   24380700.0974   24380694.9324
       209.0004        145.0004
 -17118509.32649 -13318314.14549  21026777.1004   21026780.3584   21026777.2364
       237.0004        187.0004
 11 10 13  1 17  0.0000000  0  8G28G05G10G08G07G15G02G26
  -6052862.69349  -4692869.13849  23119633.3414   23119638.1454   23119633.4354
       214.0004        153.0004
 -21372068.11849 -16638162.71849  20646449.4414   20646451.1174   20646449.7364
       241.0004        205.0004
  -8433489.30349  -6560053.14149  22837646.5874   22837648.9464   22837645.5214
       226.0004        164.0004
 -23266943.62949 -18099712.69749  20532375.5244   20532378.6094   20532374.8724
       244.0004        202.0004
 -16559478.74449 -12886928.23149  21767595.9654   21767597.9784   21767596.2194
       237.0004        190.0004
  -2092488.95649  -1376517.25049  24367264.0894   24367265.8034   24367265.2684
       208.0004        141.0004
  -2685706.52649  -1816753.19749  24400033.1654   24400039.1814   24400035.5074
       196.0004        136.0004
 -17190342.02649 -13374287.66249  21013106.8074   21013110.6184   21013107.3944
       236.0004        187.0004
 11 10 13  1 17 30.0000000  0  8G28G05G10G08G07G15G02G26
  -6138993.58249  -4759984.07649  23103244.8614   23103248.1194   23103245.4654
       219.0004        155.0004
 -21367030.14649 -16634237.03249  20647406.2254   20647409.9664   20647407.4054
       238.0004        204.0004
  -8329831.41749  -6479280.79749  22857371.0054   22857374.8594   22857370.9654
       222.0004        162.0004
 -23250959.88749 -18087257.83549  20535417.3004   20535420.0314   20535417.1224
       245.0004        202.0004
 -16485798.94249 -12829515.39949  21781617.1754   21781618.7864   21781617.6294
       238.0004        189.0004
  -2190015.43549  -1452511.84949  24348706.5724   24348709.0214   24348706.2734
       210.0004        146.0004
  -2584015.53049  -1737513.63949  24419382.6034   24419384.8574   24419383.5464
       202.0004        138.0004
 -17261831.04149 -13429993.36849  20999504.4484   20999506.3804   20999503.6174
       237.0004        187.0004
 11 10 13  1 18  0.0000000  0  8G28G05G10G08G07G15G02G26
  -6224852.33449  -4826886.92849  23086907.7494   23086909.6454   23086907.4114
       220.0004        154.0004
 -21361416.79949 -16629863.00249  20648474.5894   20648478.0784   20648475.3544
       239.0004        204.0004
  -8225943.00049  -6398328.80649  22877139.0994   22877143.5834   22877139.1404
       224.0004        160.0004
 -23234486.81749 -18074421.66049  20538552.3104   20538554.6924   20538551.7874
       245.0004        203.0004
 -16411798.14249 -12771852.43549  21795698.7534   21795700.9274   21795699.3744
       237.0004        189.0004
  -2287475.89949  -1528455.01449  24330160.2264   24330160.3614   24330160.1604
       206.0004        143.0004
  -2482261.81649  -1658224.99249  24438751.5294   24438747.9674   24438751.9214
       211.0004        136.0004
 -17332974.66849 -13485429.94749  20985964.9784   20985968.0714   20985965.3114
       238.0004        187.0004
 11 10 13  1 18 30.0000000  0  8G28G05G10G08G07G15G02G26
  -6310436.03549  -4893575.48449  23070620.3584   23070623.7914   23070620.6294
       219.0004        156.0004
 -21355228.00749 -16625040.57949  20649653.4624   20649656.4684   20649653.9974
       241.0004        205.0004
  -8121826.14549  -6317198.85049  22896953.3484   22896957.5864   22896952.3744
       226.0004        163.0004
 -23217525.56249 -18061205.09849  20541779.3514   20541782.4194   20541779.0934
       245.0004        203.0004
 -16337478.04549 -12713940.66949  21809841.4024   21809843.4654   21809841.3174
       237.0004        187.0004
  -2384869.35949  -1604345.96849  24311628.0924   24311629.8254   24311627.0034
       210.0004        143.0004
  -2380448.31449  -1578889.68049  24458122.3434   24458127.6644   24458121.8704
       197.0004        132.0004
 -17403771.17249 -13540596.04449  20972492.9764   20972496.7284   20972493.1904
       237.0004        187.0004
 11 10 13  1 19  0.0000000  0  8G28G05G10G08G07G15G02G26
  -6395742.67349  -4960048.16449  23054387.1684   23054388.8294   23054386.7814
       220.0004        153.0004
 -21348464.42949 -16619770.26549  20650939.6694   20650943.3324   20650940.5194
       239.0004        205.0004
  -8017483.76449  -6235893.12649  22916810.4004   22916812.7884   22916809.2254
       226.0004        162.0004
 -23200077.59749 -18047609.27649  20545099.7534   20545102.6384   20545099.3334
       245.0004        203.0004
 -16262841.63249 -12655782.43549  21824043.7744   21824047.0804   21824044.1174
       235.0004        187.0004
  -2482195.58949  -1680184.54949  24293105.4154   24293108.6234   24293105.1614
       207.0004        144.0004
  -2278578.82049  -1499511.00049  24477503.7254   24477513.1584   24477505.7454
       197.0004        134.0004
 -17474220.27549 -13595491.43249  20959087.6214   20959090.7524   20959087.5334
       238.0004        188.0004
 11 10 13  1 19 30.0000000  0  8G28G05G10G08G07G15G02G26
  -6480769.56049  -5026302.84849  23038206.6674   23038210.6434   23038206.3014
       221.0004        155.0004
 -21341125.27749 -16614051.45549  20652336.4794   20652339.8444   20652337.3404
       240.0004        205.0004
  -7912917.84649  -6154413.22949  22936706.4784   22936709.7614   22936706.6814
       223.0004        158.0004
 -23182144.05849 -18033635.09349  20548512.1284   20548515.4884   20548512.2114
       244.0004        203.0004
 -16187890.80749 -12597379.20349  21838306.1524   21838308.9074   21838306.9914
       235.0004        186.0004
  -2579453.24449  -1755969.73349  24274596.6874   24274600.7374   24274598.2664
       206.0004        145.0004
  -2176656.31549  -1420090.95249  24496902.2674   24496902.6574   24496900.7494
       206.0004        136.0004
 -17544320.10249 -13650114.65249  20945746.9364   20945751.0284   20945747.2194
       236.0004        188.0004
 11 10 13  1 20  0.0000000  0  8G28G05G10G08G07G15G02G26
  -6565513.92249  -5092337.38849  23022080.8954   23022084.3614   23022080.9534
       221.0004        156.0004
 -21333209.90949 -16607883.65149  20653844.5524   20653845.7064   20653844.3684
       241.0004        205.0004
  -7808130.05449  -6072760.43749  22956646.4724   22956651.0794   22956646.0024
       221.0004        160.0004
 -23163725.36749 -18019282.85949  20552017.7414   20552020.4804   20552017.2494
       245.0004        202.0004
 -16112627.22149 -12538732.26149  21852627.7744   21852630.5304   21852629.0374
       234.0004        185.0004
  -2676640.88149  -1831700.29649  24256103.9174   24256106.1994   24256104.7524
       205.0004        146.0004
  -2074683.24649  -1340631.40849  24516309.5074   24516311.1944   24516308.7834
       200.0004        135.0004
 -17614069.14549 -13704464.53649  20932474.5214   20932478.0404   20932475.0484
       237.0004        189.0004
 11 10 13  1 20 30.0000000  0  8G28G05G10G08G07G15G02G26
  -6649973.37849  -5158149.92149  23006008.3864   23006010.7524   23006008.0544
       222.0004        155.0004
 -21324718.48449 -16601266.96249  20655458.6574   20655461.7964   20655459.3994
       239.0004        204.0004
  -7703122.90049  -5990936.69749  22976629.6304   22976635.1584   22976629.5914
       223.0004        162.0004
 -23144822.77149 -18004553.55749  20555614.5734   20555616.7624   20555614.2004
       245.0004        202.0004
 -16037053.19749 -12479843.40149  21867010.7494   21867012.0974   21867010.3074
       237.0004        186.0004
  -2773758.16049  -1907376.00849  24237624.1494   24237625.3734   24237624.4054
       210.0004        144.0004
  -1972662.80749  -1261135.06149  24535720.4664   24535724.4074   24535722.1514
       200.0004        131.0004
 -17683466.03849 -13758540.01949  20919269.5394   20919271.9374   20919269.5754
       238.0004        189.0004
 11 10 13  1 21  0.0000000  0  8G28G05G10G08G07G15G02G26
  -6734145.23349  -5223738.36249  22989991.6584   22989993.9014   22989990.9164
       224.0004        156.0004
 -21315651.05549 -16594201.43149  20657183.5404   20657187.3954   20657184.5024
       239.0004        204.0004
  -7597898.48249  -5908943.67249  22996651.1644   22996657.5734   22996651.5394
       220.0004        158.0004
 -23125437.59849 -17989448.21749  20559303.0444   20559305.7154   20559302.5814
       244.0004        202.0004
 -15961170.89749 -12420714.32749  21881449.9024   21881452.6494   21881450.0204
       235.0004        186.0004
  -2870804.15249  -1982996.23449  24219156.5684   24219157.6534   24219156.6244
       211.0004        145.0004
  -1870598.10949  -1181604.08849  24555140.5894   24555144.9294   24555141.3274
       199.0004        131.0004
 -17752509.56649 -13812340.15549  20906130.7834   20906133.6284   20906130.5914
       238.0004        189.0004
 11 10 13  1 21 30.0000000  0  8G28G05G10G08G07G15G02G26
  -6818026.79449  -5289100.58049  22974028.8874   22974030.5474   22974028.2434
       223.0004        158.0004
 -21306007.32249 -16586686.84749  20659020.0534   20659022.2204   20659020.3124
       241.0004        204.0004
  -7492458.45649  -5826782.63149  23016717.4184   23016721.5154   23016716.3024
       220.0004        157.0004
 -23105570.36149 -17973967.25549  20563083.9504   20563086.4864   20563083.8674
       245.0004        202.0004
 -15884981.96949 -12361346.34449  21895948.1094   21895950.4204   21895948.4504
       234.0004        185.0004
  -2967777.16149  -2058559.59749  24200703.9414   24200705.0604   24200703.9094
       210.0004        147.0004
  -1768492.30049  -1102041.15949  24574577.5614   24574577.1024   24574574.5584
       208.0004        137.0004
 -17821198.05149 -13865863.63649  20893059.0534   20893062.1974   20893059.4014
       239.0004        189.0004
 11 10 13  1 22  0.0000000  0  8G28G05G10G08G07G15G02G26
  -6901615.65249  -5354234.70849  22958123.6894   22958124.0404   22958122.6324
       223.0004        158.0004
 -21295786.94549 -16578722.92949  20660965.8224   20660967.2444   20660965.7444
       241.0004        205.0004
  -7386805.02549  -5744455.31449  23036825.0194   23036827.4134   23036821.9704
       222.0004        158.0004
 -23085222.56149 -17958111.81949  20566955.8824   20566958.6694   20566955.4754
       244.0004        202.0004
 -15808488.84749 -12301741.31049  21910504.8404   21910506.8984   21910504.9244
       236.0004        185.0004
  -3064676.73049  -2134065.63349  24182262.4534   24182265.5894   24182262.8154
       207.0004        145.0004
  -1666348.36349  -1022448.53549  24594015.7584   24594013.1084   24594010.2924
       197.0004        131.0004
 -17889530.12249 -13919109.39549  20880056.6504   20880059.4424   20880056.3854
       239.0004        189.0004
 11 10 13  1 22 30.0000000  0  8G28G05G10G08G07G15G02G26
  -6984909.59049  -5419139.03149  22942271.6844   22942275.7204   22942272.0614
       222.0004        157.0004
 -21284990.34949 -16570310.00249  20663018.2804   20663022.1754   20663019.4444
       240.0004        204.0004
  -7280940.77149  -5661963.74549  23056969.1224   23056972.7754   23056968.8424
       221.0004        158.0004
 -23064395.69149 -17941883.09149  20570919.6554   20570921.9844   20570919.5024
       245.0004        203.0004
 -15731693.44049 -12241900.73349  21925118.9364   21925120.4344   21925118.6664
       235.0004        185.0004
  -3161501.83549  -2209513.72049  24163837.9194   24163840.5854   24163837.9964
       212.0004        146.0004
  -1564169.77849   -942828.82549  24613449.9174   24613457.2444   24613452.0174
       194.0004        130.0004
 -17957504.90549 -13972076.74649  20867121.4124   20867124.1224   20867121.6924
       239.0004        190.0004
 11 10 13  1 23  0.0000000  0  8G28G05G10G08G07G15G02G26
  -7067905.95749  -5483811.49449  22926478.3514   22926481.1634   22926477.4474
       222.0004        159.0004
 -21273617.27349 -16561447.87849  20665183.7204   20665186.4874   20665184.2304
       240.0004        204.0004
  -7174867.49549  -5579309.27649  23077152.7064   23077158.2604   23077152.4054
       220.0004        157.0004
 -23043090.45149 -17925281.60149  20574973.2074   20574976.4854   20574972.7714
       244.0004        203.0004
 -15654597.89249 -12181826.28849  21939788.8184   21939791.7674   21939789.2324
       234.0004        186.0004
  -3258251.66849  -2284903.22349  24145425.9944   24145428.5234   24145427.3884
       205.0004        143.0004
  -1461958.90649   -863183.98849  24632906.2804   24632906.3804   24632903.1164
       205.0004        130.0004
 -18025120.87849 -14024764.50349  20854253.3984   20854257.8844   20854254.1034
       238.0004        189.0004
 11 10 13  1 23 30.0000000  0  8G28G05G10G08G07G15G02G26
  -7150602.07349  -5548250.01749  22910741.2644   22910745.2254   22910741.7424
       223.0004        160.0004
 -21261667.66549 -16552136.50149  20667456.7654   20667459.9714   20667457.5794
       239.0004        203.0004
  -7068587.31749  -5496493.59149  23097377.7264   23097381.6064   23097378.2824
       222.0004        159.0004
 -23021308.04849 -17908308.30049  20579118.6154   20579121.1474   20579118.7624
       245.0004        203.0004
 -15577204.52249 -12121519.77249  21954516.6834   21954518.8694   21954516.8184
       234.0004        184.0004
  -3354925.15649  -2360233.14749  24127029.1434   24127033.1454   24127029.4454
       204.0004        142.0004
  -1359718.98749   -783516.60649  24652367.2864   24652360.7084   24652364.4164
       204.0004        132.0004
 -18092376.50149 -14077171.46249  20841455.5844   20841459.5834   20841455.8144
       239.0004        190.0004
 11 10 13  1 24  0.0000000  0  8G28G05G10G08G07G15G02G26
  -7232995.15349  -5612452.36349  22895064.0444   22895065.6004   22895061.5824
       224.0004        159.0004
 -21249141.51449 -16542375.86749  20669839.8644   20669843.8004   20669840.5274
       239.0004        203.0004
  -6962102.26349  -5413518.24449  23117640.5174   23117644.9604   23117640.1614
       220.0004        157.0004
 -22999049.37749 -17890963.87349  20583354.0264   20583357.1344   20583353.4874
       244.0004        202.0004
 -15499514.70949 -12060982.26149  21969299.5094   21969302.4964   21969300.8694
       233.0004        182.0004
  -3451520.91649  -2435502.53349  24108648.8074   24108651.8974   24108648.9064
       207.0004        146.0004
  -1257452.87549   -703828.72349  24671815.6964   24671822.8574   24671816.1114
       192.0004        131.0004
 -18159270.36649 -14129296.53549  20828725.9944   20828729.9454   20828726.5674
       239.0004        191.0004
 11 10 13  1 24 30.0000000  0  8G28G05G10G08G07G15G02G26
  -7315083.29749  -5676417.12649  22879441.6824   22879445.7314   22879441.2284
       223.0004        161.0004
 -21236039.02949 -16532166.15749  20672334.3724   20672336.7234   20672334.5794
       240.0004        203.0004
  -6855414.81449  -5330385.20949  23137942.0714   23137947.4374   23137942.5384
       220.0004        157.0004
 -22976315.97849 -17873249.53649  20587680.3714   20587683.1604   20587680.4374
       245.0004        203.0004
 -15421531.16049 -12000215.85949  21984140.9414   21984141.3224   21984140.7304
       234.0004        183.0004
  -3548038.27949  -2510710.82949  24090282.7734   24090285.0774   24090281.2854
       209.0004        145.0004
  -1155164.10749   -624123.21149  24691284.2924   24691289.4594   24691286.2564
       202.0004        130.0004
 -18225801.35749 -14181138.86149  20816066.4844   20816069.0184   20816066.7194
       240.0004        191.0004
 11 10 13  1 25  0.0000000  0  8G28G05G10G08G07G15G02G26
  -7396863.36649  -5740141.81649  22863879.5884   22863883.3664   22863877.8504
       223.0004        158.0004
 -21222359.78049 -16521507.00949  20674937.8394   20674940.0824   20674938.4114
       242.0004        204.0004
  -6748526.40749  -5247095.58149  23158283.7694   23158288.5804   23158282.7054
       223.0004        158.0004
 -22953108.65849 -17855165.90149  20592096.6364   20592099.0584   20592096.0254
       244.0004        202.0004
 -15343255.40249 -11939221.76349  21999035.7634   21999038.3694   21999035.8804
       234.0004        184.0004
  -3644476.13849  -2585857.20249  24071928.9784   24071934.2874   24071930.8754
       204.0004        145.0004
  -1052854.60549   -544401.51749  24710760.7414   24710758.7314   24710757.8754
       207.0004        131.0004
 -18291967.46849 -14232696.86949  20803474.6854   20803477.7614   20803475.5024
       239.0004        191.0004
 11 10 13  1 25 30.0000000  0  8G28G05G10G08G07G15G02G26
  -7478333.04149  -5803624.64749  22848376.5274   22848379.8214   22848375.9234
       223.0004        159.0004
 -21208104.15449 -16510398.74849  20677651.1144   20677652.4604   20677650.9764
       241.0004        203.0004
  -6641439.58949  -5163651.32549  23178661.5594   23178664.9034   23178659.7654
       221.0004        155.0004
 -22929428.61149 -17836713.91549  20596602.6524   20596605.5304   20596602.6604
       245.0004        203.0004
 -15264689.52849 -11878001.60549  22013986.5204   22013987.9364   22013986.4704
       234.0004        184.0004
  -3740833.05649  -2660940.43849  24053593.7414   24053596.4464   24053594.9744
       211.0004        146.0004
   -950528.08149   -464666.57849  24730223.4464   24730228.1634   24730223.6994
       196.0004        130.0004
 -18357767.94549 -14283969.96449  20790953.6364   20790956.1764   20790954.0284
       239.0004        190.0004
 11 10 13  1 26  0.0000000  0  8G28G05G10G08G07G15G02G26
  -7559489.60949  -5866863.49949  22832933.1514   22832936.2584   22832933.1554
       223.0004        161.0004
 -21193272.11249 -16498841.31749  20680472.3664   20680475.0434   20680472.8174
       240.0004        203.0004
  -6534156.32549  -5080053.99949  23199075.1224   23199081.8084   23199076.5794
       217.0004        157.0004
 -22905277.17649 -17817894.60949  20601198.6344   20601201.2844   20601197.8154
       244.0004        202.0004
 -15185835.81549 -11816557.16249  22028991.3364   22028993.6004   22028991.8444
       235.0004        185.0004
  -3837108.70349  -2735960.40549  24035274.2714   24035276.8924   24035274.2274
       207.0004        146.0004
   -848187.55349   -384920.78249  24749700.8624   24749703.4804   24749702.6884
       202.0004        134.0004
 -18423201.32049 -14334957.00549  20778502.1084   20778504.8664   20778501.7864
       239.0004        190.0004
 11 10 13  1 26 30.0000000  0  8G28G05G10G08G07G15G02G26
  -7640330.97249  -5929856.71649  22817549.8334   22817551.0954   22817549.2394
       223.0004        162.0004
 -21177863.50249 -16486834.61049  20683403.8124   20683407.3824   20683404.4484
       239.0004        203.0004
  -6426678.63049  -4996305.18549  23219527.8674   23219534.4324   23219527.9574
       220.0004        157.0004
 -22880655.31049 -17798708.74349  20605883.3034   20605886.3064   20605883.4154
       245.0004        201.0004
 -15106696.09049 -11754889.84449  22044051.0424   22044053.2994   22044051.2884
       234.0004        184.0004
  -3933301.62749  -2810915.90249  24016967.4664   24016970.2894   24016968.4234
       207.0004        144.0004
   -745835.72749   -305166.14849  24769183.1984   24769181.3694   24769182.6854
       206.0004        130.0004
 -18488266.07449 -14385656.79949  20766119.2624   20766123.9094   20766119.8624
       237.0004        190.0004
 11 10 13  1 27  0.0000000  0  8G28G05G10G08G07G15G02G26
  -7720854.80249  -5992602.51249  22802226.6874   22802228.5334   22802226.4934
       225.0004        164.0004
 -21161879.18549 -16474379.31049  20686446.7034   20686449.4104   20686446.8944
       240.0004        203.0004
  -6319009.33849  -4912407.07449  23240018.4414   23240021.6964   23240017.8554
       223.0004        157.0004
 -22855564.79549 -17779157.69149  20610657.1194   20610661.4184   20610657.3774
       242.0004        201.0004
 -15027272.80749 -11693001.58149  22059164.5174   22059167.3064   22059165.2364
       233.0004        184.0004
  -4029410.75149  -2885806.07649  23998679.2524   23998682.4494   23998678.9534
       209.0004        143.0004
   -643476.04049   -225405.33449  24788659.9244   24788659.8954   24788660.8564
       204.0004        131.0004
 -18552961.08949 -14436068.49249  20753809.0554   20753813.0164   20753809.2854
       238.0004        190.0004
 11 10 13  1 27 30.0000000  0  8G28G05G10G08G07G15G02G26
  -7801057.96249  -6055098.44349  22786964.8964   22786967.5994   22786963.3594
       224.0004        163.0004
 -21145318.12649 -16461474.59449  20689596.9764   20689600.7264   20689598.0084
       240.0004        203.0004
  -6211149.58749  -4828360.55849  23260543.8264   23260545.6054   23260542.2794
       220.0004        155.0004
 -22830005.75849 -17759241.55549  20615522.4854   20615524.5934   20615521.9374
       244.0004        202.0004
 -14947567.29849 -11630893.39449  22074333.3784   22074334.7704   22074332.6134
       234.0004        183.0004
  -4125434.76249  -2960629.97649  23980407.0644   23980411.1304   23980406.7234
       210.0004        148.0004
   -541110.58249   -145639.98349  24808132.7114   24808138.1174   24808133.3704
       195.0004        128.0004
 -18617284.34649 -14486190.49849  20741569.1764   20741572.7574   20741569.3294
       238.0004        191.0004
 11 10 13  1 28  0.0000000  0  8G28G05G10G08G07G15G02G26
  -7880938.67249  -6117343.10849  22771762.7254   22771766.7074   22771762.9674
       223.0004        163.0004
 -21128181.44749 -16448121.35649  20692858.7764   20692861.7844   20692859.7244
       241.0004        203.0004
  -6103102.36749  -4744167.94549  23281104.9434   23281107.3974
       224.0004        155.0004
 -22803980.52449 -17738962.15949  20620473.7624   20620477.3064   20620474.1664
       243.0004        202.0004
 -14867582.37249 -11568567.48049  22089552.8184   22089555.2654   22089553.4724
       233.0004        183.0004
  -4221373.94549  -3035387.72849  23962145.9244   23962152.3544   23962147.3684
       205.0004        144.0004
   -438742.98949    -65873.04349  24827616.5834   24827622.3104   24827615.9414
       198.0004        126.0004
 -18681235.54649 -14536022.60549  20729400.0124   20729402.8224   20729400.3814
       239.0004        191.0004
 11 10 13  1 28 30.0000000  0  8G28G05G10G08G07G15G02G26
  -7960493.68349  -6179333.99049  22756624.5434   22756627.1324   22756623.9504
       225.0004        162.0004
 -21110468.80149 -16434319.30349  20696230.2594   20696232.4364   20696230.9984
       242.0004        204.0004
  -5994869.12049  -4659830.37649  23301700.8284   23301704.4764   23301699.5204
       222.0004        157.0004
 -22777489.56449 -17718319.84549  20625516.0504   20625518.3194   20625515.5694
       244.0004        202.0004
 -14787319.06049 -11506024.64049  22104827.0554   22104828.4714   22104827.2644
       235.0004        184.0004
  -4317225.67449  -3110077.32749  23943908.7324   23943913.9484   23943910.6974
       209.0004        146.0004
   -336375.96549     13893.36749  24847098.4794   24847098.2624   24847097.7934
       207.0004        128.0004
 -18744812.44249 -14585563.03349  20717301.6704   20717304.6854   20717302.4474
       240.0004        190.0004
 11 10 13  1 29  0.0000000  0  8G28G05G10G08G07G15G02G26
  -8039721.21249  -6241069.67949  22741547.0764   22741550.7364   22741547.1714
       224.0004        163.0004
 -21092180.71249 -16420068.86149  20699710.5054   20699712.1524   20699710.5934
       241.0004        203.0004
  -5886452.60249  -4575350.00149  23322331.3984   23322335.7264   23322329.6714
       219.0004        152.0004
 -22750534.72249 -17697316.07349  20630644.1214   20630647.6194   20630644.3384
       243.0004        201.0004
 -14706780.44349 -11443267.29149  22120153.2294   22120154.6924   22120153.1594
       234.0004        183.0004
  -4412989.53149  -3184698.55149  23925686.4094   23925688.7394   23925686.3804
       208.0004        144.0004
   -234012.71649     93656.89049  24866574.7804   24866579.2044   24866574.4994
       202.0004        131.0004
 -18808014.30249 -14634811.23149  20705274.1024   20705277.6124   20705274.6854
       238.0004        190.0004
 11 10 13  1 29 30.0000000  0  8G28G05G10G08G07G15G02G26
  -8118618.23749  -6302547.84049  22726534.2614   22726537.5684   22726533.6324
       225.0004        162.0004
 -21073316.85049 -16405369.74849  20703298.3644   20703302.2314   20703299.1664
       240.0004        203.0004
  -5777854.42349  -4490728.04949  23342996.9044   23342999.1004   23342995.5884
       219.0004        153.0004
 -22723116.66549 -17675951.34749  20635863.2404   20635864.7834   20635862.7134
       245.0004        201.0004
 -14625968.12449 -11380296.65849  22135530.3264   22135532.1184   22135531.2774
       233.0004        180.0004
  -4508664.00949  -3259250.00949  23907478.4634   23907484.2894   23907479.4374
       210.0004        148.0004
   -131655.29249    173415.92749  24886051.0584   24886055.3994   24886051.6294
       200.0004        132.0004
 -18870839.10149 -14683765.60849  20693318.6204   20693322.3284   20693318.9484
       238.0004        190.0004
 11 10 13  1 30  0.0000000  0  8G28G05G10G08G07G15G02G26
  -8197183.22149  -6363767.26949  22711583.9004   22711586.9424   22711582.3214
       225.0004        164.0004
 -21053878.22949 -16390222.78549  20706998.4404   20707000.7934   20706998.9914
       241.0004        203.0004
  -5669077.33149  -4405966.68149  23363693.9774   23363701.2524   23363694.8764
       215.0004        152.0004
 -22695237.59149 -17654227.39649  20641167.1204   20641170.3924   20641167.4704
       244.0004        201.0004
 -14544884.33249 -11317114.48249  22150960.5594   22150962.7754   22150960.8074
       232.0004        181.0004
  -4604249.10749  -3333731.85949  23889289.1694   23889294.2164   23889290.7774
       208.0004        147.0004
    -29307.71249    253167.24849  24905531.4904   24905532.5374   24905528.9224
       203.0004        132.0004
 -18933286.16849 -14732425.65649  20681435.3544   20681439.2114   20681435.5854
       238.0004        190.0004
 11 10 13  1 30 30.0000000  0  8G28G05G10G08G07G15G02G26
  -8275413.29349  -6424725.73349  22696697.8664   22696699.8634   22696696.9264
       226.0004        165.0004
 -21033864.49049 -16374627.68449  20710807.4154   20710809.8654   20710807.8054
       241.0004        203.0004
  -5560122.94749  -4321067.19949  23384427.1894   23384434.4874   23384427.0654
       213.0004        151.0004
 -22666898.01449 -17632144.60749  20646560.7804   20646563.3794   20646560.1764
       245.0004        202.0004
 -14463530.71849 -11253722.06749  22166441.6354   22166443.5294   22166442.1614
       233.0004        180.0004
  -4699743.03649  -3408142.67949  23871117.7944   23871122.0534   23871118.0644
       210.0004        147.0004
     73027.62949    332909.05749  24925007.7504   24925006.4064   24925005.5414
       202.0004        130.0004
 -18995353.79949 -14780790.03849  20669625.1304   20669627.9414   20669625.0834
       240.0004        191.0004
 11 10 13  1 31  0.0000000  0  8G28G05G10G08G07G15G02G26
  -8353305.41049  -6485420.85349  22681874.1774   22681876.9044   22681874.6004
       225.0004        164.0004
 -21013275.89249 -16358584.62649  20714724.2984   20714727.6854   20714725.0324
       240.0004        203.0004
  -5450992.87549  -4236030.83249  23405195.9344   23405200.0244   23405194.9784
       217.0004        151.0004
 -22638098.68749 -17609703.56749  20652039.6374   20652043.4504   20652039.7274
       243.0004        201.0004
 -14381909.04149 -11190120.76949  22181973.9664   22181975.9664   22181973.7654
       233.0004        181.0004
  -4795144.34049  -3482481.32849  23852964.5334   23852968.6664   23852965.1094
       212.0004        148.0004
    175348.10649    412639.23649  24944472.4544   24944476.6214   24944472.8224
       195.0004        129.0004
 -19057040.31949 -14828857.45449  20657886.3024   20657889.5694   20657886.5084
       239.0004        193.0004
 11 10 13  1 31 30.0000000  0  8G28G05G10G08G07G15G02G26
  -8430858.11049  -6545851.48549  22667116.1824   22667119.9914   22667116.1414
       226.0004        166.0004
 -20992113.68749 -16342094.60249  20718751.3994   20718754.9644   20718752.3584
       241.0004        203.0004
  -5341690.80749  -4150860.39549  23425997.0234   23426000.2754   23425995.1424
       217.0004        151.0004
 -22608842.08449 -17586906.21749  20657608.3944   20657610.9584   20657608.1494
       245.0004        201.0004
 -14300022.41549 -11126313.01749  22197556.1824   22197558.3334   22197556.5854
       233.0004        181.0004
  -4890452.99349  -3556747.78849  23834828.4304   23834831.2054   23834829.0664
       213.0004        150.0004
    277650.19749    492355.08549  24963940.2864   24963948.1534   24963939.4184
       198.0004        125.0004
 -19118345.25749 -14876627.53149  20646221.2164   20646223.8734   20646221.0724
       240.0004        193.0004
 11 10 13  1 32  0.0000000  0  8G28G05G10G08G07G15G02G26
  -8508068.60949  -6606015.50149  22652424.1944   22652426.7154   22652424.3654
       225.0004        165.0004
 -20970377.54249 -16325157.36949  20722889.3114   20722890.9574   20722889.6704
       243.0004        203.0004
  -5232218.12849  -4065557.03849  23446827.6244   23446831.0584   23446827.6274
       213.0004        150.0004
 -22579129.05949 -17563753.21449  20663262.0864   20663264.9954   20663262.0834
       244.0004        201.0004
 -14217872.29349 -11062299.94649  22213188.7414   22213191.2454   22213188.9254
       232.0004        180.0004
  -4985667.43249  -3630940.80949  23816710.3614   23816712.6024   23816710.4594
       214.0004        151.0004
    379931.27449    572054.55249  24983405.0214   24983409.8964   24983405.4244
       196.0004        127.0004
 -19179267.08849 -14924099.07149  20634627.7554   20634630.7954   20634627.8284
       240.0004        194.0004
 11 10 13  1 32 30.0000000  0  8G28G05G10G08G07G15G02G26
  -8584934.20849  -6665910.74149  22637798.0524   22637799.1514   22637797.7524
       228.0004        165.0004
 -20948067.35549 -16307772.82049  20727133.7924   20727136.0684   20727134.3484
       241.0004        202.0004
  -5122576.41249  -3980121.96949  23467691.0254   23467696.2944   23467690.1424
       214.0004        151.0004
 -22548960.38949 -17540245.15349  20669004.1774   20669006.1574   20669003.2094
       246.0004        201.0004
 -14135459.96249 -10998082.56149  22228871.0294   22228873.2164   22228872.0104
       232.0004        179.0004
  -5080786.11849  -3705059.20949  23798608.8534   23798612.7164   23798608.1424
       212.0004        148.0004
    482188.88849    651735.78649  25002864.6684   25002867.9854   25002865.0874
       193.0004        121.0004
 -19239803.68949 -14971270.43849  20623107.7644   20623111.5894   20623108.2124
       240.0004        194.0004
 11 10 13  1 33  0.0000000  0  8G28G05G10G08G07G15G02G26
  -8661452.77649  -6725535.58149  22623236.2294   22623238.0084   22623235.3634
       227.0004        166.0004
 -20925183.63249 -16289941.35649  20731487.4844   20731490.7824   20731488.5334
       240.0004        202.0004
  -5012768.17649  -3894557.15749  23488587.8594   23488592.5244   23488587.5624
       217.0004        152.0004
 -22518337.75049 -17516383.36049  20674829.3224   20674833.2904   20674829.3524
       244.0004        201.0004
 -14052788.01949 -10933662.85249  22244603.9684   22244606.1014   22244604.1384
       232.0004        180.0004
  -5175808.30749  -3779102.47849  23780527.8594   23780529.5144   23780527.4264
       213.0004        148.0004
    584420.05549    731396.42449  25022317.9284                   25022312.6414
       193.0004        121.0004
 -19299954.15549 -15018140.91949  20611660.5554   20611664.1614   20611660.8694
       239.0004        193.0004
 11 10 13  1 33 30.0000000  0  8G28G05G10G08G07G15G02G26
  -8737622.10649  -6784888.28049  22608740.4884   22608744.0274   22608739.7344
       225.0004        166.0004
 -20901727.19149 -16271663.62149  20735951.3964   20735954.6304   20735952.2064
       240.0004        201.0004
  -4902796.08949  -3808864.67349  23509514.0984   23509519.6544   23509513.8004
       217.0004        151.0004
 -22487262.70849 -17492169.03749  20680744.7884   20680746.6954   20680744.1324
       246.0004        201.0004
 -13969858.75549 -10869042.64749  22260384.5754   22260386.7994   22260385.2754
       233.0004        180.0004
  -5270733.04849  -3853069.77549  23762463.2344   23762466.1394   23762463.4694
       212.0004        149.0004
    686621.34849    811033.81249  25041768.1004                   25041768.1664
       188.0004        118.0004
 -19359717.46749 -15064709.72849  20600289.3594   20600291.7934   20600289.3044
       241.0004        194.0004
 11 10 13  1 34  0.0000000  0  8G28G05G10G08G07G15G02G26
  -8813439.62649  -6843966.83749  22594313.9564   22594315.4644   22594313.5914
       226.0004        165.0004
 -20877698.56049 -16252940.02949  20740524.6204   20740527.1074   20740525.1694
       240.0004        201.0004
  -4792661.86149  -3723045.82249  23530470.8824   23530476.5564   23530470.1024
       216.0004        152.0004
 -22455736.36549 -17467603.05549  20686743.0274   20686746.1374   20686742.9274
       245.0004        201.0004
 -13886673.86249 -10804223.26849  22276214.5364   22276216.2104   22276214.6194
       233.0004        178.0004
  -5365559.09249  -3926960.15949  23744417.5444   23744421.4994   23744418.3534
       211.0004        151.0004
    788790.37949    890645.92749  25061211.1144                   25061211.5894
       190.0004        122.0004
 -19419091.97649 -15110975.57649  20588990.3414   20588992.5844   20588990.6384
       242.0004        194.0004
 11 10 13  1 34 30.0000000  0  8G28G05G10G08G07G15G02G26
  -8888903.32549  -6902769.70549  22579954.2824   22579955.3654   22579954.7224
       227.0004        167.0004
 -20853097.85149 -16233770.65449  20745204.2324   20745208.1844   20745205.4594
       238.0004        201.0004
  -4682367.66249  -3637102.32849  23551461.0494   23551465.1584   23551459.4814
       221.0004        153.0004
 -22423760.64349 -17442686.90749  20692828.5704   20692830.5674   20692828.0474
       246.0004        201.0004
 -13803235.67349 -10739206.51149  22292092.0954   22292093.5214   22292092.2434
       232.0004        179.0004
  -5460285.58849  -4000772.95049  23726392.4284   23726394.9104   23726391.9504
       213.0004        150.0004
    890923.77549    970230.34849  25080644.6964
       189.0004        119.0004
 -19478076.56849 -15156937.59649  20577766.5864   20577768.8404   20577767.2674
       242.0004        195.0004
 11 10 13  1 35  0.0000000  0  8G28G05G10G08G07G15G02G26
  -8964010.56649  -6961294.79349  22565660.4944   22565663.5764   22565661.1914
       227.0004        167.0004
 -20827925.45249 -16214155.81249  20749995.2244   20749997.9394   20749995.7914
       239.0004        200.0004
  -4571915.81149  -3551035.98349  23572479.4214   23572483.1584   23572478.0764
       219.0004        153.0004
 -22391336.28449 -17417421.17449  20698997.7624   20699000.8654   20698997.7444
       245.0004        201.0004
 -13719545.69549 -10673993.55549  22308017.8854   22308018.6164   22308018.0374
       232.0004        178.0004
  -5554911.42549  -4074507.38149  23708385.5164   23708388.6284   23708385.9744
       214.0004        150.0004
    993019.42449   1049785.36549  25100072.1644                   25100070.1974
       182.0004        116.0004
 -19536669.88049 -15202594.72349  20566616.3004   20566619.1004   20566616.3924
       240.0004        194.0004
 11 10 13  1 35 30.0000000  0  8G28G05G10G08G07G15G02G26
  -9038758.43049  -7019539.85249  22551437.8564   22551440.5944   22551436.7964
       228.0004        167.0004
 -20802181.30649 -16194095.45249  20754895.4244   20754897.1584   20754895.4554
       240.0004        200.0004
  -4461307.76049  -3464847.94549  23593527.3004   23593530.7454   23593527.3154
       218.0004        150.0004
 -22358464.04049 -17391806.43349  20705253.5774   20705256.5074   20705253.4734
       246.0004        201.0004
 -13635605.78149 -10608585.82649  22323991.4964   22323991.9344   22323990.7194
       233.0004        178.0004
  -5649434.47449  -4148161.66249  23690398.6664   23690402.2274   23690397.8634
       214.0004        150.0004
   1095075.18449   1129309.29449  25119492.7964
       183.0004        119.0004
 -19594869.91349 -15247945.37849  20555540.3664   20555543.8964   20555540.5744
       240.0004        194.0004
 11 10 13  1 36  0.0000000  0  8G28G05G10G08G07G15G02G26
  -9113145.70249  -7077503.91849  22537280.5744   22537284.5764   22537280.9964
       227.0004        166.0004
 -20775867.12949 -16173590.91849  20759902.7394   20759905.3104   20759903.1394
       240.0004        201.0004
  -4350546.66949  -3378540.61149  23614605.3554   23614609.2884   23614604.0144
       221.0004        152.0004
 -22325146.63849 -17365844.82449  20711593.5564   20711596.0144   20711593.5424
       246.0004        201.0004
 -13551418.65549 -10542985.46649  22340010.1444   22340011.7854   22340011.1504
       232.0004        176.0004
  -5743854.81449  -4221735.91549  23672430.2784   23672434.8634   23672430.8884
       212.0004        151.0004
   1197086.45449     36414.57149  25138904.1634
       174.0004         74.0004
 -19652676.14449 -15292989.18749  20544540.4484   20544543.7524   20544540.3634
       240.0004        194.0004
 11 10 13  1 36 30.0000000  0  8G28G05G10G08G07G15G02G26
  -9187168.90049  -7135184.30749  22523196.7644   22523198.5114   22523194.9884
       228.0004        168.0004
 -20748982.35849 -16152641.75249  20765017.2244   20765021.0134   20765018.0154
       238.0004        201.0004
  -4239633.47949  -3292114.79249  23635710.5794   23635713.6494   23635710.0614
       218.0004        150.0004
 -22291384.57449 -17339536.71549  20718018.4064   20718020.8324   20718017.8384
       246.0004        201.0004
 -13466985.25349 -10477193.20849  22356078.0424   22356079.6914   22356078.0014
       231.0004        176.0004
  -5838170.45449  -4295228.62649  23654482.7454   23654488.3814   23654483.3694
       214.0004        154.0004
   1299052.04359    115828.64959  25158306.2984
       178.0004        110.0004
 -19710086.66149 -15337724.64249  20533615.5034   20533618.7664   20533615.7654
       240.0004        194.0004
 11 10 13  1 37  0.0000000  0  8G28G05G10G08G07G15G02G26
  -9260826.82749  -7192580.06849  22509178.1244   22509181.5264   22509177.3134
       225.0004        166.0004
 -20721528.30549 -16131248.99649  20770241.8684   20770245.2144   20770242.6564
       239.0004        201.0004
  -4128571.42449  -3205572.97349  23656844.0124   23656847.9254   23656845.5644
       216.0004        150.0004
 -22257179.83249 -17312883.67549  20724527.4164   20724530.0314   20724527.2374
       246.0004        200.0004
 -13382308.25749 -10411211.13849  22372191.8364   22372193.0874   22372191.7784
       231.0004        177.0004
  -5932381.23849  -4368639.59649  23636555.3794   23636560.0364   23636555.6664
       211.0004        154.0004
   1400967.98659    195179.28559  25177703.7234
       175.0004        111.0004
 -19767101.07349 -15382151.44949  20522765.4664   20522769.8574   20522766.5454
       239.0004        195.0004
 11 10 13  1 37 30.0000000  0  7G28G05G10G08G07G15G26
  -9334116.13149  -7249688.58049  22495230.4384   22495234.7344   22495231.2654
       225.0004        166.0004
 -20693504.79049 -16109412.51349  20775576.2514   20775578.6294   20775576.4014
       240.0004        201.0004
  -4017361.71249  -3118916.07849  23678007.9664   23678011.0424   23678008.1924
       216.0004        147.0004
 -22222533.03549 -17285886.16349  20731120.3914   20731122.9944   20731119.9134
       246.0004        200.0004
 -13297389.40049 -10345040.61249  22388350.7954   22388352.6954   22388350.9554
       230.0004        176.0004
  -6026485.02649  -4441967.20149  23618645.4004   23618652.5404   23618648.1104
       207.0004        152.0004
 -19823717.11749 -15426267.83349  20511992.6744   20511995.9154   20511992.9834
       240.0004        195.0004
 11 10 13  1 38  0.0000000  0  7G28G05G10G08G07G15G26
  -9407035.48249  -7306508.84149  22481356.0094   22481357.8954   22481355.4434
       226.0004        164.0004
 -20664913.30449 -16087133.44649  20781015.5444   20781019.1714   20781016.4544
       239.0004        201.0004
  -3906007.51849  -3032146.57349  23699197.7954   23699202.4444   23699197.2304
       217.0004        147.0004
 -22187446.08449 -17258545.69049  20737796.8744   20737799.5094   20737797.3214
       246.0004        201.0004
 -13212231.21349 -10278683.58749  22404556.8674   22404558.3144   22404556.5154
       231.0004        176.0004
  -6120481.46149  -4515211.16349  23600760.5784   23600764.7514   23600762.1794
       211.0004        152.0004
 -19879934.07849 -15470073.24149  20501295.5224   20501297.8304   20501295.2274
       240.0004        195.0004
 11 10 13  1 38 30.0000000  0  7G28G05G10G08G07G15G26
  -9479582.20849  -7363038.71349  22467550.0634   22467553.2624   22467550.1584
       228.0004        166.0004
 -20635753.85849 -16064411.81749  20786565.3614   20786568.2374   20786565.5414
       240.0004        202.0004
  -3794510.60949  -2945265.90449  23720415.3684   23720419.7454   23720415.7324
       216.0004        147.0004
 -22151920.47049 -17230863.39149  20744557.5144   20744560.2294   20744557.1464
       246.0004        200.0004
 -13126835.45249 -10212141.44749  22420806.6994   22420808.1734   22420808.0554
       231.0004        175.0004
  -6214369.28949  -4588370.49649  23582895.4944   23582898.5114   23582896.8534
       213.0004        153.0004
 -19935750.82149 -15513566.80149  20490673.6964   20490675.8974   20490673.6614
       241.0004        195.0004
 11 10 13  1 39  0.0000000  0  7G28G05G10G08G07G15G26
  -9551753.49649  -7419276.04949  22453816.3744   22453819.6214   22453816.6824
       227.0004        167.0004
 -20606026.32649 -16041247.51449  20792222.2904   20792224.9514   20792222.7764
       241.0004        201.0004
  -3682872.64049  -2858275.33649  23741657.5204   23741663.9734   23741657.5294
       213.0004        147.0004
 -22115956.76149 -17202839.72749  20751399.8514   20751403.5004   20751400.4334
       244.0004        199.0004
 -13041203.18149 -10145415.00449  22437101.9534   22437104.0984   22437101.9174
       231.0004        175.0004
  -6308146.54649  -4661443.61949  23565050.4814   23565053.8974   23565049.4984
       213.0004        153.0004
 -19991164.77349 -15556746.50049  20480129.1624   20480131.3304   20480128.7944
       241.0004        195.0004
 11 10 13  1 39 30.0000000  0  7G28G05G10G08G07G15G26
  -9623547.78749  -7475219.64049  22440155.5604   22440158.1554   22440156.0834
       230.0004        169.0004
 -20575732.39249 -16017641.86749  20797986.8984   20797989.6154   20797987.7144
       241.0004        201.0004
  -3571096.34449  -2771176.96349  23762928.3614   23762933.7724   23762927.3274
       213.0004        146.0004
 -22079557.03449 -17174476.30049  20758328.4974   20758330.4854   20758327.7884
       246.0004        200.0004
 -12955337.06249 -10078506.33649  22453441.6024   22453444.6384   22453441.9654
       230.0004        176.0004
  -6401812.66049  -4734430.18849  23547225.0324   23547230.3304   23547227.1184
       215.0004        156.0004
 -20046175.69949 -15599612.14649  20469659.7104   20469662.9214   20469660.2674
       240.0004        195.0004
 11 10 13  1 40  0.0000000  0  7G28G05G10G08G07G15G26
  -9694962.97749  -7530867.81949  22426563.9674   22426568.6454   22426564.0814
       228.0004        168.0004
 -20544872.56649 -15993595.26549  20803859.1204   20803861.7194   20803859.5924
       240.0004        201.0004
  -3459183.94849  -2683972.52449  23784223.4604   23784231.0314   23784224.7694
       211.0004        145.0004
 -22042723.12749 -17145774.56249  20765336.5434   20765339.5034   20765336.6964
       245.0004        200.0004
 -12869239.53749 -10011417.38149  22469826.2324   22469827.2844   22469826.0264
       233.0004        177.0004
  -6495366.70549  -4807329.44549  23529423.5294   23529426.5344   23529423.9544
       215.0004        154.0004
 -20100782.43449 -15642162.83749  20459268.4894   20459271.9834   20459268.4154
       239.0004        195.0004
 11 10 13  1 40 30.0000000  0  7G28G05G10G08G07G15G26
  -9765996.44949  -7586218.54949  22413048.8754   22413050.8804   22413047.9184
       229.0004        170.0004
 -20513447.31149 -15969108.07449  20809838.8394   20809841.9904   20809839.2994
       239.0004        200.0004
  -3347137.24049  -2596663.45049  23805547.7774   23805552.2714   23805547.0984
       215.0004        147.0004
 -22005455.88449 -17116735.14749  20772428.8464   20772431.3134   20772428.3884
       245.0004        200.0004
 -12782911.67749  -9944148.90649  22486253.9184   22486254.9384   22486254.0984
       231.0004        177.0004
  -6588807.41949  -4880140.35749  23511641.0594   23511645.6394   23511641.9264
       213.0004        155.0004
 -20154983.34149 -15684397.29549  20448954.0464   20448958.1654   20448954.4334
       239.0004        195.0004
 11 10 13  1 41  0.0000000  0  7G28G05G10G08G07G15G26
  -9836645.86449  -7641270.00649  22399602.8674   22399606.3244   22399602.9324
       228.0004        169.0004
 -20481457.43549 -15944180.91549  20815926.1374   20815929.4554   20815927.0444
       240.0004        200.0004
  -3234958.39749  -2509251.38649  23826893.0864   23826898.8024   23826894.0854
       212.0004        143.0004
 -21967756.67649 -17087359.14749  20779602.0874   20779605.1714   20779601.6324
       244.0004        199.0004
 -12696355.63549  -9876702.65649  22502722.8444   22502725.9784   22502724.0994
       228.0004        176.0004
  -6682133.50549  -4952861.95649  23493882.1644   23493885.8874   23493883.4384
       216.0004        156.0004
 -20208776.95849 -15726314.39249  20438717.8154   20438721.2414   20438718.1674
       241.0004        196.0004
 11 10 13  1 41 30.0000000  0  7G28G05G10G08G07G15G26
  -9906908.83449  -7696020.35449  22386233.7704   22386235.3254   22386233.3284
       231.0004        170.0004
 -20448903.22349 -15918814.01749  20822121.9734   20822124.2504   20822122.3914
       240.0004        200.0004
  -3122649.46449  -2421737.96949  23848264.9334   23848270.4844   23848265.4534
       212.0004        146.0004
 -21929627.03749 -17057647.74449  20786858.7394   20786861.2744   20786858.6534
       246.0004        199.0004
 -12609573.27749  -9809080.04849  22519238.7424   22519240.1424   22519238.5334
       229.0004        174.0004
  -6775343.31549  -5025492.95449  23476145.6174   23476149.3544   23476146.3554
       214.0004        158.0004
 -20262161.99449 -15767913.11449  20428559.7374   20428562.0644   20428560.0774
       242.0004        197.0004
 11 10 13  1 42  0.0000000  0  7G28G05G10G08G07G15G26
  -9976784.05249  -7750468.55249  22372936.3274   22372938.9814   22372935.3974
       229.0004        170.0004
 -20415786.25949 -15893008.60349  20828423.3944   20828426.2404   20828423.9604
       240.0004        200.0004
  -3010213.37449  -2334125.46149  23869660.2124   23869667.1954   23869659.7884
       213.0004        146.0004
 -21891069.02049 -17027602.53349  20794195.6584   20794198.5284   20794195.1264
       244.0004        198.0004
 -12522567.15149  -9741283.07349  22535794.6394   22535797.3444   22535795.3364
       229.0004        175.0004
  -6868436.58649  -5098033.12649  23458429.3034   23458433.2704   23458430.8804
       215.0004        154.0004
 -20315137.78749 -15809192.94249  20418478.9734   20418481.4634   20418478.9574
       242.0004        198.0004
 11 10 13  1 42 30.0000000  0  7G28G05G10G08G07G15G26
 -10046269.05449  -7804612.69349  22359713.5464   22359716.5544   22359713.5014
       230.0004        171.0004
 -20382106.86849 -15866764.93449  20834832.5684   20834835.4564   20834832.7824
       240.0004        200.0004
  -2897651.74949  -2246415.14449  23891081.8194   23891086.1154   23891081.5624
       212.0004        146.0004
 -21852083.47149 -16997224.18449  20801614.3504   20801617.3114   20801614.2764
       245.0004        199.0004
 -12435339.10049  -9673313.16149  22552393.0204   22552395.7714   22552394.1284
       229.0004        175.0004
  -6961411.80849  -5170481.33249  23440738.3474   23440740.1384   23440738.8414
       217.0004        156.0004
 -20367702.86049 -15850152.73249  20408476.3004   20408478.8384   20408476.2234
       243.0004        198.0004
 11 10 13  1 43  0.0000000  0  7G28G05G10G08G07G15G26
 -10115360.89049  -7858450.45649  22346566.7804   22346568.9504   22346566.1174
       231.0004        172.0004
 -20347865.76849 -15840083.57849  20841348.6344   20841351.0454   20841348.8594
       240.0004        201.0004
  -2784966.54849  -2158608.55049  23912524.9874   23912529.3514   23912525.1374
       212.0004        146.0004
 -21812672.00649 -16966513.94949  20809114.3344   20809116.8424   20809113.4944
       244.0004        198.0004
 -12347890.29449  -9605171.24949  22569035.1814   22569037.0614   22569035.7704
       229.0004        176.0004
  -7054267.46749  -5242836.37549  23423066.3884   23423069.7834   23423068.0434
       214.0004        157.0004
 -20419855.46649 -15890791.11349  20398551.4344   20398554.2394   20398551.4224
       242.0004        198.0004
 11 10 13  1 43 30.0000000  0  7G28G05G10G08G07G15G26
 -10184057.76149  -7911980.45849  22333493.5154   22333496.2344   22333493.1264
       231.0004        173.0004
 -20313063.77749 -15812965.16149  20847971.7574   20847973.6634   20847971.7344
       241.0004        201.0004
  -2672160.32249  -2070707.65749  23933992.2264   23933995.2204   23933992.1154
       216.0004        146.0004
 -21772836.14649 -16935473.02649  20816694.4774   20816697.8604   20816694.7424
       245.0004        199.0004
 -12260223.02449  -9536859.10949  22585717.3974   22585719.2104   22585717.9164
       227.0004        173.0004
  -7147002.71249  -5315097.57349  23405420.5934   23405424.4014   23405421.1074
       216.0004        157.0004
 -20471594.55649 -15931107.28349  20388705.3634   20388708.3864   20388705.7314
       242.0004        198.0004
 11 10 13  1 44  0.0000000  0  7G28G05G10G08G07G15G26
 -10252358.14249  -7965201.50949  22320495.8214   22320498.8964   22320496.9464
       230.0004        172.0004
 -20277701.95749 -15785410.51449  20854699.2834   20854703.1454   20854700.3384
       240.0004        200.0004
  -2559235.25349  -1982714.13549  23955480.5544   23955483.1084   23955479.3794
       216.0004        145.0004
 -21732577.59749 -16904102.72449  20824356.2934   20824358.0574   20824355.5424
       245.0004        198.0004
 -12172339.54849  -9468378.48049  22602441.5694   22602443.6434   22602441.2544
       229.0004        173.0004
  -7239616.43249  -5387264.07849  23387799.8904   23387799.9084   23387798.8904
       221.0004        158.0004
 -20522919.30949 -15971100.59649  20378938.5064   20378941.4994   20378939.1974
       243.0004        198.0004
 11 10 13  1 44 30.0000000  0  7G28G05G10G08G07G15G26
 -10320258.97449  -8018111.22249  22307575.4374   22307578.1894   22307575.3094
       232.0004        175.0004
 -20241780.32949 -15757419.64849  20861535.9594   20861538.8624   20861536.2174
       240.0004        200.0004
  -2446192.64749  -1894629.00649  23976990.2384   23976995.7544   23976990.0804
       214.0004        145.0004
 -21691897.21049 -16872403.72449  20832096.1014   20832099.5064   20832096.2584
       244.0004        198.0004
 -12084241.12249  -9399730.36849  22619204.8284   22619208.4404   22619205.5864
       227.0004        172.0004
  -7332106.70149  -5459334.40849  23370198.1904   23370199.1344   23370197.7324
       220.0004        158.0004
 -20573827.62649 -16010769.40849  20369251.5324   20369254.1934   20369251.5414
       243.0004        198.0004
 11 10 13  1 45  0.0000000  0  7G28G05G10G08G07G15G26
 -10387758.98849  -8070708.61149  22294730.0944   22294733.5404   22294730.3574
       232.0004        175.0004
 -20205301.13349 -15728994.31549  20868477.5744   20868480.8284   20868478.1604
       241.0004        200.0004
  -2333035.78349  -1806454.83249  23998523.3704   23998530.3944   23998522.0404
       211.0004        145.0004
 -21650797.54849 -16840378.01849  20839918.2054   20839920.7344   20839917.7764
       244.0004        198.0004
 -11995930.43149  -9330916.85749  22636009.9114   22636013.0674   22636010.2464
       227.0004        172.0004
  -7424473.36149  -5531308.39849  23352619.6144   23352622.7474   23352620.8084
       218.0004        157.0004
 -20624319.24249 -16050113.52249  20359642.8554   20359646.6904   20359642.7844
       242.0004        198.0004
 11 10 13  1 45 30.0000000  0  7G28G05G10G08G07G15G26
 -10454855.36549  -8122991.48549  22281963.8104   22281964.8574   22281962.0094
       233.0004        175.0004
 -20168264.51849 -15700134.62349  20875525.5204   20875528.5524   20875526.4714
       241.0004        201.0004
  -2219765.98749  -1718192.69149  24020078.4314   24020083.3564   24020077.8374
       212.0004        147.0004
 -21609279.32449 -16808026.15449  20847818.4314   20847821.3154   20847818.1824
       245.0004        198.0004
 -11907409.19349  -9261939.28449  22652855.4544   22652858.1374   22652855.7524
       228.0004        172.0004
  -7516714.45249  -5603184.50749  23335067.3304   23335070.3034   23335068.1994
       220.0004        160.0004
 -20674392.30749 -16089131.48049  20350114.8634   20350117.0054   20350114.6414
       243.0004        198.0004
 11 10 13  1 46  0.0000000  0  7G28G05G10G08G07G15G26
 -10521546.45849  -8174958.54049  22269270.5964   22269273.6754   22269271.5464
       231.0004        174.0004
 -20130671.33649 -15670841.25549  20882679.6504   20882682.1004   20882680.4924
       242.0004        201.0004
  -2106385.93049  -1629844.65249  24041652.7594   24041658.5884   24041653.9384
       213.0004        145.0004
 -21567344.31649 -16775349.52549  20855798.5314   20855801.3724   20855798.1804
       244.0004        198.0004
 -11818679.00649  -9192798.87549  22669740.6554   22669741.9754   22669741.7584
       230.0004        172.0004
  -7608829.22549  -5674962.23749  23317538.3104   23317539.9264   23317539.4604
       220.0004        159.0004
 -20724045.70249 -16127822.43149  20340666.0144   20340668.3194   20340666.2364
       243.0004        199.0004
 11 10 13  1 46 30.0000000  0  7G28G05G10G08G07G15G26
 -10587830.03049  -8226608.05049  22256658.1884   22256660.4704   22256658.3524
       232.0004        174.0004
 -20092522.75549 -15641115.09649  20889937.8384   20889941.3914   20889938.8854
       241.0004        200.0004
  -1992897.74849  -1541412.33649  24063251.2164   24063255.5894   24063249.6354
       215.0004        143.0004
 -21524993.72149 -16742349.05549  20863857.1704   20863860.1164   20863856.6684
       244.0004        197.0004
 -11729741.93149  -9123497.25249  22686665.0254   22686665.8464   22686665.1864
       230.0004        172.0004
  -7700816.25349  -5746640.43749  23300033.9344   23300035.8504   23300034.4524
       220.0004        157.0004
 -20773278.16349 -16166185.38049  20331296.9784   20331299.8054   20331297.2334
       243.0004        198.0004
 11 10 13  1 47  0.0000000  0  7G28G05G10G08G07G15G26
 -10653704.00749  -8277938.39549  22244123.2964   22244125.1364   22244122.5534
       232.0004        174.0004
 -20053819.62049 -15610956.83149  20897304.6624   20897306.2574   20897304.8334
       242.0004        200.0004
  -1879303.52449  -1452897.37149  24084867.6194   24084870.9684   24084866.7494
       214.0004        143.0004
 -21482229.48349 -16709026.27449  20871995.2874   20871997.8744   20871994.9114
       244.0004        197.0004
 -11640599.90649  -9054035.92849  22703628.3624   22703629.5884   22703628.8324
       230.0004        172.0004
  -7792674.64249  -5818218.38849  23282554.2614   23282557.0004   23282553.7384
       218.0004        158.0004
 -20822088.53049 -16204219.42949  20322008.7424   20322011.6204   20322008.9894
       242.0004        198.0004
 11 10 13  1 47 30.0000000  0  7G28G05G10G08G07G15G26
 -10719165.88949  -8328947.61749  22231664.6394   22231667.7284   22231665.5014
       232.0004        175.0004
 -20014562.17049 -15580366.62349  20904774.3984   20904776.6104   20904774.6874
       241.0004        200.0004
  -1765604.79349  -1364300.98949  24106503.8834   24106506.7034   24106503.5534
       216.0004        144.0004
 -21439052.21449 -16675381.65349  20880211.6054   20880214.4174   20880211.0574
       244.0004        197.0004
 -11551254.33949  -8984416.02249  22720630.5614   22720631.6284   22720630.9884
       230.0004        173.0004
  -7884402.33249  -5889694.47349  23265099.3994   23265100.8874   23265098.7054
       222.0004        159.0004
 -20870475.09549 -16241923.24049  20312801.4464   20312804.3734   20312801.1504
       243.0004        199.0004
 11 10 13  1 48  0.0000000  0  8G28G05G21G10G08G07G15G26
 -10784214.19849  -8379634.59749  22219288.2274   22219289.1234   22219287.1844
       232.0004        175.0004
 -19974752.44649 -15549346.07749  20912350.4124   20912352.6724   20912350.2124
       241.0004        200.0004
   -103339.74749    -73641.58249  24907582.2874
       207.0004        112.0004
  -1651804.35249  -1275625.33949  24128159.7084   24128164.3694   24128158.3824
       214.0004        144.0004
 -21395464.38249 -16641417.11049  20888506.2254   20888508.7644   20888505.7594
       245.0004        197.0004
 -11461707.67849  -8914639.42249  22737669.6114   22737671.6954   22737670.2274
       229.0004        172.0004
  -7975998.59449  -5961068.16049  23247668.2924   23247670.0254   23247668.4054
       218.0004        158.0004
 -20918437.21249 -16279296.31449  20303673.6724   20303676.8694   20303674.1864
       242.0004        198.0004
 11 10 13  1 48 30.0000000  0  8G28G05G21G10G08G07G15G26
 -10848846.76649  -8429997.58549  22206987.2604   22206990.3634   22206987.5884
       232.0004        175.0004
 -19934390.80049 -15517895.45749  20920029.5864   20920033.2024   20920030.7894
       240.0004        199.0004
   -137767.64749    -16292.31649  24901028.4604
       209.0004         74.0004
  -1537904.16849  -1186872.00649  24149833.9404   24149837.9264   24149832.4884
       212.0004        143.0004
 -21351467.19149 -16607133.57749  20896878.8724   20896881.8304   20896878.6244
       245.0004        199.0004
 -11371961.41249  -8844707.26849  22754748.0254   22754749.0804   22754747.8854
       227.0004        171.0004
  -8067462.08249  -6032338.40449  23230262.2144   23230264.0394   23230264.0084
       217.0004        158.0004
 -20965973.16949 -16316337.31449  20294628.0254   20294631.3424   20294628.5044
       241.0004        198.0004
 11 10 13  1 49  0.0000000  0  8G28G05G21G10G08G07G15G26
 -10913061.28449  -8480034.85749  22194768.6804   22194771.3664   22194768.7694
       232.0004        176.0004
 -19893478.30049 -15486015.60349  20927815.6004   20927818.5464   20927816.2904
       242.0004        200.0004
   -171709.23449    -42739.90549  24894570.6464
       208.0004        131.0004
  -1423906.48649  -1098042.67649  24171527.7534   24171530.6364   24171527.1414
       211.0004        142.0004
 -21307062.21649 -16572532.30549  20905328.5714   20905331.5054   20905328.2914
       245.0004        199.0004
 -11282017.43049  -8774621.04949  22771863.9794   22771866.4894   22771864.0504
       228.0004        170.0004
  -8158791.37449  -6103504.06749  23212882.7364   23212887.3274   23212883.4154
       217.0004        160.0004
 -21013082.04949 -16353045.53149  20285663.3074   20285667.1454   20285663.9144
       242.0004        198.0004
 11 10 13  1 49 30.0000000  0  8G28G05G21G10G08G07G15G26
 -10976856.23749  -8529745.18149  22182628.6884   22182630.9474   22182627.8574
       232.0004        175.0004
 -19852016.76049 -15453707.92549  20935705.9774   20935708.6514   20935706.0254
       241.0004        200.0004
   -205164.35249    -68808.99749  24888207.1484   24888207.0774
       208.0004        135.0004
  -1309813.87649  -1009139.36749  24193239.9914   24193240.9534   24193237.4384
       211.0004        141.0004
 -21262251.48549 -16537614.85149  20913855.6574   20913858.1004   20913855.4624
       246.0004        198.0004
 -11191878.21049  -8704382.70249  22789016.3554   22789018.6504   22789016.9044
       226.0004        170.0004
  -8249986.00949  -6174564.77549  23195529.0754   23195532.4554   23195528.1104
       215.0004        159.0004
 -21059763.03849 -16389420.31649  20276780.5554   20276783.6524   20276780.5854
       242.0004        198.0004
 11 10 13  1 50  0.0000000  0  8G28G05G21G10G08G07G15G26
 -11040228.85549  -8579126.41449  22170568.7574   22170571.6094   22170569.0104
       232.0004        175.0004
 -19810006.22249 -15420972.45349  20943699.3784   20943702.9234   20943700.4704
       241.0004        200.0004
   -238131.09949    -94497.42149  24881931.3634   24881931.4184   24881929.8354
       206.0004        137.0004
  -1195627.86649   -920163.29649  24214968.4954   24214971.0834   24214967.1114
       214.0004        140.0004
 -21217035.63749 -16502381.71949  20922460.3784   20922463.2064   20922459.8564
       246.0004        199.0004
 -11101544.77449  -8633993.00849  22806206.1324   22806208.9434   22806205.9624
       227.0004        170.0004
  -8341043.95249  -6245518.99649  23178200.8094   23178204.0894   23178202.3944
       218.0004        157.0004
 -21106014.26449 -16425460.23049  20267979.6474   20267982.6734   20267979.8254
       242.0004        198.0004
 11 10 13  1 50 30.0000000  0  8G28G05G21G10G08G07G15G26
 -11103177.90949  -8628177.59649  22158591.2844   22158593.0644   22158589.4994
       233.0004        175.0004
 -19767448.70249 -15387810.76449  20951798.5144   20951801.3724   20951799.2444
       241.0004        200.0004
   -270608.70949   -119804.65449  24875753.4174   24875752.7444   24875753.1944
       211.0004        137.0004
  -1081350.86149   -831116.28349  24236715.1544   24236714.2844   24236711.7514
       211.0004        139.0004
 -21171416.92549 -16466834.67449  20931141.0254   20931143.6234   20931140.9024
       246.0004        198.0004
 -11011019.54249  -8563453.85549  22823432.0194   22823435.1564   22823433.1094
       224.0004        168.0004
  -8431964.26449  -6316366.00849  23160900.0254   23160903.1874   23160901.6534
       218.0004        161.0004
 -21151834.82749 -16461164.55949  20259260.2374   20259263.0134   20259260.1934
       242.0004        198.0004
 11 10 13  1 51  0.0000000  0  8G28G05G21G10G08G07G15G26
 -11165701.43649  -8676897.19049  22146690.8594   22146694.8274   22146692.1144
       230.0004        176.0004
 -19724344.78649 -15354223.31049  20960001.1344   20960003.9514   20960001.5554
       242.0004        200.0004
   -302596.68349   -144730.33449  24869665.5264   24869666.0584   24869665.9264
       210.0004        137.0004
   -966985.29349   -742000.27849  24258476.6254   24258481.5404   24258474.2414
       210.0004        138.0004
 -21125396.81049 -16430974.84249  20939898.5174   20939901.3864   20939898.2974
       246.0004        199.0004
 -10920304.35249  -8492766.70949  22840695.6174   22840697.6344   22840695.6524
       224.0004        165.0004
  -8522745.69049  -6387104.75049  23143623.6794   23143628.4174   23143624.5944
       216.0004        161.0004
 -21197223.61849 -16496532.44149  20250622.4934   20250626.0574   20250622.8324
       241.0004        199.0004
 11 10 13  1 51 30.0000000  0  8G28G05G21G10G08G07G15G26
 -11227796.91249  -8725283.25449  22134876.1844   22134878.5614   22134876.1484
       232.0004        175.0004
 -19680695.25349 -15320210.70749  20968307.6764   20968309.7424   20968307.7874
       242.0004        199.0004
   -334093.39349   -169273.21949  24863672.1974   24863672.2584   24863670.9074
       209.0004        135.0004
   -852532.80049   -652816.57649  24280255.4304   24280259.5044   24280253.5854
       210.0004        140.0004
 -21078976.63349 -16394803.27849  20948732.7914   20948734.7484   20948732.1544
       247.0004        199.0004
 -10829400.55249  -8421932.58149  22857993.6234   22857996.1784   22857994.6784
       224.0004        166.0004
  -8613386.85549  -6457734.18349  23126376.5654   23126380.1664   23126376.1894
       217.0004        160.0004
 -21242179.16149 -16531562.73049  20242067.8104   20242071.0614   20242068.1644
       242.0004        199.0004
 11 10 13  1 52  0.0000000  0  8G28G05G21G10G08G07G15G26
 -11289462.44049  -8773334.27849  22123141.0124   22123144.2864   22123140.8554
       231.0004        174.0004
 -19636501.57249 -15285774.08449  20976716.6564   20976719.9064   20976717.2604
       241.0004        199.0004
   -365098.09749   -193432.72849  24857771.2514   24857772.8664   24857771.4404
       206.0004        134.0004
   -737995.60549   -563566.82649  24302051.2914   24302055.0774   24302050.9194
       208.0004        134.0004
 -21032158.37049 -16358321.52149  20957640.9184   20957644.0984   20957640.8754
       246.0004        199.0004
 -10738310.37149  -8350953.21849  22875328.2784   22875330.1894   22875327.7364
       226.0004        169.0004
  -8703886.55749  -6528253.42749  23109155.2544   23109157.8994   23109155.1134
       219.0004        160.0004
 -21286700.34949 -16566254.56149  20233596.5394   20233599.4264   20233596.4284
       242.0004        200.0004
 11 10 13  1 52 30.0000000  0  8G28G05G21G10G08G07G15G26
 -11350696.00749  -8821048.72949  22111489.3234   22111491.7644   22111488.7224
       232.0004        174.0004
 -19591764.77349 -15250914.25749  20985229.7684   20985233.1634   20985230.4894
       241.0004        198.0004
   -395610.30449   -217208.49449  24851963.3754   24851967.9954   24851963.5464
       207.0004        135.0004
   -623375.66649   -474252.58749  24323859.6134   24323866.6304   24323861.0824
       204.0004        136.0004
 -20984943.12149 -16321530.41149  20966625.6404   20966628.7224   20966625.7194
       246.0004        199.0004
 -10647035.34049  -8279829.81349  22892697.1814   22892699.3764   22892697.1154
       226.0004        168.0004
  -8794243.19049  -6598661.19149  23091959.1174   23091963.6994   23091959.4054
       215.0004        161.0004
 -21330785.67249 -16600606.75649  20225206.8964   20225210.0854   20225207.3554
       243.0004        200.0004
 11 10 13  1 53  0.0000000  0  8G28G05G21G10G08G07G15G26
 -11411496.40149  -8868425.63049  22099919.0674   22099921.8744   22099918.4384
       232.0004        175.0004
 -19546486.64549 -15215632.61149  20993846.0634   20993849.3364   20993846.4794
       240.0004        198.0004
   -425629.22149   -240599.88149  24846253.9254   24846252.1334   24846252.6614
       209.0004        135.0004
   -508675.97649   -384876.25249  24345688.6104   24345692.9344   24345688.7404
       207.0004        136.0004
 -20937332.73049 -16284431.40349  20975685.5674   20975688.5294   20975685.5504
       245.0004        198.0004
 -10555577.66749  -8208564.10849  22910100.9024   22910103.4484   22910101.6844
       226.0004        170.0004
  -8884455.99349  -6668956.84949  23074790.8084   23074798.4724   23074793.2914
       216.0004        163.0004
 -21374434.73049 -16634619.00249  20216900.8114   20216903.2684   20216900.7524
       243.0004        199.0004
 11 10 13  1 53 30.0000000  0  8G28G05G21G10G08G07G15G26
 -11471860.79149  -8915462.78549  22088432.5864   22088434.6654   22088431.8984
       233.0004        176.0004
 -19500667.85949 -15179929.68549  21002565.7184   21002568.1884   21002566.5294
       239.0004        198.0004
   -455153.64649   -263605.95149  24840631.8034   24840635.1984   24840634.4744
       205.0004        134.0004
   -393897.71249   -295438.66949  24367528.7424   24367535.5594   24367527.8534
       205.0004        134.0004
 -20889328.48349 -16247025.50249  20984820.8764   20984823.6054   20984820.8464
       246.0004        198.0004
 -10463938.90949  -8137157.29849  22927539.5454   22927541.0274   22927538.7924
       226.0004        168.0004
  -8974523.17049  -6739139.04049  23057656.4214   23057658.1144   23057655.5044
       220.0004        164.0004
 -21417645.70749 -16668289.89549  20208678.1584   20208681.0614   20208678.4204
       243.0004        199.0004
 11 10 13  1 54  0.0000000  0  8G28G05G21G10G08G07G15G26
 -11531788.41449  -8962159.60849  22077028.4834   22077030.8334   22077027.8174
       233.0004        175.0004
 -19454310.05149 -15143806.73149  21011386.7154   21011389.3494   21011387.2374
       239.0004        197.0004
   -484183.76449   -286226.82449  24835109.4284   24835111.4954   24835109.1774
       206.0004        134.0004
   -279043.93449   -205942.22349  24389386.1694   24389392.3804   24389384.2344
       208.0004        139.0004
 -20840932.73449 -16209314.52749  20994030.8854   20994032.6044   20994029.7904
       244.0004        197.0004
 -10372121.58249  -8065611.33549  22945011.4774   22945013.6574   22945012.2954
       226.0004        167.0004
  -9064444.51149  -6809207.59649  23040542.1294   23040545.1744   23040542.2744
       220.0004        161.0004
 -21460418.14649 -16701619.06849  20200539.2504   20200541.2814   20200539.1044
       243.0004        199.0004
 11 10 13  1 54 30.0000000  0  8G28G05G21G10G08G07G15G26
 -11591276.15549  -9008513.66349  22065707.2104   22065710.8734   22065707.3364
       231.0004        175.0004
 -19407413.59449 -15107264.05249  21020309.7814   21020313.6964   21020310.9144
       238.0004        197.0004
   -512717.30749   -308460.72849  24829679.5004   24829682.0244   24829680.3104
       205.0004        134.0004
   -164115.83949   -116387.90949  24411257.1794   24411262.1954   24411257.6454
       212.0004        140.0004
 -20792145.82049 -16171298.74949  21003313.1464   21003317.0034   21003313.1144
       242.0004        197.0004
 -10280126.27549  -7993926.68349  22962517.5454   22962519.6594   22962516.9534
       226.0004        167.0004
  -9154217.22449  -6879160.36449  23023459.6554   23023462.1344   23023460.2364
       220.0004        161.0004
 -21502749.75849 -16734604.73749  20192483.1574   20192485.8154   20192483.4854
       242.0004        199.0004
 11 10 13  1 55  0.0000000  0  8G28G05G21G10G08G07G15G26
 -11650322.47049  -9054523.75949  22054472.4804   22054474.4444   22054471.6094
       233.0004        175.0004
 -19359980.02549 -15070302.84649  21029337.4604   21029340.0634   21029338.0024
       239.0004        197.0004
   -540753.97449   -330307.48049  24824344.5014   24824343.5074   24824344.8964
       204.0004        131.0004
    -49115.72449    -26777.43949  24433140.8764   24433142.6594   24433138.0414
       208.0004        138.0004
 -20742969.92049 -16132979.87049  21012672.2134   21012674.9104   21012671.9864
       244.0004        198.0004
 -10187954.99649  -7922104.91349  22980056.4324   22980059.6434   22980056.8414
       226.0004        168.0004
  -9243840.28449  -6948996.50049  23006405.7394   23006409.4834   23006405.9584
       221.0004        165.0004
 -21544639.77249 -16767246.29449  20184511.5844   20184514.8304   20184512.0754
       242.0004        200.0004
 11 10 13  1 55 30.0000000  0  8G28G05G21G10G08G07G15G26
 -11708926.47149  -9100189.18949  22043319.8444   22043322.4284   22043319.4914
       232.0004        177.0004
 -19312011.52649 -15032924.80849  21038465.5774   21038468.2604   21038466.2534
       238.0004        197.0004
   -568294.15349   -351767.34449  24819102.5734   24819104.3464   24819101.3894
       201.0004        129.0004
     65953.37049     62886.76049  24455038.8744   24455041.2134   24455037.4464
       210.0004        138.0004
 -20693407.31049 -16094359.65549  21022103.0774   21022105.5144   21022102.7654
       242.0004        196.0004
 -10095610.52649  -7850148.20249  22997629.0714   22997632.0894   22997629.8914
       227.0004        168.0004
  -9333313.40149  -7018715.78049  22989380.4014   22989382.5484   22989379.5854
       221.0004        164.0004
 -21586087.92549 -16799543.55149  20176624.0124   20176627.1314   20176624.9314
       242.0004        200.0004
 11 10 13  1 56  0.0000000  0  8G28G05G21G10G08G07G15G26
 -11767085.02949  -9145507.50949  22032252.4844   22032255.5664   22032252.2844
       232.0004        178.0004
 -19263508.41549 -14995130.19949  21047694.2354   21047698.2004   21047695.3134
       238.0004        197.0004
   -595335.40849   -372838.48349  24813959.4024   24813959.0764   24813959.6584
       208.0004        131.0004
    181090.38349    152603.89849  24476946.8594   24476953.0854   24476946.2224
       207.0004        139.0004
 -20643458.56949 -16055438.55649  21031608.2024   21031610.7474   21031608.0984
       243.0004        196.0004
 -10003093.45349  -7778056.98249  23015234.1564   23015237.1194   23015235.0364
       225.0004        167.0004
  -9422633.96149  -7088316.17949  22972382.3844   22972385.3714   22972382.6954
       222.0004        163.0004
 -21627091.64049 -16831494.49049  20168821.5384   20168824.5804   20168822.0814
       242.0004        200.0004
 11 10 13  1 56 30.0000000  0  8G28G05G21G10G08G07G15G26
 -11824797.66349  -9190478.34249  22021271.3124   22021272.9544   22021270.0534
       233.0004        177.0004
 -19214473.21749 -14956920.97249  21057026.9464   21057029.3514   21057027.2014
       239.0004        197.0004
   -621878.37849   -393521.35549  24808907.9954   24808908.5694   24808909.2134
       202.0004        131.0004
    296291.61149    242371.05949  24498870.5434   24498873.8044   24498868.3024
       209.0004        138.0004
 -20593126.27949 -16016218.59049  21041185.8114   21041189.3314   21041185.6544
       242.0004        197.0004
  -9910407.01949  -7705833.80149  23032872.4074   23032875.1554   23032873.1244
       224.0004        166.0004
  -9511802.10549  -7157797.86249  22955414.3754   22955417.1464   22955415.2944
       222.0004        165.0004
 -21667651.56949 -16863099.62249  20161103.1584   20161106.4944   20161103.4134
       243.0004        200.0004
 11 10 13  1 57  0.0000000  0  8G28G05G21G10G08G07G15G26
 -11882061.42249  -9235099.41249  22010373.1364   22010375.4964   22010373.0454
       233.0004        177.0004
 -19164905.91149 -14918297.10649  21066457.1294   21066462.0344   21066458.2794
       236.0004        196.0004
   -647921.67849   -413814.86249  24803951.7274   24803955.2484   24803950.7414
       204.0004        131.0004
    411556.35049    332187.67249  24520804.5814   24520807.3274   24520803.7734
       211.0004        140.0004
 -20542411.15849 -15976700.31349  21050836.9004   21050839.7084   21050836.6664
       242.0004        197.0004
  -9817551.92649  -7633479.19349  23050542.9884   23050544.3734   23050542.8064
       224.0004        164.0004
  -9600815.52349  -7227158.93949  22938475.9874   22938478.9194   22938476.7104
       223.0004        168.0004
 -21707765.26849 -16894357.04549  20153470.3084   20153473.0654   20153470.4374
       244.0004        201.0004
 11 10 13  1 57 30.0000000  0  8G28G05G21G10G08G07G15G26
 -11938874.88149  -9279369.60549  21999562.3244   21999564.4224   21999563.0174
       235.0004        178.0004
 -19114808.22049 -14879259.96549  21075992.7284   21075994.7854   21075992.8784
       239.0004        196.0004
   -673464.66949   -433718.51749  24799090.8524   24799092.0114   24799091.3154
       200.0004        131.0004
    526882.03849    422051.84049  24542749.2754   24542752.7774   24542747.4074
       210.0004        137.0004
 -20491315.37549 -15936885.41249  21060559.8644   21060562.3984   21060560.3144
       242.0004        195.0004
  -9724530.24649  -7560994.78349  23068244.0374   23068245.9714   23068244.0264
       223.0004        165.0004
  -9689673.28049  -7296398.69649  22921567.0344   22921570.0914   22921566.0704
       224.0004        166.0004
 -21747431.99149 -16925266.17149  20145921.8044   20145924.8224   20145921.8434
       243.0004        201.0004
 11 10 13  1 58  0.0000000  0  8G28G05G21G10G08G07G15G26
 -11995235.84749  -9323287.21249  21988837.2804   21988839.4844   21988837.7534
       235.0004        179.0004
 -19064181.40349 -14839810.51049  21085625.8994   21085628.9674   21085626.6134
       238.0004        196.0004
   -698507.00349   -453232.04749  24794325.2484   24794328.3994   24794325.5354
       209.0004        133.0004
    642266.78149    511962.03949  24564706.6714   24564711.1984   24564706.8804
       210.0004        137.0004
 -20439840.16549 -15896774.85249  21070355.6454   21070358.5644   21070355.2074
       241.0004        196.0004
  -9631343.28549  -7488381.57949  23085975.7974   23085979.0274   23085975.9294
       220.0004        163.0004
  -9778373.50249  -7365515.74349  22904688.4454   22904689.4334   22904687.8274
       224.0004        165.0004
 -21786650.24449 -16955825.84549  20138458.7064   20138461.7864   20138458.7184
       243.0004        201.0004
 11 10 13  1 58 30.0000000  0  8G28G05G21G10G08G07G15G26
 -12051143.27049  -9366851.40749  21978198.6454   21978200.8744   21978197.7454
       235.0004        180.0004
 -19013027.09149 -14799950.03449  21095359.8334   21095363.0444   21095360.7024
       238.0004        196.0004
   -723047.89449   -472354.89149  24789656.2384   24789655.6994   24789652.8714
       206.0004        134.0004
    757708.00449    601916.21749  24586674.1004   24586678.2784   24586672.0404
       207.0004        138.0004
 -20387987.70949 -15856370.34849  21080222.9374   21080225.3124   21080222.1684
       241.0004        195.0004
  -9537993.40249  -7415641.42249  23103739.0634   23103742.8044   23103740.3974
       220.0004        163.0004
  -9866915.30649  -7434509.36049  22887837.5454   22887841.6744   22887838.5544
       221.0004        166.0004
 -21825419.04049 -16986035.29249  20131081.5494   20131084.5994   20131081.4464
       243.0004        201.0004
 11 10 13  1 59  0.0000000  0  8G28G05G21G10G08G07G15G26
 -12106595.07849  -9410060.57249  21967645.7624   21967648.5864   21967645.6374
       236.0004        180.0004
 -18961347.00749 -14759679.85549  21105193.4974   21105197.3374   21105194.7064
       236.0004        196.0004
   -747086.45049   -491086.24749  24785080.4774   24785083.5614   24785080.9644
       207.0004        135.0004
    873203.92049    691912.99249  24608652.1274   24608656.2624   24608653.1244
       209.0004        138.0004
 -20335759.26149 -15815672.85849  21090160.8784   21090164.3494   21090160.8114
       241.0004        194.0004
  -9444482.12149  -7342775.52249  23121534.7134   23121537.6484   23121534.5904
       221.0004        161.0004
  -9955297.33949  -7503378.43449  22871020.1214   22871023.7204   22871019.9304
       224.0004        168.0004
 -21863737.63849 -17015893.93549  20123789.3334   20123792.5934   20123789.4964
       242.0004        201.0004
 11 10 13  1 59 30.0000000  0  8G28G05G21G10G08G07G15G26
 -12161589.39049  -9452913.27449  21957182.0594   21957182.5824   21957181.4844
       236.0004        180.0004
 -18909141.99749 -14719000.64049  21115129.3324   21115131.9594   21115129.4854
       237.0004        195.0004
   -770622.20849   -509425.79949  24780602.5494   24780606.0114   24780601.8864
       209.0004        136.0004
    988752.35249    781950.72449  24630640.7294   24630643.7064   24630638.6984
       210.0004        135.0004
 -20283156.51349 -15774683.70349  21100171.2114   21100174.0464   21100170.6744
       240.0004        194.0004
  -9350811.00949  -7269785.05549  23139360.4214   23139361.4854   23139360.4924
       223.0004        162.0004
 -10043518.23049  -7572121.95749  22854233.1294   22854235.5534   22854233.7864
       226.0004        170.0004
 -21901604.62849 -17045400.67849  20116583.9114   20116586.1694   20116583.2504
       243.0004        200.0004
 11 10 13  2  0  0.0000000  0  8G28G05G21G10G08G07G15G26
 -12216125.10449  -9495408.59649  21946803.3414   21946805.0414   21946802.8844
       235.0004        180.0004
 -18856413.69349 -14677913.65849  21125162.7254   21125165.7654   21125163.2764
       237.0004        196.0004
   -793654.79949   -527373.27849  24776220.0124   24776222.0624   24776220.0204
       208.0004        137.0004
   1104350.82949    872027.49449  24652638.1654   24652642.2014   24652636.6084
       209.0004        137.0004
 -20230181.39349 -15733404.39149  21110251.8554   21110254.9114   21110251.9844
       240.0004        194.0004
  -9256982.03949  -7196671.55149  23157215.8114   23157217.0864   23157215.6204
       225.0004        164.0004
 -10131576.61649  -7640738.85649  22837475.3754   22837476.3794   22837474.7784
       223.0004        165.0004
 -21939019.08149 -17074554.78449  20109463.2914   20109466.7944   20109463.8004
       242.0004        201.0004
 11 10 13  2  0 30.0000000  0  8G28G05G21G10G08G07G15G26
 -12270200.34849  -9537545.10949  21936512.5034   21936515.7024   21936512.8754
       234.0004        181.0004
 -18803164.19249 -14636420.56849  21135295.0714   21135298.6894   21135295.9804
       237.0004        196.0004
   -816183.99049   -544928.52149  24771933.1534   24771934.3914   24771933.0964
       207.0004        137.0004
   1219997.29149    962141.61149  24674645.9804   24674649.5584   24674644.1134
       209.0004        135.0004
 -20176835.42849 -15691836.10849  21120403.8044   21120406.2654   21120403.3394
       241.0004        194.0004
  -9162997.33549  -7123436.72949  23175100.6264   23175102.9534   23175099.7214
       224.0004        163.0004
 -10219471.31949  -7709228.22449  22820748.1724   22820750.8924   22820749.0514
       222.0004        167.0004
 -21975980.04349 -17103355.53649  20102431.4244   20102433.4664   20102430.7674
       243.0004        201.0004
 11 10 13  2  1  0.0000000  0  8G28G05G21G10G08G07G15G26
 -12323812.95649  -9579321.14349  21926310.8444   21926313.1904   21926310.2624
       235.0004        181.0004
 -18749394.46749 -14594522.08949  21145527.9254   21145530.3914   21145528.5304
       238.0004        196.0004
   -838208.80149   -562090.75749  24767740.8874   24767743.9434   24767740.1474
       207.0004        134.0004
   1335690.03549   1052291.79649  24696659.1284   24696663.6154   24696658.2044
       204.0004        133.0004
 -20123119.72249 -15649979.72449  21130624.5964   21130627.8514   21130624.8054
       240.0004        193.0004
  -9068858.06149  -7050081.45249  23193013.7734   23193016.4844   23193014.8794
       222.0004        162.0004
 -10307200.38649  -7777588.50949  22804054.8074   22804057.1114   22804055.5084
       224.0004        170.0004
 -22012486.21449 -17131801.88949  20095483.3204   20095486.2004   20095483.2154
       243.0004        200.0004
 11 10 13  2  1 30.0000000  0  8G28G05G21G10G08G07G15G26
 -12376961.55449  -9620735.60149  21916196.8154   21916199.0344   21916196.7304
       236.0004        181.0004
 -18695105.87849 -14552219.30749  21155858.3744   21155861.6774   21155858.8734
       238.0004        196.0004
   -859728.95049   -578859.71049  24763645.9394   24763649.2564   24763646.4034
       201.0004        135.0004
   1451426.60549   1142476.08649  24718685.0334   24718689.0624   24718688.2254
       204.0004        130.0004
 -20069036.39349 -15607836.86449  21140917.3124   21140919.8564   21140916.7104
       242.0004        194.0004
  -8974566.22049  -6976607.29949  23210957.0944   23210959.2984   23210957.6374
       222.0004        163.0004
 -10394763.14749  -7845819.20649  22787391.1354   22787394.3874   22787392.1494
       223.0004        168.0004
 -22048536.53449 -17159893.04249  20088623.2524   20088626.0654   20088623.6124
       243.0004        201.0004
 11 10 13  2  2  0.0000000  0  8G28G05G21G10G08G07G15G26
 -12429644.15049  -9661786.95149  21906171.2654   21906174.1674   21906171.7614
       235.0004        181.0004
 -18640299.74749 -14509513.25049  21166288.8074   21166291.1284   21166289.1474
       240.0004        197.0004
   -880743.68749   -595234.82649  24759647.0764   24759648.6114   24759647.2284
       207.0004        135.0004
   1567204.95949   1232692.98649  24740713.4224   24740718.6464   24740711.8264
       203.0004        130.0004
 -20014586.92949 -15565408.71949  21151278.2744   21151281.0164   21151277.5464
       241.0004        193.0004
  -8880123.68949  -6903015.72849  23228928.7954   23228932.0484   23228929.1924
       220.0004        161.0004
 -10482158.13449  -7913919.17549  22770761.0484   22770764.0854   22770762.0174
       224.0004        169.0004
 -22084130.03649 -17187628.23949  20081849.9164   20081853.4714   20081850.4094
       244.0004        201.0004
 11 10 13  2  2 30.0000000  0  8G28G05G21G10G08G07G15G26
 -12481860.19349  -9702474.74049  21896235.6174   21896237.3304   21896235.3034
       236.0004        182.0004
 -18584978.64249 -14466405.90749  21176816.3404   21176818.2614   21176816.5204
       239.0004        197.0004
   -901252.92149   -611216.08749  24755743.0724   24755746.5774   24755744.0214
       205.0004        135.0004
   1683022.28549   1322940.27249  24762756.4114   24762759.7884   24762753.7264
       201.0004        133.0004
 -19959773.31749 -15522696.81049  21161709.4584   21161711.8534   21161708.9954
       240.0004        194.0004
  -8785532.18249  -6829308.08049  23246928.6434   23246931.0704   23246929.0014
       220.0004        161.0004
 -10569384.31849  -7981887.60449  22754162.4964   22754163.6684   22754163.0514
       223.0004        167.0004
 -22119265.89649 -17215006.82049  20075163.8264   20075166.7074   20075164.2624
       242.0004        201.0004
 11 10 13  2  3  0.0000000  0  8G28G05G21G10G08G07G15G26
 -12533606.28549  -9742796.35549  21886388.3894   21886390.7084   21886388.5364
       235.0004        182.0004
 -18529142.19649 -14422897.00249  21187440.4544   21187443.5404   21187441.1474
       239.0004        197.0004
   -921254.93549   -626802.13749  24751936.8104   24751939.0274   24751937.3744
       205.0004        136.0004
   1798878.01949   1413217.43049  24784802.2004   24784808.9194   24784798.6424
       201.0004        132.0004
 -19904595.64049 -15479701.22449  21172209.0144   21172212.0524   21172208.5304
       242.0004        194.0004
  -8690791.74049  -6755484.35149  23264956.6724   23264960.1984   23264956.7934
       221.0004        163.0004
 -10656438.39849  -8049721.92049  22737597.1544   22737599.5094   22737596.6644
       225.0004        169.0004
 -22153941.73549 -17242026.95349  20068564.4404   20068567.9824   20068565.0214
       243.0004        201.0004
 11 10 13  2  3 30.0000000  0  8G28G05G21G10G08G07G15G26
 -12584882.51649  -9782751.83249  21876630.3504   21876633.2584   21876630.2904
       235.0004        182.0004
 -18472793.86949 -14378989.24149  21198163.7004   21198166.5234   21198164.3354
       240.0004        196.0004
   -940750.93749   -641993.83049  24748227.3154   24748230.4024   24748228.1744
       207.0004        136.0004
   1914768.39449   1503521.57449  24806857.3584   24806859.4664   24806856.0214
       206.0004        132.0004
 -19849057.68649 -15436424.89949  21182777.4964   21182780.5624   21182777.1454
       242.0004        194.0004
  -8595906.55549  -6681547.85049  23283012.2574   23283016.6644   23283014.3354
       220.0004        162.0004
 -10743321.16949  -8117422.76449  22721062.7784   22721065.7464   22721063.5754
       224.0004        169.0004
 -22188158.36249 -17268689.26049  20062054.0204   20062057.0704   20062054.4424
       244.0004        202.0004
 11 10 13  2  4  0.0000000  0  8G28G05G21G10G08G07G15G26
 -12635686.46749  -9822339.30049  21866962.9624   21866965.8894   21866962.7064
       235.0004        182.0004
 -18415934.55849 -14334683.30249  21208983.8074   21208986.3104   21208984.2144
       239.0004        197.0004
   -959739.54349   -656790.18649  24744614.1944   24744616.6294   24744616.8614
       204.0004        135.0004
   2030692.17249   1593851.81949  24828916.0514   24828918.6024   24828911.7334
       204.0004        131.0004
 -19793160.03449 -15392868.28749  21193414.6334   21193417.4234   21193414.5944
       242.0004        194.0004
  -8500877.17249  -6607498.99949  23301097.5084   23301100.3724   23301097.3214
       222.0004        162.0004
 -10830030.38549  -8184988.36749  22704562.6484   22704565.0274   22704563.9544
       224.0004        168.0004
 -22221913.67749 -17294992.09749  20055631.1014   20055633.5304   20055630.8944
       245.0004        202.0004
 11 10 13  2  4 30.0000000  0  8G28G05G21G10G08G07G15G26
 -12686016.61449  -9861557.56749  21857385.7454   21857388.2644   21857385.6414
       236.0004        183.0004
 -18358565.53249 -14289980.17749  21219900.6434   21219902.9754   21219900.8534
       239.0004        196.0004
   -978220.57049   -671190.98649  24741096.7824   24741099.3164   24741096.6564
       204.0004        135.0004
   2146647.13349   1684206.34349  24850980.0824   24850987.4124   24850979.7594
       203.0004        133.0004
 -19736904.34649 -15349032.68049  21204120.1914   21204122.6584   21204119.7624
       243.0004        194.0004
  -8405705.14449  -6533339.00449  23319208.8444   23319210.2714   23319208.4914
       221.0004        161.0004
 -10916564.54149  -8252417.56349  22688097.7304   22688098.7314   22688096.8914
       227.0004        170.0004
 -22255206.78449 -17320934.78049  20049296.0004   20049298.3784   20049295.9974
       245.0004        202.0004
 11 10 13  2  5  0.0000000  0  8G28G05G21G10G08G07G15G26
 -12735870.96249  -9900405.08249  21847898.1034   21847900.8134   21847897.9034
       234.0004        182.0004
 -18300688.22949 -14244880.99849  21230913.9224   21230916.4294   21230914.5084
       239.0004        196.0004
   -996193.16549   -685195.61849  24737679.2914   24737679.0284   24737678.9554
       207.0004        136.0004
   2262631.22549   1774583.52649  24873049.7854   24873055.2394   24873049.3414
       204.0004        133.0004
 -19680292.10549 -15304919.25349  21214892.2944   21214895.6344   21214892.0654
       242.0004        194.0004
  -8310391.82249  -6459068.90249  23337344.7744   23337347.9044   23337345.5874
       219.0004        160.0004
 -11002921.95849  -8319709.03449  22671662.6724   22671665.8294   22671663.5184
       225.0004        170.0004
 -22288036.37649 -17346516.27149  20043047.9734   20043050.7924   20043047.7554
       244.0004        202.0004
 11 10 13  2  5 30.0000000  0  8G28G05G21G10G08G07G15G26
 -12785248.95749  -9938881.41549  21838502.7334   21838503.9944   21838501.7144
       236.0004        182.0004
 -18242305.24649 -14199387.78349  21242023.5804   21242026.5374   21242024.3294
       238.0004        196.0004
  -1013658.21749   -698804.77649  24734353.2984   24734356.8614   24734352.7484
       207.0004        135.0004
   2378642.09349   1864981.58549  24895125.4474   24895129.8574   24895124.8684
       202.0004        133.0004
 -19623325.79949 -15260529.92749  21225733.0774   21225735.6894   21225732.9554
       242.0004        193.0004
  -8214939.93949  -6384690.83049  23355509.7824   23355511.5664   23355510.4924
       220.0004        160.0004
 -11089102.16549  -8386862.41749  22655262.3174   22655265.1474   22655263.8114
       224.0004        171.0004
 -22320401.83249 -17371736.10149  20036888.4354   20036891.8194   20036889.2154
       243.0004        202.0004
 11 10 13  2  6  0.0000000  0  8G28G05G21G10G08G07G15G26
 -12834148.64149  -9976985.03949  21829196.6224   21829199.6114   21829196.5444
       235.0004        183.0004
 -18183417.89449 -14153501.54849  21253229.5944   21253232.8514   21253230.0344
       239.0004        195.0004
  -1030614.74649   -712017.68849  24731127.2854   24731130.7174   24731128.1774
       209.0004        138.0004
   2494677.88349   1955399.09549  24917211.4034   24917210.7804   24917209.4384
       210.0004        136.0004
 -19566006.69049 -15215865.69249  21236640.7954   21236643.3094   21236640.3094
       242.0004        193.0004
  -8119350.79549  -6310205.79049  23373700.3274   23373702.8204   23373700.1934
       220.0004        160.0004
 -11175103.18149  -8453876.17949  22638897.8064   22638899.7274   22638898.2054
       225.0004        169.0004
 -22352302.20349 -17396593.53049  20030819.3144   20030821.4484   20030819.0504
       245.0004        202.0004
 11 10 13  2  6 30.0000000  0  8G28G05G21G10G08G07G15G26
 -12882568.07349 -10014714.44149  21819983.3934   21819985.1154   21819982.9614
       236.0004        183.0004
 -18124027.39349 -14107223.24449  21264531.6674   21264533.9864   21264531.6404
       239.0004        195.0004
  -1047062.12949   -724833.82749  24727999.3734   24728001.0214   24727997.8654
       212.0004        140.0004
   2610736.53649   2045834.42749  24939291.5114   24939297.6044   24939292.0184
       202.0004        132.0004
 -19508336.37949 -15170927.78949  21247614.8064   21247617.4864   21247614.9064
       242.0004        192.0004
  -8023625.49449  -6235614.66649  23391916.1784   23391917.0174   23391916.0734
       219.0004        159.0004
 -11260923.60249  -8520749.23249  22622567.2774   22622569.6534   22622567.8194
       225.0004        170.0004
 -22383736.27249 -17421087.60449  20024836.1434   20024839.2624   20024836.6524
       243.0004        202.0004
 11 10 13  2  7  0.0000000  0  8G28G05G21G10G08G07G15G26
 -12930505.79649 -10052068.47249  21810860.6004   21810862.9524   21810860.4274
       235.0004        183.0004
 -18064135.81149 -14060554.49649  21275928.2664   21275931.2184   21275928.9794
       238.0004        195.0004
  -1063000.22249   -737253.14149  24724965.1254   24724966.6804   24724964.9674
       209.0004        139.0004
   2726815.78249   2136285.73649  24961384.0584   24961387.8284   24961384.0124
       207.0004        136.0004
 -19450316.08749 -15125717.16849  21258655.9924   21258658.3474   21258655.3694
       242.0004        193.0004
  -7927765.94349  -6160918.92949  23410157.6584   23410159.7164   23410157.3434
       220.0004        160.0004
 -11346561.70049  -8587480.18349  22606270.3304   22606272.5784   22606270.4104
       225.0004        171.0004
 -22414702.74249 -17445217.31849  20018944.9414   20018946.5694   20018944.9144
       246.0004        203.0004
 11 10 13  2  7 30.0000000  0  8G28G05G21G10G08G07G15G26
 -12977961.44449 -10089046.88449  21801829.7984   21801833.0584   21801829.8984
       234.0004        182.0004
 -18003745.01749 -14013496.76249  21287421.1884   21287423.5484   21287421.1984
       238.0004        195.0004
  -1078429.23849   -749275.75149  24722029.1004   24722030.9734   24722028.6474
       208.0004        137.0004
   2842913.23649   2226751.28649  24983471.2124   24983480.2634   24983473.1744
       202.0004        136.0004
 -19391948.47549 -15080235.92849  21269762.9484   21269765.5384   21269762.6634
       242.0004        192.0004
  -7831774.20949  -6086120.17449  23428422.6054   23428425.5324   23428423.3914
       220.0004        158.0004
 -11432016.86649  -8654068.61449  22590009.7034   22590011.6654   22590010.1624
       227.0004        171.0004
 -22445201.38449 -17468982.49649  20013140.4034   20013143.5314   20013140.7264
       244.0004        203.0004
 11 10 13  2  8  0.0000000  0  8G28G05G21G10G08G07G15G26
 -13024932.70149 -10125647.83049  21792891.6654   21792894.0484   21792891.4724
       234.0004        182.0004
 -17942856.28249 -13966051.00049  21299007.3194   21299010.6474   21299007.5024
       238.0004        195.0004
  -1093348.11449   -760900.85549  24719192.0494   24719190.9544   24719190.6034
       209.0004        137.0004
   2959027.31749   2317229.80049  25005572.0074   25005573.4454   25005572.3994
       208.0004        134.0004
 -19333234.28249 -15034484.60649  21280936.0254   21280938.5114   21280935.9234
       243.0004        192.0004
  -7735651.50949  -6011219.39449  23446715.8054   23446716.4554   23446716.1874
       220.0004        158.0004
 -11517287.45049  -8720513.19249  22573783.8694   22573785.3254   22573783.3444
       227.0004        171.0004
 -22475230.44249 -17492381.75349  20007426.2164   20007429.0264   20007426.5034
       245.0004        203.0004
 11 10 13  2  8 30.0000000  0  8G28G05G21G10G08G07G15G26
 -13071418.38249 -10161870.41949  21784045.7514   21784047.8834   21784045.2284
       236.0004        183.0004
 -17881471.67149 -13918218.86249  21310688.3924   21310691.5714   21310688.7154
       237.0004        194.0004
  -1107757.38449   -772128.89649  24716448.9954   24716451.0634   24716446.6494
       209.0004        138.0004
   3075155.45949   2407719.32349  25027669.8604   25027673.9774   25027668.0034
       205.0004        136.0004
 -19274175.47949 -14988464.76249  21292174.8704   21292176.6734   21292174.1764
       241.0004        192.0004
  -7639399.87149  -5936218.10749  23465031.4434   23465031.8874   23465032.4844
       222.0004        156.0004
 -11602371.76249  -8786812.64449  22557591.1314   22557593.9434   22557592.6144
       226.0004        173.0004
 -22504789.88849 -17515415.08949  20001801.4314   20001804.0774   20001801.2254
       245.0004        203.0004
 11 10 13  2  9  0.0000000  0  8G28G05G21G10G08G07G15G26
 -13117416.50849 -10197713.08849  21775292.6314   21775295.3354   21775291.8484
       235.0004        183.0004
 -17819592.33349 -13870001.21449  21322463.4764   21322466.6204   21322463.8544
       237.0004        194.0004
  -1121656.17049   -782959.13149  24713803.1394   24713804.9674   24713804.4504
       207.0004        136.0004
   3191296.01249   2498218.44349  25049770.2794   25049776.6684   25049769.5664
       207.0004        137.0004
 -19214773.23149 -14942177.30749  21303478.1804   21303481.0324   21303478.0824
       240.0004        192.0004
  -7543020.07849  -5861116.99149  23483372.1044   23483374.0714   23483371.5654
       219.0004        157.0004
 -11687268.03249  -8852965.57649  22541435.1544   22541439.1144   22541437.0144
       225.0004        173.0004
 -22533877.43049 -17538080.70749  19996265.6474   19996268.9314   19996266.3774
       245.0004        204.0004
 11 10 13  2  9 30.0000000  0  8G28G05G21G10G08G07G15G26
 -13162926.42449 -10233175.33449  21766632.7254   21766634.6624   21766632.5404
       236.0004        184.0004
 -17757221.04649 -13821400.22549  21334332.1314   21334335.5474   21334333.0804
       236.0004        193.0004
  -1135045.14849   -793392.08749  24711255.2774   24711256.5524   24711256.0694
       207.0004        137.0004
   3307446.36149   2588725.25049  25071874.0554   25071877.7254   25071871.4204
       207.0004        135.0004
 -19155030.12649 -14895624.24149  21314846.9804   21314849.4694   21314846.4534
       240.0004        192.0004
  -7446514.84149  -5785918.12749  23501734.4224   23501738.0554   23501734.4974
       216.0004        155.0004
 -11771975.50049  -8918971.37449  22525316.1064   22525319.3204   22525317.0034
       225.0004        173.0004
 -22562493.15049 -17560378.66849  19990821.0244   19990823.5784   19990821.4214
       245.0004        204.0004
 11 10 13  2 10  0.0000000  0  8G28G05G21G10G08G07G15G26
 -13207945.99449 -10268255.49449  21758065.5524   21758068.2354   21758065.3924
       235.0004        184.0004
 -17694358.45249 -13772416.40549  21346294.2094   21346298.0524   21346295.0674
       237.0004        194.0004
  -1147923.01849   -803426.78749  24708803.4124   24708806.9204   24708803.0594
       203.0004        137.0004
   3423604.94349   2679238.45649  25093975.7544   25093980.9614   25093974.7344
       202.0004        132.0004
 -19094947.34349 -14848806.49149  21326280.3074   21326282.9664   21326279.5014
       239.0004        191.0004
  -7349884.97349  -5710622.12349  23520122.3374   23520125.0844   23520123.3744
       218.0004        155.0004
 -11856492.19749  -8984828.52149  22509232.5414   22509236.3824   22509234.1494
       224.0004        173.0004
 -22590635.48949 -17582307.75749  19985465.1324   19985468.0564   19985465.5504
       245.0004        204.0004
 11 10 13  2 10 30.0000000  0  8G28G05G21G10G08G07G15G26
 -13252474.91349 -10302953.33449  21749591.7924   21749594.2094   21749591.3984
       235.0004        182.0004
 -17631007.47849 -13723052.02649  21358350.0314   21358353.6554   21358350.1834
       236.0004        193.0004
  -1160290.73849   -813063.99649  24706450.1154   24706451.9754   24706451.0474
       201.0004        135.0004
   3539768.75249   2769755.71049  25116086.3184   25116089.2404   25116083.4894
       208.0004        133.0004
 -19034527.25149 -14801725.91649  21337777.3244   21337781.0394   21337777.0294
       238.0004        191.0004
  -7253132.84549  -5635230.85049  23538535.0244   23538537.8144   23538534.2164
       219.0004        155.0004
 -11940817.49449  -9050536.53349  22493186.9854   22493189.2644   22493188.1304
       225.0004        173.0004
 -22618304.46949 -17603867.99849  19980199.9354   19980203.0224   19980199.9994
       245.0004        204.0004
 11 10 13  2 11  0.0000000  0  8G28G05G21G10G08G07G15G26
 -13296510.72349 -10337266.92249  21741211.3374   21741214.8084   21741211.3174
       234.0004        183.0004
 -17567169.08149 -13673307.85349  21370498.8134   21370501.0764   21370498.8844
       237.0004        193.0004
  -1172147.18249   -822302.79649  24704194.0984   24704197.0324   24704194.1164
       203.0004        136.0004
   3655936.65949   2860276.17449  25138185.8464   25138189.8594   25138186.2704
       193.0004        124.0004
 -18973770.55349 -14754383.04849  21349339.1194   21349342.2664   21349339.2454
       239.0004        192.0004
  -7156259.25749  -5559744.96049  23556969.3414   23556970.5654   23556970.5504
       218.0004        155.0004
 -12024948.79349  -9116093.37549  22477177.9374   22477180.3024   22477177.9234
       228.0004        173.0004
 -22645497.93349 -17625057.71149  19975025.5084   19975028.2934   19975025.5954
       246.0004        204.0004
 11 10 13  2 11 30.0000000  0  8G28G05G21G10G08G07G15G26
 -13340052.53649 -10371195.58649  21732926.1774   21732928.7174   21732925.9344
       235.0004        183.0004
 -17502845.48149 -13623185.58449  21382738.2294   21382741.0294   21382739.3464
       237.0004        193.0004
  -1183492.57349   -831143.37949  24702037.0834   24702038.6104   24702037.7974
       203.0004        136.0004
   3772106.32749   2950797.96449  25160296.7384   25160295.9224   25160297.8594
       203.0004        126.0004
 -18912679.09649 -14706779.31349  21360964.8534   21360966.7354   21360964.4114
       239.0004        190.0004
  -7059266.22449  -5484166.00549  23575427.5114   23575428.5814   23575428.1564
       219.0004        156.0004
 -12108885.46049  -9181498.55349  22461205.1954   22461207.7454   22461206.6934
       230.0004        175.0004
 -22672215.62149 -17645876.69549  19969941.7424   19969943.9384   19969941.7134
       245.0004        205.0004
 11 10 13  2 12  0.0000000  0  8G28G05G21G10G08G07G15G26
 -13383099.29449 -10404738.49049  21724735.6214   21724737.3874   21724734.6254
       236.0004        183.0004
 -17438038.36549 -13572686.55449  21395071.0554   21395073.6744   21395071.3034
       236.0004        192.0004
  -1194327.07749   -839585.86349  24699973.7144   24699976.2924   24699974.3774
       207.0004        138.0004
   3888275.55549   3041319.52949  25182403.4054   25182401.4824   25182403.8024
       199.0004        124.0004
 -18851254.59749 -14658916.06949  21372653.4964   21372656.0744   21372652.9014
       239.0004        190.0004
  -6962155.21549  -5408495.09549  23593906.3324   23593908.4984   23593908.0014
       218.0004        155.0004
 -12192625.72349  -9246750.68749  22445270.2804   22445272.4634   22445270.8834
       229.0004        176.0004
 -22698456.28049 -17666323.95849  19964948.2084   19964950.9274   19964948.2264
       245.0004        205.0004
 11 10 13  2 12 30.0000000  0  8G28G05G21G10G08G07G15G26
 -13425649.85949 -10437894.74949  21716637.3124   21716639.6614   21716637.4064
       236.0004        183.0004
 -17372750.18649 -13521812.66249  21407494.5174   21407497.7094   21407495.0854
       236.0004        192.0004
  -1204650.83849   -847630.34349  24698009.0064   24698011.7004   24698008.8484
       204.0004        138.0004
   4004442.20149   3131838.97849  25204501.5944   25204512.9004   25204503.8564
       191.0004        123.0004
 -18789499.36649 -14610795.12149  21384404.6264   21384407.8914   21384404.2574
       239.0004        190.0004
  -6864928.15549  -5332733.75649  23612408.3334   23612409.8664   23612408.3474
       218.0004        155.0004
 -12276168.57149  -9311848.99549  22429371.8504   22429375.3304   22429372.9514
       229.0004        176.0004
 -22724219.66249 -17686399.32449  19960045.2894   19960047.8614   19960045.4324
       245.0004        205.0004
 11 10 13  2 13  0.0000000  0  8G28G05G21G10G08G07G15G26
 -13467702.50049 -10470663.00449  21708635.5714   21708637.8104   21708634.9384
       236.0004        184.0004
 -17306982.34749 -13470565.00749  21420009.9194   21420013.0804   21420010.2924
       236.0004        192.0004
  -1214463.53449   -855276.62449  24696141.6764   24696145.8814   24696142.3764
       203.0004        137.0004
   4120603.96049   3222354.61949  25226614.5744   25226614.2594   25226612.7244
       200.0004        126.0004
 -18727414.52249 -14562417.32149  21396218.8804   21396222.3304   21396218.9184
       237.0004        190.0004
  -6767586.55449  -5256883.15949  23630931.4634   23630932.4384   23630931.7924
       218.0004        156.0004
 -12359512.31849  -9376792.15849  22413512.2104   22413514.9364   22413511.8824
       230.0004        175.0004
 -22749504.50649 -17706101.79749  19955233.5164   19955235.9174   19955233.9384
       244.0004        204.0004
 11 10 13  2 13 30.0000000  0  8G28G05G21G10G08G07G15G26
 -13509255.82949 -10503042.21249  21700727.3804   21700729.5954   21700728.1694
       237.0004        184.0004
 -17240736.56149 -13418944.93249  21432615.8604   21432619.0964   21432616.2274
       236.0004        192.0004
  -1223764.92049   -862524.49049  24694372.8844   24694374.0544   24694371.9784
       206.0004        136.0004
   4236759.25149   3312865.29549  25248716.1074                   25248716.5444
       191.0004        120.0004
 -18665001.71849 -14513783.96949  21408095.4884   21408099.2074   21408095.6634
       238.0004        191.0004
  -6670131.33749  -5180944.01749  23649477.4114   23649479.0804   23649477.9294
       220.0004        155.0004
 -12442654.94649  -9441578.59549  22397690.6924   22397693.5154   22397691.2754
       229.0004        175.0004
 -22774309.51349 -17725430.37149  19950513.3044   19950516.1144   19950513.7144
       245.0004        205.0004
 11 10 13  2 14  0.0000000  0  8G28G05G21G10G08G07G15G26
 -13550308.29949 -10535031.13049  21692916.2714   21692917.7514   21692916.0564
       237.0004        184.0004
 -17174014.29149 -13366953.57449  21445313.3274   21445315.9944   21445313.5404
       237.0004        192.0004
  -1232554.68649   -869373.68549  24692700.6224   24692700.9444   24692700.6834
       204.0004        134.0004
   4352906.41349   3403369.63249  25270812.0684                   25270814.2864
       176.0004        117.0004
 -18602262.36449 -14464896.16849  21420035.0134   21420038.2244   21420035.0564
       239.0004        192.0004
  -6572564.34749  -5104917.82049  23668043.1684   23668044.6044   23668044.4514
       216.0004        155.0004
 -12525594.89449  -9506207.11649  22381908.3794   22381910.0744   22381908.0324
       232.0004        177.0004
 -22798633.83649 -17744384.39049  19945885.1224   19945887.8004   19945884.8094
       245.0004        205.0004
 11 10 13  2 14 30.0000000  0  8G28G05G21G10G08G07G15G26
 -13590860.26549 -10566630.03949  21685199.1864   21685201.1144   21685199.3994
       237.0004        184.0004
 -17106818.95749 -13314593.60149  21458100.5604   21458102.9944   21458100.7794
       238.0004        193.0004
  -1240834.20949   -875825.27749  24691125.3864   24691127.1454   24691125.3274
       204.0004        134.0004
   4469041.66049   3493864.65849  25292923.3824
       185.0004        117.0004
 -18539199.16349 -14415756.01149  21432035.7124   21432038.5534   21432035.3974
       239.0004        191.0004
  -6474887.97949  -5028806.37149  23686629.9944   23686633.1044   23686629.7994
       216.0004        154.0004
 -12608331.95449  -9570677.53849  22366163.0864   22366166.4334   22366162.8194
       229.0004        176.0004
 -22822477.71849 -17762964.04349  19941347.2984   19941350.2324   19941347.6504
       245.0004        205.0004
 11 10 13  2 15  0.0000000  0  8G28G05G21G10G08G07G15G26
 -13630909.75249 -10597837.40349  21677578.2654   21677580.5984   21677576.9854
       236.0004        185.0004
 -17039151.48549 -13261865.71849  21470977.4154   21470979.7534   21470977.3454
       237.0004        192.0004
  -1248602.51449   -881878.51649  24689647.1964   24689649.2034   24689647.4784
       206.0004        138.0004
   4585164.07759   3584349.64459  25315012.3394
       178.0004        116.0004
 -18475813.06449 -14366364.23849  21444097.3484   21444100.2724   21444097.2034
       239.0004        190.0004
  -6377103.07849  -4952610.36249  23705236.8974   23705240.4344   23705239.0424
       217.0004        156.0004
 -12690863.95249  -9634988.18749  22350458.3444   22350460.1844   22350459.2134
       230.0004        175.0004
 -22845839.26149 -17781167.84949  19936901.5054   19936904.6294   19936902.3704
       244.0004        205.0004
 11 10 13  2 15 30.0000000  0  7G28G05G21G08G07G15G26
 -13670454.76649 -10628651.68949  21670052.0884   21670055.1284   21670052.7684
       237.0004        186.0004
 -16971013.97549 -13208771.56849  21483942.9134   21483945.9134   21483943.3014
       237.0004        192.0004
  -1255859.82449   -887533.57849  24688268.0704   24688266.8784   24688266.8734
       207.0004        137.0004
 -18412105.95049 -14316722.32449  21456220.8884   21456223.5604   21456220.9074
       241.0004        191.0004
  -6279211.18949  -4876330.96849  23723866.7484   23723869.0154   23723866.5964
       218.0004        158.0004
 -12773188.99049  -9699137.55749  22334791.5604   22334795.2064   22334792.0764
       229.0004        176.0004
 -22868717.65449 -17798995.16649  19932548.5924   19932550.9704   19932548.7414
       244.0004        205.0004
 11 10 13  2 16  0.0000000  0  7G28G05G21G08G07G15G26
 -13709494.37149 -10659072.12349  21662624.9664   21662625.6174   21662623.4234
       238.0004        186.0004
 -16902408.37749 -13155312.67349  21496997.7324   21497001.2404   21496998.3784
       237.0004        192.0004
  -1262606.07549   -892790.41049  24686983.1864   24686984.1514   24686984.0404
       204.0004        137.0004
 -18348079.02649 -14266831.21049  21468404.4954   21468407.3544   21468404.4124
       240.0004        189.0004
  -6181213.57449  -4799969.19449  23742515.0564   23742517.2134   23742514.8834
       219.0004        158.0004
 -12855305.85649  -9763124.70049  22319165.4024   22319168.1444   22319166.5504
       230.0004        177.0004
 -22891112.00049 -17816445.29349  19928286.2724   19928289.1434   19928286.3324
       244.0004        204.0004
 11 10 13  2 16 30.0000000  0  7G28G05G21G08G07G15G26
 -13748027.70049 -10689098.08049  21655290.7784   21655292.9974   21655290.6764
       237.0004        186.0004
 -16833336.67449 -13101490.59449  21510142.3994   21510145.3214   21510142.6744
       238.0004        192.0004
  -1268841.47649   -897649.16049  24685792.2914   24685795.5964   24685793.5634
       204.0004        136.0004
 -18283734.28449 -14216692.45849  21480649.4094   21480651.5934   21480648.9264
       240.0004        189.0004
  -6083112.06149  -4723526.47849  23761183.4074   23761184.6494   23761183.8874
       220.0004        159.0004
 -12937213.08449  -9826948.49749  22303579.3184   22303582.0034   22303578.9664
       229.0004        177.0004
 -22913021.59749 -17833517.71749  19924117.1004   19924119.6454   19924117.5394
       244.0004        204.0004
 11 10 13  2 17  0.0000000  0  7G28G05G21G08G07G15G26
 -13786054.26449 -10718729.13749  21648054.8194   21648056.8774   21648054.2534
       237.0004        185.0004
 -16763800.97349 -13047306.94149  21523374.7734   21523377.4844   21523374.8674
       238.0004        193.0004
  -1274566.77249   -902110.46649  24684706.3924   24684706.5944   24684706.8974
       204.0004        136.0004
 -18219073.69749 -14166307.57949  21492954.0854   21492956.5784   21492954.3334
       240.0004        190.0004
  -5984908.65749  -4647004.35549  23779870.8514   23779871.9454   23779871.4594
       221.0004        160.0004
 -13018909.81949  -9890608.27449  22288032.8284   22288034.9834   22288033.2824
       230.0004        178.0004
 -22934446.09449 -17850212.12849  19920040.7014   19920043.2914   19920040.7484
       244.0004        204.0004
 11 10 13  2 17 30.0000000  0  7G28G05G21G08G07G15G26
 -13823571.46249 -10747963.29649  21640914.8864   21640917.8844   21640915.0774
       237.0004        186.0004
 -16693802.15549 -12992762.42349  21536694.6714   21536698.2684   21536695.2424
       237.0004        192.0004
  -1279780.43549   -906173.09449  24683713.1894   24683715.0964   24683712.8424
       202.0004        135.0004
 -18154097.48949 -14115676.76649  21505318.2804   21505320.6464   21505317.3624
       239.0004        188.0004
  -5886603.75049  -4570403.15349  23798577.0624   23798578.8924   23798577.6804
       217.0004        158.0004
 -13100393.00349  -9954101.65549  22272526.8444   22272529.4824   22272528.3364
       228.0004        177.0004
 -22955383.45249 -17866526.95049  19916055.8174   19916058.9844   19916056.2914
       243.0004        204.0004
 11 10 13  2 18  0.0000000  0  7G28G05G21G08G07G15G26
 -13860579.38249 -10776800.61549  21633873.6884   21633875.7684   21633872.9434
       238.0004        187.0004
 -16623343.77849 -12937859.81349  21550102.2464   21550104.9954   21550102.9674
       238.0004        192.0004
  -1284484.10849   -909838.27549  24682820.2024   24682819.4144   24682818.2334
       206.0004        135.0004
 -18088809.23049 -14064802.79849  21517742.3324   21517744.6324   21517741.6234
       240.0004        188.0004
  -5788199.96549  -4493724.91349  23817303.7044   23817304.8304   23817303.7384
       220.0004        158.0004
 -13181662.31249 -10017428.37549  22257062.0734   22257064.7434   22257061.9484
       231.0004        178.0004
 -22975833.95649 -17882462.40849  19912164.7014   19912167.0354   19912164.6154
       244.0004        204.0004
 11 10 13  2 18 30.0000000  0  7G28G05G21G08G07G15G26
 -13897076.47149 -10805239.89049  21626928.2924   21626930.0684   21626927.9734
       239.0004        187.0004
 -16552427.48149 -12882600.37749  21563598.3114   21563600.2724   21563598.3244
       238.0004        192.0004
  -1288677.82349   -913106.10049  24682018.0454   24682024.8244   24682019.4904
       202.0004        132.0004
 -18023210.02449 -14013686.52849  21530225.1714   21530227.3304   21530224.8564
       239.0004        187.0004
  -5689698.12349  -4416970.24049  23836047.0794   23836049.4524   23836048.2674
       218.0004        157.0004
 -13262716.08249 -10080587.14449  22241637.8374   22241641.2494   22241639.3064
       229.0004        177.0004
 -22995796.56549 -17898017.69049  19908365.9064   19908368.8014   19908366.2944
       244.0004        205.0004
 11 10 13  2 19  0.0000000  0  7G28G05G21G08G07G15G26
 -13933062.18849 -10833280.69049  21620080.7644   21620082.4274   21620080.4024
       239.0004        188.0004
 -16481055.19349 -12826985.62049  21577178.4384   21577182.3094   21577179.3804
       237.0004        192.0004
  -1292361.19849   -915976.22849  24681318.4914   24681322.1264   24681315.9204
       201.0004        133.0004
 -17957301.18049 -13962328.98149  21542767.0794   21542769.3984   21542766.8164
       239.0004        186.0004
  -5591099.91149  -4340140.47549  23854809.7414   23854812.3604   23854809.1884
       217.0004        155.0004
 -13343552.58649 -10143576.61449  22226255.7024   22226258.0684   22226255.1314
       230.0004        178.0004
 -23015270.38949 -17913192.10249  19904660.3504   19904662.8284   19904660.5244
       244.0004        205.0004
 11 10 13  2 19 30.0000000  0  7G28G05G21G08G07G15G26
 -13968534.77649 -10860921.65549  21613329.8714   21613331.6244   21613329.9194
       238.0004        187.0004
 -16409228.53549 -12771016.81549  21590847.5094   21590850.9384   21590847.7884
       237.0004        192.0004
  -1295534.61049   -918449.04549  24680716.9524   24680715.2834   24680716.7404
       204.0004        132.0004
 -17891084.10949 -13910731.25749  21555367.5494   21555370.1674   21555367.3954
       238.0004        186.0004
  -5492406.79749  -4263236.77549  23873590.0304   23873592.7904   23873590.6674
       213.0004        152.0004
 -13424170.14449 -10206395.47449  22210914.5144   22210917.0364   22210914.6114
       230.0004        178.0004
 -23034254.49949 -17927984.91649  19901047.3734   19901050.6564   19901047.5764
       244.0004        205.0004
 11 10 13  2 20  0.0000000  0  7G28G05G21G08G07G15G26
 -14003493.77349 -10888162.39849  21606677.8374   21606680.2414   21606677.4264
       239.0004        188.0004
 -16336950.30549 -12714696.13349  21604600.8374   21604604.4054   21604601.6114
       236.0004        191.0004
  -1298198.86749   -920525.10049  24680206.6214   24680210.0604   24680206.8124
       201.0004        135.0004
 -17824561.10949 -13858895.14649  21568026.4704   21568029.3244   21568026.2524
       238.0004        186.0004
  -5393620.76649  -4186260.66849  23892387.2884   23892391.5024   23892389.2934
       214.0004        154.0004
 -13504567.79049 -10269042.97949  22195614.7984   22195618.1834   22195616.0844
       229.0004        180.0004
 -23052748.27449 -17942395.65149  19897527.8944   19897531.2934   19897527.8524
       243.0004        205.0004
 11 10 13  2 20 30.0000000  0  8G28G05G21G08G07G15G27G26
 -14037938.10749 -10915002.12049  21600122.3714   21600124.7234   21600122.4774
       238.0004        187.0004
 -16264222.58149 -12658025.19049  21618440.9704   21618443.7404   21618441.2504
       237.0004        191.0004
  -1300353.85749   -922204.33249  24679799.0014   24679801.2694   24679795.5194
       203.0004        134.0004
 -17757733.60049 -13806821.75349  21580742.7794   21580746.3044   21580742.6854
       237.0004        185.0004
  -5294742.80049  -4109212.93149  23911205.6604   23911207.1094   23911204.8304
       217.0004        154.0004
 -13584743.42649 -10331517.47449  22180357.8134   22180361.3584   22180358.7794
       230.0004        179.0004
   -262287.59449   -189384.78549  23352935.1194   23352938.1264
       215.0004        150.0004
 -23070750.93149 -17956423.69649  19894102.4794   19894105.2354   19894102.9054
       244.0004        205.0004
 11 10 13  2 21  0.0000000  0  8G28G05G21G08G07G15G27G26
 -14071866.38749 -10941439.71049  21593667.2424   21593668.6674   21593666.8334
       238.0004        188.0004
 -16191046.87549 -12601005.18349  21632366.3054   21632369.0514   21632366.7154
       236.0004        191.0004
  -1301999.31349   -923486.56549  24679483.8504   24679487.7234   24679485.6734
       200.0004        131.0004
 -17690603.15649 -13754512.31749  21593517.2784   21593520.9964   21593517.4514
       236.0004        186.0004
  -5195774.19149  -4032094.54449  23930037.9654   23930038.9004   23930037.9614
       216.0004        150.0004
 -13664695.55549 -10393817.81649  22165143.5064   22165146.0064   22165143.8234
       231.0004        178.0004
   -346392.32449   -254920.89349  23336930.3434   23336934.2024   23336930.3644
       213.0004        151.0004
 -23088261.42149 -17970068.23549  19890770.5854   19890773.4274   19890770.3814
       244.0004        205.0004
 11 10 13  2 21 30.0000000  0  8G28G05G21G08G07G15G27G26
 -14105278.08349 -10967474.77249  21587307.6834   21587310.7344   21587307.8264
       238.0004        187.0004
 -16117425.47749 -12543637.87649  21646375.7884   21646378.2504   21646376.1194
       237.0004        191.0004
  -1303136.36449   -924372.61149  24679269.8814   24679271.4354   24679267.8414
       204.0004        134.0004
 -17623171.68349 -13701968.29949  21606349.5594   21606352.0034   21606349.2814
       237.0004        186.0004
  -5096716.84149  -3954906.99949  23948887.4944   23948891.0584   23948887.2044
       215.0004        149.0004
 -13744423.01649 -10455943.10349  22149970.5764   22149975.4064   22149972.9694
       229.0004        180.0004
   -430285.81749   -320292.40949  23320965.6614   23320970.1064   23320965.7874
       214.0004        153.0004
 -23105279.40449 -17983329.00649  19887532.1114   19887534.8734   19887532.2864
       244.0004        205.0004
 11 10 13  2 22  0.0000000  0  8G28G05G21G08G07G15G27G26
 -14138172.07749 -10993106.42649  21581049.1184   21581050.7924   21581048.5494
       239.0004        188.0004
 -16043360.43749 -12485924.87349  21660469.4404   21660472.7414   21660470.1494
       236.0004        191.0004
  -1303764.95749   -924862.43149  24679146.8914   24679152.6644   24679148.3114
       200.0004        134.0004
 -17555440.83849 -13649191.01449  21619238.2124   21619241.0124   21619238.9304
       236.0004        185.0004
  -4997571.87649  -3877651.20049  23967755.1884   23967756.2914   23967754.9424
       214.0004        143.0004
 -13823924.29149 -10517892.13849  22134844.2914   22134846.5834   22134844.1294
       231.0004        181.0004
   -513967.27549   -385498.69049  23305040.5424   23305046.2214   23305041.1114
       214.0004        154.0004
 -23121804.04049 -17996205.34549  19884386.2434   19884389.9224   19884387.0474
       243.0004        205.0004
 11 10 13  2 22 30.0000000  0  8G28G05G21G08G07G15G27G26
 -14170547.43949 -11018333.97649  21574887.4344   21574890.3934   21574887.9654
       237.0004        187.0004
 -15968853.93649 -12427867.88049  21674649.1324   21674651.1544   21674649.0644
       238.0004        191.0004
  -1303885.30149   -924956.20149  24679124.9444   24679127.2784   24679123.5334
       200.0004        135.0004
 -17487412.00449 -13596181.53749  21632183.6334   21632186.7734   21632182.9164
       235.0004        186.0004
  -4898340.87249  -3800328.33249  23986637.5594   23986639.9714   23986637.3174
       211.0004        143.0004
 -13903197.32949 -10579663.30949  22119758.8304   22119761.1274   22119758.8534
       231.0004        181.0004
   -597435.84749   -450539.11349  23289159.5394   23289162.6984   23289158.6214
       216.0004        153.0004
 -23137834.44749 -18008696.57149  19881337.2914   19881339.5204   19881337.3724
       245.0004        205.0004
 11 10 13  2 23  0.0000000  0  8G28G05G21G08G07G15G27G26
 -14202403.55249 -11043156.88349  21568826.6594   21568828.5264   21568825.4194
       239.0004        187.0004
 -15893908.76249 -12369469.05449  21688909.3454   21688912.6934   21688909.9924
       236.0004        190.0004
  -1303498.15149   -924654.50749  24679196.9764   24679201.8704   24679198.4424
       202.0004        135.0004
 -17419087.22749 -13542941.45149  21645186.2634   21645188.7014   21645185.1724
       238.0004        186.0004
  -4799025.09949  -3722939.43449  24005536.0994   24005539.2954   24005538.0244
       211.0004        145.0004
 -13982241.13849 -10641255.87549  22104717.0854   22104720.4274   22104717.1324
       230.0004        182.0004
   -680691.25949   -515413.42149  23273314.2044   23273319.4934   23273315.3884
       213.0004        152.0004
 -23153370.16949 -18020802.33449  19878380.1894   19878383.2014   19878380.3934
       243.0004        205.0004
 11 10 13  2 23 30.0000000  0  8G28G05G21G08G07G15G27G26
 -14233738.83149 -11067573.96349  21562862.7354   21562865.5284   21562863.1114
       239.0004        187.0004
 -15818526.28549 -12310729.48249  21703253.9364   21703256.8944   21703254.7394
       235.0004        189.0004
  -1302603.62049   -923957.50749  24679373.2974   24679374.8844   24679371.8874
       209.0004        134.0004
 -17350467.79449 -13489471.75549  21658243.1074   21658246.7114   21658243.0204
       236.0004        186.0004
  -4699626.44349  -3645485.91549  24024449.9424   24024453.5244   24024449.9324
       209.0004        144.0004
 -14061053.76849 -10702668.29649  22089719.6274   22089721.6334   22089720.3914
       232.0004        182.0004
   -763732.39749   -580120.76249  23257513.8104   23257517.6204   23257512.9344
       216.0004        152.0004
 -23168410.40649 -18032521.99749  19875518.5474   19875521.4174   19875518.7214
       244.0004        205.0004
 11 10 13  2 24  0.0000000  0  8G28G05G21G08G07G15G27G26
 -14264553.52749 -11091585.38249  21556999.8854   21557001.4434   21556998.9964
       239.0004        188.0004
 -15742709.03449 -12251651.12649  21717681.8694   21717684.4504   21717682.5094
       235.0004        188.0004
  -1301202.53449   -922865.79049  24679638.4704   24679639.0114   24679638.5624
       208.0004        133.0004
 -17281555.56749 -13435773.91949  21671356.4754   21671360.2694   21671356.1874
       236.0004        185.0004
  -4600146.25249  -3567968.91149  24043381.2594   24043384.1264   24043383.2864
       210.0004        144.0004
 -14139634.01549 -10763899.64549  22074766.2154   22074768.1034   22074767.1314
       232.0004        182.0004
   -846558.87149   -644660.84049  23241751.1054   23241755.7924   23241751.3114
       216.0004        153.0004
 -23182954.25049 -18043854.86849  19872750.5824   19872754.1754   19872750.7034
       243.0004        205.0004
 11 10 13  2 24 30.0000000  0  8G28G05G21G08G07G15G27G26
 -14294845.68249 -11115189.64549  21551235.0354   21551236.8564   21551235.2424
       239.0004        189.0004
 -15666459.30349 -12192235.75349  21732189.9264   21732194.4384   21732191.1014
       233.0004        188.0004
  -1299294.82049   -921379.21449  24679998.7204   24680001.6464   24679998.0914
       207.0004        134.0004
 -17212352.37149 -13381849.34149  21684526.3304   21684528.7804   21684525.4994
       237.0004        187.0004
  -4500585.56549  -3490389.15849  24062327.7774   24062330.0954   24062328.0294
       207.0004        143.0004
 -14217980.19849 -10824948.60349  22059856.4794   22059860.0374   22059857.6634
       232.0004        183.0004
   -929169.46249   -709032.70349  23226030.9674   23226035.6134   23226030.4764
       213.0004        154.0004
 -23197001.11049 -18054800.47449  19870078.2294   19870080.6304   19870078.1964
       244.0004        205.0004
 11 10 13  2 25  0.0000000  0  8G28G05G21G08G07G15G27G26
 -14324615.40949 -11138386.81049  21545569.9394   21545571.9914   21545569.5754
       239.0004        188.0004
 -15589779.48649 -12132485.27649  21746783.1084   21746786.3544   21746783.4324
       234.0004        189.0004
  -1296881.57249   -919498.73449  24680459.2014   24680460.8534   24680459.7854
       205.0004        136.0004
 -17142860.15349 -13327699.55049  21697750.5474   21697752.9594   21697750.3034
       238.0004        187.0004
  -4400946.34649  -3412748.22049  24081287.9884   24081291.5614   24081288.9094
       208.0004        141.0004
 -14296091.06249 -10885814.18949  22044993.8114   22044995.7994   22044994.2604
       233.0004        184.0004
  -1011564.01449   -773236.20349  23210353.0264   23210355.5474   23210352.2114
       217.0004        155.0004
 -23210550.67449 -18065358.57649  19867499.5234   19867502.2624   19867499.5754
       244.0004        205.0004
 11 10 13  2 25 30.0000000  0  8G28G05G21G08G07G15G27G26
 -14353861.01049 -11161175.57649  21540004.0724   21540007.0004   21540004.4454
       238.0004        189.0004
 -15512670.91249 -12072400.68749  21761456.1264   21761459.7214   21761456.9384
       234.0004        188.0004
  -1293962.51549   -917224.14849  24681014.6664   24681016.7974   24681013.8484
       207.0004        136.0004
 -17073079.75449 -13273325.21049  21711028.4464   21711031.5664   21711028.5284
       236.0004        186.0004
  -4301229.60649  -3335046.88649  24100263.5344   24100267.8704   24100265.3334
       207.0004        141.0004
 -14373964.11649 -10946494.46649  22030175.0084   22030177.2034   22030175.8914
       233.0004        184.0004
  -1093741.21849   -837270.35149  23194714.8224   23194718.1794   23194713.7364
       215.0004        154.0004
 -23223601.66949 -18075528.17549  19865015.3774   19865018.7354   19865016.1744
       244.0004        205.0004
 11 10 13  2 26  0.0000000  0  8G28G05G21G08G07G15G27G26
 -14382582.12149 -11183555.63649  21534539.2194   21534540.9944   21534538.8384
       239.0004        189.0004
 -15435136.26749 -12011984.09149  21776211.3254   21776213.9374   21776211.4904
       236.0004        188.0004
  -1290538.64449   -914556.18849  24681666.4384   24681667.7184   24681666.1604
       209.0004        138.0004
 -17003013.04349 -13218727.77149  21724361.8194   21724365.0194   21724361.8554
       237.0004        185.0004
  -4201436.69649  -3257286.19849  24119254.3134   24119256.4624   24119254.5524
       208.0004        140.0004
 -14451598.24549 -11006988.57449  22015401.2284   22015403.6354   22015401.3564
       231.0004        183.0004
  -1175700.73549   -901134.87649  23179118.5224   23179122.1934   23179117.8514
       217.0004        153.0004
 -23236153.89349 -18085309.13249  19862627.1224   19862630.0194   19862627.4924
       244.0004        205.0004
 11 10 13  2 26 30.0000000  0  8G28G05G21G08G07G15G27G26
 -14410778.44849 -11205526.77949  21529173.2504   21529176.0304   21529173.2594
       238.0004        189.0004
 -15357178.07149 -11951237.46849  21791046.2004   21791048.3904   21791046.6574
       235.0004        188.0004
  -1286610.51549   -911495.30149  24682413.7254   24682416.2844   24682414.8264
       209.0004        138.0004
 -16932662.07849 -13163908.84149  21737749.2854   21737752.0574   21737749.1454
       237.0004        185.0004
  -4101569.26349  -3179467.40349  24138259.0414   24138260.6644   24138259.7074
       205.0004        139.0004
 -14528992.35349 -11067295.66149  22000673.4254   22000676.9244   22000674.0234
       231.0004        183.0004
  -1257442.15249   -964829.45849  23163563.0194   23163567.5774   23163562.9694
       215.0004        153.0004
 -23248206.68649 -18094700.91349  19860333.8204   19860336.7974   19860333.8954
       245.0004        205.0004
 11 10 13  2 27  0.0000000  0  8G28G05G21G08G07G15G27G26
 -14438448.46349 -11227087.80249  21523908.6164   21523910.6754   21523907.7424
       239.0004        189.0004
 -15278798.28549 -11890162.32749  21805961.0504   21805964.7054   21805961.0494
       235.0004        188.0004
  -1282178.41849   -908041.76949  24683257.9214   24683259.8934   24683257.1934
       207.0004        138.0004
 -16862027.89249 -13108869.21349  21751190.0534   21751193.2424   21751190.4814
       236.0004        184.0004
  -4001628.28349  -3101591.35749  24157277.5584   24157277.4904   24157278.1474
       205.0004        137.0004
 -14606144.25649 -11127414.01449  21985992.0044   21985994.7254   21985992.7794
       232.0004        183.0004
  -1338964.26949  -1028353.16749  23148048.8124   23148053.8484   23148048.8634
       211.0004        152.0004
 -23259759.09949 -18103702.80149  19858135.7444   19858137.9304   19858135.4254
       245.0004        205.0004
 11 10 13  2 27 30.0000000  0  8G28G05G21G08G07G15G27G26
 -14465592.30849 -11248238.82749  21518742.3154   21518744.7364   21518742.6884
       239.0004        190.0004
 -15199999.68749 -11828760.84749  21820956.9334   21820959.1684   21820956.7484
       236.0004        188.0004
  -1277243.38749   -904196.29649  24684193.7464   24684198.1674   24684197.1684
       205.0004        136.0004
 -16791112.75449 -13053610.65649  21764685.2414   21764688.1224   21764684.8384
       236.0004        184.0004
  -3901616.21249  -3023659.88049  24176308.6584   24176309.4434   24176310.2214
       205.0004        137.0004
 -14683053.05549 -11187342.93149  21971356.5034   21971358.8704   21971357.0034
       231.0004        182.0004
  -1420267.16049  -1091706.03049  23132576.0144   23132582.2914   23132576.9414
       212.0004        152.0004
 -23270811.08649 -18112314.73149  19856031.8684   19856035.1334   19856032.4354
       244.0004        205.0004
 11 10 13  2 28  0.0000000  0  8G28G05G21G08G07G15G27G26
 -14492208.22549 -11268978.47949  21513677.6254   21513680.1714   21513677.4844
       237.0004        189.0004
 -15120783.51049 -11767033.97549  21836031.1914   21836032.9734   21836030.6264
       235.0004        187.0004
  -1271804.92249   -899958.49349  24685230.5184   24685234.7294   24685230.4764
       203.0004        135.0004
 -16719917.77949 -12998134.06049  21778232.8804   21778236.2014   21778232.0274
       235.0004        183.0004
  -3801533.27749  -2945673.17949  24195353.8904   24195356.3694   24195353.4824
       202.0004        133.0004
 -14759716.24149 -11247080.46649  21956767.5434   21956771.1044   21956768.6904
       230.0004        183.0004
  -1501349.19849  -1154886.80249  23117151.1054   23117152.5034   23117148.9564
       217.0004        154.0004
 -23281361.08849 -18120535.51449  19854024.9334   19854027.7614   19854025.0664
       244.0004        206.0004
 11 10 13  2 28 30.0000000  0  8G28G05G21G08G07G15G27G26
 -14518295.53949 -11289306.24049  21508713.5104   21508715.7914   21508713.3144
       238.0004        189.0004
 -15041152.23449 -11704983.64749  21851182.9824   21851186.4204   21851184.0374
       234.0004        186.0004
  -1265864.14149   -895329.32149  24686362.4174   24686363.6654   24686359.0594
       199.0004        131.0004
 -16648444.38149 -12942440.51249  21791834.0424   21791836.2084   21791833.8264
       236.0004        182.0004
  -3701380.69849  -2867632.20249  24214411.2974   24214415.0964   24214410.1124
       202.0004        132.0004
 -14836132.42849 -11306625.52649  21942227.2904   21942229.8204   21942227.3284
       233.0004        184.0004
  -1582209.84649  -1217895.05749  23101761.1024   23101765.4084   23101760.4914
       217.0004        153.0004
 -23291408.53249 -18128364.68549  19852112.9914   19852115.1934   19852112.8634
       244.0004        206.0004
 11 10 13  2 29  0.0000000  0  8G28G05G21G08G07G15G27G26
 -14543854.51849 -11309222.30749  21503849.6984   21503852.5764   21503849.0934
       238.0004        189.0004
 -14961109.14249 -11642612.42049  21866414.4954   21866418.9844   21866415.7474
       234.0004        186.0004
  -1259422.29149   -890309.76249  24687584.7714   24687587.6014   24687586.8294
       197.0004        130.0004
 -16576695.27449 -12886532.11749  21805487.7044   21805490.4704   21805487.5884
       236.0004        183.0004
  -3601160.66049  -2789538.71049  24233481.5634   24233485.1144   24233483.0394
       200.0004        131.0004
 -14912300.90949 -11365977.57549  21927733.2124   21927734.9744   21927733.2384
       233.0004        184.0004
  -1662849.18249  -1280730.87449  23086414.8014   23086419.7164   23086415.8774
       213.0004        152.0004
 -23300953.89449 -18135802.63149  19850296.6444   19850299.2854   19850296.6674
       245.0004        206.0004
 11 10 13  2 29 30.0000000  0  8G28G05G21G08G07G15G27G26
 -14568884.26849 -11328725.98749  21499086.4664   21499089.2374   21499086.4644
       239.0004        190.0004
 -14880655.95149 -11579921.64749  21881725.4034   21881728.0514   21881726.3814
       236.0004        187.0004
  -1252479.46649   -884899.79849  24688908.9314   24688909.5004   24688905.1724
       199.0004        131.0004
 -16504671.57949 -12830409.75849  21819193.5684   21819195.5234   21819192.3634
       235.0004        182.0004
  -3500874.39249  -2711393.61449  24252566.6744   24252568.8924   24252567.5894
       201.0004        130.0004
 -14988219.60149 -11425134.99149  21913284.9974   21913288.0024   21913285.6054
       232.0004        183.0004
  -1743266.28649  -1343393.50249  23071112.4264   23071117.3064   23071113.4084
       216.0004        155.0004
 -23309995.97449 -18142848.40449  19848575.4694   19848578.3454   19848575.6634
       244.0004        206.0004
 11 10 13  2 30  0.0000000  0  9G09G28G05G21G08G07G15G27G26
   -123200.43249    -77479.48249  25254446.0744
       205.0004         90.0004
 -14593383.74249 -11347816.47249  21494425.0024   21494426.3524   21494424.4744
       238.0004        189.0004
 -14799794.98849 -11516913.12549  21897112.3644   21897115.3434   21897112.9734
       234.0004        187.0004
  -1245035.87949   -879099.62549  24690324.0114   24690327.4944   24690323.1134
       201.0004        131.0004
 -16432374.71549 -12774074.55049  21832950.9874   21832952.9214   21832950.4874
       235.0004        182.0004
  -3400523.02649  -2633197.78249  24271661.1254   24271664.0504   24271659.8474
       199.0004        130.0004
 -15063886.43049 -11484096.14449  21898886.5894   21898888.3734   21898886.6864
       233.0004        183.0004
  -1823460.28049  -1405882.30449  23055853.4034   23055857.1734   23055853.6034
       219.0004        157.0004
 -23318534.04049 -18149501.44749  19846950.7854   19846953.7834   19846951.1524
       245.0004        206.0004
 11 10 13  2 30 30.0000000  0  8G28G05G21G08G07G15G27G26
 -14617353.27449 -11366494.01549  21489862.7544   21489865.1984   21489863.2844
       238.0004        189.0004
 -14718529.05449 -11453589.02549  21912577.4744   21912580.0464   21912577.4774
       235.0004        187.0004
  -1237093.72849   -872910.94849  24691839.1064   24691837.2744   24691835.7244
       207.0004        132.0004
 -16359807.38149 -12717528.57049  21846759.4714   21846762.8204   21846759.7994
       235.0004        182.0004
  -3300108.69949  -2554952.85949  24290771.7584   24290773.0104   24290770.1354
       195.0004        128.0004
 -15139300.87249 -11542860.62449  21884536.2744   21884538.2184   21884536.0614
       235.0004        185.0004
  -1903431.49649  -1468197.49149  23040634.1954   23040639.1204   23040634.1614
       217.0004        156.0004
 -23326568.64649 -18155762.17049  19845421.1814   19845424.7884   19845421.8824
       244.0004        206.0004
 11 10 13  2 31  0.0000000  0  9G09G28G05G21G08G07G15G27G26
   -350302.14849   -254444.82849  25211230.8294
       204.0004        111.0004
 -14640791.13049 -11384757.26149  21485403.3914   21485405.2194   21485403.4094
       238.0004        189.0004
 -14636859.60749 -11389950.52149  21928117.2394   21928120.8344   21928118.1444
       233.0004        186.0004
  -1228652.12649   -866333.11749  24693444.9924   24693444.1374   24693444.2194
       209.0004        135.0004
 -16286969.93449 -12660772.11949  21860620.1724   21860623.5024   21860619.7044
       234.0004        180.0004
  -3199631.49949  -2476658.95649  24309891.1524   24309894.9274   24309893.5544
       198.0004        128.0004
 -15214459.95249 -11601426.14549  21870233.5014   21870235.7654   21870234.2984
       234.0004        185.0004
  -1983177.72849  -1530337.39149  23025459.6914   23025463.8764   23025459.8724
       218.0004        157.0004
 -23334097.42349 -18161628.75849  19843989.7164   19843992.0304   19843989.6774
       244.0004        206.0004
 11 10 13  2 31 30.0000000  0  8G28G05G21G08G07G15G27G26
 -14663696.69449 -11402605.72949  21481044.6614   21481046.9564   21481044.7214
       239.0004        190.0004
 -14554788.80549 -11325999.26349  21943735.4664   21943738.7074   21943736.3614
       234.0004        186.0004
  -1219712.06049   -859366.87249  24695146.2814   24695145.2584   24695147.0014
       207.0004        137.0004
 -16213863.76249 -12603806.27449  21874532.8244   21874535.2204   21874531.8044
       235.0004        180.0004
  -3099093.01649  -2398317.28749  24329021.5994   24329028.0034   24329025.1974
       197.0004        130.0004
 -15289362.54249 -11659791.77949  21855980.2334   21855982.5254   21855979.8824
       234.0004        184.0004
  -2062698.63349  -1592301.70349  23010326.9034   23010332.0414   23010328.8364
       220.0004        159.0004
 -23341120.32149 -18167101.14049  19842652.3684   19842655.7424   19842652.8554
       245.0004        206.0004
 11 10 13  2 32  0.0000000  0  8G28G05G21G08G07G15G27G26
 -14686070.02249 -11420039.46349  21476787.2024   21476789.4074   21476786.8574
       238.0004        190.0004
 -14472319.77849 -11261737.69849  21959429.4294   21959431.9614   21959429.4254
       235.0004        186.0004
  -1210275.00549   -852013.32149  24696937.9864   24696942.7174   24696940.1074
       199.0004        134.0004
 -16140491.22849 -12546632.88449  21888493.9274   21888497.2934   21888494.0364
       233.0004        178.0004
  -2998494.95249  -2319929.27549  24348164.1524   24348170.8474   24348163.4964
       199.0004        132.0004
 -15364007.75149 -11717956.86249  21841774.2684   21841777.6234   21841775.5984
       233.0004        184.0004
  -2141994.44349  -1654090.60949  22995240.6884   22995242.6584   22995239.3914
       223.0004        160.0004
 -23347637.74949 -18172179.65749  19841413.4224   19841415.3564   19841413.0084
       245.0004        206.0004
 11 10 13  2 32 30.0000000  0  8G28G05G21G08G07G15G27G26
 -14707910.60249 -11437058.08749  21472631.0304   21472633.3554   21472630.9974
       239.0004        190.0004
 -14389454.82849 -11197167.61649  21975197.8724   21975200.5734   21975197.7234
       235.0004        185.0004
  -1200341.15249   -844272.69449  24698832.2674   24698832.2314   24698830.7074
       204.0004        134.0004
 -16066854.36249 -12489253.50849  21902507.1434   21902509.2384   21902506.7244
       233.0004        178.0004
  -2897838.24749  -2241495.51549  24367322.3884   24367323.8184   24367324.0744
       196.0004        130.0004
 -15438393.46749 -11775919.75849  21827619.1894   21827622.0174   21827620.6664
       233.0004        185.0004
  -2221064.18849  -1715703.34449  22980191.4644   22980195.1314   22980191.2704
       220.0004        159.0004
 -23353648.60149 -18176863.43649  19840268.3354   19840271.5124   19840268.5204
       244.0004        206.0004
 11 10 13  2 33  0.0000000  0  8G28G05G21G08G07G15G27G26
 -14729217.51849 -11453660.86149  21468576.4154   21468578.1004   21468575.8184
       238.0004        189.0004
 -14306195.85649 -11132290.52449  21991041.7224   21991044.8484   21991042.1504
       234.0004        185.0004
  -1189911.40449   -836145.61349  24700811.9614   24700816.1874   24700813.7364
       198.0004        134.0004
 -15992953.77449 -12431668.65449  21916569.1644   21916572.1644   21916569.3844
       233.0004        181.0004
  -2797124.47749  -2163017.29149  24386488.3744   24386487.8854   24386485.2614
       198.0004        129.0004
 -15512517.64449 -11833678.85449  21813515.5094   21813517.5634   21813516.0374
       236.0004        186.0004
  -2299906.96649  -1777139.26249  22965186.9254   22965190.8954   22965189.0244
       219.0004        160.0004
 -23359151.82649 -18181151.66949  19839222.0674   19839224.5884   19839221.7704
       244.0004        206.0004
 11 10 13  2 33 30.0000000  0  8G28G05G21G08G07G15G27G26
 -14749990.81449 -11469847.83249  21464623.2464   21464625.1784   21464623.8044
       238.0004        189.0004
 -14222545.70549 -11067108.60649  22006959.1714   22006962.9154   22006959.6854
       233.0004        184.0004
  -1178986.21649   -827632.48749  24702891.4334   24702897.3814   24702891.3484
       201.0004        132.0004
 -15918791.73949 -12373880.05849  21930682.5894   21930685.2194   21930682.5764
       235.0004        182.0004
  -2696355.13049  -2084495.73849  24405660.7334   24405665.0344   24405663.2494
       199.0004        131.0004
 -15586379.17149 -11891233.27949  21799459.8344   21799461.8754   21799460.1144
       234.0004        187.0004
  -2378522.48749  -1838398.08749  22950228.5604   22950231.8934   22950228.5874
       223.0004        162.0004
 -23364147.78349 -18185044.62349  19838270.6704   19838273.7174   19838271.5344
       245.0004        206.0004
