     2.11           OBSERVATION DATA    G (GPS)             RINEX VERSION / TYPE
Linux 2.4.21-27.ELsmp|Opteron|gcc -static|Linux x86_64|=+   COMMENT
HEADER CHANGED BY EPN CB ON 2011-10-13                      COMMENT
TO BE CONFORM WITH THE INFORMATION IN                       COMMENT
ftp://epncb.oma.be/pub/station/log/brus.log                 COMMENT
                                                            COMMENT
teqc  2010Oct21                         20111013 00:01:17UTCPGM / RUN BY / DATE
teqc  2010Oct21                         20111013 00:01:03UTCCOMMENT
teqc  2010Oct21                         20111012 01:01:01UTCCOMMENT
BIT 2 OF LLI FLAGS DATA COLLECTED UNDER A/S CONDITION       COMMENT
BRUS                                                        MARKER NAME
13101M004                                                   MARKER NUMBER
Carine Bruyninx     ROB                                     OBSERVER / AGENCY
RT919994505         ASHTECH Z-XII3T     1L01-1D04           REC # / TYPE / VERS
CR519994604         ASH701945B_M    NONE                    ANT # / TYPE
  4027894.0130   307045.5980  4919474.9120                  APPROX POSITION XYZ
        3.9702        0.0000        0.0000                  ANTENNA: DELTA H/E/N
     1     1                                                WAVELENGTH FACT L1/2
     7    L1    L2    C1    P2    P1    S1    S2            # / TYPES OF OBSERV
    30.0000                                                 INTERVAL
 SNR is mapped to RINEX snr flag value [0-9]                COMMENT
  L1 & L2: min(max(int(snr_dBHz/6), 0), 9)                  COMMENT
pseudorange smoothing corrections not applied               COMMENT
COORDINATES IN ETRF2000                                     COMMENT
Forced Modulo Decimation to 30 seconds                      COMMENT
  2011    10    12     0     0    0.0000000     GPS         TIME OF FIRST OBS
                                                            END OF HEADER
 11 10 12  0  0  0.0000000  0  9G26G05G16G10G08G13G07G02G04
  -3031231.48149  -2342441.23549  23898984.3204   23898987.5594   23898982.2294
       210.0004        138.0004
 -14734641.96549 -11462144.32749  21800615.4594   21800618.1424   21800615.7364
       236.0004        190.0004
    655312.75449    515225.71049  24264297.8924   24264299.9014   24264298.9704
       210.0004        138.0004
 -20638219.56449 -15327313.00349  20474713.1914   20474716.3374   20474712.7354
       241.0004        199.0004
 -19400755.25049 -14530218.01749  21324014.7344   21324017.8814   21324013.8994
       239.0004        193.0004
 -14602696.33749 -11071531.68249  22202713.4154   22202715.9484   22202714.3074
       231.0004        170.0004
 -21706390.92849 -16895353.24849  20565132.0414   20565134.6564   20565132.7964
       241.0004        205.0004
 -16697615.84349 -12984965.96249  21847200.1914   21847202.2274   21847200.9504
       231.0004        180.0004
   -131688.49949    -86768.59949  23955306.3454   23955306.6414   23955304.3654
       211.0004        138.0004
 11 10 12  0  0 30.0000000  0  9G26G05G16G10G08G13G07G02G04
  -3140626.72649  -2427684.35549  23878165.2664   23878170.7254   23878166.6654
       211.0004        139.0004
 -14807410.54949 -11518847.10949  21786768.0044   21786770.5124   21786768.2174
       235.0004        190.0004
    699317.60249    549515.19949  24272673.0894   24272674.5234   24272670.8274
       209.0004        137.0004
 -20595281.27849 -15293854.61149  20482885.1064   20482887.3704   20482883.8054
       242.0004        199.0004
 -19466495.03349 -14581443.80849  21311504.4034   21311507.8544   21311504.0514
       239.0004        193.0004
 -14518305.92249 -11005772.92949  22218773.0124   22218774.5184   22218773.0394
       231.0004        169.0004
 -21708690.91149 -16897145.43749  20564694.9684   20564696.9614   20564695.3804
       241.0004        205.0004
 -16646716.74849 -12945304.34549  21856887.8294   21856887.8254   21856887.3304
       233.0004        180.0004
    -23362.81249     -2359.00749  23975918.4124   23975918.6654   23975918.4704
       215.0004        140.0004
 11 10 12  0  1  0.0000000  0  9G26G05G16G10G08G13G07G02G04
  -3249893.97849  -2512827.69749  23857369.3584   23857378.5064   23857371.1454
       196.0004        135.0004
 -14879842.22749 -11575287.36849  21772983.5934   21772986.8324   21772984.3434
       235.0004        189.0004
    743873.89949    584234.41649  24281151.1634   24281153.3494   24281152.0324
       210.0004        139.0004
 -20551864.35249 -15260023.25249  20491145.7424   20491148.8084   20491145.3804
       241.0004        199.0004
 -19531785.40849 -14632319.41249  21299080.7254   21299083.7344   21299080.0444
       240.0004        194.0004
 -14433721.91249 -10939863.32249  22234867.9684   22234871.1044   22234868.8104
       230.0004        168.0004
 -21710421.30949 -16898493.78249  20564365.3374   20564367.7374   20564365.5504
       241.0004        205.0004
 -16595283.28849 -12905226.33449  21866674.8054   21866675.7574   21866674.3224
       233.0004        180.0004
     85055.73649     82122.99049  23996550.3464   23996553.7034   23996548.9414
       214.0004        146.0004
 11 10 12  0  1 30.0000000  0  9G26G05G16G10G08G13G07G02G04
  -3359031.61049  -2597869.84849  23836605.6074   23836610.2814   23836606.2824
       214.0004        143.0004
 -14951934.52449 -11631463.17549  21759265.4664   21759268.1864   21759266.1074
       236.0004        190.0004
    788980.30249    619382.21049  24289734.6344   24289735.4454   24289734.6864
       211.0004        140.0004
 -20507969.34149 -15225819.36249  20499499.8604   20499502.2904   20499498.9514
       242.0004        199.0004
 -19596624.85149 -14682843.64049  21286741.2744   21286745.0984   21286740.5734
       240.0004        194.0004
 -14348945.48649 -10873803.78949  22251000.5574   22251003.3634   22251001.5094
       229.0004        168.0004
 -21711582.74649 -16899398.78749  20564144.3514   20564147.0094   20564144.9024
       241.0004        205.0004
 -16543317.35149 -12864733.41549  21876562.2934   21876564.7204   21876562.5994
       231.0004        180.0004
    193564.48549    166675.20849  24017196.4184   24017201.1884   24017196.4634
       208.0004        142.0004
 11 10 12  0  2  0.0000000  0  9G26G05G16G10G08G13G07G02G04
  -3468038.44949  -2682810.17349  23815862.7014   23815866.8394   23815862.6464
       211.0004        146.0004
 -15023685.41449 -11687372.95349  21745612.1184   21745613.9594   21745612.8574
       238.0004        190.0004
    834634.97249    654957.29749  24298421.9054   24298421.6744   24298421.0874
       210.0004        139.0004
 -20463597.35449 -15191243.81949  20507943.1594   20507945.8884   20507942.1704
       240.0004        200.0004
 -19661011.82449 -14733015.29549  21274488.7784   21274492.9254   21274488.9744
       240.0004        195.0004
 -14263978.09049 -10807595.44749  22267169.6494   22267172.5644   22267170.0904
       229.0004        168.0004
 -21712175.79649 -16899860.89649  20564031.0814   20564033.7824   20564031.7604
       241.0004        205.0004
 -16490820.85349 -12823827.07349  21886553.1684   21886553.7264   21886552.5784
       232.0004        179.0004
    302160.75749    251295.62149  24037864.7914   24037863.9764   24037863.8274
       212.0004        138.0004
 11 10 12  0  2 30.0000000  0  9G26G05G16G10G08G13G07G02G04
  -3576913.33349  -2767647.68149  23795140.5154   23795147.8944   23795142.0334
       203.0004        139.0004
 -15095093.07949 -11743015.28849  21732024.3234   21732026.0884   21732023.9874
       237.0004        190.0004
    880836.60049    690958.54849  24307214.7694   24307217.4154   24307213.5014
       211.0004        139.0004
 -20418748.68349 -15156296.81849  20516477.1354   20516480.3014   20516476.5474
       242.0004        199.0004
 -19724945.08149 -14782833.39549  21262323.2934   21262326.6104   21262322.7814
       241.0004        195.0004
 -14178820.53549 -10741238.94149  22283375.0894   22283377.4404   22283374.4414
       229.0004        167.0004
 -21712200.48849 -16899880.12049  20564027.3494   20564029.4284   20564027.2944
       241.0004        205.0004
 -16437795.88549 -12782508.93349  21896644.2694   21896644.6304   21896643.5534
       231.0004        179.0004
    410841.63649    335982.07149  24058543.6554   24058548.1324   24058543.9694
       212.0004        143.0004
 11 10 12  0  3  0.0000000  0  9G26G05G16G10G08G13G07G02G04
  -3685655.14749  -2852381.58549  23774449.4064   23774454.3154   23774448.8444
       208.0004        139.0004
 -15166155.50849 -11798388.59649  21718500.3504   21718503.6884   21718501.1914
       237.0004        191.0004
    927583.47749    727384.70449  24316110.5364   24316111.7394   24316111.8184
       213.0004        140.0004
 -20373424.37149 -15120979.20149  20525102.9034   20525105.5884   20525102.0284
       242.0004        200.0004
 -19788422.89149 -14832296.60849  21250243.4614   21250247.1234   21250243.4964
       241.0004        195.0004
 -14093474.69249 -10674735.71049  22299615.1624   22299618.8864   22299615.5684
       229.0004        167.0004
 -21711657.69649 -16899457.16049  20564129.6374   20564132.2794   20564130.2934
       241.0004        205.0004
 -16384244.85049 -12740780.87249  21906834.1374   21906834.4064   21906834.4004
       231.0004        180.0004
    519604.26649    420732.12449  24079238.8384   24079247.3484   24079239.4194
       208.0004        146.0004
 11 10 12  0  3 30.0000000  0  9G26G05G16G10G08G13G07G02G04
  -3794262.52749  -2937010.65149  23753784.4894   23753789.0674   23753783.8584
       212.0004        148.0004
 -15236870.69649 -11853491.32049  21705045.2394   21705046.6924   21705045.6554
       239.0004        192.0004
    974873.75249    764234.26149  24325107.5144   24325109.5144   24325105.9804
       206.0004        138.0004
 -20327625.23349 -15085291.58149  20533817.5234   20533820.7094   20533816.8704
       242.0004        199.0004
 -19851444.15149 -14881404.06449  21238252.4104   21238254.5224   21238251.5414
       243.0004        195.0004
 -14007941.75849 -10608086.69249  22315891.8514   22315895.3014   22315893.1924
       230.0004        167.0004
 -21710548.44449 -16898592.79449  20564341.5644   20564343.2144   20564341.2694
       241.0004        204.0004
 -16330170.13149 -12698644.73949  21917123.4644   21917124.7914   21917124.0424
       231.0004        179.0004
    628445.72249    505543.58649  24099949.2864   24099956.8404   24099951.5224
       208.0004        143.0004
 11 10 12  0  4  0.0000000  0  9G26G05G16G10G08G13G07G02G04
  -3902733.86849  -3021533.66249  23733140.4494   23733146.5304   23733142.2514
       208.0004        142.0004
 -15307235.88749 -11908321.34049  21691654.3914   21691656.4174   21691654.8724
       237.0004        191.0004
   1022706.51349    801506.49849  24334210.6614   24334212.5294   24334213.9604
       211.0004        140.0004
 -20281351.30549 -15049233.98449  20542623.6424   20542626.2254   20542622.9864
       242.0004        199.0004
 -19914006.70549 -14930154.08549  21226345.2564   21226349.2494   21226345.4734
       241.0004        196.0004
 -13922221.94749 -10541292.05649  22332203.5904   22332206.6714   22332203.6934
       229.0004        167.0004
 -21708871.85849 -16897286.35449  20564659.7884   20564662.7724   20564660.9034
       241.0004        205.0004
 -16275572.75849 -12656101.34449  21927513.3184   21927513.8474   21927513.5194
       231.0004        179.0004
    737364.13449    590415.07749  24120678.6544   24120682.7574   24120679.9544
       214.0004        141.0004
 11 10 12  0  4 30.0000000  0  9G26G05G16G10G08G13G07G02G04
  -4011068.33449  -3105950.12849  23712526.2804   23712531.1234   23712527.4744
       208.0004        144.0004
 -15377249.35349 -11962877.28149  21678330.5894   21678332.9874   21678331.1194
       236.0004        191.0004
   1071079.39249    839199.63549  24343415.6594   24343417.6064   24343416.4514
       211.0004        140.0004
 -20234604.29549 -15012807.74849  20551519.4474   20551522.0334   20551518.6204
       242.0004        199.0004
 -19976110.07549 -14978546.31249  21214528.3264   21214530.9754   21214527.8684
       242.0004        196.0004
 -13836317.98249 -10474353.93649  22348551.4624   22348553.9314   22348551.4134
       230.0004        167.0004
 -21706629.85549 -16895539.35149  20565087.0984   20565089.3114   20565087.1114
       241.0004        205.0004
 -16220456.34649 -12613153.51049  21938002.1994   21938002.1474   21938000.8474
       231.0004        178.0004
    846355.81849    675343.68849  24141420.5804   24141421.8544   24141420.1544
       212.0004        141.0004
 11 10 12  0  5  0.0000000  0  9G26G05G16G10G08G13G07G02G04
  -4119264.23449  -3190258.55049  23691937.7484   23691941.4384   23691937.7834
       208.0004        144.0004
 -15446908.77249 -12017157.33049  21665075.7394   21665077.6594   21665075.7744
       238.0004        193.0004
   1119991.68549    877313.09749  24352723.3364   24352724.9154   24352723.6804
       210.0004        141.0004
 -20187383.95749 -14976012.68249  20560504.1634   20560507.2254   20560503.7204
       241.0004        199.0004
 -20037752.05249 -15026578.99049  21202798.0614   21202801.2694   21202797.2664
       242.0004        196.0004
 -13750229.92649 -10407272.35649  22364933.3084   22364935.4204   22364933.5704
       229.0004        166.0004
 -21703821.98949 -16893351.40849  20565620.9894   20565623.3734   20565622.0144
       242.0004        205.0004
 -16164821.92449 -12569802.02349  21948589.1834   21948589.7234   21948588.6684
       232.0004        177.0004
    955418.96749    760327.87849  24162175.1664   24162179.2544   24162173.5204
       212.0004        145.0004
 11 10 12  0  5 30.0000000  0  9G26G05G16G10G08G13G07G02G04
  -4227320.59849  -3274458.26949  23671377.0644   23671379.3874   23671376.9684
       217.0004        144.0004
 -15516212.46549 -12071160.19749  21651887.1534   21651889.5624   21651887.8004
       238.0004        192.0004
   1169441.33649    915845.31449  24362134.0414   24362136.1754   24362133.8034
       212.0004        142.0004
 -20139691.46049 -14938849.71349  20569580.7314   20569583.0964   20569579.9714
       242.0004        199.0004
 -20098931.05849 -15074250.93549  21191155.6484   21191159.0454   21191155.7524
       241.0004        196.0004
 -13663959.45249 -10340048.61949  22381348.7804   22381351.4334   22381349.3064
       228.0004        166.0004
 -21700449.32649 -16890723.35049  20566263.3654   20566265.0494   20566263.4104
       241.0004        204.0004
 -16108671.96049 -12526048.83049  21959274.2084   21959275.0714   21959273.4804
       231.0004        178.0004
   1064550.25349    845365.18349  24182943.4914   24182944.7704   24182943.8654
       215.0004        146.0004
 11 10 12  0  6  0.0000000  0  9G26G05G16G10G08G13G07G02G04
  -4335236.74249  -3358548.75549  23650840.5134   23650842.9124   23650840.1424
       213.0004        145.0004
 -15585158.72649 -12124884.56149  21638768.0534   21638769.2794   21638768.2264
       238.0004        192.0004
   1219426.07549    954794.46049  24371645.5434   24371647.3474   24371645.2114
       212.0004        143.0004
 -20091528.37949 -14901320.04949  20578744.8224   20578748.4604   20578744.4694
       241.0004        199.0004
 -20159646.64649 -15121561.75949  21179602.2494   21179605.5134   21179601.2314
       241.0004        196.0004
 -13577508.35149 -10272684.16949  22397801.7344   22397802.8654   22397801.2294
       231.0004        166.0004
 -21696512.52049 -16887655.70549  20567012.1474   20567014.3934   20567012.8024
       242.0004        205.0004
 -16052009.31249 -12481896.12549  21970055.5754   21970057.3914   21970055.9834
       230.0004        178.0004
   1173746.35549    930453.07149  24203722.9084   24203724.5264   24203721.5894
       211.0004        137.0004
 11 10 12  0  6 30.0000000  0  9G26G05G16G10G08G13G07G02G04
  -4443010.78549  -3442528.43849  23630331.7784   23630335.6244   23630330.8754
       211.0004        145.0004
 -15653744.43449 -12178327.95449  21625715.2874   21625717.9324   21625716.1784
       236.0004        192.0004
   1269944.75349    994159.66649  24381261.2414   24381261.2104   24381259.7574
       211.0004        142.0004
 -20042894.86349 -14863423.81549  20587999.9074   20588002.7604   20587999.4234
       241.0004        198.0004
 -20219896.92449 -15168510.01749  21168136.2214   21168140.0464   21168136.5784
       241.0004        196.0004
 -13490877.36449 -10205179.50449  22414286.6054   22414288.8614   22414285.8424
       228.0004        164.0004
 -21692011.95449 -16884148.76249  20567868.7404   20567870.6694   20567868.8494
       241.0004        205.0004
 -15994835.86749 -12437345.40449  21980935.8494   21980936.4534   21980935.6344
       230.0004        176.0004
   1283005.48249   1015590.06149  24224512.5144   24224518.7504   24224511.4554
       211.0004        141.0004
 11 10 12  0  7  0.0000000  0  9G26G05G16G10G08G13G07G02G04
  -4550642.04049  -3526396.88549  23609848.9624   23609853.3624   23609849.8294
       214.0004        146.0004
 -15721968.59649 -12231489.62249  21612732.5894   21612735.7334   21612733.0674
       237.0004        192.0004
   1320994.91749   1033939.01549  24390972.9124   24390975.3954   24390973.3034
       209.0004        138.0004
 -19993792.31849 -14825162.10849  20597344.2024   20597346.9684   20597343.5574
       241.0004        198.0004
 -20279681.03649 -15215095.01349  21156760.9774   21156763.2174   21156759.9434
       242.0004        196.0004
 -13404068.23249 -10137536.03149  22430804.4714   22430808.0184   22430805.8874
       225.0004        162.0004
 -21686948.75049 -16880203.40549  20568832.2714   20568834.0704   20568832.9224
       243.0004        205.0004
 -15937154.42349 -12392398.84349  21991912.6854   21991913.2144   21991912.2334
       231.0004        176.0004
   1392323.90049   1100773.17249  24245315.5314   24245318.0594   24245316.2174
       215.0004        146.0004
 11 10 12  0  7 30.0000000  0  9G26G05G16G10G08G13G07G02G04
  -4658128.64249  -3610152.64849  23589396.4234   23589398.7064   23589395.4564
       216.0004        146.0004
 -15789828.56049 -12284367.51349  21599819.1204   21599822.5474   21599820.4544
       236.0004        194.0004
   1372575.49349   1074131.66349  24400788.1694   24400789.9164   24400788.3904
       211.0004        139.0004
 -19944221.04849 -14786535.15349  20606777.2744   20606780.2564   20606776.6404
       241.0004        198.0004
 -20338996.93649 -15261315.18549  21145472.6304   21145476.0034   21145472.4724
       241.0004        196.0004
 -13317081.47749 -10069754.17249  22447358.9864   22447361.8274   22447358.8954
       227.0004        165.0004
 -21681322.96549 -16875819.66649  20569902.5114   20569904.8834   20569902.6624
       241.0004        205.0004
 -15878966.38049 -12347057.53749  22002985.2054   22002985.8364   22002984.9354
       230.0004        176.0004
   1501700.02249   1186001.24449  24266128.9094   24266129.5964   24266129.1414
       206.0004        134.0004
 11 10 12  0  8  0.0000000  0  9G26G05G16G10G08G13G07G02G04
  -4765468.93149  -3693794.39449  23568968.6844   23568972.4344   23568969.7434
       212.0004        145.0004
 -15857321.93249 -12336959.73449  21586975.6874   21586978.8814   21586976.0994
       235.0004        192.0004
   1424684.77049   1114736.27349  24410705.2144   24410706.6434   24410705.6064
       210.0004        142.0004
 -19894181.61749 -14747543.41349  20616299.5374   20616302.0704   20616299.1624
       241.0004        198.0004
 -20397843.03249 -15307169.26149  21134275.2234   21134278.0824   21134274.8764
       243.0004        196.0004
 -13229918.17749 -10001834.73749  22463944.0014   22463946.6334   22463943.8504
       224.0004        162.0004
 -21675135.11349 -16870997.95249  20571080.4824   20571081.9504   20571080.9634
       243.0004        205.0004
 -15820274.29749 -12301323.45649  22014154.0344   22014155.1794   22014154.0494
       231.0004        177.0004
   1611130.91849   1271272.10349  24286949.9174   24286954.2604   24286952.5784
       206.0004        133.0004
 11 10 12  0  8 30.0000000  0  9G26G05G16G10G08G13G07G02G04
  -4872662.45949  -3777321.74849  23548570.1284   23548574.7064   23548571.6014
       212.0004        147.0004
 -15924446.81049 -12389264.81949  21574202.5794   21574204.8404   21574203.0104
       237.0004        192.0004
   1477321.05049   1155751.54649  24420722.3354   24420724.6374   24420721.8494
       213.0004        144.0004
 -19843675.28749 -14708187.85249  20625909.6124   20625913.1634   20625909.0584
       241.0004        198.0004
 -20456218.44949 -15352656.59149  21123166.0194   21123169.2444   21123166.0064
       241.0004        197.0004
 -13142579.89249  -9933778.92949  22480563.8874   22480567.4674   22480565.0274
       225.0004        163.0004
 -21668386.43349 -16865739.22949  20572364.0524   20572367.0784   20572364.7764
       241.0004        205.0004
 -15761080.50949 -12255198.45049  22025418.3284   22025419.7314   22025418.6674
       231.0004        177.0004
   1720613.52449   1356583.19949  24307783.3334   24307791.3824   24307785.8694
       209.0004        143.0004
 11 10 12  0  9  0.0000000  0  9G26G05G16G10G08G13G07G02G04
  -4979707.29249  -3860733.27849  23528199.8414   23528202.8494   23528201.1734
       213.0004        145.0004
 -15991201.08949 -12441281.13449  21561499.4784   21561502.2014   21561500.6404
       236.0004        194.0004
   1530482.91149   1197176.33649  24430837.3954   24430839.2804   24430838.5574
       210.0004        144.0004
 -19792702.43649 -14668468.76849  20635610.4894   20635613.1794   20635609.8184
       242.0004        197.0004
 -20514121.87049 -15397776.12349  21112148.2554   21112150.7914   21112147.2184
       242.0004        197.0004
 -13055067.54749  -9865587.48249  22497218.4274   22497221.2554   22497219.1254
       225.0004        162.0004
 -21661077.18849 -16860043.70049  20573755.6254   20573757.0714   20573755.7174
       242.0004        204.0004
 -15701387.38849 -12208684.34549  22036777.2224   22036777.6704   22036777.6354
       230.0004        176.0004
   1830145.56049   1441932.75149  24328627.9254   24328633.4694   24328629.0354
       204.0004        139.0004
 11 10 12  0  9 30.0000000  0  9G26G05G16G10G08G13G07G02G04
  -5086603.01749  -3944028.60049  23507857.2314   23507862.9284   23507859.1284
       209.0004        146.0004
 -16057583.51249 -12493007.68949  21548866.8324   21548870.3474   21548868.1304
       236.0004        194.0004
   1584167.39949   1239008.38649  24441053.9074   24441055.9654   24441054.0564
       214.0004        141.0004
 -19741264.74149 -14628387.46049  20645398.1274   20645401.2564   20645397.5774
       240.0004        197.0004
 -20571552.56749 -15442527.30049  21101218.2734   21101222.1184   21101217.8684
       241.0004        196.0004
 -12967383.05349  -9797261.91349  22513904.2794   22513906.1454   22513904.2684
       226.0004        162.0004
 -21653208.87449 -16853912.53849  20575252.2034   20575254.8194   20575253.0674
       242.0004        205.0004
 -15641197.86249 -12161783.43349  22048230.4084   22048231.0094   22048230.7584
       229.0004        174.0004
   1939723.60549   1527318.18849  24349478.5954   24349483.4844   24349481.0564
       205.0004        133.0004
 11 10 12  0 10  0.0000000  0  9G26G05G16G10G08G13G07G02G04
  -5193348.10449  -4027206.51349  23487548.8494   23487550.2274   23487547.5554
       218.0004        150.0004
 -16123591.68949 -12544442.61049  21536306.2244   21536309.1354   21536306.8244
       237.0004        193.0004
   1638372.89749   1281246.41649  24451368.8864   24451368.3734   24451370.3714
       213.0004        141.0004
 -19689363.10349 -14587944.64849  20655274.7064   20655277.7724   20655273.9164
       240.0004        197.0004
 -20628508.75549 -15486908.73249  21090380.0254   21090383.4224   21090380.2274
       241.0004        197.0004
 -12879527.25949  -9728802.87349  22530621.7084   22530625.3824   22530621.9684
       227.0004        162.0004
 -21644781.74849 -16847345.93749  20576856.8304   20576858.3204   20576856.4284
       242.0004        205.0004
 -15580513.64249 -12114497.03449  22059778.9254   22059779.9434   22059778.3794
       230.0004        175.0004
   2049344.99749   1612737.50549  24370340.8234   24370344.0024   24370342.5194
       207.0004        137.0004
 11 10 12  0 10 30.0000000  0  9G26G05G16G10G08G13G07G02G04
  -5299941.37649  -4110266.15649  23467261.2834   23467264.7714   23467262.7054
       212.0004        146.0004
 -16189223.45649 -12595584.24149  21523817.2704   21523819.7954   21523817.4864
       237.0004        194.0004
   1693097.66349   1323889.06149  24461782.6234   24461786.0644   24461781.5144
       211.0004        143.0004
 -19636998.40049 -14547141.00349  20665239.8254   20665242.5354   20665239.0364
       241.0004        197.0004
 -20684989.58649 -15530919.75549  21079632.5004   21079635.4764   21079632.3404
       242.0004        197.0004
 -12791501.61249  -9660211.45949  22547373.3904   22547374.9664   22547373.9314
       226.0004        163.0004
 -21635797.11149 -16840344.92549  20578565.7374   20578567.8984   20578566.4584
       241.0004        204.0004
 -15519337.93449 -12066827.67449  22071421.2934   22071420.8054   22071420.7264
       232.0004        175.0004
   2159007.33249   1698188.65749  24391208.3764   24391214.3574   24391209.1084
       201.0004        138.0004
 11 10 12  0 11  0.0000000  0  9G26G05G16G10G08G13G07G02G04
  -5406380.89649  -4193205.97149  23447005.6984   23447009.4864   23447006.1824
       211.0004        146.0004
 -16254475.83949 -12646430.24549  21511400.6714   21511402.8074   21511400.6864
       238.0004        194.0004
   1748340.38249   1366935.30949  24472296.0374   24472295.4694   24472295.7074
       214.0004        141.0004
 -19584170.67749 -14505976.55449  20675292.5414   20675295.4634   20675291.7004
       241.0004        196.0004
 -20740992.74149 -15574558.55849  21068975.3654   21068978.5964   21068975.2044
       242.0004        197.0004
 -12703306.40849  -9591487.93149  22564156.5204   22564158.5814   22564156.7504
       226.0004        162.0004
 -21626254.63249 -16832909.21549  20580382.1264   20580383.9544   20580381.8904
       241.0004        204.0004
 -15457671.99449 -12018776.30849  22083154.6384   22083155.6214   22083154.9564
       229.0004        175.0004
   2268708.12549   1783669.66849  24412082.8034   24412089.2614   24412084.8244
       205.0004        137.0004
 11 10 12  0 11 30.0000000  0  9G26G05G16G10G08G13G07G02G04
  -5512665.83149  -4276025.40849  23426783.3544   23426784.7344   23426783.2574
       213.0004        147.0004
 -16319347.42849 -12696979.52249  21499054.7354   21499058.1624   21499055.7044
       237.0004        194.0004
   1804098.74749   1410383.36949  24482905.8114   24482906.7794   24482906.1904
       213.0004        140.0004
 -19530881.80749 -14464452.77649  20685432.8014   20685435.7524   20685432.3194
       240.0004        196.0004
 -20796517.73449 -15617824.76649  21058409.0664   21058412.2164   21058408.7564
       241.0004        197.0004
 -12614943.39849  -9522633.64349  22580970.9624   22580974.2074   22580971.5674
       227.0004        163.0004
 -21616155.40349 -16825039.68149  20582303.2494   20582305.7534   20582303.8374
       241.0004        204.0004
 -15395518.73149 -11970345.20649  22094982.6254   22094982.3894   22094982.1354
       230.0004        175.0004
   2378444.83249   1869178.79649  24432968.1664   24432968.4384   24432968.5934
       212.0004        137.0004
 11 10 12  0 12  0.0000000  0  9G26G05G16G10G08G13G07G02G04
  -5618795.32549  -4358723.63449  23406587.1024   23406589.1824   23406586.8664
       214.0004        149.0004
 -16383836.60849 -12747230.82649  21486783.6624   21486786.3924   21486784.5184
       238.0004        195.0004
   1860371.12749   1454231.96749  24493613.4134   24493616.9484   24493613.3674
       211.0004        140.0004
 -19477132.77449 -14422570.43449  20695661.3144   20695664.2724   20695660.2864
       242.0004        196.0004
 -20851563.50749 -15660717.56749  21047933.4274   21047937.5264   21047934.0574
       241.0004        197.0004
 -12526414.54949  -9453650.16049  22597818.1734   22597820.7444   22597818.4684
       228.0004        163.0004
 -21605501.23249 -16816737.72949  20584330.5024   20584333.3374   20584331.1664
       240.0004        204.0004
 -15332880.89349 -11921536.52949  22106903.1764   22106901.8474   22106901.8814
       229.0004        174.0004
   2488214.25849   1954713.43849  24453855.8954   24453858.9694   24453853.4734
       202.0004        135.0004
 11 10 12  0 12 30.0000000  0  9G26G05G16G10G08G13G07G02G04
  -5724767.82649  -4441299.51849  23386419.1974   23386423.0824   23386419.8374
       213.0004        148.0004
 -16447940.87549 -12797182.20349  21474585.4514   21474587.4194   21474586.3704
       239.0004        195.0004
   1917155.10149   1498479.19449  24504418.6934   24504419.8184   24504418.2864
       211.0004        139.0004
 -19422924.34949 -14380330.11449  20705976.3354   20705979.8204   20705976.1614
       242.0004        197.0004
 -20906128.47949 -15703235.70849  21037551.2304   21037554.3784   21037551.0474
       242.0004        197.0004
 -12437720.09349  -9384537.61049  22614696.1744   22614697.6114   22614696.1904
       226.0004        161.0004
 -21594292.15149 -16808003.37149  20586463.8904   20586465.8964   20586463.7394
       241.0004        203.0004
 -15269761.09849 -11872352.28949  22118913.3184   22118914.1764   22118913.6204
       230.0004        173.0004
   2598013.63749   2040271.30249  24474750.4154   24474751.7854   24474750.4344
       209.0004        138.0004
 11 10 12  0 13  0.0000000  0  9G26G05G16G10G08G13G07G02G04
  -5830581.82449  -4523751.96349  23366284.4964   23366287.0704   23366284.8624
       213.0004        144.0004
 -16511658.40549 -12846832.21349  21462460.0424   21462462.3944   21462460.2454
       239.0004        195.0004
   1974448.87049   1543123.68349  24515323.0514   24515321.6934   24515324.3794
       210.0004        137.0004
 -19368257.28749 -14337732.41549  20716379.2484   20716382.4004   20716378.9474
       241.0004        196.0004
 -20960211.89449 -15745378.60749  21027260.2204   21027262.2564   21027259.4514
       243.0004        198.0004
 -12348861.35049  -9315297.04749  22631605.6204   22631607.4404   22631605.3524
       227.0004        161.0004
 -21582529.13649 -16798837.37549  20588702.1094   20588704.9074   20588702.8174
       241.0004        204.0004
 -15206161.12149 -11822793.87549  22131017.3044   22131016.5714   22131016.6664
       231.0004        175.0004
   2707840.72549   2125850.82749  24495649.5194   24495653.8704   24495648.8804
       208.0004        140.0004
 11 10 12  0 13 30.0000000  0  9G26G05G16G10G08G13G07G02G04
  -5936236.16949  -4606080.03249  23346180.2084   23346181.0584   23346179.7564
       216.0004        146.0004
 -16574987.02849 -12896179.19349  21450409.3134   21450411.3974   21450410.0194
       241.0004        196.0004
   2032250.64049   1588164.02449  24526320.9414   24526323.0144   24526320.5744
       211.0004        138.0004
 -19313132.58149 -14294778.12549  20726869.2634   20726872.5654   20726868.6354
       241.0004        196.0004
 -21013812.24549 -15787145.09949  21017058.5964   21017062.7514   21017058.9264
       241.0004        198.0004
 -12259839.50549  -9245929.37749  22648545.2144   22648548.4094   22648545.9764
       226.0004        162.0004
 -21570212.79749 -16789240.22149  20591046.3334   20591048.3404   20591046.3124
       241.0004        204.0004
 -15142083.85149 -11772863.53849  22143209.1164   22143210.3784   22143209.1534
       230.0004        175.0004
   2817692.50549   2211449.59549  24516554.2664   24516558.0354   24516554.8064
       204.0004        133.0004
 11 10 12  0 14  0.0000000  0  9G26G05G16G10G08G13G07G02G04
  -6041729.53849  -4688282.57549  23326105.2314   23326106.1004   23326104.6884
       216.0004        151.0004
 -16637924.64349 -12945221.48149  21438432.6954   21438435.2934   21438432.9954
       240.0004        197.0004
   2090558.40249   1633598.61649  24537416.1984   24537417.6234   24537417.0494
       205.0004        136.0004
 -19257551.52149 -14251468.22949  20737445.9634   20737449.3524   20737445.5644
       242.0004        195.0004
 -21066928.69749 -15828534.52849  21006951.3994   21006955.1594   21006951.6454
       241.0004        198.0004
 -12170655.90849  -9176435.66349  22665516.9314   22665518.6554   22665516.7724
       227.0004        161.0004
 -21557344.38149 -16779212.88049  20593494.6954   20593497.3344   20593495.1254
       241.0004        205.0004
 -15077531.76149 -11722563.24149  22155493.4404   22155493.7064   22155492.7524
       230.0004        174.0004
   2927566.70649   2297065.83149  24537461.4724   24537466.8014   24537461.7114
       208.0004        137.0004
 11 10 12  0 14 30.0000000  0  9G26G05G16G10G08G13G07G02G04
  -6147060.65749  -4770358.68549  23306060.4954   23306063.2044   23306059.5644
       213.0004        150.0004
 -16700469.17549 -12993957.47949  21426530.2984   21426533.1044   21426531.0044
       239.0004        196.0004
   2149370.39949   1679426.11849  24548609.2754   24548611.4674   24548608.0654
       206.0004        136.0004
 -19201514.94249 -14207803.37949  20748108.6504   20748112.2934   20748108.8504
       240.0004        195.0004
 -21119559.54349 -15869545.54449  20996936.3524   20996940.0264   20996936.0434
       241.0004        198.0004
 -12081311.48349  -9106816.63849  22682517.3724   22682519.9214   22682518.7214
       224.0004        160.0004
 -21543924.58549 -16768755.89049  20596048.5084   20596050.8574   20596049.1404
       242.0004        205.0004
 -15012507.21249 -11671894.78049  22167868.1634   22167868.2864   22167866.9964
       231.0004        173.0004
   3037460.39049   2382697.25249  24558374.5234   24558378.9964   24558375.6724
       210.0004        142.0004
 11 10 12  0 15  0.0000000  0  9G26G05G16G10G08G13G07G02G04
  -6252228.18349  -4852307.37149  23286047.8194   23286049.5714   23286046.9504
       216.0004        147.0004
 -16762618.37249 -13042385.42149  21414703.3674   21414706.1324   21414704.2584
       239.0004        196.0004
   2208684.43649   1725644.85449  24559895.0544   24559897.2654   24559893.4234
       205.0004        137.0004
 -19145023.59549 -14163784.16749  20758858.9354   20758862.4184   20758858.4134
       241.0004        196.0004
 -21171703.68649 -15910177.33649  20987013.8044   20987016.7034   20987013.3384
       241.0004        198.0004
 -11991807.36049  -9037073.20849  22699550.1074   22699551.6674   22699549.6744
       224.0004        158.0004
 -21529954.65649 -16757870.19849  20598706.9804   20598709.0364   20598707.0274
       241.0004        204.0004
 -14947012.65749 -11620860.08549  22180330.1214   22180331.0794   22180331.0504
       230.0004        174.0004
   3147371.18049   2468342.00549  24579287.5654   24579292.6414   24579287.1524
       201.0004        135.0004
 11 10 12  0 15 30.0000000  0  9G26G05G16G10G08G13G07G02G04
  -6357231.16949  -4934127.87149  23266066.0624   23266069.5724   23266065.5204
       214.0004        149.0004
 -16824370.83849 -13090504.22649  21402952.9334   21402955.3284   21402953.6154
       240.0004        196.0004
   2268498.30049   1772253.08049  24571278.0534   24571280.6454   24571278.9344
       208.0004        136.0004
 -19088079.21449 -14119411.95149  20769696.2984   20769698.5644   20769695.2014
       241.0004        195.0004
 -21223360.65349 -15950429.50249  20977183.0374   20977186.9024   20977183.0704
       243.0004        198.0004
 -11902145.21049  -8967206.60049  22716611.9904   22716614.5094   22716613.1854
       225.0004        160.0004
 -21515435.19449 -16746556.33049  20601469.7754   20601472.2204   20601470.1234
       241.0004        204.0004
 -14881051.42049 -11569461.73149  22192883.9494   22192883.4394   22192882.6804
       231.0004        173.0004
   3257296.18249   2553997.74049  24600206.9854   24600208.1734   24600206.7264
       208.0004        131.0004
 11 10 12  0 16  0.0000000  0  9G26G05G16G10G08G13G07G02G04
  -6462068.00749  -5015818.87049  23246116.7424   23246120.1654   23246116.3764
       212.0004        149.0004
 -16885724.17349 -13138312.01549  21391278.3484   21391280.0784   21391278.5664
       239.0004        197.0004
   2328810.17349   1819249.30249  24582756.1254   24582757.0014   24582753.7244
       210.0004        136.0004
 -19030682.47849 -14074687.24349  20780617.5974   20780621.1664   20780617.2324
       241.0004        195.0004
 -21274528.84549 -15990300.80749  20967446.8264   20967449.5214   20967446.7004
       243.0004        198.0004
 -11812325.84949  -8897217.49249  22733703.9724   22733706.6894   22733704.2254
       223.0004        158.0004
 -21500367.24949 -16734815.06249  20604336.9334   20604339.6434   20604337.4684
       241.0004        204.0004
 -14814625.36249 -11517701.17749  22205524.2344   22205523.5954   22205522.7534
       230.0004        173.0004
   3367232.51149   2639662.51649  24621128.0324   24621129.9354   24621128.0624
       210.0004        137.0004
 11 10 12  0 16 30.0000000  0  9G26G05G16G10G08G13G07G02G04
  -6566737.98849  -5097379.81549  23226198.1084   23226202.1644   23226198.8274
       217.0004        154.0004
 -16946676.88149 -13185807.63249  21379679.3204   21379681.1204   21379679.3414
       239.0004        196.0004
   2389617.68449   1866631.75149  24594325.6944   24594327.7364   24594326.8894
       207.0004        136.0004
 -18972834.78049 -14029611.13249  20791626.0224   20791628.8234   20791625.2314
       241.0004        195.0004
 -21325207.38749 -16029790.55449  20957803.5404   20957805.9934   20957802.5694
       244.0004        198.0004
 -11722350.62549  -8827106.92249  22750825.8604   22750828.4054   22750825.8044
       225.0004        158.0004
 -21484752.21849 -16722647.50949  20607309.1224   20607311.2054   20607308.9364
       242.0004        204.0004
 -14747737.64649 -11465580.89649  22218250.2374   22218252.2844   22218250.4924
       226.0004        172.0004
   3477177.40349   2725333.84449  24642047.8964   24642053.2214   24642046.3254
       203.0004        135.0004
 11 10 12  0 17  0.0000000  0  9G26G05G16G10G08G13G07G02G04
  -6671239.89049  -5178809.84849  23206310.7464   23206314.7624   23206311.8394
       211.0004        149.0004
 -17007226.53049 -13232989.17149  21368156.4914   21368158.4044   21368157.1354
       239.0004        195.0004
   2450918.43249   1914398.54949  24605990.9834   24605991.8984   24605987.4354
       203.0004        133.0004
 -18914537.52349 -13984184.72149  20802719.5114   20802722.6764   20802718.7234
       241.0004        195.0004
 -21375395.74049 -16068898.36049  20948251.6184   20948255.4664   20948252.2664
       244.0004        199.0004
 -11632220.74849  -8756875.85949  22767976.8814   22767979.7954   22767977.3884
       223.0004        155.0004
 -21468591.24849 -16710054.54449  20610383.7264   20610386.2514   20610384.1584
       241.0004        204.0004
 -14680390.71649 -11413102.80849  22231067.0824   22231067.6664   22231066.9124
       228.0004        173.0004
   3587128.48949   2811009.83749  24662971.5684   24662976.5304   24662971.2464
       204.0004        132.0004
 11 10 12  0 17 30.0000000  0  9G26G05G16G10G08G13G07G02G04
  -6775571.62449  -5260107.27049  23186457.9834   23186459.7604   23186458.1564
       215.0004        146.0004
 -17067370.55449 -13279854.65249  21356712.3464   21356713.4404   21356712.1374
       240.0004        195.0004
   2512711.24949   1962548.76849  24617750.9934   24617751.3254   24617752.2604
       204.0004        133.0004
 -18855790.77449 -13938408.05149  20813898.5644   20813901.4984   20813897.9824
       241.0004        195.0004
 -21425092.03949 -16107622.72749  20938796.1804   20938798.6774   20938795.2654
       244.0004        199.0004
 -11541937.03349  -8686524.91249  22785156.5554   22785159.9904   22785158.6444
       222.0004        157.0004
 -21451884.69649 -16697036.44549  20613562.9574   20613565.7114   20613563.5044
       241.0004        204.0004
 -14612586.62949 -11360268.47549  22243970.3224   22243970.4024   22243968.6924
       230.0004        173.0004
   3697083.30549   2896688.91149  24683896.1414   24683893.0404   24683895.3244
       206.0004        131.0004
 11 10 12  0 18  0.0000000  0  9G26G05G16G10G08G13G07G02G04
  -6879732.27549  -5341271.40849  23166639.0214   23166639.1974   23166638.0114
       218.0004        151.0004
 -17127107.66549 -13326403.03949  21345343.7014   21345346.7464   21345344.0084
       237.0004        195.0004
   2574993.83249   2011080.61749  24629602.0264   24629602.8624   24629603.3804
       202.0004        131.0004
 -18796596.26349 -13892282.47449  20825162.3864   20825166.1804   20825162.2524
       241.0004        195.0004
 -21474295.48849 -16145963.06649  20929432.2974   20929435.2754   20929432.2264
       244.0004        199.0004
 -11451500.86249  -8616055.16949  22802366.9904   22802370.0414   22802367.1624
       222.0004        158.0004
 -21434633.97049 -16683594.31749  20616845.4494   20616848.1864   20616845.8974
       241.0004        204.0004
 -14544328.69049 -11307080.48449  22256958.7144   22256958.8004   22256957.7604
       229.0004        171.0004
   3807039.23749   2982369.00849  24704815.9534   24704825.8474   24704818.7704
       196.0004        132.0004
 11 10 12  0 18 30.0000000  0  9G26G05G16G10G08G13G07G02G04
  -6983720.57349  -5422301.17449  23146848.8264   23146851.7124   23146848.7944
       217.0004        152.0004
 -17186435.47549 -13372632.50249  21334054.2024   21334057.0634   21334055.1794
       239.0004        196.0004
   2637763.86749   2059992.34249  24641544.4574   24641546.2774   24641544.0024
       199.0004        130.0004
 -18736954.85149 -13845808.67249  20836512.4574   20836515.7754   20836511.7134
       242.0004        195.0004
 -21523005.08549 -16183918.58249  20920163.8654   20920166.5744   20920162.9824
       244.0004        200.0004
 -11360913.05149  -8545467.27849  22819604.5554   22819607.5554   22819605.7374
       221.0004        157.0004
 -21416839.84049 -16669728.74149  20620231.7874   20620234.4884   20620232.4674
       241.0004        204.0004
 -14475618.94349 -11253540.44549  22270032.8134   22270034.6394   22270033.4164
       227.0004        170.0004
   3916993.44249   3068047.45349  24725741.4104   24725750.9024   24725742.7264
       201.0004        137.0004
 11 10 12  0 19  0.0000000  0  9G26G05G16G10G08G13G07G02G04
  -7087535.41649  -5503195.81849  23127093.5144   23127097.0494   23127093.2304
       217.0004        152.0004
 -17245352.64549 -13418541.98849  21322843.0024   21322844.7594   21322843.5024
       239.0004        196.0004
   2701018.98549   2109282.04049  24653584.5234   24653585.9644   24653585.4794
       202.0004        130.0004
 -18676868.18949 -13798987.92449  20847946.1674   20847949.5844   20847945.7324
       241.0004        195.0004
 -21571220.29649 -16221488.86049  20910987.4424   20910991.2514   20910987.8604
       243.0004        199.0004
 -11270175.18949  -8474762.45749  22836872.2804   22836874.3424   22836871.9164
       224.0004        159.0004
 -21398503.38049 -16655440.60049  20623721.0834   20623723.6174   20623721.4994
       242.0004        204.0004
 -14406460.53349 -11199650.79949  22283194.5314   22283195.9004   22283194.4544
       227.0004        171.0004
   4026943.04849   3153722.39549  24746665.2044   24746668.5624   24746668.4804
       208.0004        136.0004
 11 10 12  0 19 30.0000000  0  9G26G05G16G10G08G13G07G02G04
  -7191174.67349  -5583953.67049  23107370.4504   23107373.2914   23107371.3504
       212.0004        149.0004
 -17303856.20849 -13464129.17949  21311709.6064   21311711.7004   21311710.1264
       239.0004        196.0004
   2764757.64749   2158948.47649  24665712.3504   24665716.5624   24665712.6594
       202.0004        129.0004
 -18616336.71349 -13751820.55949  20859465.4404   20859468.4274   20859464.5524
       242.0004        195.0004
 -21618939.20349 -16258672.41249  20901908.5834   20901910.8364   20901907.3014
       245.0004        200.0004
 -11179287.52849  -8403940.91649  22854168.5114   22854169.9864   22854168.0334
       226.0004        157.0004
 -21379625.51349 -16640730.57349  20627314.0124   20627315.9354   20627314.2334
       242.0004        204.0004
 -14336855.69249 -11145413.29249  22296439.6524   22296440.8844   22296439.9034
       227.0004        172.0004
   4136886.48149   3239392.69349  24767587.1754   24767590.3074   24767588.2124
       199.0004        127.0004
 11 10 12  0 20  0.0000000  0  9G26G05G16G10G08G13G07G02G04
  -7294638.17949  -5664574.53849  23087683.1934   23087686.4064   23087683.2014
       220.0004        152.0004
 -17361945.19249 -13509393.31249  21300654.9314   21300658.5264   21300655.5384
       238.0004        196.0004
   2828977.00649   2208989.56949  24677933.7364   24677937.3504   24677933.4184
       200.0004        130.0004
 -18555362.22649 -13704308.00249  20871069.0394   20871071.8654   20871068.1494
       241.0004        195.0004
 -21666161.95649 -16295469.34349  20892920.9614   20892924.3124   20892921.0304
       243.0004        200.0004
 -11088252.33649  -8333004.40649  22871491.6774   22871493.0284   22871491.2914
       227.0004        159.0004
 -21360207.93549 -16625599.98949  20631008.7744   20631010.9024   20631009.6534
       242.0004        204.0004
 -14266807.71549 -11090830.46549  22309769.1674   22309770.1204   22309768.1354
       229.0004        171.0004
   4246819.98049   3325055.15849  24788504.5074   24788515.7014   24788505.5594
       199.0004        131.0004
 11 10 12  0 20 30.0000000  0  9G26G05G16G10G08G13G07G02G04
  -7397924.02549  -5745056.96349  23068028.9034   23068031.1214   23068028.3084
       217.0004        154.0004
 -17419616.80949 -13554332.23449  21289681.2444   21289683.7784   21289681.7264
       238.0004        197.0004
   2893675.51049   2259403.96849  24690245.8634   24690245.9974   24690243.1964
       204.0004        133.0004
 -18493945.28949 -13656450.66849  20882755.4044   20882758.9024   20882754.9254
       242.0004        195.0004
 -21712886.38249 -16331877.96649  20884030.0834   20884033.3294   20884029.8094
       244.0004        200.0004
 -10997069.93449  -8261953.18949  22888842.2464   22888844.8714   22888842.3824
       226.0004        159.0004
 -21340251.58849 -16610049.58049  20634806.1444   20634808.2544   20634806.5584
       242.0004        204.0004
 -14196318.55849 -11035903.87449  22323181.9914   22323184.7064   22323182.0974
       226.0004        170.0004
   4356741.72749   3410708.34649  24809421.9154   24809429.7694   24809425.3754
       205.0004        143.0004
 11 10 12  0 21  0.0000000  0  9G26G05G16G10G08G13G07G02G04
  -7501031.29249  -5825400.23449  23048407.9374   23048409.6644   23048407.9574
       218.0004        151.0004
 -17476869.49349 -13598944.71949  21278786.7824   21278789.1134   21278787.0774
       239.0004        197.0004
   2958850.44549   2310189.58549  24702648.5744   24702650.3224   24702648.9304
       206.0004        133.0004
 -18432087.48349 -13608249.80649  20894527.3794   20894529.9634   20894526.2274
       241.0004        194.0004
 -21759112.00849 -16367897.91349  20875233.4314   20875236.7534   20875233.0034
       244.0004        200.0004
 -10905741.83249  -8190788.44549  22906222.8104   22906224.6844   22906221.9284
       223.0004        156.0004
 -21319757.34849 -16594080.01549  20638705.7494   20638708.6344   20638706.6044
       241.0004        204.0004
 -14125391.33049 -10980635.92349  22336678.8904   22336681.3224   22336679.5054
       226.0004        168.0004
   4466648.52549   3496349.99849  24830336.4624   24830340.4984   24830337.2054
       195.0004        131.0004
 11 10 12  0 21 30.0000000  0  9G26G05G16G10G08G13G07G02G04
  -7603958.09449  -5905602.92049  23028821.4944   23028824.3594   23028821.7584
       218.0004        153.0004
 -17533700.83949 -13643228.88149  21267971.3944   21267974.1554   21267971.6134
       239.0004        196.0004
   3024500.24449   2361345.21349  24715140.3024   24715143.2864   24715139.8584
       206.0004        135.0004
 -18369789.47149 -13559705.91549  20906381.1334   20906385.1914   20906380.9784
       241.0004        195.0004
 -21804837.67149 -16403528.28149  20866533.0574   20866535.5214   20866532.4114
       245.0004        201.0004
 -10814268.61949  -8119510.61449  22923627.6184   22923630.1564   22923628.5254
       222.0004        156.0004
 -21298726.11849 -16577692.04749  20642708.2214   20642710.4264   20642708.6734
       241.0004        205.0004
 -14054028.27049 -10925028.37649  22350259.7304   22350259.5514   22350258.3734
       227.0004        167.0004
   4576538.56849   3581978.56449  24851249.0934   24851253.4304   24851253.3104
       202.0004        125.0004
 11 10 12  0 22  0.0000000  0  9G26G05G16G10G08G13G07G02G04
  -7706703.41949  -5985664.17849  23009269.4304   23009272.3384   23009268.7734
       216.0004        151.0004
 -17590109.19849 -13687183.44049  21257237.6254   21257239.8404   21257237.9434
       240.0004        197.0004
   3090622.15849   2412868.74849  24727721.5894   24727725.1794   24727721.6194
       206.0004        133.0004
 -18307052.80249 -13510820.22149  20918320.4394   20918323.2114   20918319.6814
       242.0004        194.0004
 -21850063.24749 -16438768.96649  20857925.2414   20857929.0454   20857925.5414
       243.0004        200.0004
 -10722651.79049  -8048120.88349  22941061.7954   22941064.9814
       224.0004        156.0004
 -21277159.26349 -16560886.70149  20646812.3524   20646814.6324   20646812.8754
       242.0004        204.0004
 -13982232.83149 -10869083.88549  22363921.7024   22363922.7444   22363920.7954
       226.0004        169.0004
   4686408.48849   3667591.55549  24872157.8784   24872164.0914   24872159.3284
       207.0004        138.0004
 11 10 12  0 22 30.0000000  0  9G26G05G16G10G08G13G07G02G04
  -7809265.75649  -6065582.85349  22989752.6004   22989755.1434   22989753.5804
       219.0004        153.0004
 -17646092.15149 -13730806.52549  21246585.0244   21246587.7714   21246585.4014
       240.0004        198.0004
   3157214.47849   2464758.84949  24740395.9894   24740396.1964   24740394.8014
       207.0004        133.0004
 -18243878.55949 -13461593.56149  20930342.1604   20930345.1154   20930341.6854
       242.0004        194.0004
 -21894787.08549 -16473618.69149  20849415.3384   20849418.6584   20849415.1954
       244.0004        200.0004
 -10630891.96849  -7976619.72249  22958523.7384   22958526.2234   22958524.2124
       222.0004        157.0004
 -21255058.07049 -16543664.98649  20651018.3414   20651020.1204   20651018.5714
       242.0004        204.0004
 -13910007.15749 -10812804.17249  22377664.9634   22377667.5084   22377666.7434
       226.0004        170.0004
   4796256.31249   3753187.19249  24893062.7354   24893068.1254   24893062.2914
       202.0004        135.0004
 11 10 12  0 23  0.0000000  0  9G26G05G16G10G08G13G07G02G04
  -7911644.53449  -6145358.48049  22970270.1714   22970273.0924   22970270.9714
       219.0004        153.0004
 -17701648.53649 -13774097.19849  21236012.0804   21236014.9054   21236012.3134
       239.0004        197.0004
   3224274.16349   2517013.15849  24753156.3354   24753158.8184   24753155.2294
       203.0004        133.0004
 -18180268.69549 -13412027.44249  20942445.6624   20942449.4624   20942445.3294
       240.0004        194.0004
 -21939009.11849 -16508077.40449  20840999.6744   20841003.2424   20840999.3334
       243.0004        200.0004
 -10538991.04949  -7905008.63149  22976011.3394   22976015.5344   22976011.9894
       222.0004        156.0004
 -21232423.95649 -16526028.01649  20655325.2214   20655327.5644   20655325.5324
       242.0004        205.0004
 -13837354.32949 -10756191.60949  22391492.0134   22391491.8494   22391491.9834
       227.0004        167.0004
   4906078.99949   3838763.16949  24913959.6684   24913966.8844   24913958.4534
       200.0004        127.0004
 11 10 12  0 23 30.0000000  0  9G26G05G16G10G08G13G07G02G04
  -8013837.93249  -6224989.65949  22950823.9824   22950827.9774   22950824.7534
       218.0004        156.0004
 -17756776.08949 -13817053.74049  21225522.2004   21225523.6764   21225522.7944
       240.0004        197.0004
   3291799.59749   2569630.33649  24766005.7204   24766007.4174   24766003.2534
       205.0004        132.0004
 -18116223.72349 -13362122.29849  20954633.4584   20954637.1904   20954632.8344
       241.0004        194.0004
 -21982727.60749 -16542143.74349  20832680.5714   20832683.6724   20832680.4954
       244.0004        201.0004
 -10446949.69049  -7833288.12249  22993525.8444   22993529.5094   22993526.9744
       222.0004        155.0004
 -21209258.05249 -16507976.65949  20659733.4774   20659735.5344   20659733.6904
       242.0004        204.0004
 -13764277.41549 -10699248.57949  22405396.9704   22405397.9424   22405396.7644
       225.0004        165.0004
   5015873.99749   3924317.77449  24934851.9694   24934850.4714   24934854.2414
       209.0004        124.0004
 11 10 12  0 24  0.0000000  0  9G26G05G16G10G08G13G07G02G04
  -8115844.71349  -6304475.45049  22931413.3644   22931413.8374   22931412.2384
       220.0004        153.0004
 -17811472.82149 -13859674.57149  21215113.6024   21215115.8854   21215114.2554
       240.0004        198.0004
   3359788.09949   2622608.38549  24778944.0114   24778944.6804   24778943.9674
       202.0004        132.0004
 -18051745.22649 -13311879.33149  20966903.9944   20966906.8694   20966903.3444
       241.0004        193.0004
 -22025942.19049 -16575817.42949  20824456.8544   20824460.4084   20824457.0234
       243.0004        200.0004
 -10354769.21349  -7761459.21849  23011068.8114   23011069.8474   23011069.1654
       223.0004        156.0004
 -21185561.35249 -16489511.69349  20664243.1344   20664244.7844   20664243.5534
       243.0004        204.0004
 -13690779.15349 -10641977.21449  22419384.4384   22419384.9774   22419384.0294
       227.0004        166.0004
   5125638.70749   4009848.88049  24955742.1534   24955748.6104   24955741.0284
       204.0004        134.0004
 11 10 12  0 24 30.0000000  0  9G26G05G16G10G08G13G07G02G04
  -8217664.00849  -6383815.12749  22912037.6054   22912039.6294   22912036.8694
       218.0004        153.0004
 -17865736.88849 -13901958.25349  21204787.6314   21204790.1714   21204788.1494
       240.0004        198.0004
   3428237.10549   2675945.29949  24791968.0754   24791971.3414   24791971.3274
       202.0004        131.0004
 -17986834.39849 -13261299.47249  20979255.8794   20979259.3944   20979255.2574
       241.0004        192.0004
 -22068652.22149 -16609097.95949  20816329.9374   20816332.9854   20816329.7104
       244.0004        200.0004
 -10262450.86949  -7689522.84949  23028635.6994   23028638.8834   23028635.9274
       224.0004        157.0004
 -21161335.46949 -16470634.38049  20668852.7474   20668855.3344   20668853.4504
       242.0004        204.0004
 -13616862.39949 -10584379.74149  22433449.9204   22433450.6814   22433448.9774
       227.0004        169.0004
   5235370.73349   4095354.14949  24976619.7054   24976631.4144   24976622.5044
       197.0004        130.0004
 11 10 12  0 25  0.0000000  0  9G26G05G16G10G08G13G07G02G04
  -8319293.82349  -6463007.16349  22892698.5444   22892699.7014   22892697.1494
       219.0004        155.0004
 -17919566.31449 -13943903.24549  21194543.9624   21194546.5594   21194544.4124
       240.0004        198.0004
   3497145.01549   2729639.76449  24805081.1364   24805083.0814   24805080.4014
       204.0004        131.0004
 -17921492.53449 -13210383.74649  20991691.0634   20991692.9774   20991689.3904
       240.0004        192.0004
 -22110856.83049 -16641984.65149  20808298.7044   20808301.7774   20808298.2294
       243.0004        200.0004
 -10169995.42949  -7617479.66049  23046229.2244   23046231.8744   23046229.6864
       224.0004        154.0004
 -21136581.29749 -16451345.41849  20673563.4534   20673565.2604   20673563.9364
       243.0004        203.0004
 -13542529.45849 -10526458.00549  22447595.8234   22447596.1824   22447595.0544
       226.0004        168.0004
   5345067.27349   4180831.85149  24997497.8394   24997496.8134   24997501.1954
       214.0004        131.0004
 11 10 12  0 25 30.0000000  0  9G26G05G16G10G08G13G07G02G04
  -8420733.05249  -6542050.66949  22873394.0004   22873396.8034   22873394.0184
       220.0004        154.0004
 -17972958.86449 -13985507.83249  21184384.3054   21184385.9084   21184384.6784
       241.0004        199.0004
   3566509.54149   2783689.97149  24818280.6744   24818282.9774   24818282.6184
       205.0004        133.0004
 -17855720.38949 -13159132.74849  21004206.2394   21004209.1404   21004205.5184
       238.0004        192.0004
 -22152554.98049 -16674476.70249  20800362.8784   20800366.7754   20800363.2044
       243.0004        201.0004
 -10077403.36049  -7545330.02549  23063849.3244   23063852.5594   23063848.5364
       224.0004        152.0004
 -21111300.05249 -16431645.76049  20678374.7414   20678376.6964   20678374.7064
       242.0004        204.0004
 -13467782.79349 -10468213.88349  22461817.6354   22461819.4234   22461818.0764
       226.0004        168.0004
   5454726.38749   4266280.76449  25018368.5914   25018364.5664   25018364.5544
       207.0004        128.0004
 11 10 12  0 26  0.0000000  0  9G26G05G16G10G08G13G07G02G04
  -8521980.72849  -6620944.92649  22854127.5534   22854130.9654   22854127.3614
       220.0004        157.0004
 -18025913.16349 -14026770.93149  21174306.1804   21174309.0944   21174307.0444
       239.0004        198.0004
   3636328.08349   2838094.00449  24831568.2854   24831569.2944   24831567.5894
       206.0004        133.0004
 -17789520.06049 -13107548.10849  21016802.7164   21016806.9234   21016802.6784
       239.0004        193.0004
 -22193746.16549 -16706573.71849  20792525.3284   20792528.4204   20792524.9944
       244.0004        201.0004
  -9984676.80949  -7473075.58049  23081494.2304   23081495.4604   23081494.8504
       221.0004        151.0004
 -21085493.51949 -16411536.77949  20683284.7414   20683287.2174   20683285.4344
       242.0004        203.0004
 -13392626.14949 -10409650.30049  22476120.8884   22476122.0284   22476120.8764
       228.0004        167.0004
   5564345.24849   4351698.01249  25039225.8624                   25039224.5844
       198.0004        122.0004
 11 10 12  0 26 30.0000000  0  9G26G05G16G10G08G13G07G02G04
  -8623034.87249  -6699688.39049  22834896.1244   22834900.3834   22834896.7404
       217.0004        153.0004
 -18078426.94149 -14067690.73849  21164313.6564   21164316.3834   21164314.1264
       241.0004        199.0004
   3706598.70449   2892850.35249  24844940.1114   24844940.3864   24844940.8914
       207.0004        135.0004
 -17722892.22549 -13055630.34149  21029482.2724   21029485.7314   21029481.1584
       238.0004        191.0004
 -22234429.19749 -16738274.77049  20784783.2714   20784786.5444   20784783.6234
       244.0004        202.0004
  -9891815.98349  -7400716.53949  23099166.0994   23099168.0164   23099166.1294
       221.0004        152.0004
 -21059162.28449 -16391018.92749  20688295.6814   20688297.8364   20688295.7244
       242.0004        203.0004
 -13317061.47449 -10350768.72549  22490500.5934   22490501.0654   22490500.2634
       225.0004        166.0004
   5673921.24249   4437081.64449  25060076.5014   25060078.0704   25060077.3754
       214.0004        141.0004
 11 10 12  0 27  0.0000000  0  9G26G05G16G10G08G13G07G02G04
  -8723894.79949  -6778280.50849  22815705.2964   22815707.6154   22815705.2094
       219.0004        157.0004
 -18130498.18849 -14108265.73349  21154405.1274   21154407.5514   21154405.7554
       241.0004        199.0004
   3777318.29449   2947956.54249  24858395.8794   24858398.4464   24858398.0974
       206.0004        134.0004
 -17655838.37749 -13003380.60249  21042241.5094   21042245.0514   21042240.8674
       237.0004        191.0004
 -22274603.53149 -16769579.43249  20777138.5194   20777141.6634   20777138.5414
       244.0004        201.0004
  -9798822.51749  -7328254.10149  23116861.7634   23116863.4464   23116861.8054
       220.0004        151.0004
 -21032307.78249 -16370093.35049  20693405.7084   20693408.3524   20693406.6464
       242.0004        203.0004
 -13241092.24649 -10291571.94849  22504956.7004   22504957.1274   22504956.1134
       224.0004        166.0004
   5783451.86949   4522430.26149  25080918.3404   25080920.6814   25080917.6364
       201.0004        126.0004
 11 10 12  0 27 30.0000000  0  9G26G05G16G10G08G13G07G02G04
  -8824559.67749  -6856720.64849  22796547.4654   22796550.7704   22796547.6354
       218.0004        156.0004
 -18182126.03649 -14148495.21949  21144580.6884   21144582.5654   21144581.1364
       241.0004        199.0004
   3848484.12049   3003410.39749  24871940.9234   24871940.6804   24871939.5544
       210.0004        134.0004
 -17588360.57649 -12950800.51949  21055083.1734   21055086.3364   21055082.2754
       239.0004        191.0004
 -22314268.86949 -16800487.47349  20769590.3654   20769593.8284   20769590.3314
       244.0004        201.0004
  -9705697.86749  -7255689.46449  23134581.5084   23134583.2584   23134581.3424
       218.0004        149.0004
 -21004932.37649 -16348761.85549  20698615.8874   20698617.3594   20698615.5424
       243.0004        203.0004
 -13164721.88249 -10232062.59949  22519488.8764   22519489.9524   22519489.9464
       223.0004        167.0004
   5892934.07649   4607741.22249  25101750.7454                   25101749.7444
       193.0004        117.0004
 11 10 12  0 28  0.0000000  0  9G26G05G16G10G08G13G07G02G04
  -8925026.81449  -6935006.69149  22777428.8264   22777433.3884   22777428.5464
       219.0004        157.0004
 -18233307.04549 -14188376.52649  21134840.5234   21134843.2064   21134841.2964
       240.0004        198.0004
   3920095.41649   3059211.38249  24885567.7644   24885568.6584   24885566.1294
       211.0004        136.0004
 -17520458.77649 -12897890.03449  21068004.9264   21068007.3704   21068003.9394
       238.0004        191.0004
 -22353423.30849 -16830997.41649  20762139.4844   20762142.6454   20762139.6814
       244.0004        202.0004
  -9612441.75549  -7183022.39449  23152327.9094   23152330.4284   23152327.7324
       218.0004        147.0004
 -20977035.92949 -16327024.37249  20703923.0684   20703926.6264   20703924.0284
       242.0004        203.0004
 -13087952.51149 -10172242.34549  22534097.0894   22534099.9954   22534097.7674
       225.0004        168.0004
   6002366.50549   4693013.06749  25122577.1404   25122580.6044   25122579.0724
       210.0004        138.0004
 11 10 12  0 28 30.0000000  0  9G26G05G16G10G08G13G07G02G04
  -9025296.14949  -7013138.62849  22758348.8764   22758351.3044   22758348.2404
       218.0004        155.0004
 -18284040.61149 -14227909.16149  21125187.6054   21125189.6934   21125188.0154
       241.0004        200.0004
   3992148.33949   3115356.50749  24899278.2794   24899280.5134   24899276.7134
       208.0004        134.0004
 -17452135.64549 -12844651.24749  21081006.1824   21081008.9464   21081005.3294
       238.0004        191.0004
 -22392067.56049 -16861109.80349  20754786.0984   20754789.1624   20754785.6784
       244.0004        202.0004
  -9519056.51649  -7110254.68449  23170098.7924   23170100.2264   23170099.1474
       218.0004        149.0004
 -20948621.43849 -16304883.20749  20709331.2194   20709333.1474   20709331.0834
       242.0004        203.0004
 -13010787.16649 -10112113.53049  22548782.9074   22548783.7564   22548781.6354
       225.0004        168.0004
   6111745.39249   4778243.36849  25143390.9634   25143395.5234   25143390.7964
       200.0004        134.0004
 11 10 12  0 29  0.0000000  0  9G26G05G16G10G08G13G07G02G04
  -9125365.32249  -7091114.57649  22739306.3374   22739310.1784   22739305.4944
       221.0004        157.0004
 -18334323.26449 -14267090.44249  21115619.2154   21115620.9464   21115619.0484
       241.0004        199.0004
   4064641.61749   3171844.76049  24913072.8124   24913075.2984   24913074.7444
       203.0004        133.0004
 -17383391.39749 -12791084.30549  21094087.4984   21094090.8124   21094087.1064
       239.0004        191.0004
 -22430199.98149 -16890823.36349  20747529.2384   20747532.5764   20747528.8424
       243.0004        201.0004
  -9425542.25249  -7037386.47049  23187893.0404   23187897.3354   23187895.2034
       217.0004        147.0004
 -20919688.71149 -16282338.22249  20714836.8454   20714838.9834   20714837.4904
       244.0004        204.0004
 -12933227.94349 -10051677.78349  22563541.9104   22563541.3304   22563542.0854
       225.0004        165.0004
   6221069.49649   4863430.96649  25164190.8194                   25164189.9204
       185.0004        118.0004
 11 10 12  0 29 30.0000000  0  9G26G05G16G10G08G13G07G02G04
  -9225233.96849  -7168934.29149  22720301.7334   22720305.3694   22720302.5694
       219.0004        157.0004
 -18384154.85649 -14305920.25249  21106135.8684   21106137.6764   21106136.4324
       240.0004        198.0004
   4137571.94149   3228673.57249  24926951.6644   24926951.3284   24926950.6724
       203.0004        131.0004
 -17314228.43949 -12737191.10749  21107248.9064   21107251.8494   21107248.0364
       239.0004        191.0004
 -22467820.62849 -16920138.13949  20740370.1074   20740374.1234   20740370.4964
       244.0004        202.0004
  -9331901.04849  -6964419.32249  23205712.6984   23205717.9664   23205711.5124
       213.0004        144.0004
 -20890240.13049 -16259391.26449  20720440.3324   20720442.8114   20720440.3794
       243.0004        203.0004
 -12855278.98449  -9990938.34149  22578373.3994   22578375.5714   22578373.4884
       220.0004        164.0004
   6330335.00149   4948572.90949  25184986.9474   25184994.6294   25184987.5174
       203.0004        127.0004
 11 10 12  0 30  0.0000000  0  9G26G05G16G10G08G13G07G02G04
  -9324900.19249  -7246596.22049  22701335.1714   22701339.4104   22701334.7064
       219.0004        157.0004
 -18433533.01549 -14344396.73449  21096739.4564   21096741.1464   21096740.0084
       240.0004        198.0004
   4210937.52849   3285841.56249  24940910.4724   24940913.8904   24940911.8604
       201.0004        132.0004
 -17244647.58649 -12682972.28449  21120490.2404   21120492.6564   21120489.3644
       240.0004        191.0004
 -22504928.46249 -16949053.31449  20733309.0484   20733312.1664   20733308.5104
       243.0004        201.0004
  -9238132.96849  -6891353.33049  23223558.2144   23223560.0664   23223559.3024
       216.0004        143.0004
 -20860276.78249 -16236043.19849  20726142.4694   20726144.4574   20726143.3044
       243.0004        203.0004
 -12776942.57849  -9929897.02849  22593282.8114   22593283.1454   22593281.2924
       225.0004        167.0004
   6439540.38049   5033668.07949  25205769.9314   25205773.1114   25205769.7294
       205.0004        135.0004
 11 10 12  0 30 30.0000000  0  9G26G05G16G10G08G13G07G02G04
  -9424362.96749  -7324099.65649  22682410.7534   22682412.5674   22682410.1154
       223.0004        160.0004
 -18482455.85749 -14382518.42349  21087429.6394   21087432.3424   21087430.1774
       241.0004        199.0004
   4284735.24049   3343346.30849  24954955.9384   24954956.7514   24954954.8804
       206.0004        131.0004
 -17174650.63149 -12628429.21649  21133809.3774   21133812.8564   21133808.4054
       238.0004        190.0004
 -22541523.08049 -16977568.59149  20726345.8444   20726348.5004   20726345.4154
       245.0004        201.0004
  -9144239.53749  -6818189.63449  23241423.5914   23241428.0274   23241425.1354
       214.0004        140.0004
 -20829799.98049 -16212295.03049  20731941.8074   20731944.1574   20731942.2574
       243.0004        202.0004
 -12698221.88649  -9868556.24049  22608261.3054   22608262.8154   22608261.1424
       224.0004        165.0004
   6548682.60149   5118713.90949  25226538.0364   25226543.2794   25226536.4404
       193.0004        129.0004
 11 10 12  0 31  0.0000000  0  9G26G05G16G10G08G13G07G02G04
  -9523620.83549  -7401443.44149  22663520.7524   22663523.6834   22663520.5184
       221.0004        158.0004
 -18530921.18649 -14420283.60949  21078206.6784   21078210.0344   21078207.1004
       239.0004        199.0004
   4358963.30049   3401186.37049  24969082.4434   24969083.2794   24969080.5644
       208.0004        133.0004
 -17104238.56449 -12573562.67949  21147208.7244   21147211.6954   21147208.2744
       240.0004        191.0004
 -22577604.08749 -17005683.64649  20719478.8404   20719482.5274   20719478.7884
       242.0004        201.0004
  -9050221.71449  -6744929.01949  23259317.0844   23259320.9164   23259313.8204
       212.0004        133.0004
 -20798811.12949 -16188147.87149  20737838.6334   20737841.0164   20737839.4804
       243.0004        202.0004
 -12619119.75249  -9806918.24749  22623314.5324   22623315.7774   22623314.5554
       226.0004        165.0004
   6657759.69249   5203708.86349  25247291.5854   25247301.2794   25247294.6034
       204.0004        126.0004
 11 10 12  0 31 30.0000000  0  9G26G05G16G10G08G13G07G02G04
  -9622672.16749  -7478626.25649  22644671.2364   22644675.6174   22644672.3094
       221.0004        159.0004
 -18578927.21349 -14457690.88349  21069071.3934   21069074.2324   21069072.1654
       240.0004        199.0004
   4433619.46449   3459359.98749  24983287.3774   24983287.7674   24983287.7444
       205.0004        134.0004
 -17033412.70649 -12518373.70049  21160686.0204   21160689.8884   21160685.9524
       240.0004        191.0004
 -22613170.25549 -17033397.53149  20712711.4564   20712714.5564   20712711.3824
       244.0004        201.0004
  -8956080.24749  -6671572.04249  23277231.0174   23277230.1424   23277233.8964
       211.0004        133.0004
 -20767311.66649 -16163602.82449  20743832.8444   20743835.5104   20743833.1624
       242.0004        202.0004
 -12539638.76749  -9744985.02949  22638439.3904   22638439.5054   22638438.5344
       224.0004        165.0004
   6766768.94149   5288651.20149  25268038.4204   25268037.7474   25268040.9844
       208.0004        126.0004
 11 10 12  0 32  0.0000000  0  9G26G05G16G10G08G13G07G02G04
  -9721516.47549  -7555647.76149  22625861.8824   22625867.0424   22625862.3594
       219.0004        160.0004
 -18626472.75849 -14494739.37249  21060024.0064   21060026.2984   21060024.4384
       239.0004        198.0004
   4508700.26449   3517864.51749  24997573.7304   24997575.4044   24997574.6694
       206.0004        132.0004
 -16962174.85249 -12462863.70849  21174242.8884   21174245.7944   21174241.6764
       239.0004        190.0004
 -22648221.70049 -17060710.33549  20706041.7934   20706044.5194   20706040.9204
       244.0004        202.0004
  -8861816.81549  -6598120.10049  23295167.8464   23295165.9694   23295168.6174
       209.0004        130.0004
 -20735303.68849 -16138661.54349  20749924.5854   20749926.3644   20749924.6954
       243.0004        202.0004
 -12459782.75449  -9682759.57449  22653633.3154   22653635.7984   22653635.4024
       222.0004        163.0004
   6875707.38649   5373538.43149  25288766.6634   25288771.7974   25288766.8094
       197.0004        127.0004
 11 10 12  0 32 30.0000000  0  9G26G05G16G10G08G13G07G02G04
  -9820151.52449  -7632506.23849  22607090.6254   22607095.3394   22607092.2004
       217.0004        158.0004
 -18673555.33949 -14531427.08749  21051063.9464   21051067.1674   21051064.5344
       239.0004        198.0004
   4584204.24249   3576698.75049  25011942.7674   25011943.9304   25011944.0664
       206.0004        129.0004
 -16890525.99849 -12407033.43749  21187876.2334   21187879.7734   21187875.7554
       239.0004        191.0004
 -22682757.07649 -17087621.00049  20699469.9514   20699472.6794   20699469.4314
       245.0004        202.0004
  -8767431.97349  -6524573.44349  23313128.9374   23313132.0434   23313126.3274
       207.0004        128.0004
 -20702787.68649 -16113324.39149  20756111.2084   20756113.6134   20756111.6664
       242.0004        201.0004
 -12379553.58949  -9620243.36049  22668901.9924   22668901.7444   22668901.8944
       223.0004        163.0004
   6984573.41149   5458369.00749  25309482.9924   25309493.9384   25309485.4504
       196.0004        127.0004
 11 10 12  0 33  0.0000000  0  9G26G05G16G10G08G13G07G02G04
  -9918576.19049  -7709200.75049  22588363.0244   22588366.8764   22588362.0994
       219.0004        159.0004
 -18720173.16949 -14567752.66249  21042193.2044   21042195.8284   21042193.8604
       240.0004        199.0004
   4660128.64149   3635860.62249  25026390.8024   25026392.0344   25026390.8354
       207.0004        131.0004
 -16818467.81349 -12350884.21949  21201589.4254   21201591.7794   21201588.8454
       241.0004        190.0004
 -22716776.31349 -17114129.48749  20692995.5474   20692998.8604   20692995.9404
       244.0004        201.0004
  -8672926.56049  -6450932.87049  23331112.8104   23331115.6314   23331112.3704
       207.0004        134.0004
 -20669765.54749 -16087592.84649  20762395.2514   20762397.6574   20762396.1054
       242.0004        201.0004
 -12298954.64949  -9557439.01749  22684239.6084   22684241.0164   22684240.3174
       223.0004        163.0004
   7093364.48149   5543141.13349  25330187.6884   25330189.0374   25330187.8014
       205.0004        129.0004
 11 10 12  0 33 30.0000000  0  9G26G05G16G10G08G13G07G02G04
 -10016789.32649  -7785730.45249  22569674.2074   22569678.4864   22569674.7944
       222.0004        163.0004
 -18766324.69349 -14603714.87949  21033411.1174   21033413.2534   21033411.5654
       240.0004        199.0004
   4736470.96249   3695348.15049  25040917.3404   25040919.4844   25040917.6994
       205.0004        131.0004
 -16746001.57149 -12294417.02349  21215379.1704   21215381.2304   21215378.5094
       240.0004        190.0004
 -22750278.60249 -17140235.15249  20686621.4194   20686623.5684   20686620.4124
       244.0004        202.0004
  -8578301.68849  -6377199.22649  23349119.2774   23349121.2494   23349119.5834
       205.0004        132.0004
 -20636238.67649 -16061468.00649  20768775.2634   20768777.5414   20768775.6634
       242.0004        201.0004
 -12217988.75749  -9494348.73749  22699646.5114   22699648.7174   22699646.4814
       221.0004        163.0004
   7202077.71649   5627852.76949  25350877.4044   25350878.5034   25350871.8194
       198.0004        121.0004
 11 10 12  0 34  0.0000000  0  9G26G05G16G10G08G13G07G02G04
 -10114789.88049  -7862094.49049  22551025.2914   22551029.5804   22551025.8924
       221.0004        162.0004
 -18812008.51049 -14639312.66949  21024717.8604   21024719.9034   21024718.5694
       241.0004        200.0004
   4813228.07049   3755158.91349  25055524.3034   25055527.1594   25055524.4694
       206.0004        133.0004
 -16673129.29449 -12237633.44549  21229244.6204   21229249.2904   21229244.5864
       238.0004        190.0004
 -22783264.03849 -17165938.08249  20680342.6244   20680346.5984   20680343.2224
       242.0004        202.0004
  -8483558.79449  -6303373.64349  23367149.2354   23367150.0194   23367149.7234
       207.0004        133.0004
 -20602209.07449 -16034951.41949  20775251.2764   20775252.8674   20775251.5644
       243.0004        201.0004
 -12136659.70349  -9430975.46849  22715123.4874   22715123.3684   22715123.1894
       223.0004        162.0004
   7310710.76049   5712501.98049  25371543.4634   25371546.4024   25371545.7784
       202.0004        123.0004
 11 10 12  0 34 30.0000000  0  9G26G05G16G10G08G13G07G02G04
 -10212576.18049  -7938291.56749  22532417.0254   22532421.1724   22532416.6704
       222.0004        161.0004
 -18857222.30149 -14674544.18149  21016113.4444   21016116.9694   21016113.9064
       240.0004        200.0004
   4890397.97749   3815291.33849  25070211.1354   25070213.0234   25070209.9354
       210.0004        135.0004
 -16599851.92649 -12180534.22449  21243190.8294   21243193.4494   21243190.3044
       240.0004        189.0004
 -22815732.03349 -17191237.80449  20674165.3344   20674168.1914   20674164.9744
       243.0004        202.0004
  -8388698.68849  -6229456.74249  23385199.1154   23385202.2024   23385198.9954
       205.0004        132.0004
 -20567677.77049 -16008043.89449  20781821.8514   20781824.8584   20781822.5644
       243.0004        202.0004
 -12054969.51449  -9367320.80249  22730668.8334   22730669.7104   22730669.0444
       224.0004        161.0004
   7419261.24549   5797086.75249  25392203.2064   25392211.1204   25392204.5934
       200.0004        133.0004
 11 10 12  0 35  0.0000000  0  9G26G05G16G10G08G13G07G02G04
 -10310146.76549  -8014320.60649  22513849.9484   22513853.3094   22513850.5954
       221.0004        161.0004
 -18901964.20849 -14709408.00249  21007600.6194   21007602.5814   21007600.7284
       241.0004        201.0004
   4967978.54249   3875743.71049  25084972.6834   25084973.5414   25084973.4134
       206.0004        131.0004
 -16526171.04249 -12123120.56449  21257211.7304   21257213.9564   21257210.8204
       239.0004        189.0004
 -22847681.63049 -17216133.58649  20668084.5324   20668088.3704   20668085.0474
       242.0004        202.0004
  -8293722.01549  -6155448.94249  23403272.8014   23403274.1344   23403273.7964
       204.0004        129.0004
 -20532646.32049 -15980746.65449  20788488.1334   20788490.3014   20788488.5414
       242.0004        201.0004
 -11972921.76649  -9303387.53149  22746281.0154   22746282.5834   22746280.9334
       219.0004        162.0004
   7527726.84449   5881605.28349  25412839.9124   25412847.4124   25412842.5904
       197.0004        130.0004
 11 10 12  0 35 30.0000000  0  9G26G05G16G10G08G13G07G02G04
 -10407500.85949  -8090180.89849  22495323.0674   22495329.0704   22495323.7514
       222.0004        163.0004
 -18946232.85549 -14743903.05249  20999174.6944   20999177.5714   20999175.6384
       239.0004        199.0004
   5045966.56049   3936513.62949  25099811.7724   25099810.5924   25099813.7084
       199.0004        127.0004
 -16452088.52249 -12065393.93849  21271307.8824   21271311.7314   21271308.0624
       239.0004        189.0004
 -22879112.59049 -17240625.22149  20662105.2934   20662107.3354   20662103.8774
       244.0004        202.0004
  -8198630.07949  -6081351.35749  23421368.5094   23421369.3264   23421364.1554
       200.0004        126.0004
 -20497116.38549 -15953060.98749  20795248.9844   20795251.4654   20795249.6004
       242.0004        200.0004
 -11890519.17749  -9239177.74849  22761962.7184   22761962.8074   22761961.7804
       222.0004        162.0004
   7636104.98749   5966055.76849  25433467.9614   25433467.4664   25433466.4144
       199.0004        124.0004
 11 10 12  0 36  0.0000000  0  9G26G05G16G10G08G13G07G02G04
 -10504636.42749  -8165870.92149  22476838.6704   22476843.6574   22476839.1414
       222.0004        163.0004
 -18990026.18549 -14778027.72849  20990842.0274   20990844.4234   20990842.7974
       241.0004        201.0004
   5124359.92849   3997599.40249  25114728.3924   25114732.2254   25114730.8374
       199.0004        127.0004
 -16377605.33449 -12007355.12149  21285483.4644   21285485.4054   21285481.7794
       238.0004        188.0004
 -22910024.49949 -17264712.41249  20656220.3414   20656224.8784   20656220.7374
       242.0004        201.0004
  -8103423.75649  -6007164.66449  23439486.8314   23439484.4894   23439486.8794
       198.0004        125.0004
 -20461089.36249 -15924987.98049  20802104.8914   20802106.9694   20802105.5784
       242.0004        200.0004
 -11807764.60449  -9174693.68649  22777709.1794   22777711.4164   22777709.1954
       221.0004        162.0004
   7744393.37149   6050436.40249  25454073.0194   25454080.7694   25454072.4574
       198.0004        126.0004
 11 10 12  0 36 30.0000000  0  9G26G05G16G10G08G13G07G02G04
 -10601552.69949  -8241390.07349  22458396.0264   22458400.3304   22458396.4134
       222.0004        161.0004
 -19033342.79349 -14811780.92749  20982599.4954   20982601.7064   20982599.9564
       242.0004        201.0004
   5203155.76949   4058998.76249  25129725.5284   25129727.9614   25129724.4084
       198.0004        128.0004
 -16302723.01649 -11949005.28849  21299732.4184   21299735.1384   21299731.3844
       238.0004        188.0004
 -22940417.08349 -17288394.93949  20650438.5774   20650441.3484   20650438.0064
       242.0004        202.0004
  -8008104.22749  -5932889.70249  23457620.9094   23457624.5744   23457622.6254
       193.0004        124.0004
 -20424567.28149 -15896529.21049  20809054.6294   20809056.7434   20809055.0684
       242.0004        200.0004
 -11724661.70749  -9109938.20949  22793523.1294   22793525.3634   22793524.0574
       222.0004        162.0004
   7852589.48349   6134745.01249  25474661.6184   25474662.5764   25474663.3264
       202.0004        129.0004
 11 10 12  0 37  0.0000000  0  9G26G05G16G10G08G13G07G02G04
 -10698247.67749  -8316736.79749  22439995.4774   22440000.6124   22439996.3064
       223.0004        163.0004
 -19076180.34649 -14845160.83649  20974447.5614   20974450.2414   20974448.0394
       243.0004        201.0004
   5282352.23449   4120710.31649  25144795.5684   25144797.2194   25144796.1184
       202.0004        131.0004
 -16227442.97349 -11890345.53449  21314056.3174   21314060.3764   21314055.9874
       237.0004        187.0004
 -22970289.61649 -17311672.22349  20644753.2784   20644757.0264   20644753.6154
       242.0004        202.0004
  -7912672.20349  -5858527.05749  23475786.3934   23475790.7434   23475782.1394
       195.0004        122.0004
 -20387550.87149 -15867685.25049  20816099.1304   20816101.3924   20816099.3724
       242.0004        200.0004
 -11641212.49949  -9044912.87049  22809403.2234   22809404.8274   22809403.3054
       221.0004        160.0004
   7960691.46749   6218980.26849  25495231.8094   25495237.8234   25495233.0354
       192.0004        125.0004
 11 10 12  0 37 30.0000000  0  9G26G05G16G10G08G13G07G02G04
 -10794720.88049  -8391910.70449  22421637.0534   22421641.9914   22421637.4984
       222.0004        163.0004
 -19118538.11449 -14878166.88349  20966386.7904   20966389.3054   20966387.2724
       243.0004        201.0004
   5361945.91549   4182731.38749  25159940.5654   25159941.4184   25159940.6574
       199.0004        128.0004
 -16151767.42749 -11831377.60249  21328459.1664   21328460.4004   21328457.2584
       238.0004        187.0004
 -22999642.01749 -17334544.20749  20639168.2744   20639171.0944   20639167.7904
       243.0004        201.0004
  -7817129.13549  -5784077.99549  23493966.9684   23493971.1444   23493966.6994
       193.0004        124.0004
 -20350042.52249 -15838457.95349  20823236.3884   20823238.1074   20823236.4834
       242.0004        200.0004
 -11557421.14649  -8979620.93149  22825349.5754   22825350.5194   22825349.7054
       222.0004        162.0004
   8068696.27249   6303139.80249  25515783.5244   25515789.3644   25515786.8984
       193.0004        124.0004
 11 10 12  0 38  0.0000000  0  9G26G05G16G10G08G13G07G02G04
 -10890970.58849  -8466910.45549  22403322.2624   22403327.3754   22403323.1824
       223.0004        162.0004
 -19160413.70249 -14910797.21749  20958418.3834   20958420.6934   20958418.9864
       244.0004        202.0004
   5441934.49549   4245060.15249  25175164.1564   25175163.8184   25175163.5414
       199.0004        127.0004
 -16075697.69649 -11772102.50649  21342933.7344   21342936.8384   21342932.9404
       237.0004        187.0004
 -23028473.78049 -17357010.50649  20633681.0754   20633684.5734   20633681.2314
       243.0004        202.0004
  -7721475.83349  -5709543.07249  23512164.3024   23512167.2584   23512163.4004
       189.0004        126.0004
 -20312043.72949 -15808848.51149  20830467.3974   20830469.9694   20830468.4814
       243.0004        201.0004
 -11473290.41049  -8914064.54049  22841357.8144   22841359.4174   22841359.4544
       222.0004        160.0004
   8176601.78349   6387222.02449  25536321.9894   25536324.0014   25536316.0214
       200.0004        120.0004
 11 10 12  0 38 30.0000000  0  9G26G05G16G10G08G13G07G02G04
 -10986995.67049  -8541735.17649  22385049.6674   22385052.4614   22385049.7754
       223.0004        164.0004
 -19201805.70749 -14943050.72949  20950542.2414   20950544.3134   20950542.8214
       244.0004        202.0004
   5522315.34949   4307694.61849  25190459.2134   25190460.0994   25190460.8114
       202.0004        129.0004
 -15999235.40849 -11712521.51349  21357483.1494   21357486.8874   21357483.3984
       237.0004        187.0004
 -23056785.20249 -17379071.34549  20628294.8824   20628297.1044   20628293.9424
       244.0004        202.0004
  -7625713.45249  -5634923.07149  23530390.1854   23530392.2784   23530389.0774
       198.0004        125.0004
 -20273556.18049 -15778858.20149  20837791.6264   20837793.4444   20837791.2054
       242.0004        200.0004
 -11388823.21949  -8848245.98549  22857431.8564   22857433.2034   22857432.2214
       220.0004        159.0004
   8284405.23749   6471224.70849  25556833.0984   25556841.1554   25556832.4444
       193.0004        123.0004
 11 10 12  0 39  0.0000000  0  9G26G05G16G10G08G13G07G02G04
 -11082793.80349  -8616383.06149  22366818.7734   22366822.5184   22366820.2494
       223.0004        163.0004
 -19242711.58649 -14974925.43949  20942758.1134   20942760.1204   20942758.2074
       244.0004        202.0004
   5603086.65049   4370633.27049  25205828.3424   25205830.4744   25205827.2844
       202.0004        130.0004
 -15922381.18649 -11652635.12049  21372109.8094   21372112.1804   21372108.5914
       238.0004        185.0004
 -23084574.53349 -17400725.35949  20623005.9204   20623008.9564   20623005.7374
       243.0004        202.0004
  -7529841.85149  -5560217.98549  23548634.9804   23548639.2604   23548637.1444
       201.0004        129.0004
 -20234580.49949 -15748487.54349  20845208.1714   20845210.1814   20845208.6204
       242.0004        201.0004
 -11304021.77749  -8782166.96949  22873570.0174   22873569.2434   22873569.1464
       221.0004        159.0004
   8392105.26149   6555146.76949  25577328.8354   25577333.3234   25577328.0984
       196.0004        125.0004
 11 10 12  0 39 30.0000000  0  9G26G05G16G10G08G13G07G02G04
 -11178364.81149  -8690853.95549  22348633.4874   22348635.9544   22348634.0514
       224.0004        165.0004
 -19283130.87649 -15006420.99049  20935066.0754   20935068.6634   20935067.0224
       243.0004        202.0004
   5684244.78149   4433873.40149  25221272.5294   25221274.9824   25221274.1284
       201.0004        131.0004
 -15845137.55849 -11592445.28849  21386807.1784   21386810.6374   21386806.5734
       235.0004        185.0004
 -23111842.47149 -17421973.09449  20617816.9654   20617819.8754   20617816.8134
       243.0004        202.0004
  -7433863.22349  -5485429.45949  23566897.9814   23566901.3034   23566898.4644
       202.0004        128.0004
 -20195119.49249 -15717738.68949  20852717.3224   20852719.8834   20852717.8374
       242.0004        201.0004
 -11218890.14549  -8715830.65749  22889769.7714   22889770.0844   22889769.3054
       221.0004        158.0004
   8499698.57149   6638985.67849  25597803.9144   25597804.4704   25597801.0984
       197.0004        122.0004
 11 10 12  0 40  0.0000000  0  9G26G05G16G10G08G13G07G02G04
 -11273707.10349  -8765146.62249  22330490.9414   22330493.5254   22330490.2334
       226.0004        165.0004
 -19323061.48349 -15037535.75549  20927468.0654   20927469.9324   20927468.7684
       244.0004        203.0004
   5765787.38349   4497413.09349  25236788.1034   25236791.5994   25236789.1354
       198.0004        127.0004
 -15767506.32149 -11531953.42549  21401579.6824   21401583.2124   21401579.1584
       236.0004        185.0004
 -23138588.82849 -17442814.40049  20612727.7904   20612730.2514   20612727.2474
       243.0004        203.0004
  -7337778.47949  -5410558.25349  23585185.1064   23585187.6504   23585182.8074
       202.0004        128.0004
 -20155174.72549 -15686612.89649  20860319.4824   20860321.2054   20860319.7654
       244.0004        202.0004
 -11133431.47549  -8649239.51049  22906030.3364   22906032.9054   22906031.9144
       220.0004        159.0004
   8607182.98849   6722739.70049  25618256.1124   25618262.1424   25618256.4214
       198.0004        125.0004
 11 10 12  0 40 30.0000000  0  9G26G05G16G10G08G13G07G02G04
 -11368819.21849  -8839259.93949  22312392.0834   22312393.7054   22312391.0064
       225.0004        164.0004
 -19362501.80849 -15068268.47349  20919962.5464   20919964.9514   20919963.0914
       243.0004        203.0004
   5847711.97949   4561250.48849  25252380.4864   25252381.0454   25252382.7344
       198.0004        128.0004
 -15689488.82549 -11471160.58149  21416427.5894   21416429.8454   21416426.3224
       238.0004        186.0004
 -23164812.96249 -17463248.77349  20607737.3224   20607740.2564   20607736.6574
       243.0004        202.0004
  -7241588.20549  -5335604.84749  23603488.5284   23603488.5264   23603486.1024
       203.0004        128.0004
 -20114747.73849 -15655111.35149  20868011.8954   20868013.9464   20868012.1434
       244.0004        201.0004
 -11047648.67349  -8582395.80049  22922356.6904   22922356.2444   22922356.1654
       221.0004        158.0004
   8714556.18849   6806407.11349  25638690.2804   25638694.3864   25638691.7954
       201.0004        125.0004
 11 10 12  0 41  0.0000000  0  9G26G05G16G10G08G13G07G02G04
 -11463699.67749  -8913192.73649  22294334.7454   22294336.9904   22294336.7604
       224.0004        164.0004
 -19401450.07749 -15098617.76849  20912550.8374   20912553.1514   20912551.3954
       243.0004        203.0004
   5930016.13549   4625383.62849  25268042.2324   25268043.3864   25268040.3174
       196.0004        129.0004
 -15611086.35949 -11410067.76949  21431345.8714   21431349.4674   21431345.3294
       235.0004        185.0004
 -23190514.40549 -17483275.86049  20602845.5934   20602849.1844   20602845.8014
       242.0004        202.0004
  -7145293.19549  -5260569.78649  23621810.7734   23621814.1364   23621811.9354
       200.0004        128.0004
 -20073839.87449 -15623235.08949  20875795.9884   20875798.3514   20875796.4644
       243.0004        201.0004
 -10961544.21949  -8515301.43849  22938740.9684   22938741.8434   22938740.9364
       221.0004        159.0004
   8821816.09249   6889986.17849  25659099.9494                   25659099.7844
       197.0004        122.0004
 11 10 12  0 41 30.0000000  0  9G26G05G16G10G08G13G07G02G04
 -11558347.46949  -8986944.25549  22276326.4204   22276327.5654   22276325.9544
       228.0004        165.0004
 -19439904.84749 -15128582.52349  20905232.9484   20905235.2464   20905233.4594
       243.0004        202.0004
   6012696.75449   4689810.12049  25283774.3094   25283779.9894   25283773.6844
       198.0004        129.0004
 -15532300.70049 -11348676.35049  21446338.1714   21446341.5044   21446337.6744
       236.0004        185.0004
 -23215693.45749 -17502895.88849  20598054.3994   20598057.5874   20598054.2274
       242.0004        202.0004
  -7048894.87849  -5185454.26449  23640155.3954   23640157.3094   23640156.1424
       200.0004        127.0004
 -20032453.01149 -15590985.57849  20883672.3114   20883673.8734   20883672.7454
       244.0004        201.0004
 -10875121.74449  -8447959.25249  22955185.1334   22955188.0994   22955185.8364
       221.0004        158.0004
   8928960.45749   6973475.26549  25679490.4384                   25679493.6084
       195.0004        122.0004
 11 10 12  0 42  0.0000000  0  9G26G05G16G10G08G13G07G02G04
 -11652760.65049  -9060512.92949  22258359.8304   22258361.7914   22258359.0834
       227.0004        167.0004
 -19477864.35249 -15158161.36249  20898010.1594   20898012.0124   20898010.0604
       243.0004        202.0004
   6095751.57749   4754528.18549  25299579.4814   25299580.3914   25299581.1594
       202.0004        132.0004
 -15453132.97449 -11286987.24849  21461404.2144   21461406.8164   21461403.0844
       236.0004        185.0004
 -23240349.51349 -17522108.39149  20593362.4984   20593365.8054   20593362.7104
       243.0004        203.0004
  -6952394.06049  -5110258.82649  23658519.0034   23658523.8394   23658519.3344
       199.0004        127.0004
 -19990588.75949 -15558364.07949  20891638.6394   20891640.8394   20891638.8754
       244.0004        201.0004
 -10788384.03249  -8380371.46949  22971690.6514   22971692.6754   22971692.5194
       220.0004        159.0004
   9035986.99549   7056872.53349  25699855.9034                   25699853.7074
       191.0004        119.0004
 11 10 12  0 42 30.0000000  0  9G26G05G16G10G08G13G07G02G04
 -11746938.16749  -9133897.97749  22240438.1034   22240439.7434   22240438.2334
       227.0004        166.0004
 -19515326.60249 -15187352.72949  20890879.7904   20890883.0784   20890881.2214
       242.0004        202.0004
   6179178.18549   4819535.94549  25315456.5204   25315457.5394   25315455.3274
       203.0004        131.0004
 -15373584.89549 -11225001.74649  21476541.2614   21476544.0484   21476539.8684
       235.0004        185.0004
 -23264482.04649 -17540912.95149  20588770.5774   20588773.6934   20588770.3574
       243.0004        202.0004
  -6855791.44349  -5034984.13749  23676903.3804   23676904.3064   23676901.4404
       200.0004        127.0004
 -19948248.67649 -15525371.80049  20899695.4394   20899697.6194   20899695.6054
       244.0004        201.0004
 -10701334.27649  -8312540.51149  22988257.4864   22988257.4084   22988256.1294
       221.0004        157.0004
   9142893.54949   7140176.30449  25720199.7164
       194.0004        120.0004
 11 10 12  0 43  0.0000000  0  9G26G05G16G10G08G13G07G02G04
 -11840878.76549  -9207098.42449  22222561.4644   22222564.5924   22222561.8154
       226.0004        166.0004
 -19552290.48649 -15216155.75449  20883846.9614   20883849.3474   20883847.3484
       243.0004        203.0004
   6262973.49749   4884830.98949  25331402.5314   25331401.4264   25331401.4854
       202.0004        132.0004
 -15293658.39849 -11162721.37849  21491749.1364   21491753.6704   21491749.5114
       234.0004        185.0004
 -23288091.49949 -17559309.90749  20584278.4794   20584280.9334   20584277.3424
       244.0004        202.0004
  -6759087.98549  -4959630.82949  23695304.7084   23695308.5094   23695306.4044
       203.0004        127.0004
 -19905434.56849 -15492010.15849  20907842.7054   20907844.5514   20907843.3664
       243.0004        201.0004
 -10613975.82149  -8244469.02849  23004880.8564   23004882.0874   23004880.6014
       222.0004        159.0004
   9249677.40849   7223384.42249  25740522.6044
       191.0004        117.0004
 11 10 12  0 43 30.0000000  0  9G26G05G16G10G08G13G07G02G04
 -11934581.48949  -9280113.51549  22204730.2914   22204733.8684   22204730.3124
       226.0004        166.0004
 -19588754.51549 -15244569.28749  20876907.2634   20876910.2074   20876908.2564
       242.0004        202.0004
   6347134.62749   4950411.16949  25347416.9394   25347418.3464   25347412.9934
       202.0004        131.0004
 -15213355.45449 -11100147.67249  21507032.4154   21507035.3424   21507031.3704
       237.0004        186.0004
 -23311177.69149 -17577299.14649  20579883.7864   20579887.4994   20579884.3694
       241.0004        202.0004
  -6662285.08349  -4884200.02649  23713725.7144   23713729.2844   23713727.7984
       203.0004        129.0004
 -19862148.75749 -15458280.94649  20916080.1204   20916082.2824   20916080.6044
       244.0004        202.0004
 -10526311.94449  -8176159.53749  23021562.2864   23021564.6454   23021562.8154
       221.0004        159.0004
   9356336.45049     51891.22549  25760818.3364
       187.0004         74.0004
 11 10 12  0 44  0.0000000  0  9G26G05G16G10G08G13G07G02G04
 -12028043.85449  -9352941.30949  22186945.0284   22186948.9884   22186944.3684
       226.0004        168.0004
 -19624716.44049 -15272591.56949  20870064.8504   20870066.6304   20870065.1834
       243.0004        203.0004
   6431659.81149   5016274.97949  25363500.6764   25363505.0414   25363499.2534
       203.0004        133.0004
 -15132677.05049 -11037281.40349  21522385.4454   21522387.4604   21522383.7704
       237.0004        185.0004
 -23333739.71949 -17594879.93349  20575591.8634   20575594.2204   20575591.1294
       243.0004        203.0004
  -6565382.94649  -4808691.91649  23732164.7364   23732166.6204   23732165.8894
       204.0004        128.0004
 -19818391.83249 -15424184.64949  20924406.0694   20924408.5754   20924406.6124
       244.0004        201.0004
 -10438345.07949  -8107613.95249  23038302.7704   23038303.4444   23038302.3334
       221.0004        158.0004
   9462868.81349    134794.86149  25781090.9544
       182.0004        108.0004
 11 10 12  0 44 30.0000000  0  9G26G05G16G10G08G13G07G02G04
 -12121265.52849  -9425581.54949  22169204.7034   22169207.6084   22169205.5884
       225.0004        167.0004
 -19660175.41049 -15300221.93249  20863317.0634   20863319.4124   20863317.4784
       242.0004        202.0004
   6516545.58949   5082419.76249  25379656.0554   25379656.1964   25379654.7284
       203.0004        131.0004
 -15051625.63249 -10974124.46149  21537807.5374   21537811.4004   21537807.0524
       236.0004        185.0004
 -23355778.07349 -17612052.66449  20571397.3864   20571400.3984   20571397.4614
       243.0004        202.0004
  -6468383.35749  -4733107.85549  23750622.8564   23750621.6524   23750624.1594
       202.0004        127.0004
 -19774166.68349 -15389723.47749  20932822.1494   20932824.2714   20932822.6144
       243.0004        201.0004
 -10350078.67149  -8038834.95249  23055100.2254   23055099.5974   23055099.9784
       224.0004        158.0004
   9569272.16849    217567.73549  25801335.5974
       180.0004        110.0004
 11 10 12  0 45  0.0000000  0 10G26G05G16G10G08G13G07G02G04G28
 -12214244.81349  -9498032.92749  22151510.7634   22151514.8984   22151511.9294
       226.0004        165.0004
 -19695129.81449 -15327459.13449  20856665.3014   20856667.8714   20856665.8094
       243.0004        202.0004
   6601789.71649   5148843.76049  25395874.9934   25395877.0794   25395874.5904
       205.0004        131.0004
 -14970202.53149 -10910677.90749  21553302.5334   21553305.6164   21553302.1174
       237.0004        185.0004
 -23377292.74449 -17628817.32749  20567303.7474   20567306.3654   20567303.2464
       243.0004        202.0004
  -6371286.95649  -4657448.35449  23769096.2634   23769104.1714   23769100.4114
       192.0004        122.0004
 -19729474.24849 -15354898.20949  20941326.7114   20941329.2614   20941327.4714
       243.0004        201.0004
 -10261515.98249  -7969825.09549  23071953.7914   23071952.8704   23071951.6804
       223.0004        157.0004
   9675544.01059     46139.48459  25821558.0624
       174.0004         74.0004
   -216022.06049   -144311.30149  24405477.5274
       204.0004        108.0004
 11 10 12  0 45 30.0000000  0  9G26G05G16G10G08G13G07G02G04
 -12306980.38449  -9570294.39849  22133864.8554   22133867.9724   22133864.8424
       226.0004        167.0004
 -19729577.72549 -15354301.65849  20850110.0394   20850112.5044   20850110.6824
       242.0004        202.0004
   6687389.26949   5215544.73449  25412164.3034   25412166.2824   25412163.2724
       201.0004        129.0004
 -14888408.92849 -10846942.63549  21568868.3914   21568870.3694   21568866.9494
       238.0004        185.0004
 -23398283.54049 -17645173.78049  20563308.8584   20563311.9544   20563308.6274
       243.0004        202.0004
  -6274094.29549  -4581713.84449  23787597.4314   23787597.0384   23787593.5664
       193.0004        122.0004
 -19684316.61849 -15319710.43549  20949920.5304   20949922.0354   20949920.7434
       244.0004        201.0004
 -10172660.01349  -7900586.71349  23088861.3394   23088861.0444   23088861.1784
       220.0004        157.0004
   9781682.46659    128768.97259  25841757.7414
       173.0004        108.0004
 11 10 12  0 46  0.0000000  0  9G26G05G16G10G08G13G07G02G04
 -12399470.66449  -9642364.71849  22116264.4524   22116268.7584   22116264.8234
       225.0004        169.0004
 -19763517.95449 -15380748.59049  20843651.6814   20843653.8714   20843651.8674
       242.0004        202.0004
   6773341.75149   5282520.71949  25428521.4054   25428525.9464   25428518.0584
       202.0004        128.0004
 -14806246.93949 -10782920.33149  21584501.8144   21584505.8394   21584501.5784
       235.0004        185.0004
 -23418750.23249 -17661121.84049  20559413.9964   20559416.8304   20559413.8804
       242.0004        202.0004
  -6176806.62849  -4505905.35449  23806109.9744   23806112.7884   23806109.3804
       192.0004        119.0004
 -19638695.54149 -15284161.54549  20958600.9034   20958604.0614   20958601.7404
       243.0004        201.0004
 -10083513.58849  -7831121.97849  23105825.4884   23105826.0544   23105825.2954
       221.0004        156.0004
   9887685.41949    211262.84249  25861928.2974
       185.0004        112.0004
 11 10 12  0 46 30.0000000  0  9G26G05G16G10G08G13G07G02G28
 -12491714.51549  -9714243.01849  22098709.9394   22098714.6724   22098711.8254
       228.0004        169.0004
 -19796948.88549 -15406798.66749  20837289.4214   20837292.4274   20837290.2784
       242.0004        202.0004
   6859644.64349   5349769.72749  25444943.5644   25444944.2904   25444944.1144
       201.0004        127.0004
 -14723718.38549 -10718612.38149  21600206.4804   21600210.4234   21600205.6974
       237.0004        184.0004
 -23438692.43649 -17676661.21449  20555619.3374   20555622.6584   20555619.3784
       242.0004        203.0004
  -6079424.70949  -4430023.45449  23824640.0004   23824639.1264   23824638.5084
       194.0004        120.0004
 -19592612.81549 -15248252.92649  20967371.6124   20967372.8884   20967371.6554
       245.0004        201.0004
  -9994080.30649  -7761433.72749  23122841.7894   23122845.0064   23122842.9624
       217.0004        156.0004
   -511787.81749   -137496.61649  24349195.7254   24349198.4304
       202.0004        129.0004
 11 10 12  0 47  0.0000000  0  9G26G05G16G10G08G13G07G02G28
 -12583710.02149  -9785927.81849  22081205.1294   22081207.6174   22081205.1154
       226.0004        167.0004
 -19829868.68749 -15432450.46249  20831025.5634   20831027.7074   20831025.6664
       242.0004        202.0004
   6946295.64949   5417289.99549  25461433.5284   25461437.4614   25461434.5424
       203.0004        126.0004
 -14640824.21649 -10654019.56149  21615983.3454   21615984.2264   21615981.4544
       238.0004        184.0004
 -23458109.87749 -17691791.67449  20551924.4594   20551927.3994   20551923.9984
       243.0004        203.0004
  -5981948.98549  -4354068.39049  23843191.8194                   23843191.0884
       199.0004        120.0004
 -19546069.48249 -15211985.38749  20976227.4764   20976229.4624   20976227.9014
       243.0004        200.0004
  -9904362.79349  -7691524.00849  23139915.5434   23139916.7144   23139915.1994
       218.0004        154.0004
   -610214.42549   -214192.60349  24330467.5074   24330471.4274   24330465.3374
       207.0004        133.0004
 11 10 12  0 47 30.0000000  0  9G26G05G16G10G08G13G07G02G28
 -12675457.13849  -9857419.07149  22063745.3424   22063748.3694   22063745.9224
       227.0004        169.0004
 -19862276.89149 -15457703.61749  20824857.7824   20824860.5464   20824858.4374
       242.0004        202.0004
   7033290.59849   5485078.27549  25477988.0794   25477989.1664   25477986.5494
       203.0004        130.0004
 -14557567.48149 -10589144.19849  21631823.7124   21631827.6404   21631823.7284
       235.0004        184.0004
 -23477003.67949 -17706514.11649  20548329.8644   20548332.1074   20548329.1524
       244.0004        203.0004
  -5884381.76049  -4278042.03049  23861757.0714
       191.0004        121.0004
 -19499069.24349 -15175361.82549  20985172.5404   20985173.6654   20985172.3794
       244.0004        201.0004
  -9814365.15749  -7621396.01749  23157040.9814   23157042.5804   23157040.6814
       216.0004        153.0004
   -708556.75449   -290822.97549  24311751.4834   24311755.3824   24311752.5944
       202.0004        132.0004
 11 10 12  0 48  0.0000000  0  9G26G05G16G10G08G13G07G02G28
 -12766953.20149  -9928714.67949  22046334.4754   22046337.2534   22046335.4474
       227.0004        170.0004
 -19894170.89049 -15482556.08249  20818789.2754   20818791.2454   20818789.6374
       242.0004        202.0004
   7120628.04649   5553133.43849  25494606.4624   25494609.5054   25494607.1914
       199.0004        126.0004
 -14473948.37349 -10523986.46849  21647736.2184   21647740.0364   21647735.7754
       237.0004        183.0004
 -23495372.58749 -17720827.53549  20544832.8904   20544836.5494   20544832.6794
       242.0004        203.0004
  -5786722.84859  -4201944.26559  23880337.8104                   23880340.4274
       185.0004        117.0004
 -19451612.07649 -15138382.20449  20994202.2404   20994204.2194   20994202.0974
       241.0004        201.0004
  -9724089.38549  -7551051.28649  23174223.9124   23174221.3524   23174223.0754
       218.0004        154.0004
   -806810.68649   -367384.44649  24293054.7754   24293059.3844   24293055.3554
       203.0004        134.0004
 11 10 12  0 48 30.0000000  0  9G26G05G16G10G08G13G07G02G28
 -12858197.56849  -9999814.15849  22028971.9534   22028974.4704   22028971.7444
       228.0004        172.0004
 -19925549.96449 -15507007.30449  20812817.4074   20812820.1184   20812818.1844
       242.0004        202.0004
   7208304.89449   5621453.06649  25511291.9584   25511291.1174   25511292.4104
       200.0004        126.0004
 -14389969.42849 -10458548.35849  21663718.5604   21663720.5324   21663717.0554
       237.0004        183.0004
 -23513217.12549 -17734732.36349  20541438.0574   20541440.7274   20541437.8474
       244.0004        203.0004
  -5688973.58549     65329.90049  23898935.9344
       190.0004         73.0004
 -19403700.46749 -15101048.48549  21003319.2454   21003321.5754   21003319.7474
       241.0004        200.0004
  -9633539.29849  -7480492.80749  23191451.5434   23191452.0144   23191451.3674
       216.0004        154.0004
   -904974.23149   -443875.47149  24274374.6474   24274379.7994   24274375.1384
       207.0004        136.0004
 11 10 12  0 49  0.0000000  0  9G26G05G16G10G08G13G07G02G28
 -12949188.19749 -10070715.93449  22011655.0944   22011658.7394   22011656.2494
       227.0004        170.0004
 -19956411.91949 -15531055.58849  20806944.9124   20806947.4004   20806945.2684
       242.0004        203.0004
   7296318.95349   5690035.44149  25528040.7604   25528040.6204   25528041.9614
       195.0004        121.0004
 -14305631.97749 -10392830.87949  21679765.8954   21679769.5934   21679765.7474
       235.0004        182.0004
 -23530536.97749 -17748228.34349  20538142.1524   20538145.2554   20538141.7354
       243.0004        203.0004
  -5591134.32849    141496.27549  23917563.7554
       193.0004        105.0004
 -19355335.73049 -15063361.67849  21012522.9604   21012525.7304   21012523.1014
       241.0004        200.0004
  -9542717.44549  -7409722.53849  23208734.5894   23208736.6884   23208733.7384
       215.0004        153.0004
  -1003043.86749   -520293.33149  24255715.5014   24255717.7624   24255713.7804
       209.0004        138.0004
 11 10 12  0 49 30.0000000  0  9G26G05G16G10G08G13G07G02G28
 -13039925.05249 -10141419.97449  21994389.8144   21994392.6774   21994390.2584
       228.0004        170.0004
 -19986756.66549 -15554700.85049  20801170.3634   20801172.9754   20801170.9164
       243.0004        202.0004
   7384666.49649   5758877.69249  25544851.3644   25544853.1374   25544851.9834
       194.0004        121.0004
 -14220938.70649 -10326836.13849  21695881.8344   21695886.5614   21695881.1444
       235.0004        182.0004
 -23547333.31249 -17761316.39149  20534946.0804   20534948.7644   20534945.7544
       244.0004        203.0004
  -5493207.11859    217731.17559  23936187.6224
       179.0004        106.0004
 -19306520.88049 -15025324.13949  21021812.1114   21021814.3614   21021812.3164
       240.0004        199.0004
  -9451627.75249  -7338743.61949  23226065.4494   23226069.1324   23226066.6724
       214.0004        152.0004
  -1101018.04349   -596636.80249  24237069.3774   24237073.7464   24237068.8474
       207.0004        138.0004
 11 10 12  0 50  0.0000000  0  9G26G05G16G10G08G13G07G02G28
 -13130404.98949 -10211923.78549  21977172.1854   21977174.9274   21977172.0404
       228.0004        172.0004
 -20016581.29149 -15577940.81349  20795495.2004   20795497.7894   20795495.3834
       242.0004        203.0004
   7473345.97249   5827978.61349  25561728.1484   25561729.8114   25561726.3834
       198.0004        122.0004
 -14135889.72649 -10260564.22649  21712068.6744   21712069.9874   21712066.8694
       235.0004        180.0004
 -23563604.83749 -17773995.49049  20531848.8174   20531852.4844   20531848.7274
       242.0004        203.0004
  -5395191.44249     60419.08949  23954846.0494
       194.0004         74.0004
 -19257256.26049 -14986936.11249  21031186.9804   21031188.8974   21031187.3204
       241.0004        199.0004
  -9360272.55249  -7267557.76949  23243454.4104   23243454.9494   23243452.2354
       217.0004        153.0004
  -1198892.59549   -672902.64849  24218442.9824   24218447.3584   24218441.7824
       205.0004        137.0004
 11 10 12  0 50 30.0000000  0  9G26G05G16G10G08G13G07G02G28
 -13220628.13749 -10282227.52049  21960003.4744   21960006.1904   21960004.3564
       229.0004        171.0004
 -20045885.64149 -15600775.37549  20789918.9464   20789921.1134   20789919.4784
       243.0004        203.0004
   7562353.19649   5897334.91649  25578665.2544   25578667.6964   25578661.1494
       197.0004        122.0004
 -14050488.71149 -10194017.99549  21728317.4704   21728322.0874   21728317.1814
       232.0004        180.0004
 -23579352.66949 -17786266.51949  20528852.9314   20528855.3124   20528852.3924
       243.0004        202.0004
  -5297089.31349    136918.43449  23973518.6324
       189.0004        111.0004
 -19207545.20049 -14948200.21649  21040646.2904   21040648.5984   21040646.8694
       240.0004        199.0004
  -9268656.44249  -7196168.63149  23260885.0634   23260889.6164   23260886.0394
       214.0004        154.0004
  -1296666.21349   -749089.87249  24199839.1344   24199842.0184   24199838.4694
       209.0004        137.0004
 11 10 12  0 51  0.0000000  0  9G26G05G16G10G08G13G07G02G28
 -13310592.43449 -10352329.55149  21942883.5354   21942886.4934   21942883.9784
       228.0004        171.0004
 -20074667.53849 -15623202.83549  20784441.2404   20784444.1504   20784441.9594
       242.0004        203.0004
   7651686.66949   5966945.33949  25595664.8214                   25595666.5264
       192.0004        118.0004
 -13964736.62049 -10127198.20049  21744635.4684   21744639.5094   21744635.1134
       233.0004        181.0004
 -23594576.28749 -17798129.07549  20525955.4454   20525958.4994   20525955.3264
       243.0004        202.0004
  -5198901.41459    213487.67759  23992198.4614
       165.0004        111.0004
 -19157388.89349 -14909117.38649  21050190.7144   21050193.3564   21050191.5834
       240.0004        199.0004
  -9176781.31949  -7124577.65449  23278369.7984   23278372.0574   23278369.5514
       215.0004        154.0004
  -1394335.62149   -825195.86149  24181251.2664   24181256.4594   24181252.2004
       207.0004        136.0004
 11 10 12  0 51 30.0000000  0  8G26G05G16G10G08G07G02G28
 -13400296.03849 -10422228.44649  21925813.5914   21925816.3334   21925813.3354
       229.0004        172.0004
 -20102925.33249 -15645221.89749  20779064.5684   20779066.9754   20779065.0004
       243.0004        204.0004
   7741343.87049   6036808.06249  25612724.4124                   25612727.4164
       194.0004        122.0004
 -13878634.28949 -10060105.50649  21761021.6484   21761024.5324   21761019.8574
       234.0004        179.0004
 -23609275.31849 -17809582.84849  20523158.6534   20523161.0454   20523158.0874
       243.0004        203.0004
 -19106788.39049 -14869688.41549  21059819.8264   21059822.1014   21059820.2404
       241.0004        198.0004
  -9084649.89049  -7052786.96649  23295900.6194   23295903.4124   23295901.6644
       213.0004        152.0004
  -1491897.26349   -901217.90549  24162689.1944   24162691.6984   24162689.1684
       208.0004        137.0004
 11 10 12  0 52  0.0000000  0  8G26G05G16G10G08G07G02G28
 -13489738.86949 -10491924.13349  21908792.1974   21908796.3834   21908791.9094
       226.0004        171.0004
 -20130658.89449 -15666832.46349  20773786.9904   20773789.3334   20773787.3214
       242.0004        203.0004
   7831320.83249   6106919.95649  25629847.6494                   25629844.8714
       186.0004        121.0004
 -13792184.87849  -9992742.35649  21777471.9854   21777474.7484   21777470.8604
       232.0004        179.0004
 -23623450.80749 -17820628.67749  20520460.6944   20520463.8644   20520460.8914
       243.0004        203.0004
 -19055747.15349 -14829916.01449  21069532.8064   21069534.8994   21069533.0234
       240.0004        198.0004
  -8992266.58649  -6980800.00349  23313484.2124   23313484.0834   23313482.8854
       217.0004        153.0004
  -1589350.13849   -977155.20049  24144143.9714   24144146.2314   24144143.6404
       211.0004        139.0004
 11 10 12  0 52 30.0000000  0  8G26G05G16G10G08G07G02G28
 -13578918.15549 -10561414.47149  21891823.6314   21891825.5864   21891823.0524
       229.0004        173.0004
 -20157865.79249 -15688032.65049  20768609.2314   20768611.7944   20768610.2294
       243.0004        203.0004
   7921616.18949   6177279.94649  25647029.6844
       188.0004        119.0004
 -13705389.20549  -9925109.39049  21793987.8424   21793991.3974   21793988.4154
       232.0004        178.0004
 -23637102.13549 -17831266.06749  20517863.2914   20517866.2844   20517862.7474
       243.0004        202.0004
 -19004265.54549 -14789800.48049  21079329.5004   21079331.5384   21079329.4664
       240.0004        197.0004
  -8899633.80949  -6908618.64449  23331109.1814   23331109.4064   23331109.0774
       215.0004        153.0004
  -1686689.91849  -1053004.33949  24125620.8734   24125622.5954   24125618.9474
       212.0004        139.0004
 11 10 12  0 53  0.0000000  0  8G26G05G16G10G08G07G02G28
 -13667833.44949 -10630699.09949  21874902.2244   21874905.9054   21874902.8624
       228.0004        172.0004
 -20184545.01749 -15708821.66249  20763532.8714   20763535.0574   20763533.4604
       244.0004        204.0004
   8012226.69949   6247885.49449  25664275.2244                   25664274.6324
       196.0004        121.0004
 -13618249.52649  -9857208.37049  21810570.7994   21810574.0204   21810569.1624
       233.0004        179.0004
 -23650229.55249 -17841495.22249  20515364.9254   20515367.6984   20515365.0994
       243.0004        203.0004
 -18952346.02749 -14749343.71049  21089209.7334   21089211.3944   21089209.8384
       240.0004        197.0004
  -8806754.81049  -6836245.43449  23348784.0754   23348785.1814   23348783.6644
       218.0004        153.0004
  -1783914.28349  -1128763.55549  24107118.0354   24107121.1194   24107118.7664
       208.0004        139.0004
 11 10 12  0 53 30.0000000  0  8G26G05G16G10G08G07G02G28
 -13756483.18849 -10699776.79949  21858032.7144   21858036.0654   21858032.9804
       228.0004        173.0004
 -20210695.69649 -15729198.81249  20758556.5784   20758558.7914   20758556.6634
       243.0004        204.0004
   8103149.31749     58444.31449  25681575.4354
       188.0004         74.0004
 -13530767.58649  -9789040.65649  21827218.6524   21827220.8584   21827217.3274
       233.0004        178.0004
 -23662833.83349 -17851316.72149  20512966.2494   20512969.4454   20512965.8934
       243.0004        203.0004
 -18899990.95549 -14708547.54249  21099171.6514   21099174.3064   21099171.7644
       240.0004        197.0004
  -8713633.25349  -6763683.20849  23366505.5834   23366505.2844   23366505.3974
       220.0004        153.0004
  -1881020.93349  -1204431.04349  24088638.8454   24088641.2144   24088638.2574
       208.0004        138.0004
 11 10 12  0 54  0.0000000  0  8G26G05G16G10G08G07G02G28
 -13844865.79949 -10768646.35049  21841214.0194   21841217.9504   21841215.0294
       230.0004        173.0004
 -20236316.12749 -15749162.78949  20753681.2994   20753683.2514   20753681.9814
       244.0004        204.0004
   8194381.88349    129572.25949  25698935.4574
       180.0004        108.0004
 -13442945.31649  -9720607.72449  21843929.2554   21843933.4374   21843928.7664
       231.0004        178.0004
 -23674914.71649 -17860730.39049  20510668.0204   20510670.4404   20510667.4524
       243.0004        202.0004
 -18847201.67549 -14667413.04149  21109217.7564   21109219.9844   21109217.8134
       240.0004        197.0004
  -8620272.23049  -6690934.36249  23384270.5964   23384271.4424   23384269.9124
       216.0004        152.0004
  -1978006.56449  -1280004.22349  24070182.0414   24070186.1734   24070184.0624
       206.0004        138.0004
 11 10 12  0 54 30.0000000  0  8G26G05G16G10G08G07G02G28
 -13932979.80549 -10837306.59949  21824448.5434   21824450.6664   21824448.1654
       231.0004        175.0004
 -20261404.53749 -15768712.20349  20748906.7574   20748909.2594   20748907.3224
       243.0004        204.0004
   8285921.68949    200940.28949  25716354.3024
       175.0004        110.0004
 -13354783.84149  -9651910.51449  21860705.9604   21860709.8514   21860705.6254
       232.0004        179.0004
 -23686471.83149 -17869735.92449  20508467.4484   20508471.1784   20508467.3264
       242.0004        202.0004
 -18793979.98849 -14625941.59249  21119345.4134   21119347.1374   21119346.0064
       240.0004        196.0004
  -8526673.95149  -6618000.68149  23402081.0904   23402082.4154   23402081.4944
       217.0004        153.0004
  -2074868.51849  -1355481.06049  24051751.5014   24051756.6754   24051750.9314
       208.0004        138.0004
 11 10 12  0 55  0.0000000  0  8G26G05G16G10G08G07G02G28
 -14020824.52449 -10905757.00749  21807730.2994   21807733.5714   21807731.8564
       230.0004        175.0004
 -20285960.86749 -15787847.00649  20744233.6124   20744236.2514   20744234.5734
       244.0004        204.0004
   8377765.01559     53148.18959  25733833.8304
       181.0004         74.0004
 -13266285.96949  -9582951.15649  21877547.2494   21877550.6594   21877546.4574
       232.0004        178.0004
 -23697506.68649 -17878334.50749  20506369.0114   20506371.5054   20506368.4124
       243.0004        203.0004
 -18740328.47749 -14584135.21849  21129555.2384   21129557.2824   21129555.3964
       240.0004        198.0004
  -8432843.00049  -6544885.69049  23419937.5494   23419937.9274   23419937.9244
       218.0004        153.0004
  -2171605.05249  -1430860.13149  24033342.8194   24033347.4314   24033342.8504
       208.0004        137.0004
 11 10 12  0 55 30.0000000  0  8G26G05G16G10G08G07G02G28
 -14108397.96849 -10973996.05049  21791066.1584   21791068.7844   21791066.8524
       232.0004        175.0004
 -20309983.35349 -15806565.83049  20739663.1764   20739665.0304   20739663.3314
       244.0004        204.0004
   8469910.06459    124889.45559  25751368.3424
       171.0004        108.0004
 -13177453.36249  -9513730.97249  21894451.3394   21894455.5704   21894451.1384
       232.0004        179.0004
 -23708018.90249 -17886525.84049  20504367.9714   20504371.1364   20504368.3484
       243.0004        203.0004
 -18686248.84649 -14541995.24849  21139846.3784   21139848.3884   21139846.4614
       240.0004        197.0004
  -8338781.80149  -6471591.28549  23437835.6304   23437836.2234   23437835.7004
       215.0004        151.0004
  -2268212.82049  -1506138.89449  24014959.3804   24014962.3594   24014958.5834
       203.0004        137.0004
 11 10 12  0 56  0.0000000  0  8G26G05G16G10G08G07G02G28
 -14195698.08349 -11042022.09049  21774453.8134   21774456.2484   21774453.4304
       231.0004        174.0004
 -20333469.74849 -15824866.91849  20735193.2154   20735195.8614   20735193.8024
       243.0004        205.0004
   8562355.22449    196857.93949  25768960.0574
       186.0004        110.0004
 -13088286.47149  -9444250.28849  21911418.6334   21911421.8774   21911417.9814
       232.0004        177.0004
 -23718007.92849 -17894309.48349  20502466.9824   20502470.1904   20502466.6594
       243.0004        203.0004
 -18631741.79649 -14499522.21449  21150218.5084   21150220.3014   21150218.6044
       240.0004        197.0004
  -8244492.52649  -6398119.12049  23455778.3404   23455779.8464   23455778.7554
       217.0004        150.0004
  -2364687.90549  -1581314.25149  23996600.9774   23996603.9424   23996600.6974
       204.0004        137.0004
 11 10 12  0 56 30.0000000  0  8G26G05G16G10G08G07G02G28
 -14282725.45849 -11109835.61549  21757893.8274   21757894.9004   21757892.8384
       232.0004        175.0004
 -20356420.45349 -15842750.58249  20730826.0884   20730827.6254   20730826.4714
       244.0004        204.0004
   8655096.01959     47588.68959  25786607.3184
       172.0004         74.0004
 -12998789.33849  -9374512.27349  21928450.3374   21928453.1454   21928449.0104
       233.0004        177.0004
 -23727475.55049 -17901686.85049  20500665.8914   20500668.4494   20500665.6694
       243.0004        202.0004
 -18576811.15249 -14456719.11549  21160670.5264   21160673.5784   21160671.3554
       240.0004        197.0004
  -8149980.48549  -6324473.41049  23473763.9644   23473766.6434   23473763.6444
       214.0004        152.0004
  -2461029.79149  -1656385.80949  23978266.4914   23978271.0034   23978267.6344
       205.0004        138.0004
 11 10 12  0 57  0.0000000  0  8G26G05G16G10G08G07G02G28
 -14369476.97949 -11177434.18349  21741384.3564   21741386.9474   21741384.6414
       231.0004        175.0004
 -20378833.27249 -15860215.11949  20726561.0404   20726563.3384   20726561.1154
       243.0004        204.0004
   8748130.96759    120060.99859  25804309.0424
       154.0004        108.0004
 -12908962.09149  -9304517.04349  21945544.2134   21945547.2354   21945543.5674
       232.0004        179.0004
 -23736420.65749 -17908657.05449  20498963.6574   20498966.2874   20498962.9264
       243.0004        202.0004
 -18521457.71249 -14413586.56449  21171204.2954   21171206.7044   21171204.8724
       240.0004        196.0004
  -8055247.52649  -6250655.54849  23491787.7194   23491793.7674   23491789.7484
       210.0004        150.0004
  -2557233.96149  -1731350.07849  23959959.6144   23959963.6474   23959961.2704
       208.0004        138.0004
 11 10 12  0 57 30.0000000  0  8G26G05G10G08G07G02G15G28
 -14455952.06949 -11244817.36149  21724928.4534   21724930.8894   21724929.5994
       231.0004        175.0004
 -20400707.43149 -15877259.92649  20722398.5944   20722400.7314   20722399.3394
       243.0004        205.0004
 -12818807.23649  -9234266.53249  21962698.7794   21962703.2624   21962698.7914
       232.0004        179.0004
 -23744844.13649 -17915220.80749  20497361.0054   20497363.4584   20497360.9474
       244.0004        202.0004
 -18465684.06549 -14370126.57949  21181818.0364   21181820.3064   21181818.6114
       241.0004        197.0004
  -7960297.41649  -6176668.48249  23509860.2714   23509861.8074   23509859.8054
       215.0004        149.0004
    -40678.40149    -21411.43049  25253170.6814
       204.0004         74.0004
  -2653298.38849  -1806205.44349  23941680.3184   23941682.4584   23941677.0304
       207.0004        138.0004
 11 10 12  0 58  0.0000000  0  7G26G05G10G08G07G02G28
 -14542148.77249 -11311983.61849  21708526.7144   21708529.6064   21708527.4334
       232.0004        175.0004
 -20422041.35549 -15893883.76149  20718338.8884   20718341.0304   20718339.3304
       243.0004        205.0004
 -12728326.40549  -9163761.99649  21979917.9694   21979921.1694   21979917.6044
       235.0004        179.0004
 -23752746.08849 -17921378.16049  20495857.2814   20495859.6974   20495856.1484
       243.0004        202.0004
 -18409491.52049 -14326340.18049  21192511.2934   21192513.2154   21192511.8184
       241.0004        197.0004
  -7865132.62749  -6102514.12749  23527969.4434   23527969.8744   23527969.2904
       217.0004        151.0004
  -2749219.91449  -1880949.44749  23923426.3324   23923428.0604   23923425.2834
       209.0004        136.0004
 11 10 12  0 58 30.0000000  0  7G26G05G10G08G07G02G28
 -14628066.15049 -11378932.21149  21692175.7894   21692179.1524   21692176.3984
       231.0004        177.0004
 -20442834.41849 -15910086.14649  20714381.7304   20714384.0734   20714382.8884
       243.0004        205.0004
 -12637522.09249  -9093005.41549  21997197.6954   21997200.4724   21997196.6854
       233.0004        178.0004
 -23760127.01449 -17927129.52449  20494451.9014   20494455.0504   20494451.8204
       243.0004        203.0004
 -18352882.25749 -14282229.05749  21203283.5914   21203285.7174   21203284.2384
       242.0004        198.0004
  -7769756.92149  -6028195.41749  23546117.7944   23546120.1384   23546117.1944
       215.0004        150.0004
  -2844996.18649  -1955580.27949  23905201.2524   23905201.7904   23905198.4854
       210.0004        138.0004
 11 10 12  0 59  0.0000000  0  7G26G05G10G08G07G02G28
 -14713702.64749 -11445661.92849  21675880.8144   21675883.6584   21675880.0224
       231.0004        177.0004
 -20463085.00749 -15925865.83149  20710528.4154   20710530.5624   20710528.7654
       243.0004        205.0004
 -12546395.58949  -9021997.75649  22014537.7334   22014540.7824   22014537.1094
       232.0004        177.0004
 -23766986.98449 -17932474.95249  20493146.5874   20493149.8714   20493146.3404
       242.0004        203.0004
 -18295858.07649 -14237794.63349  21214134.8174   21214137.2804   21214135.3774
       241.0004        197.0004
  -7674172.86449  -5953714.39249  23564306.8784   23564308.9564   23564307.1904
       213.0004        148.0004
  -2940624.17649  -2030095.55949  23887004.0704   23887006.7254   23887002.8364
       208.0004        140.0004
 11 10 12  0 59 30.0000000  0  7G26G05G10G08G07G02G28
 -14799057.37549 -11512172.09349  21659636.8314   21659642.0554   21659637.7454
       231.0004        178.0004
 -20482792.62849 -15941222.41949  20706777.2924   20706780.7424   20706778.5134
       242.0004        205.0004
 -12454949.10949  -8950740.76649  22031939.4004   22031943.1254   22031938.3334
       232.0004        176.0004
 -23773327.24849 -17937415.41349  20491940.4114   20491943.5674   20491940.2644
       243.0004        203.0004
 -18238421.55949 -14193038.89949  21225065.2854   21225066.6294   21225065.2764
       242.0004        196.0004
  -7578384.61549  -5879074.20049  23582533.8704   23582537.6694   23582533.7974
       215.0004        147.0004
  -3036101.90749  -2104493.74449  23868832.4134   23868838.2244   23868834.0564
       204.0004        139.0004
 11 10 12  1  0  0.0000000  0  7G26G05G10G08G07G02G28
 -14884128.17749 -11578461.00949  21643449.6944   21643452.6534   21643449.5384
       232.0004        177.0004
 -20501955.37949 -15956154.43249  20703131.8354   20703133.4744   20703132.3594
       243.0004        205.0004
 -12363183.67049  -8879235.23249  22049402.6944   22049404.8074   22049400.6384
       234.0004        176.0004
 -23779147.08849 -17941950.34149  20490832.9724   20490835.7864   20490832.5604
       243.0004        202.0004
 -18180573.76349 -14147962.68849  21236072.3124   21236074.7344   21236072.8344
       241.0004        196.0004
  -7482394.33049  -5804276.60649  23600798.0894   23600802.5854   23600801.3714
       210.0004        146.0004
  -3131425.75849  -2178772.02949  23850694.1724   23850697.1974   23850693.7534
       208.0004        138.0004
 11 10 12  1  0 30.0000000  0  7G26G05G10G08G07G02G28
 -14968913.66549 -11644527.60849  21627314.5454   21627318.4884   21627314.5234
       230.0004        177.0004
 -20520572.41949 -15970661.22149  20699588.8944   20699591.1154   20699589.6104
       243.0004        205.0004
 -12271101.73849  -8807483.11049  22066926.0544   22066927.8794   22066925.0494
       233.0004        175.0004
 -23784447.13249 -17946080.23949  20489824.1224   20489826.9614   20489823.9394
       243.0004        203.0004
 -18122317.14249 -14102567.92149  21247158.4634   21247160.5834   21247159.2884
       240.0004        195.0004
  -7386205.69349  -5729324.46949  23619103.0894   23619106.5294   23619104.9994
       211.0004        146.0004
  -3226593.14049  -2252928.39349  23832584.0874   23832587.5554   23832584.8144
       208.0004        139.0004
 11 10 12  1  1  0.0000000  0  7G26G05G10G08G07G02G28
 -15053413.28749 -11710371.45849  21611234.8494   21611238.6434   21611235.0174
       231.0004        178.0004
 -20538643.10549 -15984742.27949  20696149.8944   20696152.5034   20696150.5574
       242.0004        205.0004
 -12178705.58349  -8735486.11849  22084506.4654   22084510.8334   22084506.5354
       231.0004        175.0004
 -23789228.37249 -17949805.88249  20488914.2284   20488917.6174   20488914.7154
       243.0004        203.0004
 -18063653.83849 -14056856.25349  21258321.7594   21258323.8374   21258321.9024
       241.0004        196.0004
  -7289822.02949  -5654220.34849  23637447.5054   23637447.8134   23637447.6854
       213.0004        148.0004
  -3321601.75749  -2326961.07749  23814506.0404   23814508.4424   23814504.6784
       211.0004        140.0004
 11 10 12  1  1 30.0000000  0  7G26G05G10G08G07G02G28
 -15137625.05449 -11775991.00949  21595210.6374   21595213.9964   21595210.6294
       232.0004        180.0004
 -20556165.84549 -15998396.35949  20692815.7044   20692817.9244   20692815.9754
       243.0004        205.0004
 -12085996.89049  -8663245.59749  22102148.9964   22102152.9464   22102148.4574
       232.0004        174.0004
 -23793490.72549 -17953127.18349  20488103.8704   20488106.0264   20488103.0324
       243.0004        203.0004
 -18004585.60449 -14010829.06149  21269561.7944   21269564.2764   21269562.3874
       240.0004        196.0004
  -7193246.27549  -5578966.50649  23655823.2584   23655826.3764   23655822.7744
       208.0004        143.0004
  -3416448.61349  -2400867.66649  23796456.7244   23796459.6994   23796457.1714
       214.0004        144.0004
 11 10 12  1  2  0.0000000  0  7G26G05G10G08G07G02G28
 -15221547.11749 -11841384.80149  21579239.7164   21579244.4144   21579239.8814
       230.0004        180.0004
 -20573139.40349 -16011622.50949  20689585.5274   20689587.9384   20689585.9584
       243.0004        205.0004
 -11992976.75449  -8590762.39449  22119851.3404   22119853.4314   22119849.9054
       231.0004        174.0004
 -23797234.31049 -17956044.25449  20487390.3694   20487393.7614   20487390.7894
       242.0004        203.0004
 -17945114.10449 -13964487.63249  21280879.9124   21280881.1454   21280879.7764
       241.0004        196.0004
  -7096481.15249  -5503565.17749  23674239.4154   23674238.9844   23674237.6894
       208.0004        145.0004
  -3511130.31849  -2474645.58149  23778438.4154   23778442.1474   23778439.6454
       212.0004        144.0004
 11 10 12  1  2 30.0000000  0  7G26G05G10G08G07G02G28
 -15305179.22949 -11906552.67749  21563325.0284   21563329.6074   21563325.8754
       230.0004        179.0004
 -20589563.97449 -16024420.88149  20686460.3794   20686462.6704   20686460.8264
       242.0004        206.0004
 -11899648.39849  -8518039.00549  22137610.4994   22137613.4534   22137608.2424
       230.0004        173.0004
 -23800460.79749 -17958558.39149  20486777.1674   20486779.9844   20486776.7584
       243.0004        203.0004
 -17885242.16649 -13917834.17149  21292272.4614   21292274.6274   21292272.9724
       240.0004        196.0004
  -6999530.87249  -5428019.52449  23692686.1604   23692689.6904   23692685.2974
       211.0004        146.0004
  -3605645.49049  -2548293.77149  23760452.1844   23760457.3434   23760453.6154
       212.0004        144.0004
 11 10 12  1  3  0.0000000  0  7G26G05G10G08G07G02G28
 -15388518.83649 -11971492.61449  21547466.2224   21547470.9424   21547467.3364
       233.0004        180.0004
 -20605437.19349 -16036789.62549  20683439.4664   20683442.3164   20683439.9954
       241.0004        206.0004
 -11806012.66249  -8445076.13149  22155427.0074   22155431.3954   22155427.1714
       226.0004        172.0004
 -23803169.13749 -17960668.78749  20486261.5244   20486264.1694   20486261.5564
       243.0004        203.0004
 -17824970.71149 -13870869.40249  21303741.8454   21303743.6254   21303742.1334
       240.0004        196.0004
  -6902397.54549  -5352331.25249  23711170.2614   23711172.7434   23711170.0404
       209.0004        146.0004
  -3699990.02849  -2621808.96449  23742502.7554   23742504.5704   23742501.1294
       216.0004        146.0004
 11 10 12  1  3 30.0000000  0  7G26G05G10G08G07G02G28
 -15471565.12049 -12036203.99849  21531663.9814   21531667.4134   21531663.7004
       233.0004        180.0004
 -20620758.80649 -16048728.54449  20680523.9484   20680526.7644   20680524.2614
       241.0004        206.0004
 -11712072.12649  -8371875.74649  22173303.2764   22173307.3534   22173303.9924
       227.0004        170.0004
 -23805360.16649 -17962376.06949  20485844.7234   20485847.5184   20485844.3824
       244.0004        203.0004
 -17764302.38649 -13823595.38249  21315286.7694   21315288.5074   21315287.0124
       240.0004        195.0004
  -6805084.92149  -5276503.28349  23729693.1544   23729689.4564   23729689.9724
       215.0004        144.0004
  -3794161.96249  -2695189.64949  23724581.8174   23724583.2554   23724581.2124
       216.0004        147.0004
 11 10 12  1  4  0.0000000  0  7G26G05G10G08G07G02G28
 -15554317.22449 -12100686.13749  21515916.5114   21515920.3234   21515917.0454
       234.0004        180.0004
 -20635528.08549 -16060237.07449  20677713.5764   20677715.7144   20677713.6594
       241.0004        205.0004
 -11617828.91249  -8298439.49249  22191239.1374   22191242.1364   22191237.8374
       231.0004        172.0004
 -23807035.22549 -17963681.30549  20485525.8244   20485528.7404   20485525.8974
       244.0004        203.0004
 -17703239.60349 -13776013.99049  21326906.1774   21326908.0564   21326906.9804
       240.0004        195.0004
  -6707596.80849  -5200538.52349  23748240.5684   23748240.7534   23748240.3684
       212.0004        147.0004
  -3888159.25149  -2768434.24849  23706695.2804   23706696.0394   23706694.6844
       217.0004        145.0004
 11 10 12  1  4 30.0000000  0  7G26G05G10G08G07G02G28
 -15636773.00549 -12164937.37649  21500225.3824   21500229.1014   21500225.7134
       233.0004        182.0004
 -20649743.59449 -16071314.09649  20675007.9034   20675010.7134   20675008.9764
       242.0004        206.0004
 -11523284.26949  -8224768.36549  22209229.7104   22209233.6354   22209228.7964
       228.0004        171.0004
 -23808194.20349 -17964584.39549  20485305.3814   20485308.3474   20485304.9734
       244.0004        203.0004
 -17641783.74049 -13728126.30349  21338601.3254   21338603.5494   21338601.0674
       240.0004        195.0004
  -6609935.49149  -5124438.82849  23766824.7284   23766826.7764   23766825.3764
       212.0004        147.0004
  -3981978.32149  -2841539.99449  23688840.2434   23688843.4514   23688840.6104
       215.0004        147.0004
 11 10 12  1  5  0.0000000  0  7G26G05G10G08G07G02G28
 -15718931.30149 -12228956.81949  21484593.2974   21484595.0884   21484592.3954
       236.0004        182.0004
 -20663404.57649 -16081959.03049  20672409.6234   20672411.6634   20672409.7864
       242.0004        206.0004
 -11428440.71349  -8150864.31949  22227276.7874   22227281.2614   22227276.9184
       227.0004        171.0004
 -23808838.13049 -17965086.15749  20485183.1784   20485185.9254   20485182.8774
       243.0004        203.0004
 -17579937.14049 -13679934.15749  21350369.2284   21350372.3604   21350369.9644
       238.0004        194.0004
  -6512104.45649  -5048206.91049  23785443.0734   23785441.7024   23785442.2154
       214.0004        146.0004
  -4075616.56549  -2914504.83049  23671020.6994   23671024.9024   23671020.7124
       212.0004        147.0004
 11 10 12  1  5 30.0000000  0  7G26G05G10G08G07G02G28
 -15800790.59849 -12292743.27249  21469014.0444   21469016.8924   21469014.3834
       235.0004        182.0004
 -20676509.99149 -16092171.03849  20669914.3254   20669917.4644   20669914.8164
       242.0004        206.0004
 -11333299.55249  -8076728.38349  22245383.3254   22245386.4284   22245381.4824
       230.0004        173.0004
 -23808966.94549 -17965186.52149  20485158.1424   20485161.5534   20485158.2204
       243.0004        204.0004
 -17517701.84349 -13631439.12449  21362212.4674   21362215.0614   21362213.4754
       238.0004        194.0004
  -6414106.68049  -4971845.01249  23804088.1544   23804092.4944   23804090.6244
       210.0004        147.0004
  -4169071.15749  -2987326.52849  23653238.8674   23653240.0514   23653238.2834
       212.0004        147.0004
 11 10 12  1  6  0.0000000  0  7G26G05G10G08G07G02G28
 -15882349.66849 -12356295.77549  21453494.3284   21453496.4724   21453494.0354
       235.0004        181.0004
 -20689058.94749 -16101949.44949  20667527.2744   20667529.2754   20667527.7094
       241.0004        206.0004
 -11237862.99949  -8002362.24649  22263543.7104   22263547.3254   22263543.0964
       229.0004        172.0004
 -23808581.12349 -17964885.86949  20485232.4014   20485234.6344   20485231.8424
       244.0004        203.0004
 -17455079.40049 -13582642.42649  21374129.7934   21374132.3184   21374130.5384
       238.0004        195.0004
  -6315945.47449  -4895355.79449  23822771.2734   23822771.5874   23822769.9924
       217.0004        148.0004
  -4262339.38249  -3060003.03549  23635489.8054   23635492.4154   23635488.9544
       214.0004        147.0004
 11 10 12  1  6 30.0000000  0  7G26G05G10G08G07G02G28
 -15963607.00649 -12419613.16949  21438031.7914   21438034.4904   21438032.1164
       236.0004        182.0004
 -20701050.77449 -16111293.73549  20665244.8004   20665247.6394   20665245.3274
       242.0004        206.0004
 -11142133.30349  -7927767.71249  22281759.5914   22281763.9294   22281758.4744
       228.0004        171.0004
 -23807681.74749 -17964185.05149  20485402.3754   20485405.6094   20485402.2914
       243.0004        203.0004
 -17392072.04249 -13533545.79349  21386119.7424   21386122.0224   21386120.0524
       239.0004        195.0004
  -6217623.82849  -4818741.57749  23841481.3334   23841480.0334   23841479.5774
       214.0004        144.0004
  -4355418.62849  -3132532.30249  23617777.1754   23617779.7194   23617776.3954
       212.0004        147.0004
 11 10 12  1  7  0.0000000  0  7G26G05G10G08G07G02G28
 -16044561.21649 -12482694.36449  21422626.2854   21422629.1764   21422626.7844
       234.0004        181.0004
 -20712484.62449 -16120203.23249  20663069.2194   20663071.8684   20663069.4354
       242.0004        206.0004
 -11046112.24549  -7852946.13349  22300031.5274   22300036.1564   22300030.8164
       228.0004        172.0004
 -23806269.26949 -17963084.41749  20485671.8374   20485674.5484   20485671.3364
       243.0004        203.0004
 -17328681.77049 -13484150.77649  21398182.9914   21398184.4884   21398182.9674
       240.0004        194.0004
  -6119145.17649  -4742004.95449  23860220.4004   23860221.7204   23860219.9544
       214.0004        147.0004
  -4448306.06049  -3204912.07449  23600099.8974   23600103.5804   23600100.5514
       211.0004        146.0004
 11 10 12  1  7 30.0000000  0  7G26G05G10G08G07G02G28
 -16125210.99149 -12545538.32449  21407279.7474   21407281.6944   21407279.8034
       236.0004        181.0004
 -20723359.47949 -16128677.15349  20661000.3684   20661002.1374   20661000.7054
       243.0004        207.0004
 -10949801.78149  -7777899.04849  22318359.5314   22318363.3824   22318359.1684
       229.0004        172.0004
 -23804344.21949 -17961584.37449  20486037.5034   20486040.9194   20486037.5294
       243.0004        202.0004
 -17264910.74449 -13434459.07049  21410317.3644   21410319.8734   21410317.8494
       239.0004        195.0004
  -6020512.76249  -4665148.55549  23878988.5724   23878989.4174   23878987.4624
       213.0004        143.0004
  -4540999.26649  -3277140.51849  23582460.4454   23582464.8874   23582461.0054
       215.0004        146.0004
 11 10 12  1  8  0.0000000  0  8G26G05G10G08G07G02G15G28
 -16205554.89649 -12608143.95749  21391990.3614   21391992.5494   21391990.2644
       235.0004        181.0004
 -20733674.31849 -16136714.69749  20659036.6674   20659039.4634   20659037.4514
       242.0004        206.0004
 -10853203.57049  -7702627.73949  22336743.0154   22336745.1674   22336740.1904
       230.0004        172.0004
 -23801906.95249 -17959685.19549  20486501.8894   20486504.8674   20486501.7274
       243.0004        203.0004
 -17200760.57149 -13384471.92749  21422524.8384   21422527.2794   21422525.6234
       239.0004        195.0004
  -5921728.95449  -4588174.20949  23897786.7934   23897790.1784   23897786.8344
       208.0004        141.0004
    -64712.58449    -36687.04849  24856330.1224
       205.0004         74.0004
  -4633495.10049  -3349215.17849  23564862.1844   23564864.0424   23564860.6154
       214.0004        148.0004
 11 10 12  1  8 30.0000000  0  7G26G05G10G08G07G02G28
 -16285591.73849 -12670510.30849  21376760.2974   21376762.4804   21376760.2324
       235.0004        182.0004
 -20743428.99549 -16144315.74849  20657180.9014   20657183.4564   20657181.2134
       242.0004        206.0004
 -10756320.28349  -7627134.29749  22355178.8334   22355182.0124   22355177.8104
       231.0004        173.0004
 -23798958.69049 -17957387.83849  20487063.2614   20487065.9154   20487062.5094
       244.0004        203.0004
 -17136234.62149 -13334191.96449  21434804.1294   21434805.6884   21434804.3194
       239.0004        193.0004
  -5822798.21149  -4511085.32149  23916614.7404   23916614.4684   23916613.1934
       214.0004        146.0004
  -4725791.49849  -3421134.37349  23547297.2494   23547300.1714   23547295.8774
       213.0004        148.0004
 11 10 12  1  9  0.0000000  0  8G26G05G10G08G07G02G15G28
 -16365319.28049 -12732635.64949  21361587.0324   21361590.8044   21361587.7914
       234.0004        181.0004
 -20752621.87749 -16151479.03149  20655430.8304   20655433.9964   20655431.4134
       241.0004        206.0004
 -10659152.87749  -7551419.46749  22373666.7364   22373671.3184   22373666.7874
       228.0004        172.0004
 -23795499.01949 -17954691.98649  20487720.8874   20487723.9334   20487720.8194
       243.0004        203.0004
 -17071333.02949 -13283619.29949  21447153.9894   21447156.3464   21447154.4514
       240.0004        194.0004
  -5723722.31849  -4433883.39049  23935465.9934   23935466.8764   23935467.0114
       212.0004        143.0004
   -262498.93149   -190806.61749  24818694.6604   24818693.9374
       205.0004        136.0004
  -4817884.54549  -3492895.15549  23529773.0354   23529776.2984   23529770.9654
       215.0004        147.0004
 11 10 12  1  9 30.0000000  0  8G26G05G10G08G07G02G15G28
 -16444737.36949 -12794519.86449  21346475.9014   21346478.1694   21346475.2864
       235.0004        182.0004
 -20761253.15849 -16158204.70949  20653789.3834   20653791.4824   20653789.7144
       243.0004        207.0004
 -10561704.57149  -7475485.74449  22392213.0104   22392215.9064   22392212.6204
       232.0004        170.0004
 -23791529.74949 -17951599.04349  20488476.6264   20488479.0794   20488476.0534
       243.0004        203.0004
 -17006059.30949 -13232756.66149  21459575.5184   21459577.5574   21459575.7454
       240.0004        194.0004
  -5624505.93749  -4356571.90949  23954347.4884   23954348.7184   23954346.9804
       210.0004        143.0004
   -361328.63649   -267816.72349  24799889.5254   24799887.9664   24799885.8114
       202.0004        135.0004
  -4909773.04549  -3564496.55949  23512285.9964   23512288.8684   23512286.7394
       213.0004        147.0004
 11 10 12  1 10  0.0000000  0  8G26G05G10G08G07G02G15G28
 -16523844.09049 -12856161.44949  21331421.5114   21331424.3504   21331421.6774
       235.0004        183.0004
 -20769321.69249 -16164491.88849  20652253.5404   20652256.0504   20652253.9524
       241.0004        206.0004
 -10463976.84149  -7399334.29649  22410810.6614   22410813.0754   22410808.5614
       230.0004        170.0004
 -23787051.07249 -17948109.15849  20489328.6544   20489331.7394   20489328.6104
       244.0004        203.0004
 -16940414.70649 -13181605.02749  21472066.7244   21472069.2864   21472067.4994
       239.0004        194.0004
  -5525151.40549  -4279152.83149  23973250.6534   23973254.5554   23973251.5864
       205.0004        140.0004
   -460114.63649   -344792.76649  24781088.1904   24781090.5014   24781087.6884
       203.0004        136.0004
  -5001453.54549  -3635935.89049  23494839.4414   23494843.8684   23494840.8044
       214.0004        149.0004
 11 10 12  1 10 30.0000000  0  8G26G05G10G08G07G02G15G28
 -16602637.88549 -12917559.19649  21316427.6734   21316430.4764   21316427.1414
       234.0004        182.0004
 -20776826.72249 -16170339.96449  20650824.6344   20650827.7524   20650825.4124
       242.0004        206.0004
 -10365971.50249  -7322966.52649  22429459.5104   22429461.9554   22429458.5344
       228.0004        170.0004
 -23782063.79649 -17944222.96849  20490277.8364   20490280.8304   20490277.2734
       244.0004        202.0004
 -16874401.69749 -13130166.32349  21484628.7504   21484631.1674   21484629.5464
       239.0004        194.0004
  -5425661.78849  -4201628.49149  23992186.3684   23992187.8464   23992186.8614
       213.0004        145.0004
   -558856.05349   -421734.14049  24762298.0704   24762298.2654   24762301.1504
       206.0004        136.0004
  -5092923.59649  -3707211.23849  23477433.8774   23477436.7644   23477433.3714
       212.0004        145.0004
 11 10 12  1 11  0.0000000  0  8G26G05G10G08G07G02G15G28
 -16681117.09149 -12978711.81249  21301493.3654   21301496.4934   21301493.1244
       235.0004        183.0004
 -20783766.75149 -16175747.79449  20649505.0114   20649507.0354   20649505.6384
       242.0004        206.0004
 -10267690.43049  -7246383.87549  22448160.1204   22448165.5554   22448160.3154
       227.0004        170.0004
 -23776568.29149 -17939940.75649  20491323.2444   20491326.2944   20491323.4974
       243.0004        202.0004
 -16808021.88249 -13078441.79449  21497260.3724   21497262.9214   21497261.1154
       239.0004        193.0004
  -5326039.72449  -4124000.95749  24011144.4564   24011143.6634   24011143.5854
       213.0004        139.0004
   -657551.76749   -498639.84549  24743517.2784   24743518.2284   24743518.6214
       207.0004        137.0004
  -5184179.65249  -3778319.79949  23460068.6054   23460071.9604   23460067.9864
       213.0004        148.0004
 11 10 12  1 11 30.0000000  0  8G26G05G10G08G07G02G15G28
 -16759280.99349 -13039618.73649  21286618.4954   21286622.9594   21286618.3274
       233.0004        183.0004
 -20790142.29549 -16180715.74849  20648290.7224   20648293.7814   20648291.5914
       240.0004        206.0004
 -10169136.24649  -7169588.44849  22466915.4254   22466919.3134   22466914.7974
       229.0004        170.0004
 -23770566.14949 -17935263.75549  20492466.0974   20492468.5484   20492465.4464
       243.0004        203.0004
 -16741277.83849 -13026433.45249  21509961.6184   21509963.7554   21509961.9554
       239.0004        193.0004
  -5226289.67049  -4046273.64849  24030124.8054   24030125.4104   24030124.4474
       208.0004        138.0004
   -756201.33349   -575509.57549  24724743.6544   24724746.2774   24724746.4314
       204.0004        138.0004
  -5275220.24549  -3849260.49849  23442744.9164   23442747.5744   23442744.4974
       215.0004        149.0004
 11 10 12  1 12  0.0000000  0  8G26G05G10G08G07G02G15G28
 -16837127.89549 -13100278.64349  21271804.9724   21271808.9624   21271806.0894
       235.0004        184.0004
 -20795952.14249 -16185242.90349  20647185.5684   20647188.3944   20647185.8264
       241.0004        206.0004
 -10070310.25849  -7092581.21049  22485723.3194   22485724.5224   22485722.2004
       229.0004        168.0004
 -23764057.31649 -17930191.93649  20493703.9724   20493706.8484   20493704.0814
       244.0004        202.0004
 -16674171.34349 -12974142.68049  21522731.8944   21522733.7074   21522732.2234
       239.0004        192.0004
  -5126413.72649  -3968448.24049  24049130.8264   24049134.1104   24049131.3674
       213.0004        143.0004
   -854804.14149   -652342.86149  24705979.6734   24705982.7594   24705983.5594
       207.0004        136.0004
  -5366042.03649  -3920030.72349  23425461.0914   23425463.9574   23425461.1154
       215.0004        148.0004
 11 10 12  1 12 30.0000000  0  8G26G05G10G08G07G02G15G28
 -16914656.67849 -13160690.66949  21257052.7684   21257055.6734   21257052.6134
       235.0004        185.0004
 -20801195.94149 -16189328.99849  20646188.9644   20646190.5814   20646189.2564
       242.0004        206.0004
  -9971215.32249  -7015364.39449  22504579.7094   22504582.9754   22504578.7424
       227.0004        169.0004
 -23757042.92549 -17924726.16749  20495039.1964   20495041.9654   20495039.1004
       244.0004        203.0004
 -16606704.87249 -12921571.41349  21535570.3274   21535572.6134   21535570.4304
       238.0004        192.0004
  -5026415.60749  -3890527.65649  24068162.2044   24068159.5874   24068160.8034
       208.0004        139.0004
   -953359.19349   -729139.02849  24687227.8964   24687228.1154   24687225.6614
       205.0004        139.0004
  -5456642.69049  -3990628.60149  23408219.5674   23408223.8614   23408221.0434
       214.0004        151.0004
 11 10 12  1 13  0.0000000  0  8G26G05G10G08G07G02G15G28
 -16991864.86449 -13220852.87749  21242360.4494   21242363.7894   21242360.6254
       235.0004        185.0004
 -20805872.31949 -16192972.92149  20645297.0494   20645300.7954   20645297.9064
       240.0004        206.0004
  -9871852.26349  -6937938.66249  22523487.6634   22523491.4154   22523486.0624
       227.0004        170.0004
 -23749522.82449 -17918866.34849  20496470.3104   20496472.9504   20496470.2424
       245.0004        203.0004
 -16538879.26749 -12868720.29849  21548477.0604   21548479.1214   21548477.4514
       239.0004        192.0004
  -4926297.83349  -3812513.89149  24087212.0994   24087212.3394   24087209.2304
       204.0004        137.0004
  -1051864.68549   -805896.51749  24668482.3584   24668482.8934   24668480.8824
       202.0004        135.0004
  -5547018.60049  -4061051.36349  23391022.0664   23391025.1504   23391022.9954
       215.0004        151.0004
 11 10 12  1 13 30.0000000  0  8G26G05G10G08G07G02G15G28
 -17068751.64249 -13280764.63949  21227730.0664   21227732.2004   21227729.4814
       236.0004        185.0004
 -20809980.71249 -16196174.27249  20644515.9134   20644518.8024   20644516.4504
       240.0004        206.0004
  -9772223.27449  -6860305.70949  22542445.7904   22542449.3244   22542445.4234
       227.0004        167.0004
 -23741498.32749 -17912613.48449  20497997.7974   20497999.5334   20497996.9444
       245.0004        203.0004
 -16470696.99449 -12815591.25549  21561451.6934   21561453.8204   21561451.9804
       238.0004        192.0004
  -4826063.61049  -3734409.29949  24106285.3194   24106287.3814   24106285.1204
       210.0004        141.0004
  -1150319.90849   -882614.79349  24649745.6194   24649747.6974   24649745.9624
       205.0004        137.0004
  -5637167.22149  -4131296.99649  23373867.4104   23373870.5364   23373866.2714
       217.0004        148.0004
 11 10 12  1 14  0.0000000  0  8G26G05G10G08G07G02G15G28
 -17145316.96749 -13340425.91749  21213159.7794   21213162.4984   21213159.5014
       236.0004        185.0004
 -20813522.14849 -16198933.83849  20643842.3684   20643844.8114   20643842.9914
       242.0004        206.0004
  -9672331.81549  -6782468.22749  22561454.7014   22561457.8584   22561453.7864
       225.0004        166.0004
 -23732971.40649 -17905969.13249  20499619.6334   20499622.6744   20499619.5794
       244.0004        203.0004
 -16402161.67749 -12762187.11649  21574493.3414   21574495.4074   21574494.1484
       238.0004        192.0004
  -4725717.67649  -3656217.66649  24125381.8874   24125378.7454   24125380.6374
       206.0004        137.0004
  -1248725.38549   -959294.35149  24631021.1434   24631022.0064   24631021.7334
       209.0004        141.0004
  -5727087.62349  -4201364.84149  23356757.7414   23356758.7124   23356755.5144
       219.0004        152.0004
 11 10 12  1 14 30.0000000  0  8G26G05G10G08G07G02G15G28
 -17221557.57049 -13399834.15849  21198651.1464   21198654.7274   21198651.4004
       236.0004        186.0004
 -20816494.38349 -16201249.87449  20643277.0924   20643279.1864   20643277.3894
       242.0004        206.0004
  -9572178.34249  -6704426.59249  22580513.5544   22580516.3824   22580512.7274
       227.0004        165.0004
 -23723941.06649 -17898932.49649  20501338.8874   20501340.8034   20501338.4004
       245.0004        203.0004
 -16333273.51949 -12708508.03149  21587602.8014   21587604.0924   21587602.9324
       239.0004        190.0004
  -4625261.12349  -3577939.87249  24144496.1124   24144500.8104   24144492.9924
       202.0004        138.0004
  -1347078.87349  -1035933.38949  24612305.5224   24612306.5254   24612305.3574
       210.0004        139.0004
  -5816775.28449  -4271251.30549  23339688.9354   23339693.3844   23339688.3264
       216.0004        152.0004
 11 10 12  1 15  0.0000000  0  8G26G05G10G08G07G02G15G28
 -17297472.68349 -13458988.78349  21184205.3294   21184207.5854   21184205.5264
       237.0004        187.0004
 -20818897.13549 -16203122.15549  20642819.1804   20642821.8964   20642820.3314
       241.0004        206.0004
  -9471765.43849  -6626182.78949  22599621.1134   22599625.1674   22599620.8284
       224.0004        164.0004
 -23714408.65349 -17891504.64249  20503151.7204   20503154.8264   20503151.5834
       244.0004        203.0004
 -16264035.05849 -12654555.99549  21600777.6604   21600780.0514   21600778.4374
       236.0004        189.0004
  -4524697.81449  -3499578.92549  24163633.5074   24163635.1624   24163632.5934
       208.0004        142.0004
  -1445379.86449  -1112531.55849  24593597.5024   24593599.1014   24593598.8744
       204.0004        135.0004
  -5906228.19949  -4340954.82249  23322666.2014   23322670.3294   23322667.0764
       216.0004        153.0004
 11 10 12  1 15 30.0000000  0  8G26G05G10G08G07G02G15G28
 -17373061.49649 -13517889.14249  21169820.8644   21169823.2444   21169821.4954
       237.0004        186.0004
 -20820730.48349 -16204550.73349  20642471.1154   20642473.3954   20642471.0394
       242.0004        206.0004
  -9371095.68249  -6547738.86349  22618776.9884   22618781.6114   22618776.9954
       224.0004        164.0004
 -23704375.47749 -17883686.57849  20505061.2704   20505064.4494   20505061.1794
       244.0004        203.0004
 -16194448.84749 -12600333.00149  21614020.0494   21614021.9264   21614019.9744
       237.0004        189.0004
  -4424031.13549  -3421137.39749  24182790.2614   24182790.6544   24182789.0654
       209.0004        139.0004
  -1543627.58149  -1189088.12549  24574904.5824   24574903.0704   24574902.6044
       213.0004        143.0004
  -5995443.89349  -4410473.52149  23305690.3584   23305692.3344   23305690.2134
       218.0004        153.0004
 11 10 12  1 16  0.0000000  0  8G26G05G10G08G07G02G15G28
 -17448321.56549 -13576533.33649  21155498.9874   21155502.6594   21155500.0594
       235.0004        186.0004
 -20821993.08949 -16205534.59049  20642231.0554   20642233.2304   20642231.4744
       242.0004        207.0004
  -9270170.36249  -6469095.76549  22637984.4994   22637986.6514   22637983.1924
       226.0004        163.0004
 -23693841.78649 -17875478.50649  20507066.2964   20507068.2524   20507065.6634
       245.0004        203.0004
 -16124516.15049 -12545839.99749  21627327.9604   21627330.1354   21627328.2994
       239.0004        191.0004
  -4323263.18949  -3342616.92849  24201969.7094   24201962.4864   24201969.0484
       210.0004        132.0004
  -1641820.74949  -1265602.23549  24556215.9064   24556217.8654   24556218.0154
       211.0004        142.0004
  -6084419.19849  -4479804.89549  23288759.9424   23288761.7614   23288757.8074
       219.0004        152.0004
 11 10 12  1 16 30.0000000  0  8G26G05G10G08G07G02G15G28
 -17523252.37949 -13634920.97149  21141240.1474   21141242.8324   21141240.2694
       236.0004        185.0004
 -20822685.28349 -16206073.96149  20642098.2714   20642100.9374   20642098.9014
       241.0004        206.0004
  -9168991.99149  -6390255.49649  22657239.1464   22657239.6094   22657236.9654
       227.0004        164.0004
 -23682809.14749 -17866881.63749  20509165.7284   20509168.1814   20509165.0524
       245.0004        203.0004
 -16054240.07649 -12491079.43949  21640700.9564   21640702.2774   21640701.3914
       237.0004        190.0004
  -4222398.08849  -3264020.73549  24221159.7614   24221161.0354   24221159.2924
       206.0004        136.0004
  -1739959.21549  -1342073.73749  24537541.6544   24537542.0564   24537541.9244
       206.0004        138.0004
  -6173152.16649  -4548947.41649  23271872.8854   23271875.4824   23271872.5914
       219.0004        154.0004
 11 10 12  1 17  0.0000000  0  8G26G05G10G08G07G02G15G28
 -17597852.35449 -13693050.81349  21127043.7444   21127046.6414   21127044.9094
       235.0004        186.0004
 -20822806.22949 -16206168.20749  20642076.0424   20642078.2944   20642076.2334
       242.0004        206.0004
  -9067562.17449  -6311219.29549  22676538.3544   22676542.3904   22676538.2994
       226.0004        166.0004
 -23671277.86349 -17857896.22649  20511359.1944   20511362.2974   20511359.3434
       244.0004        203.0004
 -15983621.83849 -12436052.23549  21654139.2894   21654140.6944   21654139.3174
       237.0004        189.0004
  -4121439.39749  -3185351.72449  24240370.7274   24240373.9714   24240371.6944
       214.0004        149.0004
  -1838041.33849  -1418501.35249  24518876.0754   24518878.7034   24518878.0274
       209.0004        140.0004
  -6261639.40349  -4617898.47849  23255033.4124   23255037.4744   23255033.6504
       216.0004        152.0004
 11 10 12  1 17 30.0000000  0  8G26G05G10G08G07G02G15G28
 -17672119.18249 -13750921.05049  21112911.6824   21112914.6104   21112911.2444
       236.0004        185.0004
 -20822354.78549 -16205816.44049  20642162.9304   20642163.8184   20642162.9424
       242.0004        206.0004
  -8965882.80049  -6231988.63449  22695887.2994   22695890.8544   22695887.3404
       225.0004        164.0004
 -23659248.30449 -17848522.53449  20513648.7604   20513651.3254   20513648.1404
       244.0004        203.0004
 -15912663.17249 -12380759.77849  21667642.2694   21667643.8364   21667642.6564
       238.0004        190.0004
  -4020389.09249  -3106611.28149  24259601.2884   24259602.8664   24259602.6464
       204.0004        138.0004
  -1936065.80049  -1494883.99149  24500223.2834   24500223.5304   24500223.0294
       210.0004        143.0004
  -6349878.22349  -4686655.95349  23238242.5714   23238245.6124   23238241.8294
       218.0004        153.0004
 11 10 12  1 18  0.0000000  0  8G26G05G10G08G07G02G15G28
 -17746053.52049 -13808532.22349  21098842.3524   21098845.5894   21098842.6464
       236.0004        186.0004
 -20821332.37949 -16205019.75949  20642355.2224   20642358.5484   20642356.1414
       241.0004        205.0004
  -8863957.46649  -6152566.32149  22715283.4024   22715286.7734   22715282.3364
       224.0004        162.0004
 -23646723.18549 -17838762.70649  20516033.1124   20516035.2844   20516032.6054
       245.0004        204.0004
 -15841368.14849 -12325205.21549  21681209.4964   21681211.1174   21681209.1424
       238.0004        191.0004
  -3919251.56049  -3027802.81849  24278849.0514   24278839.9234   24278846.7884
       198.0004        120.0004
  -2034033.27249  -1571222.18949  24481579.4784   24481583.0964   24481580.5814
       205.0004        143.0004
  -6437867.42549  -4755218.92749  23221499.9394   23221501.7934   23221499.8864
       218.0004        153.0004
 11 10 12  1 18 30.0000000  0  8G26G05G10G08G07G02G15G28
 -17819651.79349 -13865881.51249  21084837.2174   21084840.6434   21084837.4094
       237.0004        188.0004
 -20819736.45649 -16203776.19149  20642660.6584   20642662.5714   20642660.7424
       241.0004        206.0004
  -8761786.11249  -6072952.29549  22734727.1234   22734730.4104   22734726.1064
       226.0004        165.0004
 -23633701.25749 -17828615.74049  20518510.6754   20518512.7454   20518510.1364
       245.0004        203.0004
 -15769736.28849 -12269388.19149  21694839.8164   21694842.5974   21694840.1774
       238.0004        190.0004
  -3818028.08749  -2948927.32449  24298108.3404   24298111.6064   24298108.7154
       214.0004        145.0004
  -2131941.07949  -1647513.95749  24462948.6394   24462950.4164   24462951.2674
       208.0004        136.0004
  -6525602.33649  -4823583.74149  23204802.9154   23204806.8884   23204802.5344
       216.0004        154.0004
 11 10 12  1 19  0.0000000  0  8G26G05G10G08G07G02G15G28
 -17892913.41649 -13922968.49349  21070896.1004   21070899.3834   21070897.1164
       238.0004        188.0004
 -20817567.42849 -16202086.04149  20643072.6904   20643075.5764   20643073.3714
       241.0004        206.0004
  -8659371.62249  -5993148.82949  22754215.9004   22754218.3784   22754215.2784
       225.0004        164.0004
 -23620184.30949 -17818083.04949  20521082.8834   20521085.3054   20521082.7504
       246.0004        204.0004
 -15697770.71649 -12213311.13249  21708534.8664   21708536.7024   21708534.9334
       237.0004        189.0004
  -3716722.66449  -2869988.07049  24317386.2854   24317389.2474   24317387.2534
       211.0004        151.0004
  -2229788.91849  -1723759.00849  24444328.6964   24444330.2694   24444329.8204
       209.0004        141.0004
  -6613081.24449  -4891749.09349  23188157.1794   23188160.7024   23188156.4694
       219.0004        155.0004
 11 10 12  1 19 30.0000000  0  8G26G05G10G08G07G02G15G28
 -17965837.53949 -13979792.47149  21057019.7604   21057022.6874   21057019.4544
       239.0004        188.0004
 -20814825.67749 -16199949.61949  20643594.5624   20643596.9104   20643594.7294
       240.0004        206.0004
  -8556716.54949  -5913157.86749  22773750.1434   22773751.9064   22773749.2404
       226.0004        165.0004
 -23606173.82649 -17807165.78449  20523748.4584   20523751.0844   20523748.0854
       244.0004        203.0004
 -15625473.94749 -12156975.99049  21722292.3314   21722294.5434   21722292.3444
       238.0004        190.0004
  -3615339.17349  -2790988.04649  24336672.3124   24336683.4304   24336675.8444
       184.0004        130.0004
  -2327576.47249  -1799957.03949  24425721.3554   24425722.6304   24425722.3584
       208.0004        143.0004
  -6700301.45149  -4959712.84049  23171560.8294   23171562.2644   23171559.5064
       219.0004        154.0004
 11 10 12  1 20  0.0000000  0  8G26G05G10G08G07G02G15G28
 -18038422.28849 -14036352.01349  21043206.9634   21043209.5334   21043207.5434
       239.0004        189.0004
 -20811510.21649 -16197366.14149  20644225.0434   20644227.8054   20644225.6474
       241.0004        205.0004
  -8453822.68749  -5832980.85249  22793330.0914   22793333.3474   22793327.5114
       226.0004        164.0004
 -23591670.20549 -17795864.25649  20526508.3984   20526511.1784   20526508.3344
       245.0004        203.0004
 -15552847.61349 -12100384.04649  21736112.3324   21736114.5264   21736113.1624
       237.0004        190.0004
  -3513879.73849  -2711928.85749  24355987.5264   24355980.6824   24355986.8464
       210.0004        127.0004
  -2425302.14749  -1876106.84349  24407124.0974   24407125.5734   24407123.4874
       207.0004        141.0004
  -6787260.56849  -5027473.13449  23155012.1174   23155014.8134   23155011.3944
       217.0004        154.0004
 11 10 12  1 20 30.0000000  0  8G26G05G10G08G07G02G15G28
 -18110666.12049 -14092645.89249  21029459.2844   21029462.1114   21029459.2074
       238.0004        189.0004
 -20807620.58649 -16194335.26549  20644965.4954   20644968.1044   20644965.9214
       241.0004        206.0004
  -8350691.86149  -5752619.18949  22812954.9044   22812958.5934   22812953.6804
       225.0004        165.0004
 -23576674.77449 -17784179.50849  20529361.8744   20529364.8444   20529361.9774
       244.0004        203.0004
 -15479893.77149 -12043536.90249  21749995.9284   21749997.5024   21749995.7384
       239.0004        190.0004
  -3412347.68049  -2632812.73849  24375308.1174   24375310.9974   24375307.8884
       214.0004        145.0004
  -2522965.13249  -1952207.81249  24388540.6754   24388540.5544   24388540.4584
       207.0004        137.0004
  -6873956.12949  -5095028.06449  23138513.2244   23138517.3574   23138513.9854
       216.0004        153.0004
 11 10 12  1 21  0.0000000  0  8G26G05G10G08G07G02G15G28
 -18182568.42349 -14148673.66249  21015775.9064   21015779.3584   21015776.3004
       237.0004        188.0004
 -20803156.92149 -16190857.10249  20645815.6754   20645817.1404   20645816.0624
       242.0004        206.0004
  -8247326.91149  -5672075.09249  22832625.2894   22832627.4704   22832624.0554
       227.0004        163.0004
 -23561188.56149 -17772112.31949  20532309.3244   20532311.9474   20532308.5254
       245.0004        203.0004
 -15406614.92249 -11986436.50649  21763939.8484   21763942.4364   21763940.0874
       239.0004        190.0004
  -3310746.33149  -2553642.93449  24394639.1414   24394646.8554   24394640.3344
       195.0004        141.0004
  -2620564.61449  -2028259.34649  24369966.2614   24369966.3664   24369967.9434
       208.0004        140.0004
  -6960385.59949  -5162375.66649  23122065.7534   23122069.9294   23122065.7984
       215.0004        154.0004
 11 10 12  1 21 30.0000000  0  8G26G05G10G08G07G02G15G28
 -18254127.19649 -14204433.73549  21002160.1294   21002162.2354   21002160.1034
       239.0004        188.0004
 -20798118.67349 -16186931.19349  20646772.8184   20646776.1954   20646773.9314
       240.0004        205.0004
  -8143729.44549  -5591349.83249  22852339.7634   22852341.9434   22852337.5384
       226.0004        163.0004
 -23545212.29649 -17759663.28549  20535349.1564   20535351.8214   20535349.0334
       245.0004        203.0004
 -15333012.63349 -11929084.08249  21777946.0424   21777948.0374   21777946.3324
       239.0004        190.0004
  -3209078.27649  -2474421.26749  24413987.3704   24413989.3554   24413986.9094
       201.0004        137.0004
  -2718099.48849  -2104260.48549  24351407.3784   24351410.2684   24351408.0334
       211.0004        146.0004
  -7046545.78449  -5229513.41549  23105671.2464   23105674.1794   23105670.9104
       218.0004        155.0004
 11 10 12  1 22  0.0000000  0  8G26G05G10G08G07G02G15G28
 -18325340.79149 -14259924.84649  20988607.5534   20988610.4014   20988608.6614
       238.0004        188.0004
 -20792505.47949 -16182557.28549  20647841.1634   20647844.3664   20647842.1844
       240.0004        205.0004
  -8039901.17349  -5510444.69049  22872094.5884   22872099.8104   22872095.2274
       222.0004        161.0004
 -23528746.86649 -17746833.07849  20538483.0014   20538485.1614   20538482.2404
       245.0004        203.0004
 -15259088.79649 -11871481.10449  21792013.1984   21792015.4844   21792013.8744
       237.0004        189.0004
  -3107346.96049  -2395150.12549  24433346.6774   24433346.0894   24433347.0524
       212.0004        138.0004
  -2815568.50249  -2180210.28349  24332858.2494   24332861.8084   24332859.7154
       213.0004        144.0004
  -7132434.10549  -5296439.31449  23089328.0464   23089331.2934   23089327.6434
       220.0004        156.0004
 11 10 12  1 22 30.0000000  0  8G26G05G10G08G07G02G15G28
 -18396208.68449 -14315146.57649  20975122.3044   20975125.0904   20975122.7434
       238.0004        188.0004
 -20786317.71949 -16177735.65749  20649019.9474   20649022.1774   20649020.1044
       241.0004        206.0004
  -7935844.97249  -5429361.95349  22891897.3954   22891901.0504   22891896.3204
       223.0004        160.0004
 -23511794.01149 -17733623.05849  20541708.1264   20541711.3464   20541708.1814
       245.0004        203.0004
 -15184846.42249 -11813629.90249  21806141.2464   21806143.0534   21806141.6374
       238.0004        188.0004
  -3005555.70249  -2315832.15649  24452717.5384   24452717.1714   24452717.7944
       203.0004        134.0004
  -2912971.56249  -2256108.72749  24314323.8384   24314325.5834   24314324.6684
       207.0004        142.0004
  -7218048.64049  -5363151.90349  23073035.9404   23073038.4174   23073035.9264
       219.0004        156.0004
 11 10 12  1 23  0.0000000  0  8G26G05G10G08G07G02G15G28
 -18466728.33049 -14370096.93849  20961702.4844   20961706.1224   20961703.0534
       239.0004        189.0004
 -20779553.83049 -16172465.09649  20650305.6514   20650309.0504   20650306.4774
       240.0004        206.0004
  -7831561.86449  -5348102.42949  22911742.7874   22911745.4754   22911741.0254
       225.0004        162.0004
 -23494353.27549 -17720032.86749  20545027.1204   20545029.8804   20545026.8444
       245.0004        203.0004
 -15110286.23049 -11755531.06449  21820328.6084   21820331.5284   21820329.5324
       235.0004        187.0004
  -2903706.44249  -2236469.13249  24472090.5164   24472102.1494   24472093.1244
       186.0004        134.0004
  -3010306.76549  -2331954.29749  24295801.2714   24295803.5914   24295802.2704
       213.0004        144.0004
  -7303385.71849  -5429648.27949  23056795.5814   23056800.0014   23056794.4504
       219.0004        156.0004
 11 10 12  1 23 30.0000000  0  8G26G05G10G08G07G02G15G28
 -18536899.02849 -14424775.39149  20948349.0654   20948352.7784   20948349.1464
       238.0004        189.0004
 -20772214.22349 -16166745.93249  20651702.8504   20651705.6384   20651703.8044
       242.0004        206.0004
  -7727054.38049  -5266668.06449  22931628.2454   22931632.5834   22931627.7624
       221.0004        160.0004
 -23476426.53049 -17706063.98149  20548438.5654   20548441.4734   20548438.7934
       245.0004        203.0004
 -15035410.88449 -11697186.65249  21834577.1334   21834579.0834   21834577.4694
       235.0004        186.0004
  -2801802.86649  -2157063.91749  24491490.2474   24491490.3794   24491490.1814
       202.0004        139.0004
  -3107573.53849  -2407746.57949  24277291.7194   24277294.7654   24277292.7504
       211.0004        147.0004
  -7388443.19849  -5495926.82449  23040609.7264   23040613.2844   23040609.1894
       218.0004        156.0004
 11 10 12  1 24  0.0000000  0  8G26G05G10G08G07G02G15G28
 -18606719.75649 -14479181.13649  20935062.8344   20935066.6974   20935063.2284
       238.0004        189.0004
 -20764299.35649 -16160578.51749  20653210.4144   20653211.5614   20653210.4614
       242.0004        206.0004
  -7622324.92149  -5185060.70949  22951557.6334   22951561.9164   22951556.7924
       221.0004        160.0004
 -23458015.48849 -17691717.70949  20551942.5944   20551944.8194   20551941.9254
       245.0004        203.0004
 -14960223.01249 -11638598.71749  21848885.0104   21848887.2884   21848885.3454
       235.0004        185.0004
  -2699848.84149  -2077619.16049  24510890.5794   24510893.4614   24510891.9164
       204.0004        135.0004
  -3204771.30049  -2483485.03349  24258796.2364   24258798.6064   24258797.7664
       208.0004        149.0004
  -7473219.10549  -5561985.91149  23024479.2614   23024480.9504   23024477.7694
       223.0004        156.0004
 11 10 12  1 24 30.0000000  0  8G26G05G10G08G07G02G15G28
 -18676188.23849 -14533312.41149  20921843.9954   20921846.4984   20921843.8164
       239.0004        190.0004
 -20755808.25149 -16153962.07149  20654824.8814   20654827.6474   20654825.4364
       241.0004        205.0004
  -7517375.10049  -5103281.63049  22971529.4734   22971533.7904   22971527.8304
       222.0004        161.0004
 -23439119.95549 -17676993.90849  20555538.4034   20555540.0544   20555538.0694
       246.0004        203.0004
 -14884723.82349 -11579768.16949  21863253.1184   21863254.1044   21863252.6474
       236.0004        186.0004
  -2597846.08149  -1998136.54849  24530300.9604   24530305.4724   24530302.2334
       198.0004        134.0004
  -3301898.10949  -2559168.17649  24240314.6384   24240315.7704   24240313.7664
       212.0004        145.0004
  -7557710.46449  -5627823.28249  23008400.2044   23008401.9664   23008399.3804
       222.0004        157.0004
 11 10 12  1 25  0.0000000  0  8G26G05G10G08G07G02G15G28
 -18745303.97749 -14587168.82749  20908691.8774   20908694.2064   20908691.9774
       241.0004        190.0004
 -20746741.45349 -16146897.03549  20656549.7524   20656552.9624   20656550.2484
       240.0004        205.0004
  -7412207.89049  -5021333.18449  22991539.8184   22991545.4844   22991541.0004
       220.0004        158.0004
 -23419741.79449 -17661894.03949  20559224.9794   20559228.0704   20559224.7874
       244.0004        203.0004
 -14808916.20049 -11520697.29849  21877678.0634   21877680.0204   21877678.0204
       235.0004        186.0004
  -2495798.90749  -1918619.30549  24549716.4544   24549720.2564   24549720.9634
       191.0004        132.0004
  -3398954.06049  -2634796.15849  24221845.6844   24221846.1774   24221845.5124
       212.0004        146.0004
  -7641914.83649  -5693437.05849  22992375.8554   22992377.4194   22992375.8704
       221.0004        157.0004
 11 10 12  1 25 30.0000000  0  8G26G05G10G08G07G02G15G28
 -18814064.70549 -14640748.60749  20895606.9054   20895609.5904   20895607.0744
       241.0004        190.0004
 -20737097.87149 -16139382.56549  20658385.9544   20658388.1034   20658386.3134
       241.0004        205.0004
  -7306824.00849  -4939215.88749  23011596.2144   23011599.3344   23011594.5894
       220.0004        156.0004
 -23399881.10749 -17646418.17949  20563005.0614   20563007.2824   20563005.0384
       245.0004        203.0004
 -14732801.00049 -11461386.77649  21892162.1444   21892164.5724   21892162.8124
       235.0004        186.0004
  -2393709.40449  -1839069.04049  24569148.0174   24569149.2284   24569146.5564
       207.0004        135.0004
  -3495937.03849  -2710367.29649  24203389.6534   24203390.9844   24203391.3354
       210.0004        148.0004
  -7725828.87349  -5758824.54849  22976407.0914   22976410.6234   22976407.3544
       224.0004        158.0004
 11 10 12  1 26  0.0000000  0  8G26G05G10G08G07G02G15G28
 -18882469.54949 -14694051.08449  20882589.2074   20882592.5494   20882590.2354
       240.0004        191.0004
 -20726877.96949 -16131419.02049  20660331.5894   20660332.6344   20660331.4794
       242.0004        205.0004
  -7201226.44949  -4856932.10049  23031693.4464   23031694.8884   23031691.5464
       222.0004        158.0004
 -23379539.89849 -17630567.88049  20566875.6344   20566878.1324   20566875.2564
       245.0004        203.0004
 -14656381.18549 -11401838.86549  21906704.5334   21906706.5294   21906705.1674
       235.0004        186.0004
  -2291580.70549  -1759488.28949  24588585.7204   24588581.2334   24588583.9734
       201.0004        133.0004
  -3592846.83649  -2785881.32549  24184946.6284   24184950.6004   24184946.7664
       209.0004        146.0004
  -7809450.71149  -5823984.39249  22960495.2714   22960496.9274   22960494.3384
       222.0004        159.0004
 11 10 12  1 26 30.0000000  0  8G26G05G10G08G07G02G15G28
 -18950517.55949 -14747075.50149  20869640.9124   20869643.6804   20869641.2574
       240.0004        191.0004
 -20716082.05149 -16123006.61749  20662383.9524   20662387.4994   20662385.2864
       241.0004        205.0004
  -7095417.49749  -4774483.60049  23051827.2764   23051828.0884   23051824.3784
       221.0004        158.0004
 -23358719.32049 -17614344.05649  20570837.9774   20570840.3604   20570837.6774
       245.0004        203.0004
 -14579658.80349 -11342055.20049  21921304.7044   21921306.2224   21921304.7584
       235.0004        185.0004
  -2189416.29349  -1679879.72249  24608019.1694   24608024.4234   24608021.5824
       189.0004        130.0004
  -3689682.39449  -2861337.52949  24166521.5554   24166523.6104   24166521.2384
       212.0004        147.0004
  -7892778.11649  -5888914.78849  22944638.1934   22944641.3604   22944638.2714
       223.0004        157.0004
 11 10 12  1 27  0.0000000  0  8G26G05G10G08G07G02G15G28
 -19018206.43749 -14799820.07349  20856759.2584   20856762.9944   20856759.7234
       240.0004        191.0004
 -20704709.43749 -16114144.84749  20664549.7954   20664551.5944   20664549.8194
       241.0004        205.0004
  -6989398.68149  -4691871.55849  23071999.6614   23072003.7354   23071999.8184
       220.0004        157.0004
 -23337420.15649 -17597747.29849  20574890.4704   20574893.7404   20574890.3584
       245.0004        203.0004
 -14502635.35249 -11282036.93949  21935961.3384   21935963.6204   21935961.8354
       235.0004        185.0004
  -2087218.44249  -1600245.00649  24627466.8684   24627473.0354   24627469.1524
       199.0004        131.0004
  -3786441.90849  -2936734.58149  24148107.8384   24148109.6204   24148107.1484
       210.0004        144.0004
  -7975807.83149  -5953613.22149  22928838.7034   22928841.6724   22928838.7094
       224.0004        158.0004
 11 10 12  1 27 30.0000000  0  8G26G05G10G08G07G02G15G28
 -19085534.89149 -14852283.79049  20843947.6664   20843950.6344   20843947.9224
       241.0004        191.0004
 -20692760.07049 -16104833.65749  20666822.2284   20666825.2154   20666823.0104
       240.0004        205.0004
  -6883172.28949  -4609097.77249  23092212.9564   23092217.7354   23092213.9824
       220.0004        158.0004
 -23315643.41649 -17580778.41249  20579034.5494   20579037.4114   20579034.4654
       245.0004        203.0004
 -14425312.74049 -11221785.55549  21950676.0624   21950677.5544   21950676.0984
       235.0004        184.0004
  -1984990.05849  -1520586.54249  24646927.0174   24646925.4404   24646924.7564
       205.0004        130.0004
  -3883125.12449  -3012072.10249  24129706.2184   24129709.8464   24129707.1844
       206.0004        142.0004
  -8058537.12249  -6018077.52749  22913094.9474   22913098.3354   22913096.1794
       224.0004        159.0004
 11 10 12  1 28  0.0000000  0  8G26G05G10G08G07G02G15G28
 -19152502.56349 -14904466.38249  20831204.4854   20831207.6944   20831204.1064
       242.0004        192.0004
 -20680235.06649 -16095073.92549  20669205.9134   20669208.6964   20669206.2134
       240.0004        204.0004
  -6776741.11149  -4526164.39649  23112467.5914   23112470.5724   23112466.5824
       221.0004        157.0004
 -23293391.05349 -17563438.90449  20583268.9964   20583271.5404   20583268.5194
       245.0004        203.0004
 -14347694.26349 -11161303.62649  21965444.8774   21965447.6684   21965445.9804
       232.0004        182.0004
  -1882735.43049  -1440907.71249  24666386.0424   24666384.6024   24666386.3954
       201.0004        133.0004
  -3979731.66749  -3087349.89149  24111325.4824   24111328.5044   24111326.8354
       211.0004        147.0004
  -8140964.43249  -6082306.51849  22897411.4844   22897412.1214   22897409.3964
       224.0004        159.0004
 11 10 12  1 28 30.0000000  0  8G26G05G10G08G07G02G15G28
 -19219107.06749 -14956365.98849  20818530.1304   20818532.7684   20818529.9924
       242.0004        192.0004
 -20667133.19149 -16084864.67849  20671698.8794   20671701.4944   20671699.6004
       239.0004        204.0004
  -6670106.12549  -4443072.21949  23132758.2854   23132763.2754   23132759.7664
       221.0004        157.0004
 -23270662.90849 -17545728.65849  20587594.6224   20587596.9394   20587594.5094
       246.0004        203.0004
 -14269780.87849 -11100591.90449  21980272.3214   21980274.0114   21980272.6674
       235.0004        183.0004
  -1780456.56849  -1361209.87749  24685838.4164   24685847.5324   24685842.6944
       193.0004        129.0004
  -4076259.17949  -3162566.09949  24092958.0774   24092959.3804   24092957.8354
       211.0004        145.0004
  -8223086.57649  -6146297.74149  22881781.5784   22881785.7264   22881782.2114
       223.0004        161.0004
 11 10 12  1 29  0.0000000  0  8G26G05G10G08G07G02G15G28
 -19285347.89149 -15007982.21749  20805924.5954   20805927.2674   20805925.2474
       242.0004        192.0004
 -20653455.01149 -16074206.36149  20674302.6324   20674304.6584   20674303.2534
       241.0004        204.0004
  -6563270.57649  -4359823.77149  23153089.8644   23153093.8704   23153088.8264
       220.0004        158.0004
 -23247461.47449 -17527649.61549  20592009.6034   20592011.8364   20592008.8444
       245.0004        203.0004
 -14191575.40749 -11039652.57249  21995154.1404   21995156.1624   21995154.4524
       234.0004        183.0004
  -1678156.82349  -1281495.78449  24705315.8184   24705316.7404   24705311.9254
       206.0004        131.0004
  -4172707.73749  -3237720.80049  24074603.3534   24074606.8984   24074603.6704
       207.0004        145.0004
  -8304901.75749  -6210049.80349  22866213.6634   22866217.0714   22866213.5494
       225.0004        161.0004
 11 10 12  1 29 30.0000000  0  8G26G05G10G08G07G02G15G28
 -19351223.33249 -15059313.73349  20793389.0634   20793391.2994   20793389.4514
       242.0004        191.0004
 -20639200.27849 -16063098.79349  20677016.1744   20677016.9044   20677015.8714
       240.0004        204.0004
  -6456236.13549  -4276420.33749  23173457.6594   23173461.2494   23173456.8524
       221.0004        155.0004
 -23223787.63049 -17509202.46449  20596514.2274   20596517.1874   20596514.2804
       245.0004        203.0004
 -14113079.69449 -10978487.09549  22010092.0174   22010093.6814   22010092.5184
       235.0004        184.0004
  -1575839.27049  -1201767.83849  24724785.1694   24724784.9454   24724784.1054
       201.0004        132.0004
  -4269076.18949  -3312813.04649  24056262.8544   24056267.0844   24056264.3394
       212.0004        146.0004
  -8386406.81449  -6273560.19949  22850703.2624   22850706.1224   22850702.8674
       221.0004        161.0004
 11 10 12  1 30  0.0000000  0  8G26G05G10G08G07G02G15G28
 -19416731.20349 -15110358.81449  20780923.4054   20780925.8904   20780923.4544
       241.0004        192.0004
 -20624368.60449 -16051541.64849  20679836.8484   20679839.8134   20679837.6054
       240.0004        204.0004
  -6349004.13649  -4192862.94549  23193862.1684   23193866.4124   23193862.1384
       217.0004        156.0004
 -23199641.38949 -17490387.20849  20601109.3244   20601112.1144   20601108.7374
       244.0004        202.0004
 -14034294.75249 -10917096.22949  22025084.1274   22025086.0164   22025084.2514
       236.0004        186.0004
  -1473506.03649  -1122027.75049  24744253.5674   24744257.9634   24744257.9704
       202.0004        133.0004
  -4365362.32049  -3387841.18249  24037941.8334   24037944.4564   24037941.6534
       211.0004        149.0004
  -8467598.93049  -6336826.78349  22835253.5624   22835255.7454   22835253.3204
       222.0004        160.0004
 11 10 12  1 30 30.0000000  0  8G26G05G10G08G07G02G15G28
 -19481870.89949 -15161117.01249  20768526.7474   20768530.4504   20768527.1474
       241.0004        191.0004
 -20608961.06349 -16039535.77949  20682768.3424   20682771.8584   20682769.0934
       239.0004        204.0004
  -6241577.75249  -4109154.12249  23214304.2914   23214309.1494   23214305.0134
       220.0004        158.0004
 -23175024.68649 -17471205.36249  20605793.2804   20605796.0464   20605793.2734
       244.0004        202.0004
 -13955223.48949 -10855482.25149  22040130.1264   22040132.3864   22040130.7674
       235.0004        185.0004
  -1371160.76149  -1042278.22449  24763732.2944   24763733.6454   24763731.4744
       206.0004        134.0004
  -4461566.01549  -3462805.07749  24019634.4544   24019637.2524   24019635.2444
       208.0004        146.0004
  -8548476.05349  -6399847.86349  22819863.5264   22819865.5404   22819863.0314
       223.0004        162.0004
 11 10 12  1 31  0.0000000  0  8G26G05G10G08G07G02G15G28
 -19546640.98349 -15211587.19649  20756201.3234   20756205.2314   20756202.2264
       239.0004        191.0004
 -20592977.25149 -16027080.87149  20685811.4824   20685813.6324   20685811.3964
       240.0004        204.0004
  -6133958.61849  -4025295.07449  23234784.5954   23234790.0754   23234784.2964
       221.0004        159.0004
 -23149938.97149 -17451658.04849  20610566.0164   20610569.8934   20610566.2954
       243.0004        202.0004
 -13875867.75949 -10793646.63649  22055230.9984   22055233.6084   22055231.3724
       234.0004        185.0004
  -1268806.37549   -962521.56649  24783214.7914   24783213.6214   24783210.3894
       204.0004        131.0004
  -4557686.19949  -3537703.87549  24001344.3864   24001345.3364   24001343.9084
       211.0004        143.0004
  -8629035.79349  -6462621.64249  22804533.0444   22804535.8994   22804532.8554
       223.0004        163.0004
 11 10 12  1 31 30.0000000  0  8G26G05G10G08G07G02G15G28
 -19611040.51349 -15261768.63949  20743947.6294   20743950.5574   20743947.3984
       242.0004        192.0004
 -20576417.49149 -16014177.16449  20688960.7874   20688964.4754   20688961.6064
       240.0004        203.0004
  -6026149.13349  -3941287.71649  23255301.3124   23255303.7364   23255299.5394
       221.0004        154.0004
 -23124385.50249 -17431746.25449  20615430.2284   20615432.5714   20615429.8904
       246.0004        202.0004
 -13796230.21849 -10731591.42049  22070385.6814   22070387.7854   22070386.3554
       235.0004        184.0004
  -1166446.08049   -882760.28449  24802685.7414   24802687.2244   24802686.1764
       200.0004        130.0004
  -4653721.84549  -3612536.84949  23983070.1984   23983071.6454   23983069.8534
       212.0004        147.0004
  -8709275.65249  -6525146.16549  22789264.2394   22789266.4934   22789264.3084
       223.0004        163.0004
 11 10 12  1 32  0.0000000  0  8G26G05G10G08G07G02G15G28
 -19675068.04849 -15311660.22049  20731763.7934   20731765.5744   20731763.8904
       241.0004        192.0004
 -20559282.12449 -16000824.94149  20692222.8364   20692225.2904   20692223.3834
       242.0004        204.0004
  -5918151.57549  -3857133.80349  23275852.8804   23275854.7014   23275851.8314
       222.0004        156.0004
 -23098365.52749 -17411470.94949  20620380.6674   20620383.9304   20620380.8884
       243.0004        202.0004
 -13716312.84749 -10669318.14749  22085593.2694   22085594.7664   22085594.2144
       234.0004        183.0004
  -1064082.94649   -802996.82549  24822165.5304   24822169.3214   24822168.1504
       201.0004        128.0004
  -4749672.37549  -3687303.43549  23964806.8644   23964811.4664   23964808.7164
       206.0004        144.0004
  -8789193.54949  -6587419.82649  22774055.0054   22774058.6304   22774055.6534
       221.0004        162.0004
 11 10 12  1 32 30.0000000  0  8G26G05G10G08G07G02G15G28
 -19738721.51049 -15361260.30849  20719651.0414   20719653.4714   20719650.7474
       242.0004        192.0004
 -20541570.70549 -15987023.84949  20695593.8654   20695595.6934   20695594.1814
       243.0004        204.0004
  -5809967.44149  -3772834.48949  23296440.6134   23296441.9874   23296438.8194
       221.0004        156.0004
 -23071879.50349 -17390832.48149  20625421.5594   20625424.0234   20625420.9524
       244.0004        202.0004
 -13636116.73449 -10606827.66449  22100855.1044   22100856.6864   22100855.1724
       235.0004        184.0004
   -961718.99049   -723232.76049  24841649.7204   24841646.6944   24841647.5094
       206.0004        130.0004
  -4845535.73649  -3762002.08849  23946567.8284   23946571.7094   23946568.6734
       213.0004        147.0004
  -8868786.36049  -6649440.16349  22758909.7794   22758912.2494   22758908.7844
       223.0004        162.0004
 11 10 12  1 33  0.0000000  0  8G26G05G10G08G07G02G15G28
 -19801999.18349 -15410567.58849  20707608.2304   20707611.6354   20707609.1234
       240.0004        192.0004
 -20523283.13349 -15972773.80849  20699073.8154   20699075.7314   20699074.0714
       241.0004        204.0004
  -5701598.88249  -3688391.50549  23317061.7864   23317064.5654   23317059.5924
       218.0004        151.0004
 -23044928.60649 -17369831.78749  20630549.3244   20630552.7854   20630549.2024
       244.0004        202.0004
 -13555643.87449 -10544121.55149  22116168.7394   22116170.0174   22116168.5934
       235.0004        184.0004
   -859357.17849   -643470.36149  24861129.3994   24861126.9184   24861128.4404
       205.0004        134.0004
  -4941310.76249  -3836632.02049  23928340.9684   23928343.9844   23928342.8804
       209.0004        144.0004
  -8948051.23949  -6711204.98549  22743824.9134   22743829.0164   22743825.7384
       222.0004        162.0004
 11 10 12  1 33 30.0000000  0  8G26G05G10G08G07G02G15G28
 -19864901.05449 -15459582.02449  20695638.1564   20695641.7684   20695639.1514
       239.0004        192.0004
 -20504420.80849 -15958075.88949  20702661.3214   20702665.2744   20702662.6354
       241.0004        204.0004
  -5593049.20049  -3603807.37149  23337717.2174   23337720.2004   23337717.0144
       218.0004        152.0004
 -23017515.27549 -17348470.74449  20635766.9044   20635768.9844   20635766.5874
       244.0004        202.0004
 -13474897.25449 -10481202.10649  22131533.1124   22131535.1814   22131533.6514
       233.0004        181.0004
   -757001.49149   -563712.69149  24880600.7994   24880604.5184   24880601.9744
       202.0004        134.0004
  -5036997.62449  -3911193.15849  23910131.8444   23910136.8614   23910132.6064
       210.0004        149.0004
  -9026986.64949  -6772713.08149  22728805.4484   22728807.7114   22728804.7084
       224.0004        164.0004
 11 10 12  1 34  0.0000000  0  8G26G05G10G08G07G02G15G28
 -19927425.75849 -15508302.56349  20683740.3004   20683743.9454   20683740.2094
       238.0004        192.0004
 -20484984.08849 -15942930.40549  20706361.5184   20706363.7334   20706361.6484
       242.0004        203.0004
  -5484320.19149  -3519083.46949  23358406.5734   23358410.7834   23358406.8954
       214.0004        153.0004
 -22989640.87949 -17326750.43549  20641070.6014   20641073.8244   20641070.3204
       244.0004        201.0004
 -13393879.01649 -10418071.02449  22146951.3794   22146952.3794   22146950.8614
       233.0004        180.0004
   -654654.69049   -483961.98049  24900078.7274   24900078.9654   24900079.0534
       208.0004        133.0004
  -5132595.12149  -3985684.67549  23891940.7374   23891945.1234   23891941.1524
       210.0004        148.0004
  -9105590.34349  -6833962.69249  22713847.2584   22713849.9824   22713847.3314
       225.0004        164.0004
 11 10 12  1 34 30.0000000  0  8G26G05G10G08G07G02G15G28
 -19989570.69449 -15556727.18649  20671915.4084   20671917.8504   20671915.6854
       239.0004        192.0004
 -20464972.16649 -15927336.71849  20710170.0574   20710172.1144   20710170.2614
       242.0004        204.0004
  -5375412.67049  -3434220.51749  23379130.5824   23379136.8864   23379129.0784
       213.0004        152.0004
 -22961305.27249 -17304670.74249  20646462.7324   20646465.5774   20646462.5404
       244.0004        202.0004
 -13312589.92349 -10354728.88249  22162419.3604   22162421.5334   22162419.8484
       233.0004        182.0004
   -552318.67649   -404219.64249  24919555.6144   24919553.5664   24919552.7814
       207.0004        133.0004
  -5228101.33849  -4060105.07249  23873767.1594   23873769.9344   23873767.8394
       211.0004        147.0004
  -9183858.70949  -6894951.01149  22698953.8004   22698956.3594   22698954.3214
       227.0004        166.0004
 11 10 12  1 35  0.0000000  0  8G26G05G10G08G07G02G15G28
 -20051335.12549 -15604855.31249  20660162.1294   20660164.6964   20660162.6614
       241.0004        193.0004
 -20444385.12349 -15911294.87249  20714086.5564   20714089.6974   20714087.2314
       242.0004        203.0004
  -5266329.56049  -3349220.73849  23399889.1064   23399892.5964   23399888.8524
       217.0004        153.0004
 -22932510.30349 -17282233.09749  20651941.6074   20651944.9504   20651941.4114
       243.0004        201.0004
 -13231032.61749 -10291177.74949  22177939.9914   22177942.0054   22177939.3604
       232.0004        181.0004
   -449996.77849   -324488.31849  24939024.8624   24939025.4944   24939026.0754
       203.0004        130.0004
  -5323515.18349  -4134453.48749  23855609.9584   23855614.2944   23855610.7254
       210.0004        148.0004
  -9261789.99949  -6955676.66349  22684123.8554   22684126.9804   22684124.1124
       227.0004        168.0004
 11 10 12  1 35 30.0000000  0  8G26G05G10G08G07G02G15G28
 -20112718.13349 -15652686.22349  20648481.5454   20648484.2884   20648481.9274
       241.0004        194.0004
 -20423224.32549 -15894805.93949  20718113.2384   20718116.5404   20718114.0444
       242.0004        204.0004
  -5157073.40549  -3264086.09949  23420680.7834   23420683.7074   23420679.1174
       216.0004        151.0004
 -22903257.99549 -17259439.08749  20657509.4084   20657512.0324   20657508.6584
       244.0004        202.0004
 -13149209.68649 -10227419.63849  22193509.2904   22193512.2024   22193509.9624
       233.0004        181.0004
   -347692.26249   -244770.52449  24958490.9534   24958493.3124   24958490.9484
       198.0004        127.0004
  -5418836.17149  -4208729.56949  23837472.6324   23837475.8284   23837473.1074
       215.0004        150.0004
  -9339382.02049  -7016137.94449  22669358.9484   22669360.9704   22669357.9604
       226.0004        168.0004
 11 10 12  1 36  0.0000000  0  8G26G05G10G08G07G02G15G28
 -20173717.69849 -15700218.33549  20636873.7624   20636876.4994   20636873.9514
       241.0004        195.0004
 -20401489.05549 -15877869.38049  20722251.0164   20722252.7804   20722251.6244
       243.0004        204.0004
  -5047645.57049  -3178817.66649  23441503.5634   23441508.3674   23441502.0444
       215.0004        149.0004
 -22873548.55249 -17236288.87149  20663162.3984   20663165.0744   20663161.8544
       243.0004        201.0004
 -13067122.07749 -10163455.28549  22209130.2884   22209133.3374   22209130.4494
       231.0004        179.0004
   -245407.55249   -165068.16949  24977957.8444   24977957.6754   24977955.7694
       197.0004        127.0004
  -5514062.63349  -4282931.96849  23819352.2874   23819354.7594   23819351.8064
       215.0004        151.0004
  -9416631.92249  -7076332.66549  22654658.1174   22654659.4414   22654658.8644
       227.0004        167.0004
 11 10 12  1 36 30.0000000  0  8G26G05G10G08G07G02G15G28
 -20234333.20949 -15747451.19349  20625338.7364   20625341.7024   20625338.6444
       241.0004        196.0004
 -20379180.81949 -15860486.35249  20726495.2994   20726497.4034   20726495.7764
       241.0004        203.0004
  -4938048.99749  -3093417.78549  23462359.7804   23462364.6944   23462359.2614
       216.0004        153.0004
 -22843384.23349 -17212784.20549  20668903.1024   20668905.4364   20668902.5384
       244.0004        202.0004
 -12984773.01849 -10099287.21049  22224800.7904   22224803.5934   22224801.6134
       233.0004        178.0004
   -143146.21249    -85384.04549  24997417.1644   24997417.3314   24997419.3554
       190.0004        123.0004
  -5609194.18949  -4357060.38249  23801247.8494   23801251.5484   23801248.0264
       211.0004        150.0004
  -9493537.91649  -7136259.35949  22640024.2164   22640025.4264   22640023.1564
       228.0004        165.0004
 11 10 12  1 37  0.0000000  0  8G26G05G10G08G07G02G15G28
 -20294562.34949 -15794382.97649  20613877.6284   20613880.2394   20613877.2384
       242.0004        195.0004
 -20356298.98649 -15842656.35549  20730848.1724   20730851.7224   20730849.6734
       240.0004        203.0004
  -4828285.07949  -3007887.51049  23483247.0764   23483251.1724   23483246.1274
       215.0004        152.0004
 -22812765.43049 -17188925.40249  20674728.0894   20674731.8694   20674728.3014
       243.0004        201.0004
 -12902163.09249 -10034915.84749  22240522.0444   22240523.8654   22240522.3174
       233.0004        181.0004
    -40910.36349     -5719.79849  25016870.7614   25016870.3454   25016870.6324
       198.0004        124.0004
  -5704229.04749  -4431113.52749  23783163.1064   23783166.8564   23783164.5154
       214.0004        149.0004
  -9570096.85749  -7195915.66649  22625455.0364   22625455.5614   22625454.4344
       228.0004        165.0004
 11 10 12  1 37 30.0000000  0  8G26G05G10G08G07G02G15G28
 -20354405.05949 -15841013.65549  20602489.4104   20602492.2014   20602490.1114
       242.0004        195.0004
 -20332844.87049 -15824380.42949  20735312.2974   20735315.2164   20735313.1204
       241.0004        203.0004
  -4718357.11049  -2922229.38149  23504163.8834   23504169.9204   23504163.7094
       215.0004        151.0004
 -22781694.54449 -17164714.32049  20680642.0984   20680644.2414   20680641.7144
       244.0004        202.0004
 -12819295.94349  -9970344.05349  22256290.6564   22256292.1964   22256291.3134
       233.0004        180.0004
     61296.33149     73921.84549  25036320.0864                   25036315.5114
       185.0004        122.0004
  -5799167.32849  -4505091.36549  23765099.3124   23765099.3674   23765098.0604
       215.0004        149.0004
  -9646307.37149  -7255300.47849  22610952.0674   22610954.7014   22610951.6664
       228.0004        167.0004
 11 10 12  1 38  0.0000000  0  8G26G05G10G08G07G02G15G28
 -20413859.22049 -15887341.57349  20591176.4514   20591178.0514   20591176.2964
       242.0004        195.0004
 -20308817.94849 -15805658.16449  20739884.8544   20739887.3514   20739885.6414
       242.0004        202.0004
  -4608266.16449  -2836444.23749  23525113.6644   23525118.7284   23525113.3194
       216.0004        151.0004
 -22750172.00149 -17140151.30649  20686640.1014   20686643.0094   20686639.8714
       244.0004        202.0004
 -12736172.35049  -9905572.42749  22272109.0894   22272110.7514   22272108.7854
       233.0004        179.0004
    163471.77449    153539.06149  25055763.7534                   25055759.6634
       184.0004        117.0004
  -5894006.69049  -4578992.13749  23747050.6244   23747053.4454   23747049.8114
       216.0004        152.0004
  -9722166.28649  -7314411.29049  22596516.9804   22596520.0884   22596516.6324
       227.0004        167.0004
 11 10 12  1 38 30.0000000  0  8G26G05G10G08G07G02G15G28
 -20472923.33449 -15933365.55749  20579937.4154   20579938.9434   20579937.0554
       243.0004        195.0004
 -20284218.84649 -15786490.04049  20744564.9764   20744568.0154   20744565.8704
       240.0004        202.0004
  -4498014.47949  -2750533.87449  23546094.8914   23546099.3254   23546094.2284
       218.0004        154.0004
 -22718198.99349 -17115237.27049  20692724.9304   20692727.1854   20692724.6064
       247.0004        202.0004
 -12652794.54849  -9840602.72449  22287975.2574   22287976.3044   22287975.6494
       233.0004        179.0004
    265613.23749    233129.75649  25075199.1144
       187.0004        122.0004
  -5988746.27749  -4652815.13049  23729022.3934   23729025.0244   23729021.1344
       216.0004        150.0004
  -9797671.26749  -7373246.34549  22582149.0054   22582150.4044   22582148.8854
       228.0004        167.0004
 11 10 12  1 39  0.0000000  0  8G26G05G10G08G07G02G15G28
 -20531595.99449 -15979084.50849  20568772.1754   20568773.9414   20568771.6504
       242.0004        195.0004
 -20259047.95949 -15766876.36949  20749354.6414   20749357.7524   20749355.4694
       240.0004        201.0004
  -4387604.39049  -2664500.06049  23567105.5304   23567109.6064   23567104.8004
       218.0004        152.0004
 -22685777.10649 -17089973.46149  20698894.2314   20698896.8444   20698894.1164
       246.0004        202.0004
 -12569164.52549  -9775436.48649  22303889.3354   22303891.0524   22303889.3804
       233.0004        178.0004
    367717.59549    312691.56949  25094627.8184
       181.0004        118.0004
  -6083385.25049  -4726559.77849  23711010.7914   23711015.8494   23711013.8504
       212.0004        151.0004
  -9872819.66249  -7431803.53049  22567847.4634   22567851.6124   22567848.1314
       226.0004        167.0004
 11 10 12  1 39 30.0000000  0  8G26G05G10G08G07G02G15G28
 -20589876.12649 -16024497.59649  20557680.5574   20557683.7344   20557681.3934
       241.0004        195.0004
 -20233305.94849 -15746817.68249  20754254.6704   20754256.4984   20754254.9174
       241.0004        202.0004
  -4277037.79749  -2578344.31849  23588146.1414   23588151.3734   23588145.5484
       218.0004        152.0004
 -22652907.82849 -17064361.04149  20705149.2184   20705151.7584   20705148.9094
       246.0004        202.0004
 -12485284.26049  -9710075.24549  22319851.0474   22319853.0504   22319851.4554
       232.0004        178.0004
    469782.27249    392222.48449  25114055.3114
       184.0004        115.0004
  -6177921.64949  -4800224.47849  23693023.6754   23693026.2404   23693021.8374
       211.0004        151.0004
  -9947609.54449  -7490081.37249  22553617.0274   22553618.5214   22553615.8464
       229.0004        168.0004
 11 10 12  1 40  0.0000000  0  8G26G05G10G08G07G02G15G28
 -20647762.96149 -16069604.20949  20546665.4614   20546668.7464   20546665.6744
       242.0004        195.0004
 -20206993.66449 -15726314.61249  20759261.8724   20759263.6654   20759262.0574
       241.0004        202.0004
  -4166317.36949  -2492068.67849  23609215.4834   23609219.6484   23609215.4674
       219.0004        153.0004
 -22619593.00449 -17038401.43649  20711488.5594   20711491.1284   20711488.2104
       246.0004        201.0004
 -12401156.02949  -9644520.78549  22335859.5094   22335861.2954   22335859.3584
       232.0004        177.0004
    571804.07349    471719.90849  25133467.6484
       187.0004        116.0004
  -6272355.57049  -4873809.29849  23675053.0204   23675056.7044   23675052.4904
       212.0004        152.0004
 -10022038.85649  -7548078.22349  22539452.2984   22539456.4884   22539452.1914
       226.0004        167.0004
 11 10 12  1 40 30.0000000  0  8G26G05G10G08G07G02G15G28
 -20705254.38349 -16114402.70849  20535725.0644   20535728.3974   20535725.1654
       241.0004        195.0004
 -20180110.71949 -15705366.86949  20764375.9894   20764379.2804   20764376.7694
       240.0004        201.0004
  -4055444.48449  -2405674.25049  23630312.9094   23630318.0074   23630312.1464
       216.0004        151.0004
 -22585833.33149 -17012095.19849  20717913.1154   20717915.6744   20717912.5934
       246.0004        201.0004
 -12316781.26849  -9578774.22749  22351915.7584   22351917.5344   22351915.8954
       233.0004        178.0004
    673780.46449     32508.99149  25152871.2804
       177.0004         74.0004
  -6366685.01049  -4947312.73849  23657101.0574   23657106.7244   23657102.7574
       214.0004        154.0004
 -10096104.71149  -7605791.85349  22525359.3514   22525361.3194   22525358.7824
       228.0004        167.0004
 11 10 12  1 41  0.0000000  0  8G26G05G10G08G07G02G15G28
 -20762350.00349 -16158892.79949  20524860.1364   20524863.5334   20524860.6654
       242.0004        196.0004
 -20152658.73149 -15683975.72149  20769600.5254   20769603.3594   20769600.8034
       241.0004        202.0004
  -3944422.58549  -2319163.71749  23651438.6144   23651443.7924   23651439.3374
       213.0004        150.0004
 -22551631.01449 -16985444.04449  20724421.3724   20724424.1864   20724421.2234
       246.0004        201.0004
 -12232163.08749  -9512837.99149  22368019.1234   22368020.2774   22368018.8384
       233.0004        178.0004
    775708.05049    111961.00349  25172274.2404
       176.0004        108.0004
  -6460909.93149  -5020734.72149  23639172.1594   23639176.2504   23639172.3774
       214.0004        155.0004
 -10169805.87349  -7663221.30349  22511333.3834   22511336.4504   22511332.3144
       226.0004        167.0004
 11 10 12  1 41 30.0000000  0  8G26G05G10G08G07G02G15G28
 -20819047.81349 -16203072.89549  20514070.9784   20514074.1364   20514071.2534
       242.0004        196.0004
 -20124637.65549 -15662141.13049  20774933.4634   20774935.9044   20774934.3054
       242.0004        202.0004
  -3833252.74949  -2232537.91249  23672595.8744   23672599.4374   23672594.5994
       215.0004        148.0004
 -22516986.64449 -16958448.42549  20731014.2994   20731016.4854   20731013.5814
       246.0004        201.0004
 -12147302.57849  -9446712.92549  22384166.5364   22384168.4174   22384167.4254
       232.0004        177.0004
    877585.07759    191394.68259  25191656.2014
       170.0004        110.0004
  -6555027.95449  -5094073.40249  23621260.8354   23621265.9874   23621262.0734
       211.0004        153.0004
 -10243138.94949  -7720363.93349  22497377.1384   22497381.1794   22497378.2774
       225.0004        167.0004
 11 10 12  1 42  0.0000000  0  7G26G05G10G08G07G15G28
 -20875346.60249 -16246942.07449  20503357.8614   20503360.7404   20503358.6494
       243.0004        196.0004
 -20096047.99149 -15639863.48149  20780373.6784   20780376.4884   20780374.0264
       240.0004        202.0004
  -3721937.17549  -2145798.50949  23693778.9334   23693782.9674   23693777.5624
       217.0004        147.0004
 -22481901.96749 -16931109.72149  20737689.9644   20737693.1694   20737690.3614
       246.0004        201.0004
 -12062201.45249  -9380400.37249  22400361.6094   22400362.8604   22400362.0644
       232.0004        178.0004
  -6649038.65749  -5167328.46249  23603372.1254   23603375.0904   23603373.6384
       215.0004        153.0004
 -10316101.80149  -7777218.07049  22483494.3034   22483496.0894   22483494.6254
       225.0004        166.0004
 11 10 12  1 42 30.0000000  0  7G26G05G10G08G07G15G28
 -20931244.62249 -16290498.96349  20492720.8074   20492723.2434   20492720.9024
       242.0004        196.0004
 -20066890.30649 -15617143.21449  20785921.7204   20785925.0104   20785922.4524
       241.0004        202.0004
  -3610478.22449  -2058947.43149  23714988.0054   23714992.3694   23714988.5954
       216.0004        149.0004
 -22446378.07749 -16903428.76749  20744450.1244   20744452.9544   20744449.9644
       246.0004        201.0004
 -11976861.53849  -9313901.76949  22416600.9024   22416602.4214   22416601.3544
       232.0004        177.0004
  -6742940.31649  -5240498.56549  23585502.5794   23585506.5254   23585504.2834
       213.0004        154.0004
 -10388692.11349  -7833781.90249  22469680.3714   22469683.6154   22469679.5854
       225.0004        166.0004
 11 10 12  1 43  0.0000000  0  7G26G05G10G08G07G15G28
 -20986741.43849 -16333743.22949  20482160.5334   20482162.2234   20482160.3844
       243.0004        196.0004
 -20037165.70449 -15593981.19549  20791578.7894   20791581.4474   20791579.0634
       242.0004        202.0004
  -3498878.44849  -1971986.59549  23736224.2854   23736228.9914   23736223.6354
       217.0004        148.0004
 -22410416.82349 -16875407.01349  20751292.6974   20751296.1354   20751293.0524
       245.0004        200.0004
 -11891285.70649  -9247219.30349  22432885.6624   22432886.9304   22432885.6944
       231.0004        177.0004
  -6836732.46849  -5313583.31249  23567655.0354   23567658.5274   23567654.6194
       214.0004        154.0004
 -10460908.52349  -7890054.41849  22455937.8954   22455940.6724   22455937.6304
       225.0004        166.0004
 11 10 12  1 43 30.0000000  0  7G26G05G10G08G07G15G28
 -21041834.98649 -16376673.26149  20471675.8654   20471678.3804   20471676.5814
       242.0004        196.0004
 -20006874.18649 -15570377.43049  20797343.2474   20797345.3504   20797343.7034
       242.0004        202.0004
  -3387139.08349  -1884916.97249  23757486.8684   23757491.2554   23757485.1024
       213.0004        146.0004
 -22374019.35949 -16847045.35449  20758220.5834   20758222.6824   20758219.9324
       247.0004        200.0004
 -11805475.38349  -9180354.11749  22449214.9334   22449216.2894   22449214.9654
       232.0004        178.0004
  -6930413.36149  -5386581.37749  23549828.8224   23549832.4994   23549829.0254
       215.0004        156.0004
 -10532747.66449  -7946032.93849  22442268.2364   22442270.3234   22442267.3384
       227.0004        165.0004
 11 10 12  1 44  0.0000000  0  7G26G05G10G08G07G15G28
 -21096524.77049 -16419288.67349  20461268.3224   20461271.7134   20461269.2204
       241.0004        196.0004
 -19976016.94149 -15546332.82949  20803214.8194   20803217.2084   20803215.4604
       242.0004        202.0004
  -3275263.35349  -1797741.12149  23778774.7764   23778781.1574   23778775.8254
       212.0004        145.0004
 -22337187.36849 -16818345.10349  20765227.9694   20765231.1594   20765227.9084
       245.0004        200.0004
 -11719433.15049  -9113308.21849  22465588.1364   22465589.5334   22465588.1704
       232.0004        178.0004
  -7023982.55349  -5459492.40549  23532023.7044   23532026.2204   23532023.7384
       217.0004        156.0004
 -10604208.04749  -8001716.33949  22428667.5714   22428672.5874   22428668.5914
       225.0004        167.0004
 11 10 12  1 44 30.0000000  0  7G26G05G10G08G07G15G28
 -21150808.84649 -16461587.94049  20450938.8534   20450941.8854   20450938.7024
       242.0004        197.0004
 -19944594.28249 -15521847.65349  20809193.8404   20809196.9254   20809194.2784
       240.0004        201.0004
  -3163252.80749  -1710460.22149  23800093.2114   23800097.3244   23800091.8424
       214.0004        145.0004
 -22299921.87649 -16789307.06049  20772320.1644   20772322.8614   20772320.2184
       246.0004        201.0004
 -11633159.99649  -9046082.38149  22482005.5884   22482006.1594   22482004.8884
       231.0004        176.0004
  -7117438.33649  -5532315.06349  23514237.8914   23514242.6184   23514239.8734
       216.0004        155.0004
 -10675286.85249  -8057102.38849  22415145.5054   22415146.8764   22415143.8244
       228.0004        169.0004
 11 10 12  1 45  0.0000000  0  7G26G05G10G08G07G15G28
 -21204686.27149 -16503570.33549  20440686.3414   20440689.2494   20440686.3734
       242.0004        197.0004
 -19912606.89349 -15496922.42449  20815281.3674   20815283.8854   20815281.9764
       242.0004        201.0004
  -3051109.79049  -1623076.08749  23821431.6484   23821436.5734   23821432.0694
       211.0004        144.0004
 -22262224.84549 -16759932.74649  20779492.9624   20779496.0894   20779492.7844
       245.0004        199.0004
 -11546658.55149  -8978678.65149  22498464.2574   22498467.5934   22498464.9514
       230.0004        175.0004
  -7210779.46449  -5605048.37149  23496474.6704   23496479.3444   23496476.3534
       214.0004        156.0004
 -10745982.08749  -8112189.52749  22401689.9944   22401692.8044   22401690.0894
       226.0004        169.0004
 11 10 12  1 45 30.0000000  0  7G26G05G10G08G07G15G28
 -21258155.82149 -16545234.91349  20430511.4974   20430514.3034   20430512.1214
       243.0004        198.0004
 -19880056.17649 -15471558.24349  20821475.7074   20821478.1024   20821476.2914
       242.0004        201.0004
  -2938836.51049  -1535590.44949  23842796.6124   23842802.0554   23842797.2984
       215.0004        145.0004
 -22224097.32949 -16730222.99749  20786749.3564   20786751.2344   20786749.0514
       246.0004        200.0004
 -11459930.91749  -8911098.69149  22514969.4334   22514970.4494   22514969.2444
       231.0004        175.0004
  -7304005.49949  -5677692.01549  23478736.7514   23478739.9904   23478736.6594
       218.0004        159.0004
 -10816292.02949  -8166976.47149  22388312.2514   22388313.6304   22388311.1734
       229.0004        169.0004
 11 10 12  1 46  0.0000000  0  7G26G05G10G08G07G15G28
 -21311215.52549 -16586580.13349  20420415.5664   20420417.7254   20420415.3734
       244.0004        199.0004
 -19846941.99049 -15445754.99149  20827776.9564   20827779.3934   20827777.2964
       241.0004        201.0004
  -2826434.65949  -1448004.60849  23864185.5734   23864191.1274   23864187.4664
       213.0004        145.0004
 -22185540.39749 -16700178.63349  20794086.1154   20794088.7394   20794085.5114
       245.0004        199.0004
 -11372977.97649  -8843343.12749  22531515.1624   22531517.6064   22531515.9614
       229.0004        176.0004
  -7397114.16749  -5750244.17549  23461016.2934   23461020.6004   23461018.2074
       214.0004        154.0004
 -10886213.32149  -8221460.55549  22375006.2414   22375008.6604   22375005.0054
       230.0004        170.0004
 11 10 12  1 46 30.0000000  0  8G26G05G21G10G08G07G15G28
 -21363865.40549 -16627606.00849  20410396.1274   20410398.3714   20410396.4944
       244.0004        199.0004
 -19813265.74149 -15419513.77049  20834185.1884   20834188.0644   20834185.6124
       241.0004        201.0004
   -125191.26849    -91179.21149  24986051.6574
       205.0004        109.0004
  -2713907.53349  -1360321.18249  23885600.5994   23885604.9924   23885600.2844
       214.0004        144.0004
 -22146556.72349 -16669801.74749  20801504.0214   20801507.0794   20801504.2254
       245.0004        199.0004
 -11285803.08349  -8775414.63849  22548103.4884   22548107.1184   22548104.2574
       228.0004        177.0004
  -7490105.60549  -5822705.01249  23443324.1954   23443324.9604   23443323.8714
       217.0004        156.0004
 -10955745.02949  -8275641.05649  22361773.7644   22361777.1774   22361775.0764
       229.0004        172.0004
 11 10 12  1 47  0.0000000  0  8G26G05G21G10G08G07G15G28
 -21416102.79549 -16668310.46349  20400455.3864   20400457.8384   20400455.8244
       244.0004        199.0004
 -19779027.41149 -15392834.55949  20840700.6014   20840703.2104   20840701.2094
       241.0004        202.0004
   -164966.16949    -25041.04249  24978488.0474
       207.0004         74.0004
  -2601255.81649  -1272540.67349  23907037.6034   23907041.8174   23907037.8784
       214.0004        145.0004
 -22107146.59649 -16639092.55349  20809004.2994   20809006.3094   20809003.4724
       245.0004        199.0004
 -11198406.92549  -8707313.74049  22564735.5204   22564738.4054   22564735.9074
       229.0004        174.0004
  -7582977.57549  -5895072.78149  23425650.0654   23425653.0594   23425650.5404
       216.0004        157.0004
 -11024883.86349  -8329515.42149  22348617.7254   22348620.2814   22348617.4274
       230.0004        173.0004
 11 10 12  1 47 30.0000000  0  8G26G05G21G10G08G07G15G28
 -21467927.19649 -16708693.10849  20390593.1914   20390596.5874   20390593.6724
       244.0004        199.0004
 -19744228.52049 -15365718.55549  20847323.3424   20847324.9774   20847323.8044
       243.0004        201.0004
   -204267.08549    -55664.91949  24971004.3414
       205.0004        117.0004
  -2488482.35449  -1184665.29049  23928497.0824   23928501.5294   23928497.6954
       215.0004        146.0004
 -22067312.03449 -16608052.64249  20816584.0344   20816587.0914   20816584.2014
       245.0004        199.0004
 -11110791.91249  -8639042.31149  22581407.5354   22581410.2324   22581408.0604
       227.0004        173.0004
  -7675729.32249  -5967346.81949  23407999.5994   23408002.2894   23407999.9334
       217.0004        157.0004
 -11093628.56949  -8383082.68749  22335536.0224   22335538.3994   22335534.9404
       230.0004        172.0004
 11 10 12  1 48  0.0000000  0  8G26G05G21G10G08G07G15G28
 -21519337.00849 -16748752.70049  20380810.9154   20380812.9784   20380810.4454
       244.0004        199.0004
 -19708869.40149 -15338166.00149  20854051.2664   20854053.6184   20854051.7774
       242.0004        201.0004
   -243092.30349    -85918.08849  24963616.7204   24963620.8964
       203.0004        129.0004
  -2375589.13249  -1096696.56649  23949980.8424   23949982.9244   23949979.5154
       214.0004        145.0004
 -22027054.32749 -16576682.99249  20824245.8744   20824247.3274   20824244.6064
       246.0004        198.0004
 -11022959.88949  -8570601.78649  22598121.7724   22598123.6624   22598121.7924
       229.0004        172.0004
  -7768359.20849  -6039525.91149  23390374.2594   23390375.7074   23390374.2064
       222.0004        159.0004
 -11161976.24849  -8436340.59349  22322529.5264   22322532.5714   22322530.2584
       230.0004        172.0004
 11 10 12  1 48 30.0000000  0  8G26G05G21G10G08G07G15G28
 -21570331.29549 -16788488.50549  20371107.0494   20371109.0784   20371106.8074
       243.0004        199.0004
 -19672951.41249 -15310177.96549  20860886.0214   20860888.9524   20860886.6174
       242.0004        201.0004
   -281441.20949   -115800.40549  24956320.9794   24956324.4874   24956320.4674
       209.0004        134.0004
  -2262578.68949  -1008636.49849  23971484.4574   23971488.3874   23971484.8604
       213.0004        144.0004
 -21986375.25749 -16544985.01949  20831985.2704   20831988.2904   20831985.2664
       244.0004        198.0004
 -10934913.16649  -8501993.96349  22614876.3724   22614878.9704   22614877.2724
       228.0004        172.0004
  -7860866.57149  -6111609.57049  23372769.7154   23372771.3414   23372770.7604
       219.0004        158.0004
 -11229925.38149  -8489287.93149  22309599.1714   22309602.0394   22309598.6484
       231.0004        172.0004
 11 10 12  1 49  0.0000000  0  8G26G05G21G10G08G07G15G28
 -21620908.68149 -16827899.45449  20361481.7224   20361485.1124   20361482.3584
       242.0004        199.0004
 -19636475.31849 -15281755.04649  20867827.2064   20867830.2314   20867828.4374
       242.0004        201.0004
   -319312.49449   -145310.52049  24949111.8374   24949116.3394   24949112.8404
       205.0004        134.0004
  -2149453.04049   -920486.66049  23993010.7634   23993015.3444   23993012.0444
       210.0004        144.0004
 -21945276.23749 -16512959.80549  20839806.7544   20839809.7234   20839806.6614
       245.0004        199.0004
 -10846653.40549  -8433220.12249  22631672.0994   22631675.1764   22631672.9394
       229.0004        173.0004
  -7953250.09449  -6183596.69849  23355188.5824   23355192.3934   23355189.9354
       217.0004        158.0004
 -11297473.83749  -8541923.04449  22296745.0834   22296748.5224   22296746.4624
       232.0004        175.0004
 11 10 12  1 49 30.0000000  0  8G26G05G21G10G08G07G15G28
 -21671067.75149 -16866984.43249  20351937.6834   20351939.7544   20351937.0374
       244.0004        199.0004
 -19599441.64449 -15252897.63849  20874874.8634   20874877.4414   20874875.7984
       243.0004        201.0004
   -356704.61449   -174447.21649  24941997.6124   24942001.2224   24941995.0904
       205.0004        134.0004
  -2036213.93149   -832248.42849  24014560.0304   24014565.8454   24014561.4644
       213.0004        146.0004
 -21903758.35049 -16480608.20449  20847707.5644   20847709.9234   20847707.4174
       245.0004        199.0004
 -10758181.89249  -8364281.26849  22648507.1294   22648509.4724   22648507.4764
       228.0004        171.0004
  -8045507.95249  -6255485.89749  23337633.9554   23337635.5114   23337633.9964
       221.0004        161.0004
 -11364618.93449  -8594243.85749  22283969.3584   22283971.0964   22283967.8564
       232.0004        174.0004
 11 10 12  1 50  0.0000000  0  8G26G05G21G10G08G07G15G28
 -21720807.50449 -16905742.67849  20342471.7824   20342474.4904   20342472.4684
       243.0004        200.0004
 -19561851.83549 -15223606.89049  20882028.7004   20882030.3934   20882028.6354
       242.0004        201.0004
   -393616.90549   -203210.02849  24934974.5664   24934975.1704   24934971.9984
       209.0004        135.0004
  -1922864.21049   -743924.00749  24036128.4124   24036134.8524   24036128.8404
       210.0004        146.0004
 -21861823.94449 -16447932.05049  20855687.4104   20855689.9674   20855687.1894
       245.0004        198.0004
 -10669501.32149  -8295179.54049  22665382.9044   22665386.0604   22665383.0284
       229.0004        172.0004
  -8137639.58949  -6327276.74649  23320101.3424   23320103.8644   23320102.3154
       221.0004        160.0004
 -11431359.15749  -8646249.20049  22271268.1124   22271270.2544   22271267.5334
       232.0004        174.0004
 11 10 12  1 50 30.0000000  0  8G26G05G21G10G08G07G15G28
 -21770126.59749 -16944173.13249  20333087.2124   20333089.4674   20333087.2794
       243.0004        200.0004
 -19523705.95949 -15193882.83449  20889286.5604   20889289.1174   20889287.1354
       242.0004        200.0004
   -430048.37049   -231598.21149  24928040.2544   24928043.9484   24928040.1154
       210.0004        135.0004
  -1809405.42249   -655514.59349  24057721.5704   24057724.7004   24057720.9714
       213.0004        145.0004
 -21819473.87049 -16414931.99549  20863746.1384   20863749.0214   20863745.6234
       244.0004        197.0004
 -10580613.22549  -8225916.08049  22682298.1004   22682299.3704   22682298.5234
       230.0004        173.0004
  -8229643.55949  -6398968.15149  23302593.8604   23302594.9704   23302593.6174
       221.0004        156.0004
 -11497691.62449  -8697936.81149  22258645.7744   22258647.1274   22258645.0434
       232.0004        173.0004
 11 10 12  1 51  0.0000000  0  8G26G05G21G10G08G07G15G28
 -21819023.87449 -16982274.90249  20323781.8494   20323784.6464   20323782.2574
       244.0004        199.0004
 -19485005.99249 -15163727.03149  20896652.2404   20896653.6074   20896652.1414
       243.0004        200.0004
   -465998.17949   -259611.04449  24921201.2934   24921201.4574   24921201.9184
       211.0004        137.0004
  -1695840.20549   -567022.25649  24079333.5744   24079335.9324   24079331.6764
       214.0004        143.0004
 -21776709.90949 -16381609.43149  20871883.9064   20871886.6504   20871883.7614
       245.0004        198.0004
 -10491519.82149  -8156492.64949  22699252.7854   22699253.6844   22699251.5994
       230.0004        174.0004
  -8321519.05749  -6470559.43549  23285109.6994   23285111.2664   23285111.0504
       218.0004        160.0004
 -11563614.96949  -8749305.60949  22246101.0954   22246102.4074   22246100.0864
       232.0004        174.0004
 11 10 12  1 51 30.0000000  0  8G26G05G21G10G08G07G15G28
 -21867497.88849 -17020046.86349  20314557.5524   20314560.3274   20314558.5304
       244.0004        200.0004
 -19445752.33549 -15133139.77649  20904120.9844   20904123.2524   20904121.6904
       242.0004        201.0004
   -501464.87449   -287247.43549  24914448.6564   24914451.4764   24914449.1134
       207.0004        135.0004
  -1582170.59249   -478448.57649  24100962.8894   24100966.5294   24100962.3804
       214.0004        145.0004
 -21733533.21249 -16347965.25449  20880100.5044   20880102.5544   20880099.9004
       245.0004        198.0004
 -10402222.93349  -8086910.69049  22716245.0014   22716246.4904   22716244.7074
       230.0004        173.0004
  -8413264.45549  -6542049.33249  23267650.6674   23267653.0924   23267651.2174
       219.0004        160.0004
 -11629126.88749  -8800353.83449  22233633.0294   22233636.0894   22233633.7324
       232.0004        175.0004
 11 10 12  1 52  0.0000000  0  8G26G05G21G10G08G07G15G28
 -21915547.37249 -17057488.01249  20305413.7464   20305417.0604   20305414.3584
       243.0004        200.0004
 -19405945.86149 -15102121.75049  20911696.2474   20911698.2584   20911696.8344
       242.0004        200.0004
   -536447.21149   -314506.39149  24907792.2044   24907795.6744   24907792.7134
       206.0004        136.0004
  -1468398.39349   -389794.92249  24122615.6174   24122618.5504   24122613.3604
       215.0004        144.0004
 -21689945.50549 -16314000.80349  20888394.7204   20888397.2864   20888394.4894
       244.0004        198.0004
 -10312723.94649  -8017171.23049  22733275.8284   22733277.4824   22733276.1704
       229.0004        174.0004
  -8504878.44849  -6613436.81949  23250217.7834   23250219.4974   23250217.0584
       219.0004        158.0004
 -11694225.04849  -8851079.63449  22221246.3574   22221248.1504   22221245.9884
       233.0004        176.0004
 11 10 12  1 52 30.0000000  0  8G26G05G21G10G08G07G15G28
 -21963171.51849 -17094597.73449  20296351.3794   20296354.0304   20296351.5714
       242.0004        199.0004
 -19365587.85049 -15070673.95949  20919376.3704   20919378.1014   20919376.6214
       242.0004        200.0004
   -570944.33849   -341387.28949  24901229.2564   24901230.2824   24901230.2844
       210.0004        139.0004
  -1354526.19749   -301063.38549  24144283.1184   24144285.8814   24144281.7874
       213.0004        141.0004
 -21645948.54249 -16279717.45649  20896767.3554   20896769.9554   20896766.7454
       245.0004        198.0004
 -10223025.46849  -7947276.30349  22750344.4894   22750345.8884   22750345.2984
       228.0004        172.0004
  -8596360.16449  -6684721.26449  23232810.7354   23232810.1684   23232809.3394
       222.0004        158.0004
 -11758908.12049  -8901482.00449  22208935.9384   22208939.3004   22208937.4704
       231.0004        176.0004
 11 10 12  1 53  0.0000000  0  8G26G05G21G10G08G07G15G28
 -22010368.81349 -17131374.84149  20287369.7184   20287372.6804   20287370.0174
       242.0004        199.0004
 -19324679.18849 -15038797.08349  20927160.3704   20927163.0344   20927160.7004
       242.0004        200.0004
   -604955.66449   -367889.61449  24894756.8664   24894759.0384   24894756.9974
       208.0004        137.0004
  -1240555.87949   -212255.39949  24165971.8524   24165974.4924   24165970.1994
       213.0004        142.0004
 -21601543.58749 -16245116.19149  20905216.9384   20905219.6144   20905216.5504
       245.0004        199.0004
 -10133128.67349  -7877226.87549  22767450.7924   22767452.5324   22767453.0904
       226.0004        171.0004
  -8687708.01949  -6755901.40049  23215425.3384   23215427.9144   23215425.6424
       219.0004        160.0004
 -11823173.78449  -8951559.12549  22196708.3764   22196709.7114   22196706.7074
       233.0004        175.0004
 11 10 12  1 53 30.0000000  0  8G26G05G21G10G08G07G15G28
 -22057137.79649 -17167818.20049  20278469.9594   20278473.1684   20278470.1444
       243.0004        199.0004
 -19283220.71449 -15006491.79549  20935050.1794   20935052.3514   20935050.3994
       242.0004        200.0004
   -638479.73349   -394012.31149  24888379.2144   24888378.0724   24888377.2604
       210.0004        137.0004
  -1126489.48349   -123372.52849  24187678.4934   24187680.3064   24187675.8384
       210.0004        137.0004
 -21556732.20749 -16210198.23949  20913744.1764   20913747.1894   20913744.0414
       245.0004        199.0004
 -10043035.53649  -7807024.46049  22784596.2264   22784598.4804   22784596.3364
       227.0004        171.0004
  -8778920.59649  -6826976.11249  23198068.9994   23198071.3454   23198068.7874
       219.0004        160.0004
 -11887019.45949  -9001308.97049  22184558.7994   22184560.9554   22184558.2514
       230.0004        175.0004
 11 10 12  1 54  0.0000000  0  8G26G05G21G10G08G07G15G28
 -22103477.87449 -17203927.35149  20269652.0044   20269654.9704   20269652.4004
       244.0004        199.0004
 -19241213.93649 -14973759.24949  20943042.9654   20943045.8844   20943043.8184
       242.0004        200.0004
   -671515.91249   -419754.80349  24882091.0234   24882093.2384   24882089.7544
       211.0004        138.0004
  -1012329.55349    -34416.77449  24209402.2664   24209403.1824   24209398.9054
       209.0004        139.0004
 -21511516.19049 -16174964.97649  20922349.2784   20922351.5074   20922348.5294
       245.0004        199.0004
  -9952748.38149  -7736670.86049  22801776.7094   22801778.0044   22801777.4034
       227.0004        170.0004
  -8869997.08949  -6897944.77549  23180737.0704   23180738.0474   23180736.7774
       219.0004        158.0004
 -11950443.60749  -9050730.36249  22172488.8344   22172491.6914   22172489.3244
       230.0004        175.0004
 11 10 12  1 54 30.0000000  0  8G26G05G21G10G08G07G15G28
 -22149387.12649 -17239700.78749  20260916.0514   20260918.7674   20260915.9484
       243.0004        199.0004
 -19198659.56749 -14940600.00849  20951141.3094   20951143.9984   20951141.6784
       241.0004        201.0004
   -704062.88949   -445116.11649  24875899.1134   24875901.0954   24875899.3724
       211.0004        137.0004
   -898077.89649     54610.46049  24231142.7334   24231144.2194   24231140.2724
       209.0004        139.0004
 -21465897.11349 -16139417.64249  20931029.6764   20931032.3724   20931029.0654
       244.0004        198.0004
  -9862268.57649  -7666167.13249  22818992.8944   22818996.1194   22818993.6254
       225.0004        167.0004
  -8960935.90149  -6968806.21249  23163432.2574   23163433.6164   23163432.9514
       221.0004        160.0004
 -12013444.12049  -9099821.64149  22160500.9534   22160502.8074   22160499.6494
       230.0004        174.0004
 11 10 12  1 55  0.0000000  0  8G26G05G21G10G08G07G15G28
 -22194864.87149 -17275137.99149  20252261.8064   20252264.5824   20252261.7344
       243.0004        200.0004
 -19155559.09249 -14907015.23149  20959343.1904   20959345.6024   20959343.5754
       243.0004        200.0004
   -736120.10249   -470095.77549  24869797.8544   24869797.7624   24869798.5224
       213.0004        138.0004
   -783736.94949    143707.28449  24252900.5864   24252904.6024   24252898.8054
       208.0004        138.0004
 -21419876.37249 -16103557.32149  20939787.2914   20939789.4274   20939787.0284
       245.0004        199.0004
  -9771598.28849  -7595514.97349  22836248.3524   22836250.2454   22836248.6494
       226.0004        167.0004
  -9051736.07249  -7039559.56549  23146153.0494   23146156.5434   23146153.7224
       218.0004        162.0004
 -12076019.35349  -9148581.55649  22148591.4364   22148595.1004   22148591.7224
       228.0004        175.0004
 11 10 12  1 55 30.0000000  0  8G26G05G21G10G08G07G15G28
 -22239909.73649 -17310237.87949  20243689.4434   20243692.8034   20243690.2324
       243.0004        200.0004
 -19111913.49249 -14873005.68849  20967649.1734   20967651.0324   20967649.2944
       242.0004        200.0004
   -767686.41049   -494692.90549  24863790.5764   24863793.2724   24863790.6334
       208.0004        137.0004
   -669308.70749    232872.07249  24274674.6624   24274677.7814   24274675.2774
       208.0004        137.0004
 -21373455.70449 -16067385.36349  20948621.4334   20948623.4824   20948620.6424
       246.0004        199.0004
  -9680739.19849  -7524715.68049  22853538.0614   22853540.1334   22853537.9304
       224.0004        166.0004
  -9142396.17849  -7110203.77249  23128901.8924   23128904.8894   23128902.2914
       220.0004        162.0004
 -12138166.95649  -9197008.23549  22136766.4424   22136768.6744   22136765.8454
       230.0004        175.0004
 11 10 12  1 56  0.0000000  0  8G26G05G21G10G08G07G15G28
 -22284520.75849 -17344999.70549  20235201.5704   20235203.2534   20235201.2294
       244.0004        200.0004
 -19067723.96449 -14838572.29349  20976057.4204   20976059.6684   20976058.1094
       241.0004        200.0004
   -798760.66549   -518906.63649  24857877.1844   24857880.0494   24857875.9804
       203.0004        135.0004
   -554795.52749    322103.10149  24296465.6944   24296469.1484   24296463.7084
       207.0004        136.0004
 -21326636.82749 -16030903.11449  20957530.3484   20957532.9664   20957530.2304
       245.0004        199.0004
  -9589693.40949  -7453770.91449  22870863.9884   22870865.6374   22870863.6204
       226.0004        170.0004
  -9232915.27049  -7180738.11449  23111676.8794   23111678.1494   23111676.3454
       220.0004        161.0004
 -12199885.23949  -9245100.37349  22125021.3254   22125024.1364   22125021.2374
       231.0004        176.0004
 11 10 12  1 56 30.0000000  0  8G26G05G21G10G08G07G15G28
 -22328696.64149 -17379422.47349  20226794.3294   20226797.1024   20226794.6604
       244.0004        200.0004
 -19022991.54149 -14803715.86949  20984569.6504   20984572.2504   20984570.0684
       240.0004        199.0004
   -829342.78249   -542736.89149  24852055.6324   24852058.4694   24852057.6784
       206.0004        134.0004
   -440199.50249    411398.69449  24318270.3754   24318275.7644   24318270.0874
       200.0004        136.0004
 -21279420.88449 -15994111.47549  20966514.9824   20966517.5984   20966514.7284
       246.0004        199.0004
  -9498462.48949  -7382681.91849  22888223.8434   22888226.1764   22888224.5604
       225.0004        169.0004
  -9323291.80849  -7251161.40449  23094477.4904   23094480.7774   23094477.7684
       220.0004        161.0004
 -12261172.02649  -9292856.27949  22113359.3544   22113361.6284   22113358.9464
       232.0004        175.0004
 11 10 12  1 57  0.0000000  0  8G26G05G21G10G08G07G15G28
 -22372435.82349 -17413504.94749  20218471.1794   20218473.7844   20218471.2314
       244.0004        200.0004
 -18977717.18549 -14768437.16349  20993185.0044   20993187.4854   20993185.7494
       240.0004        199.0004
   -859431.53949   -566182.67949  24846332.3544   24846332.5114   24846333.2264
       207.0004        136.0004
   -325522.44449    500757.37749  24340094.7894   24340100.0814   24340093.7194
       207.0004        138.0004
 -21231809.17449 -15957011.43249  20975575.1514   20975577.8134   20975574.3894
       245.0004        199.0004
  -9407048.22149  -7311450.05449  22905620.0764   22905622.5254   22905620.6514
       226.0004        170.0004
  -9413524.21249  -7321472.33749  23077305.3524   23077310.8444   23077307.4504
       218.0004        163.0004
 -12322025.53549  -9340274.55849  22101778.3644   22101781.4494   22101778.4594
       231.0004        174.0004
 11 10 12  1 57 30.0000000  0  8G26G05G21G10G08G07G15G28
 -22415737.82649 -17447246.77049  20210230.5224   20210233.7114   20210231.4404
       245.0004        200.0004
 -18931902.52949 -14732737.44149  21001904.0064   21001905.9284   21001904.3454
       240.0004        199.0004
   -889026.41949   -589243.64049  24840698.7544   24840700.6054   24840700.3994
       203.0004        134.0004
   -210767.06849    590177.13849  24361930.4554   24361937.8634   24361934.2984
       205.0004        134.0004
 -21183804.06349 -15919604.85149  20984710.2014   20984713.0954   20984710.3084
       245.0004        199.0004
  -9315452.87249  -7240077.06149  22923050.1064   22923052.3954   22923051.1284
       227.0004        169.0004
  -9503611.65249  -7391670.32849  23060165.5104   23060167.9914   23060165.8594
       222.0004        165.0004
 -12382443.92749  -9387353.79049  22090281.6104   22090284.1884   22090281.4724
       230.0004        176.0004
 11 10 12  1 58  0.0000000  0  8G26G05G21G10G08G07G15G28
 -22458600.49249 -17480646.24749  20202074.7604   20202077.0424   20202075.0184
       244.0004        201.0004
 -18885548.24349 -14696617.22749  21010724.6244   21010726.8794   21010724.7424
       239.0004        198.0004
   -918125.43449   -611918.17349  24835161.7894   24835163.8284   24835162.1194
       206.0004        132.0004
    -95934.51849    679657.04949  24383783.6214   24383790.1074   24383782.3464
       207.0004        137.0004
 -21135406.42749 -15881892.39849  20993920.3754   20993922.5344   20993920.0294
       244.0004        198.0004
  -9223677.14149  -7168563.51749  22940514.9264   22940515.6524   22940514.3934
       226.0004        168.0004
  -9593552.09549  -7461753.76749  23043049.0594   23043050.4724   23043048.7494
       218.0004        161.0004
 -12442424.60149  -9434091.95649  22078868.3314   22078870.1364   22078867.3934
       232.0004        176.0004
 11 10 12  1 58 30.0000000  0  8G26G05G21G10G08G07G15G28
 -22501023.28449 -17513702.96949  20194002.1704   20194004.0514   20194001.7894
       244.0004        201.0004
 -18838656.04649 -14660077.86849  21019647.0364   21019650.0164   21019647.9074
       238.0004        198.0004
   -946728.96849   -634206.63949  24829720.3554   24829722.3244   24829720.8204
       207.0004        132.0004
     18972.20549    769194.68849  24405650.4484   24405654.8444   24405651.3944
       212.0004        139.0004
 -21086618.67649 -15843875.97449  21003203.5464   21003206.2974   21003203.6124
       242.0004        197.0004
  -9131723.87049  -7096911.62849  22958013.2294   22958014.0854   22958012.9014
       226.0004        168.0004
  -9683345.06049  -7531722.31549  23025961.3684   23025964.3054   23025962.9844
       219.0004        162.0004
 -12501966.67949  -9480488.35849  22067537.1104   22067539.2324   22067536.5784
       230.0004        176.0004
 11 10 12  1 59  0.0000000  0  8G26G05G21G10G08G07G15G28
 -22543004.81649 -17546415.85149  20186012.3134   20186015.5364   20186012.4494
       244.0004        200.0004
 -18791226.64149 -14623119.89749  21028672.9724   21028675.6374   21028673.5404
       239.0004        197.0004
   -974835.71049   -656108.00849  24824371.4524   24824372.0234   24824371.6794
       206.0004        131.0004
    133951.17449    858788.70049  24427531.1824   24427534.0714   24427526.8384
       208.0004        138.0004
 -21037441.43449 -15805556.04249  21012562.3914   21012564.9974   21012562.1034
       243.0004        198.0004
  -9039594.16849  -7025122.26649  22975543.5114   22975546.3794   22975543.8454
       224.0004        168.0004
  -9772988.56849  -7601574.39449  23008904.7084   23008907.2384   23008905.1424
       221.0004        166.0004
 -12561067.35649  -9526540.81849  22056291.4914   22056293.0784   22056291.6804
       232.0004        177.0004
 11 10 12  1 59 30.0000000  0  8G26G05G21G10G08G07G15G28
 -22584544.43249 -17578784.37949  20178108.0514   20178111.0914   20178108.3684
       244.0004        201.0004
 -18743262.11049 -14585744.95449  21037800.7124   21037802.9204   21037801.2314
       239.0004        197.0004
  -1002445.53249   -677622.10749  24819116.8424   24819118.6424   24819114.3294
       204.0004        128.0004
    248999.85249    948436.95849  24449424.3154   24449428.3414   24449422.6714
       210.0004        138.0004
 -20987877.24549 -15766934.59649  21021993.3544   21021996.6594   21021993.4534
       242.0004        197.0004
  -8947290.73449  -6953197.54049  22993108.2284   22993111.0014   22993108.8364
       225.0004        169.0004
  -9862482.34149  -7671309.76749  22991873.9514   22991877.7864   22991875.2334
       220.0004        166.0004
 -12619725.66749  -9572248.56349  22045128.5554   22045130.7744   22045128.4174
       232.0004        177.0004
 11 10 12  2  0  0.0000000  0  8G26G05G21G10G08G07G15G28
 -22625640.98049 -17610807.66349  20170287.9994   20170290.4844   20170287.8224
       245.0004        201.0004
 -18694763.76549 -14547954.04749  21047028.8134   21047031.8484   21047029.8614
       239.0004        197.0004
  -1029557.61649   -698748.42049  24813957.3094   24813961.4564   24813955.5604
       201.0004        131.0004
    364116.28749   1038138.06849  24471328.9304   24471333.2844   24471326.9844
       207.0004        136.0004
 -20937927.57249 -15728012.76749  21031499.0364   21031501.7674   21031498.6704
       242.0004        197.0004
  -8854815.22949  -6881138.74449  23010705.5834   23010708.9904   23010706.8864
       225.0004        168.0004
  -9951824.81749  -7740927.24249  22974872.1324   22974875.1674   22974872.5484
       221.0004        163.0004
 -12677939.77049  -9617610.16849  22034050.4714   22034053.4934   22034050.7304
       232.0004        178.0004
 11 10 12  2  0 30.0000000  0  8G26G05G21G10G08G07G15G28
 -22666292.23049 -17642483.95949  20162551.9174   20162554.5834   20162552.4434
       244.0004        201.0004
 -18645731.62049 -14509747.19749  21056360.7644   21056362.7534   21056360.9484
       239.0004        198.0004
  -1056170.26249   -719485.58849  24808895.0844   24808895.2444   24808893.8414
       202.0004        131.0004
    479299.33449   1127891.03449  24493248.6554   24493252.3704   24493247.9084
       204.0004        137.0004
 -20887592.85549 -15688790.91749  21041077.4654   21041080.1814   21041077.0284
       243.0004        197.0004
  -8762168.07749  -6808946.16249  23028336.2544   23028339.0554   23028336.9234
       224.0004        166.0004
 -10041013.18349  -7810424.67249  22957901.8204   22957902.8004   22957902.3444
       224.0004        165.0004
 -12735706.63249  -9662623.28049  22023059.2484   22023060.2734   22023058.0504
       234.0004        177.0004
 11 10 12  2  1  0.0000000  0  8G26G05G21G10G08G07G15G28
 -22706498.46949 -17673813.49549  20154901.5494   20154903.8614   20154901.4404
       246.0004        202.0004
 -18596168.31349 -14471126.44149  21065790.1024   21065794.2344   21065791.1794
       238.0004        197.0004
  -1082283.79349   -739833.79449  24803923.7344   24803926.6534   24803924.7364
       203.0004        130.0004
    594545.50449   1217693.20049  24515178.7554   24515183.1614   24515179.6894
       208.0004        139.0004
 -20836875.82849 -15649271.16149  21050728.4704   21050730.9654   21050728.3944
       243.0004        197.0004
  -8669352.62249  -6736622.42749  23045998.9154   23046001.2264   23045999.0324
       223.0004        164.0004
 -10130047.70549  -7879802.20749  22940958.2164   22940961.4474   22940958.1584
       225.0004        168.0004
 -12793025.65149  -9707287.40849  22012150.4014   22012153.2804   22012150.4694
       232.0004        177.0004
 11 10 12  2  1 30.0000000  0  8G26G05G21G10G08G07G15G28
 -22746257.73249 -17704794.73849  20147335.4444   20147337.9654   20147335.3214
       245.0004        202.0004
 -18546074.76549 -14432092.52449  21075324.4014   21075326.4904   21075324.8334
       240.0004        197.0004
  -1107897.16449   -759792.28349  24799050.2714   24799053.0354   24799050.6724
       205.0004        131.0004
    709853.02949   1307543.18449  24537121.5534   24537121.9254   24537120.4924
       208.0004        134.0004
 -20785777.86749 -15609454.55649  21060452.1674   21060454.2574   21060451.9464
       243.0004        196.0004
  -8576370.17249  -6664168.61049  23063692.5654   23063695.4474   23063692.6874
       223.0004        165.0004
 -10218926.64749  -7949058.49149  22924043.7094   22924047.1214   22924044.8754
       223.0004        167.0004
 -12849894.77049  -9751600.99149  22001328.9504   22001330.4034   22001329.1164
       235.0004        179.0004
 11 10 12  2  2  0.0000000  0  8G26G05G21G10G08G07G15G28
 -22785569.26849 -17735427.10449  20139854.7374   20139857.2524   20139854.6184
       245.0004        202.0004
 -18495452.41549 -14392646.54749  21084957.3824   21084959.9004   21084958.0094
       239.0004        197.0004
  -1133009.73849   -779360.48849  24794270.1644   24794272.7164   24794270.4984
       209.0004        134.0004
    825220.05149   1397439.58049  24559074.4684   24559079.9004   24559072.7854
       208.0004        138.0004
 -20734300.80149 -15569342.55449  21070247.8434   21070251.0154   21070247.4444
       242.0004        196.0004
  -8483222.34349  -6591585.90149  23081418.7374   23081420.4204   23081418.5404
       222.0004        165.0004
 -10307648.54649  -8018192.42849  22907163.0014   22907163.3584   22907162.5334
       226.0004        166.0004
 -12906312.20949  -9795562.61049  21990593.2634   21990594.7094   21990592.9234
       235.0004        179.0004
 11 10 12  2  2 30.0000000  0  8G26G05G21G10G08G07G15G28
 -22824431.81349 -17765709.60049  20132459.4334   20132462.3304   20132459.2854
       245.0004        202.0004
 -18444302.57549 -14352789.54649  21094690.7564   21094693.1044   21094691.3554
       239.0004        196.0004
  -1157620.89749   -798537.99049  24789589.8454   24789589.8464   24789589.0854
       209.0004        134.0004
    940644.25349   1487380.47949  24581039.4074   24581043.5174   24581039.3084
       208.0004        140.0004
 -20682446.37549 -15528936.51749  21080115.3244   21080118.1044   21080114.7594
       241.0004        195.0004
  -8389910.70949  -6518875.55649  23099174.1394   23099177.2334   23099175.0164
       222.0004        163.0004
 -10396212.30249  -8087203.13249  22890308.4414   22890310.9644   22890308.9344
       225.0004        168.0004
 -12962276.02349  -9839170.76049  21979943.7334   21979945.1524   21979943.7994
       236.0004        180.0004
 11 10 12  2  3  0.0000000  0  8G26G05G21G10G08G07G15G28
 -22862843.95849 -17795641.13949  20125149.2234   20125152.1934   20125149.2364
       244.0004        202.0004
 -18392626.61649 -14312522.57149  21104523.1104   21104526.5334   21104524.6054
       237.0004        196.0004
  -1181729.91349   -817324.25249  24785000.8304   24785003.6914   24785001.6014
       210.0004        136.0004
   1056123.61149   1577364.35649  24603013.2844   24603019.0844   24603013.4814
       211.0004        138.0004
 -20630215.49749 -15488237.12849  21090054.0754   21090057.4474   21090054.0014
       242.0004        195.0004
  -8296437.09249  -6446039.00749  23116961.7994   23116963.8484   23116962.6494
       222.0004        162.0004
 -10484616.19049  -8156089.24649  22873485.2704   22873489.0894   22873485.8374
       224.0004        168.0004
 -13017784.42149  -9882424.03049  21969380.2274   21969382.7084   21969379.8054
       235.0004        180.0004
 11 10 12  2  3 30.0000000  0  8G26G05G21G10G08G07G15G28
 -22900804.99849 -17825221.17149  20117925.9334   20117928.1574   20117926.0044
       244.0004        201.0004
 -18340426.19849 -14271846.93949  21114457.8674   21114460.1324   21114458.4134
       238.0004        196.0004
  -1205336.50049   -835718.99149  24780507.8594   24780510.5654   24780508.7564
       208.0004        138.0004
   1171655.64949   1667389.31249  24625000.3904   24625002.8354   24624999.1184
       210.0004        137.0004
 -20577610.05549 -15447245.88149  21100064.3614   21100067.6814   21100064.2524
       240.0004        194.0004
  -8202804.01549  -6373078.15249  23134780.9354   23134782.0764   23134781.3844
       224.0004        163.0004
 -10572859.23749  -8224850.03349  22856693.7914   22856696.7764   22856694.8594
       227.0004        170.0004
 -13072835.95049  -9925321.31849  21958904.8654   21958906.6054   21958903.7894
       235.0004        179.0004
 11 10 12  2  4  0.0000000  0  8G26G05G21G10G08G07G15G28
 -22938313.75449 -17854448.76949  20110787.4914   20110790.8544   20110787.8514
       244.0004        201.0004
 -18287702.72449 -14230763.72149  21124491.1954   21124492.9544   21124491.0054
       239.0004        196.0004
  -1228439.64649   -853721.43049  24776110.7834   24776112.5454   24776112.0784
       207.0004        136.0004
   1287238.55849   1757453.89049  24646994.5024   24646997.1034   24646992.6434
       210.0004        136.0004
 -20524632.01949 -15405964.30949  21110146.1104   21110149.4874   21110146.0064
       240.0004        194.0004
  -8109012.84549  -6299994.10049  23152627.1924   23152631.2104   23152628.0014
       224.0004        164.0004
 -10660940.12449  -8293484.47749  22839932.5884   22839934.2174   22839932.1594
       225.0004        169.0004
 -13127428.91749  -9967861.27949  21948516.5404   21948518.0874   21948515.7524
       236.0004        180.0004
 11 10 12  2  4 30.0000000  0  8G26G05G21G10G08G07G15G28
 -22975369.02749 -17883323.00549  20103737.0034   20103739.6154   20103737.3684
       244.0004        202.0004
 -18234457.51549 -14189273.96349  21134622.0614   21134625.3854   21134622.8564
       237.0004        196.0004
  -1251039.21749   -871331.48849  24771811.5444   24771813.3084   24771810.6994
       210.0004        135.0004
   1402870.21349   1847556.47349  24668998.3994   24669003.6434   24669000.3554
       208.0004        135.0004
 -20471282.92149 -15364393.57749  21120298.3144   21120300.7584   21120297.7914
       240.0004        194.0004
  -8015064.66249  -6226787.72049  23170505.6764   23170508.0334   23170505.5684
       225.0004        163.0004
 -10748857.21649  -8361991.28549  22823201.3884   22823203.9824   22823203.1224
       224.0004        168.0004
 -13181561.18349 -10010042.25249  21938214.4804   21938216.4494   21938214.3654
       234.0004        180.0004
 11 10 12  2  5  0.0000000  0  8G26G05G21G10G08G07G15G28
 -23011969.63449 -17911842.95249  20096771.6254   20096774.4814   20096771.8304
       244.0004        201.0004
 -18180691.85049 -14147378.65049  21144853.8164   21144856.6504   21144854.0094
       238.0004        196.0004
  -1273134.40649   -888548.53449  24767605.6104   24767608.2014   24767606.7314
       205.0004        135.0004
   1518548.46749   1937695.36149  24691010.5824   24691014.1604   24691010.7844
       207.0004        134.0004
 -20417564.24949 -15322534.88849  21130520.2864   21130523.1444   21130520.4964
       241.0004        194.0004
  -7920961.59549  -6153460.65149  23188413.3964   23188414.9454   23188413.0584
       224.0004        162.0004
 -10836609.15649  -8430369.40149  22806503.2444   22806506.8044   22806504.2494
       226.0004        171.0004
 -13235231.26149 -10051863.08049  21928001.5564   21928003.5974   21928002.0474
       235.0004        181.0004
 11 10 12  2  5 30.0000000  0  8G26G05G21G10G08G07G15G28
 -23048114.75449 -17940007.97649  20089893.7194   20089896.1204   20089893.6934
       244.0004        202.0004
 -18126407.57349 -14105079.23049  21155183.7564   21155186.9144   21155184.4874
       238.0004        197.0004
  -1294724.82549   -905372.24249  24763499.5324   24763499.9644   24763498.1954
       206.0004        135.0004
   1634270.96549   2027868.69249  24713031.7144   24713036.2164   24713032.1804
       205.0004        131.0004
 -20363477.94349 -15280389.70749  21140812.9664   21140815.8964   21140812.5144
       241.0004        194.0004
  -7826705.48649  -6080014.33749  23206348.8214   23206350.6834   23206350.3114
       222.0004        162.0004
 -10924194.71249  -8498617.85249  22789834.7714   22789838.4954   22789835.6954
       224.0004        170.0004
 -13288437.34349 -10093322.34249  21917876.6974   21917879.1744   21917876.4644
       235.0004        181.0004
 11 10 12  2  6  0.0000000  0  8G26G05G21G10G08G07G15G28
 -23083803.09949 -17967817.07349  20083102.5234   20083105.3554   20083102.1204
       244.0004        202.0004
 -18071605.91549 -14062376.65049  21165613.0314   21165615.1194   21165613.3384
       240.0004        197.0004
  -1315809.79549   -921802.05349  24759485.0884   24759487.8294   24759486.4784
       207.0004        135.0004
   1750035.80449   2118075.03349  24735059.6544   24735063.8344   24735056.9344
       201.0004        131.0004
 -20309025.19649 -15237959.00249  21151174.6654   21151177.7724   21151174.2444
       241.0004        193.0004
  -7732297.79149  -6006449.92149  23224314.7884   23224317.3814   23224314.8134
       223.0004        162.0004
 -11011612.40749  -8566735.52549  22773201.4154   22773204.1054   22773202.5854
       224.0004        169.0004
 -13341178.09649 -10134419.01749  21907840.4744   21907842.5274   21907840.6494
       235.0004        181.0004
 11 10 12  2  6 30.0000000  0  8G26G05G21G10G08G07G15G28
 -23119033.44749 -17995269.29449  20076398.0254   20076401.1234   20076398.4714
       242.0004        202.0004
 -18016288.44949 -14019272.14049  21176139.8394   21176141.7994   21176140.0954
       239.0004        197.0004
  -1336388.60749   -937837.46149  24755568.9214   24755571.2864   24755569.2444
       206.0004        135.0004
   1865841.21749   2208313.03749  24757097.8054   24757103.2604   24757099.2684
       200.0004        131.0004
 -20254207.58249 -15195243.98149  21161606.8564   21161609.1034   21161606.2044
       241.0004        194.0004
  -7637740.42649  -5932768.85749  23242307.9704   23242310.1214   23242308.5084
       224.0004        162.0004
 -11098860.88849  -8634721.33649  22756598.7024   22756600.8014   22756598.8874
       224.0004        169.0004
 -13393451.53949 -10175151.54349  21897893.5544   21897895.3754   21897892.7744
       235.0004        181.0004
 11 10 12  2  7  0.0000000  0  8G26G05G21G10G08G07G15G28
 -23153804.81749 -18022363.86849  20069781.1514   20069784.0684   20069781.4494
       243.0004        202.0004
 -17960456.74249 -13975766.92549  21186763.4654   21186766.0164   21186763.9144
       239.0004        197.0004
  -1356461.14949   -953478.38649  24751748.8104   24751750.5064   24751748.9084
       203.0004        136.0004
   1981684.63349   2298580.56949  24779142.5804   24779145.9884   24779140.9324
       203.0004        131.0004
 -20199026.93149 -15152246.07749  21172106.9054   21172109.9524   21172106.5764
       240.0004        194.0004
  -7543034.94049  -5858972.36849  23260328.4554   23260331.3454   23260329.5654
       221.0004        162.0004
 -11185938.48549  -8702573.97849  22740027.7274   22740030.8714   22740028.0054
       224.0004        169.0004
 -13445256.14549 -10215518.74449  21888035.0674   21888037.6404   21888035.4794
       234.0004        182.0004
 11 10 12  2  7 30.0000000  0  8G26G05G21G10G08G07G15G28
 -23188116.75549 -18049100.43949  20063251.9494   20063254.8754   20063252.1414
       243.0004        202.0004
 -17904112.55449 -13931862.37649  21197485.5614   21197488.2234   21197485.8374
       239.0004        197.0004
  -1376027.32049   -968724.75049  24748025.9044   24748029.6034   24748026.9944
       203.0004        136.0004
   2097563.62349   2388875.84349  24801194.1454   24801199.9734   24801194.6114
       204.0004        130.0004
 -20143485.59749 -15108967.11149  21182676.1134   21182678.6134   21182676.2044
       241.0004        195.0004
  -7448183.41349  -5785062.07349  23278378.2524   23278382.5294   23278379.3414
       221.0004        163.0004
 -11272844.60649  -8770293.01349  22723491.5634   22723493.4694   22723491.1534
       226.0004        171.0004
 -13496590.74149 -10255519.69949  21878266.4814   21878268.9504   21878266.1104
       234.0004        183.0004
 11 10 12  2  8  0.0000000  0  8G26G05G21G10G08G07G15G28
 -23221968.54049 -18075478.45149  20056810.3514   20056812.9644   20056810.4654
       244.0004        203.0004
 -17847258.12149 -13887560.23349  21208304.6244   21208306.9664   21208305.3324
       239.0004        197.0004
  -1395087.13249   -983576.58049  24744398.5094   24744402.0964   24744400.2144
       201.0004        134.0004
   2213475.60949   2479196.89849  24823252.9854   24823253.4754   24823251.4394
       206.0004        131.0004
 -20087585.06149 -15065408.25449  21193313.6974   21193316.3124   21193313.3664
       242.0004        194.0004
  -7353187.91449  -5711039.63149  23296456.8974   23296460.0564   23296456.5504
       222.0004        163.0004
 -11359578.06949  -8837877.49949  22706983.9434   22706987.7154   22706985.3204
       224.0004        169.0004
 -13547454.10549 -10295153.47149  21868587.4034   21868589.5354   21868587.5614
       234.0004        182.0004
 11 10 12  2  8 30.0000000  0  8G26G05G21G10G08G07G15G28
 -23255357.55249 -18101495.86249  20050457.0534   20050459.3444   20050457.0124
       244.0004        203.0004
 -17789893.73449 -13842860.71949  21219220.8974   21219222.7524   21219221.2464
       238.0004        196.0004
  -1413638.83549   -998032.44049  24740867.4734   24740871.0224   24740869.2304
       205.0004        135.0004
   2329420.10149   2569543.23249  24845312.6484   24845320.4494   24845314.8974
       201.0004        130.0004
 -20031325.60649 -15021569.72449  21204019.6984   21204022.3334   21204019.3614
       242.0004        194.0004
  -7258048.91649  -5636905.33549  23314562.5214   23314562.2744   23314561.7774
       221.0004        161.0004
 -11446136.11049  -8905325.32049  22690514.4574   22690516.2674   22690516.2084
       227.0004        170.0004
 -13597843.19749 -10334417.67349  21858999.4114   21859001.0614   21858998.7894
       235.0004        183.0004
 11 10 12  2  9  0.0000000  0  8G26G05G21G10G08G07G15G28
 -23288283.61249 -18127152.53449  20044190.9924   20044193.7524   20044191.1504
       244.0004        203.0004
 -17732021.30149 -13797765.32549  21230233.4774   21230235.7634   21230234.0354
       238.0004        196.0004
  -1431682.26749  -1012092.25649  24737436.6964   24737439.4284   24737435.7504
       209.0004        137.0004
   2445394.36349   2659912.73549  24867383.4864   24867389.2164   24867382.4084
       201.0004        131.0004
 -19974709.77449 -14977453.48849  21214792.9054   21214795.8944   21214792.6404
       242.0004        194.0004
  -7162768.51149  -5562660.86349  23332692.7324   23332694.2414   23332692.2464
       220.0004        161.0004
 -11532518.09449  -8972635.92849  22674076.5044   22674078.1164   22674075.9114
       225.0004        170.0004
 -13647757.16849 -10373311.65149  21849500.0554   21849502.2984   21849499.7554
       232.0004        182.0004
 11 10 12  2  9 30.0000000  0  8G26G05G21G10G08G07G15G28
 -23320746.11049 -18152447.98549  20038013.0284   20038016.2894   20038013.4554
       243.0004        203.0004
 -17673643.07949 -13752275.81949  21241341.7334   21241345.2304   21241342.8234
       238.0004        196.0004
  -1449217.87849  -1025756.38549  24734099.1684   24734100.1954   24734097.9224
       206.0004        136.0004
   2561395.67549   2750303.36649  24889455.4984   24889460.6664   24889455.3344
       200.0004        131.0004
 -19917739.86149 -14933061.35149  21225634.2004   21225636.8314   21225634.0184
       241.0004        194.0004
  -7067349.10849  -5488308.08249  23350850.3094   23350851.4684   23350851.3544
       218.0004        162.0004
 -11618722.93649  -9039808.51349  22657671.5944   22657674.1514   22657672.3964
       225.0004        170.0004
 -13697194.85749 -10411834.51049  21840092.9564   21840094.8184   21840092.8144
       234.0004        182.0004
 11 10 12  2 10  0.0000000  0  8G26G05G21G10G08G07G15G28
 -23352743.48949 -18177381.00149  20031924.7664   20031927.3344   20031924.7364
       244.0004        203.0004
 -17614760.31549 -13706393.15849  21252547.1974   21252550.1804   21252547.8734
       238.0004        196.0004
  -1466244.56049  -1039023.91949  24730858.8254   24730861.9284   24730860.6934
       209.0004        139.0004
   2677422.47049   2840713.83249  24911539.5034   24911540.6134   24911537.6984
       205.0004        134.0004
 -19860416.65649 -14888393.92149  21236542.7314   21236545.1424   21236542.0494
       241.0004        193.0004
  -6971791.69249  -5413847.78349  23369033.0364   23369036.1964   23369034.2844
       217.0004        162.0004
 -11704748.85749  -9106841.67949  22641301.6524   22641303.7434   22641302.1214
       224.0004        170.0004
 -13746154.36149 -10449984.74149  21830775.7144   21830779.1584   21830775.3904
       234.0004        183.0004
 11 10 12  2 10 30.0000000  0  8G26G05G21G10G08G07G15G28
 -23384275.00849 -18201951.01249  20025923.5644   20025926.9384   20025924.4254
       243.0004        203.0004
 -17555374.94149 -13660118.85049  21263848.5284   21263850.4074   21263849.1084
       238.0004        196.0004
  -1482762.57349  -1051895.14549  24727716.5184   24727717.1524   24727716.4874
       211.0004        139.0004
   2793472.09049   2931142.12549  24933617.7334   24933625.6214   24933617.8674
       197.0004        132.0004
 -19802742.29349 -14843452.87249  21247517.3214   21247520.2894   21247517.8044
       241.0004        193.0004
  -6876098.23649  -5339281.48849  23387243.9084   23387245.9064   23387243.7954
       218.0004        160.0004
 -11790594.23349  -9173734.17449  22624966.7114   22624968.7884   22624967.0874
       228.0004        170.0004
 -13794634.31149 -10487761.31649  21821550.8234   21821552.1764   21821550.5194
       234.0004        182.0004
 11 10 12  2 11  0.0000000  0  8G26G05G21G10G08G07G15G28
 -23415338.91049 -18226156.65449  20020013.7764   20020015.6624   20020013.7794
       245.0004        204.0004
 -17495487.93249 -13613453.65249  21275244.2954   21275246.2414   21275244.7744
       237.0004        196.0004
  -1498771.07249  -1064369.32549  24724668.7734   24724673.1074   24724668.3934
       212.0004        138.0004
   2909543.36049   3021587.21849  24955709.5094   24955711.3884   24955708.1674
       207.0004        135.0004
 -19744717.77149 -14798238.96349  21258559.3134   21258561.8624   21258558.9384
       241.0004        193.0004
  -6780269.64349  -5264609.87049  23405480.1184   23405481.9954   23405479.6494
       219.0004        160.0004
 -11876257.59149  -9240484.81749  22608665.3224   22608668.0484   22608664.6754
       226.0004        171.0004
 -13842632.68149 -10525162.62149  21812416.7864   21812419.7054   21812416.6614
       234.0004        183.0004
 11 10 12  2 11 30.0000000  0  8G26G05G21G10G08G07G15G28
 -23445934.55049 -18249997.41149  20014191.2534   20014193.5534   20014191.2954
       245.0004        204.0004
 -17435101.18949 -13566399.05549  21286735.2094   21286737.7474   21286735.7704
       238.0004        195.0004
  -1514269.83249  -1076446.32049  24721720.3414   24721721.9634   24721722.3794
       209.0004        137.0004
   3025633.74349   3112047.23849  24977795.7464   24977800.9904   24977797.3174
       201.0004        135.0004
 -19686344.84449 -14752753.56149  21269667.1634   21269669.3514   21269666.6274
       240.0004        192.0004
  -6684308.04649  -5189834.61149  23423738.7854   23423741.8184   23423740.0984
       218.0004        158.0004
 -11961737.56249  -9307092.57449  22592399.3814   22592400.7294   22592399.8794
       230.0004        172.0004
 -13890148.15149 -10562187.65949  21803374.1594   21803377.1014   21803374.4714
       233.0004        182.0004
 11 10 12  2 12  0.0000000  0  8G26G05G21G10G08G07G15G28
 -23476062.11349 -18273473.43849  20008457.7564   20008460.7844   20008458.1154
       245.0004        204.0004
 -17374217.56849 -13518957.28949  21298321.0914   21298323.8924   21298321.5724
       238.0004        195.0004
  -1529259.76049  -1088126.78649  24718868.6204   24718869.7034   24718868.5654
       210.0004        137.0004
   3141740.26949   3202519.86349  24999894.2414   24999900.5784   24999895.7324
       210.0004        134.0004
 -19627626.42449 -14706998.94549  21280841.3344   21280843.6654   21280841.1444
       241.0004        193.0004
  -6588215.86149  -5114957.58849  23442026.6504   23442028.2214   23442026.4854
       222.0004        158.0004
 -12047033.83049  -9373557.17549  22576167.5184   22576168.7504   22576167.3934
       229.0004        171.0004
 -13937180.40049 -10598836.14849  21794424.6784   21794426.6554   21794425.1754
       233.0004        182.0004
 11 10 12  2 12 30.0000000  0  8G26G05G21G10G08G07G15G28
 -23505719.74749 -18296583.28649  20002814.6084   20002817.0474   20002814.6454
       245.0004        204.0004
 -17312838.24249 -13471129.25549  21310001.3744   21310004.5154   21310001.7034
       238.0004        195.0004
  -1543740.11149  -1099410.20749  24716111.5034   24716114.0744   24716111.4944
       207.0004        137.0004
   3257861.38049   3293003.85649  25021989.8424   25021994.9064   25021990.5244
       205.0004        135.0004
 -19568563.75949 -14660976.09649  21292080.9324   21292082.9784   21292080.2724
       242.0004        193.0004
  -6491994.40449  -5039979.80549  23460337.4604   23460338.1744   23460338.1994
       221.0004        157.0004
 -12132144.25249  -9439876.97749  22559971.6604   22559973.3764   22559971.4064
       229.0004        174.0004
 -13983727.46149 -10635106.57649  21785566.8584   21785569.5554   21785566.6574
       234.0004        183.0004
 11 10 12  2 13  0.0000000  0  8G26G05G21G10G08G07G15G28
 -23534906.27049 -18319326.03149  19997260.2554   19997263.0304   19997260.4554
       245.0004        204.0004
 -17250964.37849 -13422915.86349  21321775.3464   21321777.8664   21321775.9724
       237.0004        194.0004
  -1557709.56549  -1110295.51449  24713454.3314   24713456.5574   24713451.9444
       207.0004        138.0004
   3373995.48449   3383497.92049  25044089.8084   25044097.2624   25044090.0594
       204.0004        134.0004
 -19509157.64549 -14614685.61949  21303384.6034   21303387.6734   21303384.7184
       241.0004        192.0004
  -6395644.79849  -4964902.17849  23478672.0734   23478673.1914   23478671.8344
       220.0004        158.0004
 -12217066.98249  -9506050.50949  22543811.0114   22543812.9264   22543811.4204
       229.0004        174.0004
 -14029787.40049 -10670997.42149  21776802.8204   21776804.6164   21776801.5754
       235.0004        183.0004
 11 10 12  2 13 30.0000000  0  8G26G05G21G10G08G07G15G28
 -23563620.48249 -18341700.74149  19991796.8114   19991798.7464   19991796.7234
       246.0004        205.0004
 -17188597.62349 -13374318.40349  21333643.3554   21333646.5004   21333643.5564
       237.0004        194.0004
  -1571168.29649  -1120782.84449  24710894.0124   24710895.3174   24710893.8124
       211.0004        139.0004
   3490140.56549   3474000.59949  25066192.4234   25066194.1624   25066190.3434
       203.0004        132.0004
 -19449409.72049 -14568128.79349  21314754.9234   21314757.1034   21314754.6524
       241.0004        193.0004
  -6299168.10549  -4889725.55249  23497029.7604   23497032.1724   23497030.1574
       219.0004        155.0004
 -12301800.51349  -9572076.62749  22527686.4874   22527688.3484   22527686.6674
       227.0004        173.0004
 -14075358.43149 -10706507.30149  21768130.2424   21768132.8074   21768130.1284
       234.0004        184.0004
 11 10 12  2 14  0.0000000  0  8G26G05G21G10G08G07G15G28
 -23591861.97149 -18363707.09849  19986422.1004   19986424.5424   19986422.0144
       245.0004        205.0004
 -17125740.57349 -13325338.89949  21345604.4654   21345607.7164   21345605.0774
       237.0004        194.0004
  -1584116.82149  -1130872.62649  24708427.7674   24708430.9614   24708428.2764
       206.0004        138.0004
   3606293.88949   3564509.68049  25088295.5844   25088298.4814   25088294.1484
       203.0004        130.0004
 -19389322.21849 -14521307.36849  21326188.8934   21326191.1484   21326187.9974
       240.0004        191.0004
  -6202567.01149  -4814451.96549  23515411.3924   23515413.3124   23515411.8384
       219.0004        156.0004
 -12386344.33349  -9637954.91949  22511598.1234   22511601.2584   22511598.6204
       227.0004        175.0004
 -14120440.07949 -10741635.84849  21759551.8124   21759554.4744   21759551.5794
       235.0004        183.0004
 11 10 12  2 14 30.0000000  0  8G26G05G21G10G08G07G15G28
 -23619629.80149 -18385344.36749  19981137.7944   19981140.4584   19981137.7924
       245.0004        205.0004
 -17062394.48849 -13275978.32049  21357658.9924   21357662.2144   21357659.6294
       237.0004        194.0004
  -1596554.89849  -1140564.62449  24706060.7944   24706064.5994   24706061.0824
       202.0004        135.0004
   3722453.36749   3655023.51649  25110403.0704   25110404.3464   25110400.9204
       203.0004        130.0004
 -19328896.84749 -14474222.68049  21337686.8374   21337690.6694   21337686.8824
       239.0004        192.0004
  -6105843.11549  -4739082.67049  23533817.0214   23533820.3684   23533818.1974
       218.0004        156.0004
 -12470696.18849  -9703683.62649  22495545.8544   22495548.5644   22495548.6084
       228.0004        174.0004
 -14165030.66549 -10776381.74849  21751066.4334   21751068.4694   21751066.1974
       235.0004        183.0004
 11 10 12  2 15  0.0000000  0  8G26G05G21G10G08G07G15G28
 -23646923.04949 -18406611.82949  19975944.0844   19975947.1004   19975944.1484
       245.0004        205.0004
 -16998561.48549 -13226238.33549  21369806.8004   21369809.2964   21369806.5504
       237.0004        194.0004
  -1608482.05849  -1149858.50049  24703792.4974   24703794.7734   24703791.6254
       204.0004        138.0004
   3838616.98849   3745540.63149  25132504.0964   25132506.2014   25132503.2264
       194.0004        125.0004
 -19268135.28249 -14426876.01349  21349250.0384   21349252.7134   21349249.7334
       240.0004        191.0004
  -6008997.83749  -4663618.81449  23552247.2064   23552249.8914   23552247.8584
       220.0004        156.0004
 -12554854.88449  -9769261.81249  22479532.2124   22479534.7744   22479532.7114
       229.0004        175.0004
 -14209129.05349 -10810744.11449  21742674.0794   21742676.6614   21742674.4874
       234.0004        182.0004
 11 10 12  2 15 30.0000000  0  9G27G26G05G21G10G08G07G15G28
   -209482.29449   -142542.87049  23653068.9754
       209.0004        112.0004
 -23673740.64549 -18427508.67049  19970841.4104   19970843.7694   19970841.5784
       246.0004        205.0004
 -16934243.05749 -13176120.10249  21382045.6944   21382047.5974   21382046.3074
       237.0004        193.0004
  -1619897.55249  -1158753.71149  24701619.7804   24701620.6334   24701619.9514
       206.0004        137.0004
   3954782.87549   3836059.45249  25154611.0074   25154612.8524   25154609.3914
       200.0004        127.0004
 -19207038.97049 -14379268.50349  21360876.4664   21360878.7464   21360875.9024
       239.0004        191.0004
  -5912032.47849  -4588061.40749  23570700.0254   23570701.2924   23570700.5004
       221.0004        156.0004
 -12638818.76449  -9834688.20449  22463554.2734   22463556.2814   22463554.6454
       228.0004        176.0004
 -14252733.61649 -10844721.68149  21734377.4964   21734379.0854   21734377.2034
       235.0004        183.0004
 11 10 12  2 16  0.0000000  0  9G27G26G05G21G10G08G07G15G28
   -297311.17349      -615.86849  23636354.6464
       208.0004         74.0004
 -23700081.33149 -18448033.88249  19965829.0224   19965831.0654   19965829.4654
       246.0004        206.0004
 -16869441.19749 -13125625.16149  21394377.1334   21394379.6124   21394377.4644
       237.0004        193.0004
  -1630802.64549  -1167251.17049  24699544.3494   24699546.9444   24699546.7304
       203.0004        138.0004
   4070948.72549   3926578.33549  25176718.2034   25176718.8934   25176718.1124
       197.0004        126.0004
 -19145609.92749 -14331401.72649  21372565.6634   21372568.3484   21372565.5104
       239.0004        191.0004
  -5814948.82149  -4512411.81249  23589174.4524   23589176.5994   23589175.4774
       218.0004        156.0004
 -12722586.67049  -9899961.88949  22447613.3474   22447617.0644   22447614.5884
       229.0004        176.0004
 -14295843.09049 -10878313.47349  21726173.9214   21726174.9364   21726172.8454
       235.0004        183.0004
 11 10 12  2 16 30.0000000  0  9G27G26G05G21G10G08G07G15G28
   -384943.55249    -68900.41549  23619678.1434
       209.0004        129.0004
 -23725945.15749 -18468187.51049  19960906.6324   19960909.6624   19960907.2174
       246.0004        206.0004
 -16804158.22949 -13074755.32149  21406799.4324   21406802.6164   21406800.2214
       237.0004        193.0004
  -1641197.21649  -1175350.81849  24697567.3774   24697569.1464   24697564.6704
       207.0004        138.0004
   4187112.20449   4017095.28549  25198816.0434   25198826.5384   25198816.5104
       191.0004        123.0004
 -19083850.02649 -14283277.13749  21384318.2504   21384321.0794   21384317.8164
       239.0004        191.0004
  -5717748.61649  -4436671.39649  23607669.9364   23607672.2894   23607670.8604
       217.0004        155.0004
 -12806157.43949  -9965081.94349  22431710.6644   22431713.0794   22431711.3734
       228.0004        176.0004
 -14338456.62749 -10911518.81549  21718064.1494   21718066.7774   21718064.5794
       235.0004        183.0004
 11 10 12  2 17  0.0000000  0  9G27G26G05G21G10G08G07G15G28
   -472377.59049   -137030.79849  23603039.9224
       209.0004        145.0004
 -23751329.81649 -18487967.76849  19956076.4574   19956078.7724   19956076.6644
       246.0004        205.0004
 -16738395.10749 -13023511.33849  21419313.9734   21419317.1954   21419314.4644
       236.0004        193.0004
  -1651079.88949  -1183051.63549  24695686.7314   24695687.8634   24695684.4104
       205.0004        137.0004
   4303272.52349   4107609.77749  25220928.1984   25220929.5354   25220927.2984
       202.0004        125.0004
 -19021759.91249 -14234895.23549  21396133.2424   21396136.5054   21396133.3284
       239.0004        192.0004
  -5620432.83249  -4360840.89749  23626189.5774   23626191.7124   23626189.6834
       217.0004        155.0004
 -12889528.45349 -10030046.35849  22415846.0624   22415848.6184   22415846.1204
       229.0004        177.0004
 -14380571.86149 -10944335.85649  21710050.3784   21710052.6504   21710049.9404
       236.0004        184.0004
 11 10 12  2 17 30.0000000  0  9G27G26G05G21G10G08G07G15G28
   -559613.09849   -205006.52049  23586437.3314   23586443.1564
       207.0004        144.0004
 -23776235.25149 -18507374.60149  19951336.7074   19951339.8054   19951337.1704
       246.0004        206.0004
 -16672154.28049 -12971895.11449  21431919.3844   21431922.2344   21431919.8734
       237.0004        193.0004
  -1660451.24449  -1190354.02749  24693902.6804   24693905.4834   24693902.1324
       206.0004        137.0004
   4419426.65049   4198119.46549  25243030.8264                   25243033.6774
       188.0004        119.0004
 -18959341.80649 -14186257.74949  21408011.1824   21408014.0134   21408011.0454
       239.0004        191.0004
  -5523003.55449  -4284921.98649  23644729.4994   23644731.2714   23644729.1014
       219.0004        155.0004
 -12972699.13249 -10094854.66649  22400018.1394   22400021.4314   22400018.9114
       227.0004        175.0004
 -14422188.49449 -10976764.38449  21702130.1064   21702132.8564   21702130.2694
       236.0004        184.0004
 11 10 12  2 18  0.0000000  0  9G27G26G05G21G10G08G07G15G28
   -646649.39549   -272826.94849  23569876.8254   23569881.0774   23569877.2834
       206.0004        141.0004
 -23800660.71849 -18526407.43849  19946689.4884   19946692.0224   19946689.4124
       246.0004        206.0004
 -16605437.96849 -12919908.40249  21444614.8344   21444617.2124   21444615.4964
       237.0004        192.0004
  -1669311.70849  -1197258.30049  24692217.1554   24692219.1744   24692216.0604
       202.0004        135.0004
   4535572.28049   4288622.52549  25265124.9874                   25265127.5044
       179.0004        119.0004
 -18896597.75349 -14137366.28849  21419951.0754   21419954.4964   21419950.9804
       239.0004        192.0004
  -5425462.54049  -4208916.01549  23663289.9714   23663293.1194   23663290.9314
       215.0004        155.0004
 -13055667.84849 -10159505.60749  22384230.1924   22384232.9684   22384231.7414
       230.0004        177.0004
 -14463305.11549 -11008803.29549  21694307.0294   21694308.7504   21694306.6424
       236.0004        184.0004
 11 10 12  2 18 30.0000000  0  9G27G26G05G21G10G08G07G15G28
   -733486.00349   -340491.80649  23553350.5554   23553356.0394   23553350.4294
       206.0004        143.0004
 -23824605.65049 -18545065.81649  19942132.4884   19942135.2784   19942132.5604
       246.0004        206.0004
 -16538248.17949 -12867552.73649  21457402.1184   21457403.7394   21457402.1834
       237.0004        192.0004
  -1677661.58949  -1203764.70249  24690627.7884   24690629.3464   24690626.2194
       203.0004        134.0004
   4651706.93649   4379117.06249  25287235.2694
       194.0004        117.0004
 -18833529.28449 -14088222.04249  21431952.8444   21431955.4344   21431952.5234
       239.0004        191.0004
  -5327811.54449  -4132824.35549  23681873.8534   23681875.1854   23681873.3464
       216.0004        156.0004
 -13138433.90449 -10223998.62249  22368481.3084   22368482.8684   22368480.9664
       231.0004        177.0004
 -14503920.61349 -11040451.71749  21686577.1854   21686580.3754   21686577.8374
       236.0004        184.0004
 11 10 12  2 19  0.0000000  0  9G27G26G05G21G10G08G07G15G28
   -820121.18449   -407999.72549  23536867.1724   23536869.8814   23536867.1264
       213.0004        146.0004
 -23848068.41149 -18563348.49449  19937668.0004   19937670.2094   19937668.2024
       245.0004        206.0004
 -16470585.89649 -12814828.89049  21470276.9644   21470279.5964   21470277.2924
       236.0004        192.0004
  -1685499.80349  -1209872.39949  24689138.1334   24689138.5914   24689138.8414
       208.0004        136.0004
   4767829.25849      3784.09549  25309329.1764
       187.0004         74.0004
 -18770137.38549 -14038825.77149  21444015.3734   21444018.6344   21444015.6464
       239.0004        190.0004
  -5230051.50949  -4056647.71549  23700475.9304   23700478.7434   23700476.3794
       219.0004        157.0004
 -13220994.78349 -10288331.78249  22352769.0874   22352772.0674   22352770.2374
       229.0004        176.0004
 -14544033.31349 -11071708.35349  21678945.5894   21678947.1164   21678944.5424
       238.0004        186.0004
 11 10 12  2 19 30.0000000  0  9G27G26G05G21G10G08G07G15G28
   -906554.40949   -475350.26649  23520417.7924   23520423.5924   23520418.0344
       210.0004        148.0004
 -23871048.21049 -18581254.83049  19933294.8774   19933297.3654   19933295.1004
       246.0004        205.0004
 -16402453.58249 -12761738.79049  21483241.0814   21483244.5734   21483242.2374
       235.0004        192.0004
  -1692827.12949  -1215582.00249  24687741.5904   24687743.0934   24687744.5004
       206.0004        137.0004
   4883937.61759     94250.23659  25331413.7774
       162.0004         98.0004
 -18706424.16949 -13989179.10549  21456140.5034   21456142.6704   21456140.4774
       240.0004        191.0004
  -5132183.82249  -3980387.19349  23719099.0954   23719102.7444   23719099.1254
       219.0004        158.0004
 -13303348.79749 -10352503.72349  22337097.1834   22337100.5664   22337097.8434
       229.0004        177.0004
 -14583642.13149 -11102572.35349  21671406.1914   21671409.0604   21671407.1894
       236.0004        185.0004
 11 10 12  2 20  0.0000000  0  9G27G26G05G21G10G08G07G15G28
   -992784.61649   -542542.59649  23504008.7534   23504013.6364   23504008.5864
       213.0004        147.0004
 -23893543.71449 -18598783.79549  19929013.1454   19929016.4844   19929013.9654
       244.0004        205.0004
 -16333852.63449 -12708283.52249  21496295.9224   21496298.8724   21496296.6374
       236.0004        192.0004
  -1699643.08949  -1220893.12749  24686447.3174   24686447.5524   24686445.9064
       208.0004        137.0004
   5000029.90549    184672.46349  25353519.6514
       170.0004        108.0004
 -18642390.98149 -13939283.12649  21468325.8554   21468328.4724   21468324.9344
       240.0004        190.0004
  -5034209.77849  -3904043.81049  23737744.0674   23737745.9494   23737743.2664
       219.0004        158.0004
 -13385494.48049 -10416513.33649  22321466.9634   22321469.2254   22321466.9364
       231.0004        177.0004
 -14622745.48049 -11133042.48649  21663966.4924   21663968.6434   21663965.5464
       237.0004        186.0004
 11 10 12  2 20 30.0000000  0  8G27G26G05G21G08G07G15G28
  -1078811.60249   -609576.57449  23487638.7344   23487643.1764   23487637.7454
       211.0004        146.0004
 -23915555.07649 -18615935.49649  19924825.4584   19924827.6964   19924825.5324
       245.0004        205.0004
 -16264785.58449 -12654465.03949  21509439.7654   21509441.7424   21509439.7074
       236.0004        192.0004
  -1705948.17949  -1225806.17849  24685243.9314   24685248.5604   24685244.1504
       204.0004        137.0004
 -18578040.01849 -13889139.52249  21480570.9924   21480573.5414   21480570.8364
       239.0004        190.0004
  -4936131.79449  -3827619.44049  23756407.9674   23756409.2534   23756407.6344
       221.0004        160.0004
 -13467431.08849 -10480360.02949  22305873.9684   22305876.4464   22305875.2314
       230.0004        177.0004
 -14661343.16549 -11163118.59249  21656620.6264   21656623.0914   21656620.6534
       237.0004        185.0004
 11 10 12  2 21  0.0000000  0  9G27G26G05G21G10G08G07G15G28
  -1164634.20149   -676451.28049  23471306.2614   23471311.6324   23471307.9474
       213.0004        148.0004
 -23937080.94449 -18632708.91049  19920729.4014   19920731.4394   19920729.3094
       245.0004        205.0004
 -16195254.33549 -12600284.86549  21522671.3704   21522672.9844   21522671.1644
       238.0004        193.0004
  -1711742.36549  -1230321.13449  24684142.8484   24684145.2944   24684142.7734
       207.0004        137.0004
   5232155.95759     86630.14759  25397687.6054
       171.0004         96.0004
 -18513372.79649 -13838749.48849  21492877.2784   21492879.2934   21492876.5984
       240.0004        190.0004
  -4837950.95149  -3751114.90749  23775090.2064   23775093.1944   23775091.8164
       219.0004        158.0004
 -13549156.79649 -10544042.38649  22290322.3874   22290324.3854   22290322.1064
       230.0004        177.0004
 -14699433.57649 -11192799.43049  21649372.9724   21649374.7274   21649372.4414
       238.0004        186.0004
 11 10 12  2 21 30.0000000  0  9G27G26G05G21G10G08G07G15G28
  -1250252.12649   -743166.52849  23455014.5184   23455018.9334   23455014.9154
       213.0004        148.0004
 -23958121.18849 -18649103.89849  19916724.8444   19916727.5334   19916725.4424
       245.0004        205.0004
 -16125261.48749 -12545744.99149  21535990.1214   21535992.8164   21535990.2914
       235.0004        192.0004
  -1717026.19349  -1234438.41749  24683136.7224   24683138.5204   24683135.4984
       205.0004        135.0004
   5348185.71849    177155.37449  25419776.6384
       182.0004        106.0004
 -18448391.40849 -13788114.63749  21505241.4524   21505245.0014   21505241.2194
       238.0004        188.0004
  -4739669.22249  -3674531.76649  23793793.3424   23793794.7194   23793792.8264
       221.0004        159.0004
 -13630670.24549 -10607559.35449  22274810.6894   22274812.4254   22274811.2804
       233.0004        178.0004
 -14737015.85549 -11222084.31049  21642220.8044   21642223.2354   21642221.1224
       237.0004        186.0004
 11 10 12  2 22  0.0000000  0  9G27G26G05G21G10G08G07G15G28
  -1335663.86549   -809721.10649  23438763.3734   23438764.3814   23438760.8694
       216.0004        149.0004
 -23978673.95149 -18665119.04649  19912814.5534   19912816.6834   19912814.4254
       245.0004        205.0004
 -16054808.13649 -12490846.30149  21549397.3204   21549399.2874   21549397.6064
       238.0004        193.0004
  -1721799.04149  -1238157.50049  24682230.5014   24682231.8094   24682230.5684
       206.0004        135.0004
   5464190.93659    267661.45959  25441850.3244
       169.0004        109.0004
 -18383096.61349 -13737235.59249  21517667.4654   21517670.4554   21517667.2264
       238.0004        189.0004
  -4641287.59149  -3597870.77549  23812514.4044   23812517.2384   23812514.7664
       218.0004        158.0004
 -13711969.32349 -10670909.27949  22259339.5854   22259341.7344   22259340.2404
       231.0004        177.0004
 -14774088.34049 -11250971.95249  21635166.6914   21635168.8164   21635166.2044
       237.0004        186.0004
 11 10 12  2 22 30.0000000  0  8G27G26G05G21G08G07G15G28
  -1420869.18549   -876114.84849  23422545.8414   23422551.6684   23422547.8254
       210.0004        150.0004
 -23998738.90449 -18680754.07549  19908995.8764   19908998.4604   19908996.2304
       245.0004        206.0004
 -15983896.67649 -12435590.62649  21562891.1584   21562893.0834   21562891.7774
       236.0004        192.0004
  -1726061.65049  -1241478.98249  24681415.4324   24681418.5654   24681415.9164
       203.0004        134.0004
 -18317490.59749 -13686114.02449  21530151.6474   21530154.0044   21530151.6814
       237.0004        187.0004
  -4542807.79049  -3521133.29449  23831254.0814   23831256.6314   23831254.3504
       217.0004        156.0004
 -13793052.98549 -10734091.33949  22243910.7594   22243912.6844   22243910.6494
       232.0004        178.0004
 -14810650.41549 -11279461.87249  21628209.0374   21628210.9794   21628208.5764
       237.0004        187.0004
 11 10 12  2 23  0.0000000  0  8G27G26G05G21G08G07G15G28
  -1505867.59149   -942347.33049  23406371.9544   23406376.5494   23406372.7874
       213.0004        150.0004
 -24018315.72049 -18696008.74049  19905271.1264   19905273.2434   19905271.2634
       245.0004        206.0004
 -15912529.77549 -12379980.05849  21576470.8834   21576474.3134   21576471.9224
       235.0004        192.0004
  -1729814.59149  -1244403.32949  24680704.5404   24680706.0754   24680703.0134
       205.0004        134.0004
 -18251575.61949 -13634751.71649  21542694.5314   21542697.6554   21542694.4254
       237.0004        187.0004
  -4444231.52549  -3444320.66949  23850012.4794   23850016.2584   23850012.8284
       214.0004        154.0004
 -13873920.23449 -10797104.76949  22228521.8114   22228524.2814   22228522.6614
       231.0004        178.0004
 -14846701.39749 -11307553.53949  21621349.0924   21621350.3534   21621348.6624
       239.0004        187.0004
 11 10 12  2 23 30.0000000  0  8G27G26G05G21G08G07G15G28
  -1590657.78849  -1008417.58149  23390238.4994   23390241.6804   23390238.9964
       215.0004        152.0004
 -24037403.26249 -18710882.14849  19901637.8004   19901641.2024   19901638.1904
       244.0004        205.0004
 -15840708.77349 -12324015.65349  21590138.7624   21590141.4244   21590139.4264
       237.0004        192.0004
  -1733057.54549  -1246930.32549  24680085.9994   24680088.0694   24680086.1324
       202.0004        133.0004
 -18185352.63249 -13583149.39449  21555296.3674   21555299.2124   21555296.1104
       237.0004        187.0004
  -4345560.04049  -3367433.82349  23868789.1934   23868790.9214   23868788.5634
       216.0004        153.0004
 -13954568.92149 -10859947.88649  22213174.5824   22213177.0504   22213175.9404
       231.0004        179.0004
 -14882239.68049 -11335245.69549  21614585.8614   21614587.8134   21614585.6694
       238.0004        186.0004
 11 10 12  2 24  0.0000000  0  8G27G26G05G21G08G07G15G28
  -1675239.05149  -1074325.01649  23374142.6704   23374146.5704   23374143.1014
       215.0004        152.0004
 -24056000.48949 -18725373.50249  19898099.2484   19898102.0734   19898099.3054
       244.0004        205.0004
 -15768435.80649 -12267699.07149  21603891.5594   21603894.4314   21603892.1774
       237.0004        192.0004
  -1735790.72349  -1249060.09949  24679565.9784   24679568.7234   24679566.1684
       203.0004        135.0004
 -18118823.45049 -13531308.47849  21567957.0454   21567958.3914   21567956.7014
       237.0004        186.0004
  -4246794.89649  -3290473.99749  23887582.7964   23887584.7834   23887583.8704
       215.0004        155.0004
 -14034997.62649 -10922619.59249  22197870.3984   22197872.7314   22197870.3804
       232.0004        180.0004
 -14917264.31549 -11362537.60249  21607921.3044   21607922.8584   21607921.0574
       238.0004        187.0004
 11 10 12  2 24 30.0000000  0  8G27G26G05G21G08G07G15G28
  -1759610.66449  -1140069.12049  23358087.5964   23358091.2384   23358088.1644
       215.0004        152.0004
 -24074106.71449 -18739482.24749  19894653.6504   19894656.6594   19894654.0404
       245.0004        205.0004
 -15695713.24949 -12211032.15849  21617730.3004   21617733.3984   21617730.9474
       237.0004        192.0004
  -1738014.73849  -1250793.12749  24679144.3274   24679144.0934   24679143.9104
       203.0004        134.0004
 -18051989.69949 -13479230.24249  21580674.4304   21580677.1974   21580674.3724
       236.0004        186.0004
  -4147937.45849  -3213442.26249  23906397.0994   23906398.6444   23906397.6644
       218.0004        155.0004
 -14115204.65249 -10985118.56649  22182606.8574   22182608.8104   22182606.4984
       229.0004        179.0004
 -14951774.17249 -11389428.38549  21601353.0504   21601355.9894   21601353.5344
       236.0004        186.0004
 11 10 12  2 25  0.0000000  0  8G27G26G05G21G08G07G15G28
  -1843771.49949  -1205648.97149  23342072.8204   23342075.7664   23342072.0284
       215.0004        152.0004
 -24091720.82649 -18753207.52849  19891302.0774   19891304.6394   19891302.2014
       244.0004        206.0004
 -15622542.43049 -12154015.94549  21631655.0304   21631656.7384   21631654.9474
       238.0004        192.0004
  -1739729.25049  -1252129.13649  24678815.7174   24678818.1474   24678817.7484
       202.0004        133.0004
 -17984852.56849 -13426915.61249  21593450.6894   21593453.4414   21593450.8044
       237.0004        186.0004
  -4048988.86849  -3136339.49249  23925225.5314   23925227.2514   23925225.4394
       217.0004        154.0004
 -14195188.11349 -11047443.31949  22167386.7834   22167389.0944   22167386.5394
       229.0004        179.0004
 -14985768.30649 -11415917.30749  21594885.7904   21594887.1154   21594884.8554
       238.0004        187.0004
 11 10 12  2 25 30.0000000  0  8G27G26G05G21G08G07G15G28
  -1927721.75749  -1271064.73549  23326097.1164   23326099.7634   23326097.0594
       215.0004        153.0004
 -24108843.03549 -18766549.50549  19888043.9254   19888046.3714   19888044.3494
       245.0004        206.0004
 -15548926.85449 -12096653.16949  21645662.5514   21645665.0994   21645663.1994
       237.0004        191.0004
  -1740935.53949  -1253069.12049  24678588.9174   24678590.2604   24678586.4244
       205.0004        135.0004
 -17917414.84949 -13374366.74049  21606283.1784   21606285.9354   21606283.2234
       237.0004        186.0004
  -3949951.56349  -3059167.56449  23944070.4154   23944072.7594   23944071.0104
       215.0004        150.0004
 -14274947.89349 -11109593.78449  22152208.0964   22152211.2754   22152209.2464
       229.0004        180.0004
 -15019246.35349 -11442004.07449  21588513.6144   21588516.3364   21588513.7894
       237.0004        187.0004
 11 10 12  2 26  0.0000000  0  8G27G26G05G21G08G07G15G28
  -2011459.76049  -1336315.07149  23310161.9154   23310165.3874   23310161.0524
       214.0004        155.0004
 -24125471.54649 -18779506.79049  19884878.9864   19884881.9174   19884879.0284
       244.0004        205.0004
 -15474866.93749 -12038944.16349  21659755.3704   21659758.9094   21659756.9994
       236.0004        191.0004
  -1741632.75049  -1253612.41049  24678452.5434   24678457.0594   24678453.4124
       203.0004        134.0004
 -17849677.06449 -13321584.07149  21619173.9834   21619176.5574   21619173.5624
       236.0004        186.0004
  -3850825.65349  -2981926.65849  23962936.2384   23962937.1344   23962935.2794
       216.0004        147.0004
 -14354480.86249 -11171567.52949  22137073.6774   22137076.6614   22137074.4774
       230.0004        181.0004
 -15052206.36849 -11467687.18649  21582242.6064   21582244.0874   21582241.9554
       237.0004        187.0004
 11 10 12  2 26 30.0000000  0  8G27G26G05G21G08G07G15G28
  -2094985.60849  -1401400.13349  23294267.0284   23294270.1234   23294267.6564
       216.0004        154.0004
 -24141606.38449 -18792079.39249  19881808.8504   19881811.6734   19881809.1064
       245.0004        205.0004
 -15400366.08549 -11980891.56749  21673933.8754   21673935.9434   21673934.1624
       238.0004        191.0004
  -1741821.90349  -1253759.82249  24678420.4544   24678419.5764   24678416.9154
       207.0004        135.0004
 -17781641.62349 -13268569.47849  21632120.4144   21632123.5124   21632119.8204
       237.0004        186.0004
  -3751614.01749  -2904618.92249  23981814.3214   23981815.1354   23981814.0944
       215.0004        144.0004
 -14433786.60049 -11233364.19149  22121982.8384   22121985.7914   22121983.5344
       231.0004        182.0004
 -15084648.05849 -11492966.41949  21576068.1224   21576070.8714   21576069.0144
       236.0004        187.0004
 11 10 12  2 27  0.0000000  0  8G27G26G05G21G08G07G15G28
  -2178298.38049  -1466319.13949  23278414.4034   23278417.3384   23278413.2834
       216.0004        153.0004
 -24157246.57749 -18804266.56149  19878833.0664   19878835.5914   19878833.0784
       245.0004        206.0004
 -15325426.02449 -11922496.72449  21688193.2444   21688196.6904   21688194.2414
       236.0004        190.0004
  -1741503.55149  -1253511.75749  24678478.9564   24678480.5634   24678479.2924
       207.0004        135.0004
 -17713310.05749 -13215324.10249  21645123.9764   21645127.1074   21645123.5454
       237.0004        188.0004
  -3652317.25749  -2827244.82849  24000709.3714   24000711.6284   24000709.9594
       213.0004        147.0004
 -14512862.84049 -11294982.02249  22106936.3144   22106937.6344   22106935.6594
       231.0004        182.0004
 -15116570.48349 -11517841.00949  21569994.7694   21569996.1904   21569994.0224
       236.0004        187.0004
 11 10 12  2 27 30.0000000  0  8G27G26G05G21G08G07G15G28
  -2261397.54949  -1531071.70449  23262598.9414   23262603.4704   23262599.2114
       213.0004        153.0004
 -24172391.77949 -18816068.01749  19875950.8644   19875953.6794   19875950.8504
       245.0004        206.0004
 -15250049.49649 -11863761.79449  21702537.4494   21702540.2484   21702538.0274
       236.0004        189.0004
  -1740678.22449  -1252868.71149  24678636.4404   24678639.3454   24678637.4784
       208.0004        135.0004
 -17644684.41549 -13161849.58049  21658181.1714   21658185.3824   21658181.3354
       235.0004        184.0004
  -3552937.32149  -2749805.95049  24019619.4604   24019623.4084   24019619.5474
       210.0004        147.0004
 -14591708.61749 -11356420.28449  22091930.4264   22091933.4334   22091932.0304
       230.0004        182.0004
 -15147973.15249 -11542310.60749  21564017.6304   21564020.7474   21564018.2314
       235.0004        187.0004
 11 10 12  2 28  0.0000000  0  8G27G26G05G21G08G07G15G28
  -2344281.72949  -1595656.75449  23246826.6084   23246831.3254   23246827.7484
       216.0004        153.0004
 -24187040.63849 -18827482.71949  19873163.1704   19873166.0344   19873163.4864
       245.0004        206.0004
 -15174237.65949 -11804687.65049  21716964.1444   21716966.5554   21716964.3614
       234.0004        189.0004
  -1739345.47449  -1251830.22749  24678889.7454   24678891.0464   24678887.2054
       207.0004        133.0004
 -17575765.57749 -13108146.61049  21671296.8694   21671299.7314   21671296.9904
       236.0004        185.0004
  -3453475.16049  -2672302.96149  24038547.7844   24038552.0304   24038547.8734
       210.0004        144.0004
 -14670322.00749 -11417677.46149  22076971.7864   22076974.4644   22076972.5224
       233.0004        183.0004
 -15178854.45849 -11566373.93849  21558142.3484   21558144.1784   21558141.6264
       237.0004        188.0004
 11 10 12  2 28 30.0000000  0  8G27G26G05G21G08G07G15G28
  -2426950.85749  -1660074.21749  23231095.5714   23231099.0064   23231095.0454
       216.0004        154.0004
 -24201193.15849 -18838510.65449  19870470.0974   19870472.9004   19870470.3474
       245.0004        206.0004
 -15097993.71749 -11745276.78549  21731470.3554   21731475.7424   21731472.2844
       233.0004        188.0004
  -1737506.69149  -1250397.37449  24679239.5424   24679241.2954   24679239.9624
       207.0004        134.0004
 -17506555.93849 -13054217.01449  21684467.5904   21684470.0024   21684466.9714
       237.0004        186.0004
  -3353932.70549  -2594737.48149  24057489.4094   24057493.4314   24057490.1144
       209.0004        143.0004
 -14748701.79449 -11478752.60349  22062056.0264   22062058.4574   22062056.7514
       231.0004        183.0004
 -15209214.16349 -11590030.83649  21552364.4174   21552366.5484   21552364.5284
       237.0004        188.0004
 11 10 12  2 29  0.0000000  0  8G27G26G05G21G08G07G15G28
  -2509403.23649  -1724322.80249  23215404.9414   23215409.0334   23215405.4304
       216.0004        154.0004
 -24214847.71249 -18849150.57649  19867871.9504   19867874.3504   19867872.2424
       245.0004        206.0004
 -15021318.96249 -11685530.25649  21746062.6604   21746066.0184   21746063.5894
       234.0004        188.0004
  -1735161.17849  -1248569.67949  24679685.9284   24679688.4374   24679685.8414
       208.0004        135.0004
 -17437056.01649 -13000061.22749  21697693.4284   21697695.9414   21697693.4674
       238.0004        187.0004
  -3254310.53849  -2517109.84949  24076446.9964   24076450.9114   24076448.1224
       207.0004        141.0004
 -14826845.60749 -11539643.88049  22047185.5034   22047189.0394   22047186.7554
       232.0004        184.0004
 -15239050.56149 -11613279.95549  21546687.4114   21546689.2304   21546686.4724
       237.0004        188.0004
 11 10 12  2 29 30.0000000  0  8G27G26G05G21G08G07G15G28
  -2591638.69249  -1788402.32849  23199757.4264   23199760.7604   23199756.0174
       216.0004        154.0004
 -24228004.15049 -18859402.34149  19865368.3014   19865370.7364   19865368.2444
       245.0004        206.0004
 -14944215.96049 -11625450.00149  21760735.2604   21760738.0784   21760735.7784
       234.0004        188.0004
  -1732310.26149  -1246348.19049  24680229.7324   24680230.5084   24680228.6634
       208.0004        138.0004
 -17367267.72749 -12945680.75249  21710973.1504   21710976.4684   21710972.9994
       236.0004        186.0004
  -3154610.30449  -2439421.37349  24095419.6874   24095421.8114   24095419.3664
       207.0004        142.0004
 -14904752.26449 -11600350.35849  22032361.8194   22032364.0074   22032362.1924
       233.0004        185.0004
 -15268363.22749 -11636120.97949  21541108.2474   21541111.3134   21541108.4524
       236.0004        189.0004
 11 10 12  2 30  0.0000000  0  8G27G26G05G21G08G07G15G28
  -2673657.16949  -1852312.80649  23184149.4874   23184152.9084   23184148.7144
       218.0004        155.0004
 -24240662.02449 -18869265.62249  19862959.2444   19862962.2394   19862959.6424
       244.0004        206.0004
 -14866686.94749 -11565037.79949  21775489.1654   21775491.7334   21775488.9554
       234.0004        188.0004
  -1728954.60549  -1243733.40649  24680867.4304   24680868.2734   24680866.9614
       208.0004        138.0004
 -17297193.85449 -12891077.75849  21724307.7264   21724310.9094   21724307.2224
       236.0004        185.0004
  -3054834.21749  -2361673.78749  24114406.1044   24114410.1424   24114407.4714
       207.0004        141.0004
 -14982420.88049 -11660871.33949  22017581.4374   22017583.6944   22017581.5964
       234.0004        184.0004
 -15297152.07849 -11658553.83749  21535631.1894   21535632.4684   21535630.8994
       238.0004        189.0004
 11 10 12  2 30 30.0000000  0  8G27G26G05G21G08G07G15G28
  -2755457.33649  -1916053.16849  23168582.8794   23168586.8294   23168582.8264
       218.0004        155.0004
 -24252820.18849 -18878739.51749  19860645.9024   19860648.9374   19860646.2524
       245.0004        206.0004
 -14788733.83849 -11504295.13649  21790323.5154   21790325.1164   21790323.3864
       234.0004        188.0004
  -1725094.14949  -1240725.26949  24681602.4984   24681604.2474   24681602.1394
       209.0004        140.0004
 -17226835.03549 -12836252.72449  21737696.8634   21737699.5394   21737696.4594
       236.0004        184.0004
  -2954982.74549  -2283867.47949  24133407.1764   24133410.5694   24133407.3074
       205.0004        141.0004
 -15059848.97649 -11721204.91349  22002846.1304   22002849.7204   22002847.2064
       232.0004        183.0004
 -15325415.55349 -11680577.31249  21530251.7504   21530254.4734   21530251.5004
       236.0004        189.0004
 11 10 12  2 31  0.0000000  0  8G27G26G05G21G08G07G15G28
  -2837039.23149  -1979623.45649  23153057.3384   23153061.5774   23153057.6044
       213.0004        153.0004
 -24264478.65649 -18887824.04149  19858427.3414   19858429.8134   19858427.3384
       245.0004        206.0004
 -14710359.58049 -11443224.30249  21805236.8244   21805239.9864   21805236.8704
       234.0004        188.0004
  -1720730.33449  -1237324.95449  24682432.0264   24682433.8914   24682432.3104
       207.0004        138.0004
 -17156193.48849 -12781207.36349  21751139.1724   21751141.9094   21751139.2124
       236.0004        185.0004
  -2855058.16449  -2206004.19149  24152422.6714   24152424.1584   24152423.3954
       206.0004        138.0004
 -15137035.71649 -11781350.42049  21988158.9424   21988161.5894   21988159.6674
       233.0004        183.0004
 -15353153.52349 -11702191.29949  21524974.0824   21524976.3084   21524973.4744
       237.0004        189.0004
