     2.11           OBSERVATION DATA    G (GPS)             RINEX VERSION / TYPE
Linux 2.4.21-27.ELsmp|Opteron|gcc -static|Linux x86_64|=+   COMMENT
HEADER CHANGED BY EPN CB ON 2011-10-11                      COMMENT
TO BE CONFORM WITH THE INFORMATION IN                       COMMENT
ftp://epncb.oma.be/pub/station/log/brus.log                 COMMENT
                                                            COMMENT
teqc  2010Oct21                         20111011 00:01:17UTCPGM / RUN BY / DATE
teqc  2010Oct21                         20111011 00:01:02UTCCOMMENT
teqc  2010Oct21                         20111010 01:01:02UTCCOMMENT
BIT 2 OF LLI FLAGS DATA COLLECTED UNDER A/S CONDITION       COMMENT
BRUS                                                        MARKER NAME
13101M004                                                   MARKER NUMBER
Carine Bruyninx     ROB                                     OBSERVER / AGENCY
RT919994505         ASHTECH Z-XII3T     1L01-1D04           REC # / TYPE / VERS
CR519994604         ASH701945B_M    NONE                    ANT # / TYPE
  4027894.0130   307045.5980  4919474.9120                  APPROX POSITION XYZ
        3.9702        0.0000        0.0000                  ANTENNA: DELTA H/E/N
     1     1                                                WAVELENGTH FACT L1/2
     7    L1    L2    C1    P2    P1    S1    S2            # / TYPES OF OBSERV
    30.0000                                                 INTERVAL
 SNR is mapped to RINEX snr flag value [0-9]                COMMENT
  L1 & L2: min(max(int(snr_dBHz/6), 0), 9)                  COMMENT
pseudorange smoothing corrections not applied               COMMENT
COORDINATES IN ETRF2000                                     COMMENT
Forced Modulo Decimation to 30 seconds                      COMMENT
  2011    10    10     0     0    0.0000000     GPS         TIME OF FIRST OBS
                                                            END OF HEADER
 11 10 10  0  0  0.0000000  0 11G23G29G26G05G10G16G07G08G13G02G04
  -5925675.48049  -3511769.61949  24136776.3884   24136772.7274   24136771.0954
       199.0004        123.0004
    152934.79449    106247.06649  25247758.4194   25247759.2674   25247760.1384
       205.0004        133.0004
   -662579.82049   -493799.99049  24243559.8724   24243565.5554   24243559.9534
       198.0004        135.0004
 -15463389.14849 -12016559.05249  22029110.9534   22029112.5254   22029111.0274
       230.0004        184.0004
 -20980366.06849 -16088263.93049  20353094.7104   20353097.4884   20353093.9244
       238.0004        199.0004
       338.76849      6615.05649  24137061.9144   24137063.7224   24137063.1884
       211.0004        142.0004
 -22958767.26049 -17868974.17949  20587394.4344   20587396.7654   20587394.9624
       238.0004        203.0004
 -18295855.15849 -13938410.98349  21536415.5574   21536418.6414   21536415.2124
       236.0004        189.0004
 -16204056.05449 -12608697.87949  21952595.0014   21952598.4144   21952594.6014
       229.0004        174.0004
 -16623286.88249 -12666838.64449  21703048.0384   21703048.2384   21703048.3294
       232.0004        183.0004
  -2760092.97949  -1858635.63349  23624421.4724   23624423.2874   23624420.2074
       220.0004        152.0004
 11 10 10  0  0 30.0000000  0 11G23G29G26G05G10G16G07G08G13G02G04
  -5829015.47649  -3436450.26749  24155168.6154                   24155165.8564
       183.0004        117.0004
    186115.64149    132102.28949  25254071.3984   25254072.8004   25254070.8014
       197.0004        130.0004
   -773898.96349   -580542.11049  24222380.0934   24222382.4164   24222380.5844
       210.0004        141.0004
 -15541249.88949 -12077229.74749  22014296.0744   22014296.3874   22014295.4474
       232.0004        185.0004
 -20945427.19849 -16061038.81349  20359742.8264   20359746.0144   20359742.2254
       238.0004        199.0004
     34896.84849     33543.44449  24143637.2304   24143638.0504   24143640.1354
       208.0004        140.0004
 -22970492.80449 -17878110.95749  20585163.3464   20585165.4194   20585163.9074
       238.0004        203.0004
 -18368603.99349 -13995098.37049  21522571.1104   21522574.9864   21522571.6804
       235.0004        188.0004
 -16122913.18449 -12545469.65149  21968035.1854   21968037.4714   21968036.0554
       228.0004        172.0004
 -16581569.64149 -12634331.74049  21710986.1024   21710986.7324   21710985.9964
       232.0004        182.0004
  -2653664.70149  -1775704.52249  23644674.5174   23644674.6524   23644671.7854
       218.0004        148.0004
 11 10 10  0  1  0.0000000  0 11G23G29G26G05G10G16G07G08G13G02G04
  -5732277.54759  -3361070.06659  24173571.3674
       176.0004        111.0004
    219779.61649    158334.01649  25260476.9074   25260476.5984   25260480.4904
       200.0004        125.0004
   -885109.48649   -667199.73049  24201216.1124   24201220.1864   24201218.1804
       205.0004        134.0004
 -15618806.59149 -12137663.54249  21999536.1284   21999538.1674   21999536.6084
       230.0004        185.0004
 -20909999.89749 -16033433.13049  20366485.0584   20366488.1034   20366484.0674
       239.0004        199.0004
     70028.95549     60919.11149  24150323.7204   24150323.6954   24150324.6974
       208.0004        139.0004
 -22981644.45649 -17886800.54349  20583041.2574   20583043.4014   20583041.2804
       238.0004        204.0004
 -18440929.11249 -14051455.58049  21508809.3634   21508811.6164   21508809.0204
       237.0004        190.0004
 -16041555.35349 -12482073.97949  21983518.2894   21983519.8824   21983518.7754
       229.0004        171.0004
 -16539286.06849 -12601383.56149  21719032.4894   21719033.0204   21719032.4494
       231.0004        182.0004
  -2547097.77849  -1692665.37249  23664951.4004   23664956.2004   23664952.0634
       214.0004        150.0004
 11 10 10  0  1 30.0000000  0 11G23G29G26G05G10G16G07G08G13G02G04
  -5635465.12949  -3285631.80349  24191998.2034
       186.0004        113.0004
    253924.23449    184940.20649  25266976.9754   25266981.0194   25266977.9704
       195.0004        127.0004
   -996210.87649   -753772.26849  24180072.6134   24180074.4024   24180070.8084
       200.0004        131.0004
 -15696057.75549 -12197859.24549  21984835.1404   21984837.8044   21984836.1994
       231.0004        185.0004
 -20874085.08649 -16005447.56649  20373318.2584   20373321.7254   20373318.1314
       237.0004        199.0004
    105733.36549     88740.71549  24157117.5554   24157116.8934   24157117.4594
       211.0004        140.0004
 -22992223.23349 -17895043.73549  20581028.0674   20581030.4514   20581028.8164
       239.0004        204.0004
 -18512829.65149 -14107481.96649  21495127.1964   21495129.1904   21495126.3384
       236.0004        189.0004
 -15959985.07749 -12418512.74949  21999041.7914   21999042.1894   21999041.2764
       231.0004        173.0004
 -16496438.17149 -12567995.64349  21727186.5824   21727186.9714   21727186.2654
       233.0004        182.0004
  -2440395.73949  -1609520.92749  23685253.3464   23685259.4924   23685255.0704
       215.0004        152.0004
 11 10 10  0  2  0.0000000  0 11G23G29G26G05G10G16G07G08G13G02G04
  -5538578.41759     16866.38659  24210438.0374
       177.0004         74.0004
    288548.04949    211919.72749  25273564.7674   25273566.2234   25273567.6394
       196.0004        126.0004
  -1107202.02549   -840258.80449  24158954.3874   24158957.5944   24158954.1654
       212.0004        143.0004
 -15773001.68749 -12257815.55649  21970194.9994   21970195.6194   21970194.8114
       233.0004        187.0004
 -20837683.37049 -15977082.59849  20380246.9164   20380249.3994   20380245.8744
       239.0004        199.0004
    142008.81149    117007.30349  24164020.5464   24164023.8044   24164020.5824
       211.0004        143.0004
 -23002229.24849 -17902840.62149  20579124.0254   20579126.3684   20579124.2534
       238.0004        204.0004
 -18584303.80049 -14163176.09049  21481526.0294   21481528.7274   21481525.6304
       237.0004        190.0004
 -15878203.19549 -12354786.61249  22014602.0394   22014604.1264   22014603.2564
       228.0004        169.0004
 -16453027.96649 -12534169.56349  21735447.5484   21735447.7704   21735447.1674
       230.0004        181.0004
  -2333561.28749  -1526273.33249  23705582.0284   23705590.7874   23705585.1544
       211.0004        149.0004
 11 10 10  0  2 30.0000000  0 11G23G29G26G05G10G16G07G08G13G02G04
  -5441617.78259     92445.55259  24228887.8174
       168.0004        107.0004
    323649.79149    239271.77949  25280243.5664   25280243.7994   25280241.0244
       197.0004        126.0004
  -1218081.07049   -926658.11149  24137853.8114   24137857.9114   24137853.3894
       204.0004        134.0004
 -15849635.71549 -12317530.38149  21955611.1354   21955612.8874   21955611.9094
       233.0004        186.0004
 -20800794.81849 -15948338.25649  20387266.1094   20387269.0194   20387264.9924
       239.0004        199.0004
    178854.32949    145718.10349  24171032.2344   24171035.1564   24171030.7354
       212.0004        146.0004
 -23011662.00349 -17910190.81549  20577329.1184   20577331.4224   20577329.4234
       239.0004        204.0004
 -18655349.50549 -14218536.35349  21468006.1174   21468009.2834   21468005.3014
       236.0004        190.0004
 -15796210.41049 -12290896.14249  22030204.8244   22030207.8274   22030206.4214
       229.0004        171.0004
 -16409056.91349 -12499906.43049  21743813.6314   21743814.8314   21743814.5684
       230.0004        180.0004
  -2226596.89949  -1442924.49249  23725939.1444   23725942.4584   23725941.4704
       214.0004        147.0004
 11 10 10  0  3  0.0000000  0 10G29G26G05G10G16G07G08G13G02G04
    359228.09849    266995.14849  25287012.7904   25287015.8674   25287018.5304
       189.0004        123.0004
  -1328846.97249  -1012969.30349  24116774.6584   24116778.8514   24116774.3984
       205.0004        136.0004
 -15925957.39649 -12377001.82649  21941087.6404   21941088.9164   21941088.3004
       233.0004        186.0004
 -20763419.72649 -15919214.80749  20394378.0794   20394380.8024   20394377.3264
       238.0004        199.0004
    216268.94349    174872.32849  24178151.8664   24178154.1774   24178153.5864
       208.0004        142.0004
 -23020521.81649 -17917094.56349  20575642.7744   20575645.1284   20575643.4394
       239.0004        204.0004
 -18725964.73649 -14273561.20149  21454567.8264   21454572.1854   21454568.3374
       236.0004        191.0004
 -15714008.37949 -12226842.64249  22045849.0594   22045850.2844   22045848.6244
       228.0004        171.0004
 -16364526.61349 -12465207.59349  21752289.2354   21752289.4154   21752289.2404
       231.0004        181.0004
  -2119505.37049  -1359476.52149  23746319.8844   23746322.9144   23746320.2164
       217.0004        149.0004
 11 10 10  0  3 30.0000000  0 10G29G26G05G10G16G07G08G13G02G04
    395280.84449    295088.15349  25293874.2814   25293877.4414   25293875.5694
       191.0004        122.0004
  -1439498.54149  -1099191.25249  24095719.2944   24095724.4154   24095720.5234
       207.0004        147.0004
 -16001965.13049 -12436228.61649  21926624.0484   21926626.1804   21926624.1194
       233.0004        187.0004
 -20725559.29049 -15889713.18049  20401583.3644   20401585.3124   20401582.6794
       239.0004        199.0004
    254251.14349    204468.86549  24185381.0134   24185381.2204   24185380.7124
       209.0004        142.0004
 -23028808.63249 -17923551.80849  20574066.4124   20574068.0964   20574066.5854
       238.0004        203.0004
 -18796148.36349 -14328249.72449  21441213.0984   21441215.9214   21441212.5714
       236.0004        191.0004
 -15631598.64549 -12162627.29649  22061530.3074   22061531.6764   22061530.5194
       229.0004        170.0004
 -16319439.03649 -12430074.47049  21760867.7014   21760868.8804   21760868.0934
       231.0004        182.0004
  -2012289.66849  -1275931.85849  23766721.8264   23766724.6684   23766720.8504
       216.0004        148.0004
 11 10 10  0  4  0.0000000  0 10G29G26G05G10G16G07G08G13G02G04
    431806.13449    323549.43049  25300825.2374   25300830.5614   25300824.3084
       190.0004        123.0004
  -1550034.70249  -1185323.21949  24074685.4804   24074688.4794   24074685.8214
       205.0004        143.0004
 -16077656.98949 -12495209.26449  21912219.1604   21912222.5104   21912220.0764
       231.0004        188.0004
 -20687213.87449 -15859833.65849  20408879.9404   20408882.4994   20408878.9804
       238.0004        199.0004
    292799.83749    234506.81749  24192715.2974   24192715.7904   24192713.3004
       207.0004        138.0004
 -23036522.89249 -17929562.91549  20572598.1614   20572600.3684   20572598.8014
       239.0004        204.0004
 -18865898.89049 -14382600.76949  21427939.3914   21427943.1444   21427939.5574
       237.0004        191.0004
 -15548982.67749 -12098251.23049  22077251.1494   22077254.4904   22077252.1784
       230.0004        172.0004
 -16273796.24449 -12394508.73249  21769554.1404   21769554.2884   21769554.0844
       231.0004        180.0004
  -1904952.47549  -1192292.55249  23787147.8424   23787150.2364   23787148.0144
       216.0004        148.0004
 11 10 10  0  4 30.0000000  0 10G29G26G05G10G16G07G08G13G02G04
    468803.02249    352378.20649  25307863.5524                   25307867.6614
       192.0004        123.0004
  -1660453.83349  -1271364.14249  24053672.9714   24053676.1494   24053670.3834
       202.0004        132.0004
 -16153030.32149 -12553941.70849  21897877.1044   21897879.2684   21897877.9644
       233.0004        189.0004
 -20648383.47249 -15829576.22049  20416268.2874   20416271.8444   20416268.1204
       239.0004        199.0004
    331913.99649    264985.35449  24200160.2074   24200158.0504   24200158.9324
       212.0004        140.0004
 -23043664.34349 -17935127.66849  20571239.3414   20571241.0954   20571239.7084
       238.0004        204.0004
 -18935213.89549 -14436612.44049  21414749.6844   21414752.6154   21414749.0764
       237.0004        191.0004
 -15466161.09749 -12033714.95449  22093013.0374   22093014.3634   22093012.8364
       230.0004        171.0004
 -16227599.63549 -12358511.44649  21778344.2814   21778345.5874   21778344.6254
       228.0004        180.0004
  -1797496.38049  -1108560.51949  23807594.6284   23807598.4924   23807594.1324
       214.0004        143.0004
 11 10 10  0  5  0.0000000  0 10G29G26G05G10G16G07G08G13G02G04
    506268.74249    381572.26949  25314993.0224   25314997.0224   25314996.7254
       185.0004        126.0004
  -1770755.02449  -1357313.18649  24032681.2804   24032686.2384   24032681.8534
       204.0004        134.0004
 -16228083.53849 -12612424.74349  21883595.3504   21883595.9654   21883595.8864
       233.0004        188.0004
 -20609069.19349 -15798941.73949  20423750.0134   20423752.7044   20423749.3354
       238.0004        199.0004
    371591.92949    295903.20649  24207709.5844   24207710.1674   24207709.0664
       211.0004        140.0004
 -23050233.93449 -17940246.81449  20569989.5594   20569991.0534   20569989.6914
       239.0004        204.0004
 -19004092.32449 -14490283.92749  21401641.7384   21401645.3664   21401642.1404
       237.0004        191.0004
 -15383135.60949 -11969019.79149  22108811.4464   22108813.7324   22108812.2904
       229.0004        170.0004
 -16180851.42549 -12322084.32349  21787240.2054   21787242.0904   21787240.5474
       230.0004        180.0004
  -1689924.59649  -1024738.32549  23828064.4214   23828069.8104   23828065.6654
       210.0004        147.0004
 11 10 10  0  5 30.0000000  0 10G29G26G05G10G16G07G08G13G02G04
    544202.16849    411130.75249  25322212.5624   25322215.2614   25322210.7064
       191.0004        123.0004
  -1880936.91449  -1443169.15749  24011715.8764   24011720.8144   24011717.2764
       207.0004        143.0004
 -16302814.32749 -12670656.51449  21869372.5684   21869376.0874   21869373.4704
       230.0004        186.0004
 -20569271.35549 -15767930.44449  20431322.7084   20431326.6154   20431322.4514
       238.0004        199.0004
    411832.26349    327259.33349  24215367.7804   24215367.5134   24215366.5964
       211.0004        140.0004
 -23056231.59049 -17944920.29749  20568846.9024   20568849.6904   20568847.7434
       237.0004        204.0004
 -19072532.19049 -14543613.69149  21388618.5514   21388621.9134   21388618.5494
       237.0004        191.0004
 -15299907.58749 -11904166.81249  22124648.5424   22124650.7544   22124649.3874
       229.0004        170.0004
 -16133553.20549 -12285228.60549  21796241.4814   21796241.3924   21796241.2364
       229.0004        180.0004
  -1582239.87049   -940828.23049  23848555.4944   23848560.9944   23848556.4614
       212.0004        144.0004
 11 10 10  0  6  0.0000000  0 10G29G26G05G10G16G07G08G13G02G04
    582601.47049    441052.24649  25329523.3434   25329520.2674   25329523.1174
       188.0004        124.0004
  -1990998.11149  -1528931.09949  23990770.4554   23990776.5734   23990770.4484
       196.0004        135.0004
 -16377220.29949 -12728635.18749  21855214.3834   21855217.3874   21855215.2744
       232.0004        189.0004
 -20528990.36349 -15736542.68249  20438988.9494   20438991.4234   20438988.2594
       239.0004        199.0004
    452634.24349    359053.12049  24223130.7954   24223131.2014   24223130.3174
       209.0004        140.0004
 -23061657.13449 -17949147.99049  20567815.8254   20567817.1004   20567815.9454
       239.0004        204.0004
 -19140531.64749 -14596600.26349  21375678.3004   21375682.0984   21375677.8864
       236.0004        191.0004
 -15216477.90049 -11839156.68949  22140525.5244   22140527.7374   22140525.4064
       230.0004        169.0004
 -16085706.84449 -12247945.79549  21805346.4654   21805347.1684   21805346.4424
       231.0004        180.0004
  -1474444.43949   -856831.82849  23869068.6024   23869072.4624   23869069.7234
       211.0004        145.0004
 11 10 10  0  6 30.0000000  0 10G29G26G05G10G16G07G08G13G02G04
    621464.25849    471334.91549  25336915.7804   25336920.4294   25336918.0924
       188.0004        123.0004
  -2100938.09449  -1614598.51049  23969852.0014   23969855.4354   23969850.7294
       210.0004        136.0004
 -16451300.23349 -12786359.82049  21841117.9634   21841120.3054   21841118.9154
       233.0004        190.0004
 -20488227.73849 -15704779.60949  20446745.3384   20446747.8734   20446744.7204
       238.0004        199.0004
    493995.46849    391282.65049  24231000.8604   24231003.2064   24231002.2654
       209.0004        141.0004
 -23066512.40949 -17952931.30549  20566890.9654   20566893.3334   20566891.6694
       238.0004        204.0004
 -19208090.00749 -14649243.12249  21362821.5464   21362825.5684   21362822.3194
       236.0004        191.0004
 -15132848.94449 -11773991.29149  22156439.6844   22156442.3154   22156439.5784
       228.0004        170.0004
 -16037315.01349 -12210237.94949  21814556.0164   21814555.7934   21814554.6994
       231.0004        180.0004
  -1366542.12749   -772752.05849  23889602.7954   23889606.5884   23889603.0534
       210.0004        143.0004
 11 10 10  0  7  0.0000000  0 10G29G26G05G10G16G07G08G13G02G04
    660789.04449    501977.63949  25344397.0774                   25344400.4044
       181.0004        121.0004
  -2210755.20049  -1700170.38349  23948952.6854   23948958.5474   23948954.1324
       207.0004        137.0004
 -16525051.55149 -12843828.37549  21827082.7824   21827085.4954   21827083.6884
       231.0004        187.0004
 -20446983.37849 -15672641.16449  20454593.6434   20454596.6784   20454593.3064
       238.0004        199.0004
    535915.18449    423947.30549  24238979.2584   24238980.0574   24238978.4604
       207.0004        139.0004
 -23070796.23549 -17956269.32949  20566076.4284   20566078.5434   20566076.3894
       239.0004        204.0004
 -19275205.36149 -14701540.78749  21350051.1164   21350054.2284   21350050.9694
       237.0004        192.0004
 -15049021.17449 -11708671.00649  22172390.5874   22172392.5874   22172391.9514
       228.0004        169.0004
 -15988379.20049 -12172106.23749  21823867.3694   21823868.1934   21823867.6704
       231.0004        180.0004
  -1258534.92249   -688590.66549  23910154.1244   23910161.3904   23910156.5794
       207.0004        143.0004
 11 10 10  0  7 30.0000000  0 10G29G26G05G10G16G07G08G13G02G04
    700574.44049    532979.20249  25351967.6814                   25351967.3574
       185.0004        122.0004
  -2320447.90749  -1785645.21849  23928078.9884   23928084.5954   23928078.2074
       201.0004        140.0004
 -16598471.70049 -12901038.86849  21813112.3034   21813114.9334   21813112.0934
       232.0004        188.0004
 -20405257.66249 -15640127.63549  20462534.9224   20462536.9744   20462534.2084
       239.0004        199.0004
    578392.19849    457046.29949  24247061.4284   24247062.3074   24247062.6784
       207.0004        139.0004
 -23074508.87749 -17959162.28249  20565369.4304   20565372.0374   20565370.3024
       240.0004        204.0004
 -19341875.62249 -14753491.62749  21337363.1914   21337367.1794   21337363.7504
       236.0004        192.0004
 -14964995.74249 -11643196.67649  22188381.7354   22188383.7924   22188381.9414
       231.0004        171.0004
 -15938901.30649 -12133552.18949  21833283.1494   21833283.6444   21833282.8204
       230.0004        179.0004
  -1150425.49549   -604349.59349  23930728.9814   23930733.3434   23930728.6164
       215.0004        147.0004
 11 10 10  0  8  0.0000000  0 10G29G26G05G10G16G07G08G13G02G04
    740818.26849    564338.05149  25359630.1614                   25359629.0644
       191.0004        117.0004
  -2430015.70949  -1871022.57449  23907229.2584   23907235.6254   23907227.9504
       199.0004        139.0004
 -16671559.47049 -12957990.36649  21799204.4684   21799206.7554   21799204.4764
       233.0004        189.0004
 -20363051.93049 -15607240.05449  20470565.5434   20470568.4784   20470564.8254
       239.0004        199.0004
    621424.40849    490577.89849  24255251.4184   24255251.7844   24255252.3214
       207.0004        141.0004
 -23077651.36849 -17961610.95949  20564771.8224   20564773.8504   20564771.9004
       238.0004        203.0004
 -19408100.00549 -14805095.01349  21324762.5474   21324765.0524   21324761.3054
       238.0004        193.0004
 -14880774.58349 -11577569.80249  22204407.9304   22204409.8664   22204407.4594
       230.0004        170.0004
 -15888883.69049 -12094577.55349  21842801.2854   21842802.1854   21842800.6464
       230.0004        180.0004
  -1042217.25949   -520031.50349  23951322.0984   23951323.0684   23951320.8644
       211.0004        139.0004
 11 10 10  0  8 30.0000000  0 10G29G26G05G10G16G07G08G13G02G04
    781518.79059    596052.80459  25367372.7934
       175.0004        114.0004
  -2539456.43649  -1956301.03949  23886404.2074   23886409.4754   23886404.0944
       210.0004        139.0004
 -16744312.16349 -13014680.77549  21785359.6244   21785362.1184   21785359.9034
       232.0004        188.0004
 -20320366.12849 -15573978.38849  20478687.9464   20478691.4864   20478687.7094
       237.0004        199.0004
    665011.04349    524541.49549  24263544.0524   24263546.2264   24263544.1064
       209.0004        139.0004
 -23080223.92149 -17963615.51949  20564281.8264   20564284.2744   20564282.3934
       239.0004        204.0004
 -19473876.31249 -14856349.24649  21312244.8734   21312248.4814   21312244.7204
       237.0004        193.0004
 -14796358.25749 -11511790.85049  22220471.1464   22220473.8464   22220471.6864
       230.0004        170.0004
 -15838327.94749 -12055183.68849  21852420.4214   21852422.3594   21852421.1294
       228.0004        178.0004
   -933912.70649   -435638.36849  23971929.4884   23971932.8184   23971929.3574
       211.0004        140.0004
 11 10 10  0  9  0.0000000  0 10G29G26G05G10G16G07G08G13G02G04
    822673.71759      3989.76759  25375201.6244
       175.0004         74.0004
  -2648769.68149  -2041480.30449  23865602.8364   23865606.8144   23865603.1464
       203.0004        138.0004
 -16816728.27749 -13071108.91049  21771578.8854   21771581.5414   21771579.4924
       232.0004        188.0004
 -20277201.85849 -15540343.91149  20486902.2584   20486904.8204   20486901.6444
       238.0004        198.0004
    709149.94149    558935.46649  24271945.5424   24271946.0244   24271945.2894
       206.0004        138.0004
 -23082227.31349 -17965176.56949  20563901.0764   20563902.6264   20563901.2794
       239.0004        204.0004
 -19539203.61749 -14907253.61049  21299814.0274   21299817.3634   21299813.3134
       239.0004        194.0004
 -14711748.92349 -11445861.51049  22236571.3644   22236573.5254   22236572.6184
       227.0004        168.0004
 -15787236.51449 -12015372.32749  21862144.1294   21862144.6364   21862143.8534
       230.0004        179.0004
   -825514.79149   -351172.47149  23992560.4164   23992562.4384   23992560.2684
       214.0004        147.0004
 11 10 10  0  9 30.0000000  0 10G29G26G05G10G16G07G08G13G02G04
    864281.20459     36401.18159  25383122.9884
       162.0004        105.0004
  -2757953.64549  -2126558.58149  23844824.3494   23844827.6404   23844823.7664
       208.0004        139.0004
 -16888804.89649 -13127272.51249  21757863.1814   21757865.4704   21757863.7654
       233.0004        190.0004
 -20233558.65549 -15506336.24649  20495206.9284   20495210.0994   20495206.5524
       238.0004        199.0004
    753840.41049    593759.21249  24280448.3934   24280450.5594   24280448.6184
       208.0004        139.0004
 -23083661.07649 -17966293.77649  20563627.7814   20563630.2154   20563628.2604
       238.0004        204.0004
 -19604079.50249 -14957806.21849  21287468.6314   21287471.2024   21287467.4404
       238.0004        194.0004
 -14626947.00349 -11379782.13449  22252709.5824   22252711.5744   22252710.5784
       228.0004        167.0004
 -15735610.88949 -11975144.69349  21871968.3434   21871968.7184   21871967.7844
       228.0004        179.0004
   -717025.61849   -266635.51649  24013202.7844   24013206.1884   24013201.9424
       210.0004        145.0004
 11 10 10  0 10  0.0000000  0  9G26G05G10G16G07G08G13G02G04
  -2867007.68049  -2211535.65549  23824073.4994   23824078.3914   23824073.1114
       210.0004        146.0004
 -16960540.64349 -13183170.50249  21744213.4754   21744214.3384   21744213.6364
       235.0004        190.0004
 -20189438.18749 -15471956.67449  20503604.0164   20503606.2254   20503603.1424
       239.0004        199.0004
    799080.01849    629010.81349  24289057.7334   24289057.8104   24289058.4414
       209.0004        139.0004
 -23084526.51049 -17966968.11849  20563462.9704   20563465.2864   20563463.2974
       238.0004        203.0004
 -19668503.46249 -15008006.67749  21275208.0374   21275211.9944   21275208.7354
       238.0004        194.0004
 -14541954.42049 -11313554.17549  22268882.6134   22268886.1944   22268884.0904
       225.0004        166.0004
 -15683453.79449 -11934502.93849  21881892.7014   21881894.2864   21881892.6604
       230.0004        178.0004
   -608448.87249   -182030.29349  24033864.4444   24033866.2044   24033864.8564
       207.0004        139.0004
 11 10 10  0 10 30.0000000  0  9G26G05G10G16G07G08G13G02G04
  -2975929.54149  -2296409.75449  23803345.0104   23803351.5304   23803344.3284
       205.0004        142.0004
 -17031932.55049 -13238800.57649  21730627.4334   21730629.3404   21730627.2104
       233.0004        189.0004
 -20144840.16149 -15437204.99049  20512089.5344   20512093.3524   20512089.1054
       237.0004        199.0004
    844868.18949    664689.92649  24297770.3734   24297772.0754   24297769.0444
       208.0004        139.0004
 -23084823.40449 -17967199.44649  20563406.7424   20563408.5704   20563407.3404
       238.0004        204.0004
 -19732473.34449 -15057853.31549  21263036.4314   21263038.6314   21263035.8644
       240.0004        194.0004
 -14456771.61549 -11247177.98849  22285092.2814   22285096.2294   22285092.4934
       227.0004        166.0004
 -15630766.29249 -11893447.85949  21891919.6534   21891920.4024   21891919.6514
       229.0004        179.0004
   -499786.56349    -97358.34449  24054541.9944   24054544.8814   24054541.4004
       210.0004        142.0004
 11 10 10  0 11  0.0000000  0  9G26G05G10G16G07G08G13G02G04
  -3084719.16749  -2381180.91649  23782641.8014   23782647.0894   23782641.6914
       205.0004        135.0004
 -17102979.52549 -13294161.84749  21717106.4994   21717109.8594   21717107.9214
       232.0004        190.0004
 -20099766.40349 -15402082.59449  20520667.7304   20520670.1554   20520667.2864
       239.0004        199.0004
    891202.60649    700794.65949  24306588.8324   24306589.5704   24306587.3304
       211.0004        141.0004
 -23084552.75649 -17966988.52649  20563457.9854   20563460.3354   20563458.2224
       238.0004        204.0004
 -19795988.37049 -15107345.50849  21250948.2854   21250952.6274   21250948.6164
       238.0004        195.0004
 -14371400.87649 -11180655.34849  22301337.9684   22301339.7714   22301338.1674
       227.0004        167.0004
 -15577551.84349 -11851982.11749  21902045.6104   21902047.1174   21902045.7454
       227.0004        178.0004
   -391041.92149    -12622.26449  24075233.4554   24075241.3764   24075234.2514
       205.0004        145.0004
 11 10 10  0 11 30.0000000  0  9G26G05G10G16G07G08G13G02G04
  -3193374.53949  -2465847.43649  23761967.5074   23761972.3654   23761968.2624
       210.0004        145.0004
 -17173679.03949 -13349252.38349  21703655.0804   21703655.9974   21703655.2124
       236.0004        192.0004
 -20054217.24749 -15366589.74649  20529335.0464   20529337.8264   20529334.3524
       239.0004        199.0004
    938082.20949    737324.23249  24315509.2524   24315509.2524   24315507.3584
       210.0004        139.0004
 -23083714.67449 -17966335.47349  20563617.5184   20563619.2964   20563618.2744
       238.0004        204.0004
 -19859046.34249 -15156481.55849  21238950.7284   21238952.8234   21238949.4094
       241.0004        195.0004
 -14285842.82749 -11113986.77549  22317619.3204   22317621.7584   22317620.2714
       227.0004        168.0004
 -15523811.77149 -11810106.80249  21912273.4884   21912273.8874   21912272.5764
       229.0004        178.0004
   -282217.36149     72176.01049  24095940.5254   24095947.8184   24095942.4714
       202.0004        142.0004
 11 10 10  0 12  0.0000000  0  9G26G05G10G16G07G08G13G02G04
  -3301894.54349  -2550408.36149  23741317.2254   23741320.9554   23741315.9834
       207.0004        144.0004
 -17244029.11749 -13404070.66049  21690267.1064   21690268.0884   21690267.6674
       234.0004        190.0004
 -20008193.42849 -15330727.05349  20538092.8594   20538096.0784   20538092.2744
       238.0004        199.0004
    985505.24449    774277.21049  24324532.2744   24324533.4574   24324531.1004
       207.0004        137.0004
 -23082309.65649 -17965240.63949  20563884.7044   20563887.1554   20563885.4334
       239.0004        204.0004
 -19921646.18549 -15205260.62649  21227036.6234   21227040.5694   21227036.8784
       239.0004        195.0004
 -14200098.90449 -11047173.36449  22333935.2194   22333937.0734   22333935.9194
       227.0004        167.0004
 -15469548.47849 -11767823.77149  21922598.3124   21922599.7074   21922598.5904
       229.0004        177.0004
   -173315.78149    157034.35149  24116667.3414   24116668.0934   24116666.8814
       211.0004        139.0004
 11 10 10  0 12 30.0000000  0  9G26G05G10G16G07G08G13G02G04
  -3410278.16249  -2634863.06049  23720691.5104   23720695.7104   23720690.7534
       210.0004        142.0004
 -17314027.70849 -13458615.04349  21676946.2974   21676948.2394   21676946.9994
       234.0004        190.0004
 -19961695.64849 -15294495.04649  20546941.9244   20546944.3144   20546941.0394
       239.0004        198.0004
   1033469.84449    811652.19949  24333659.8204   24333661.6934   24333660.1044
       209.0004        138.0004
 -23080338.36049 -17963704.55949  20564260.4504   20564262.2424   20564260.9324
       239.0004        204.0004
 -19983786.40949 -15253681.57149  21215212.5854   21215215.1994   21215212.4884
       240.0004        195.0004
 -14114170.47649 -10980216.17549  22350287.6354   22350289.7254   22350287.4234
       228.0004        167.0004
 -15414763.92849 -11725134.56549  21933023.4934   21933024.2314   21933023.2534
       229.0004        178.0004
    -64340.22549    241950.42349  24137405.2034   24137407.7024   24137405.0544
       212.0004        142.0004
 11 10 10  0 13  0.0000000  0  9G26G05G10G16G07G08G13G02G04
  -3518523.81649  -2719210.27049  23700092.0994   23700096.0434   23700092.4154
       205.0004        142.0004
 -17383672.48049 -13512883.69249  21663693.6794   21663695.9134   21663694.2184
       235.0004        193.0004
 -19914724.63249 -15257894.28249  20555879.5824   20555882.5444   20555878.7374
       238.0004        199.0004
   1081974.84149    849448.29049  24342889.9194   24342892.2784   24342890.7544
       208.0004        140.0004
 -23077801.22049 -17961727.55349  20564742.3884   20564745.0244   20564743.0064
       238.0004        204.0004
 -20045465.44149 -15301743.12749  21203475.4204   21203478.2964   21203474.7714
       240.0004        195.0004
 -14028058.46149 -10913115.92749  22366674.7664   22366675.6034   22366674.6944
       226.0004        166.0004
 -15359460.37449 -11682040.92449  21943547.5134   21943548.5384   21943547.6104
       229.0004        178.0004
     44707.10249    326922.31149  24158156.3144   24158160.4004   24158155.1824
       209.0004        143.0004
 11 10 10  0 13 30.0000000  0  9G26G05G10G16G07G08G13G02G04
  -3626630.64149  -2803449.19749  23679523.1484   23679525.1504   23679522.5704
       212.0004        143.0004
 -17452961.69449 -13566875.30249  21650508.2814   21650510.0914   21650508.8674
       235.0004        191.0004
 -19867281.25649 -15220925.45949  20564908.0904   20564910.7714   20564907.4824
       239.0004        198.0004
   1131017.90149    887663.64849  24352222.4034   24352223.4844   24352223.1744
       207.0004        141.0004
 -23074699.27749 -17959310.43849  20565333.7214   20565335.1194   20565333.7444
       239.0004        204.0004
 -20106682.14549 -15349444.43149  21191825.7544   21191828.7804   21191826.1624
       239.0004        195.0004
 -13941764.42849 -10845873.85749  22383094.6644   22383097.1564   22383095.7024
       227.0004        164.0004
 -15303640.41149 -11638544.89549  21954170.1434   21954171.1444   21954169.8714
       229.0004        176.0004
    153823.03349    411947.62849  24178921.9844   24178923.5494   24178921.2244
       213.0004        146.0004
 11 10 10  0 14  0.0000000  0  9G26G05G10G16G07G08G13G02G04
  -3734597.33949  -2887579.04049  23658977.3544   23658978.7374   23658976.5894
       211.0004        145.0004
 -17521892.91149 -13620587.95749  21637391.3594   21637392.5034   21637391.8844
       235.0004        191.0004
 -19819366.26649 -15183589.11249  20574025.9464   20574028.6604   20574024.9324
       238.0004        198.0004
   1180597.66149    926297.24549  24361658.1384   24361659.9884   24361658.5194
       208.0004        141.0004
 -23071032.91149 -17956453.51749  20566030.3314   20566032.7894   20566031.4374
       238.0004        204.0004
 -20167435.25049 -15396784.48649  21180265.0804   21180268.3574   21180264.6174
       239.0004        196.0004
 -13855289.76549 -10778491.02249  22399551.7624   22399554.0604   22399552.7084
       227.0004        164.0004
 -15247305.87149 -11594647.93349  21964890.2274   21964891.2974   21964890.5954
       229.0004        177.0004
    263004.91149    497024.44449  24199697.8754   24199700.2144   24199695.9414
       210.0004        137.0004
 11 10 10  0 14 30.0000000  0  9G26G05G10G16G07G08G13G02G04
  -3842422.68849  -2971598.68849  23638458.5634   23638461.3784   23638457.5454
       210.0004        145.0004
 -17590464.20549 -13674020.13949  21624341.7154   21624344.2544   21624342.3194
       233.0004        191.0004
 -19770980.63849 -15145886.05449  20583233.0044   20583236.3264   20583232.8014
       239.0004        198.0004
   1230712.65149    965347.87649  24371194.2484   24371196.0894   24371194.7824
       211.0004        141.0004
 -23066802.63749 -17953157.18249  20566836.6214   20566838.0944   20566836.6364
       240.0004        205.0004
 -20227722.99849 -15443761.94749  21168791.8824   21168796.2414   21168792.5194
       238.0004        196.0004
 -13768635.21649 -10710968.03949  22416041.6374   22416043.5724   22416041.6774
       227.0004        164.0004
 -15190459.02749 -11550351.73149  21975707.1344   21975708.3874   21975707.4954
       228.0004        176.0004
    372250.11949    582150.56049  24220483.7094   24220488.5264   24220484.8254
       207.0004        137.0004
 11 10 10  0 15  0.0000000  0  9G26G05G10G16G07G08G13G02G04
  -3950104.69949  -3055506.66349  23617966.0024   23617969.8294   23617965.2944
       210.0004        143.0004
 -17658672.98249 -13727169.83649  21611362.0284   21611364.8474   21611363.3794
       234.0004        192.0004
 -19722124.39349 -15107816.27649  20592530.5874   20592532.9194   20592529.8094
       239.0004        198.0004
   1281361.64449   1004814.62249  24380834.3174   24380832.5824   24380834.1224
       210.0004        142.0004
 -23062008.37849 -17949421.38549  20567747.7704   20567749.9814   20567748.3844
       238.0004        204.0004
 -20287543.41549 -15490375.23249  21157410.0174   21157412.4354   21157409.0794
       240.0004        196.0004
 -13681801.69149 -10643305.56249  22432563.3274   22432566.6654   22432564.5474
       224.0004        162.0004
 -15133101.84649 -11505657.86449  21986621.5994   21986623.3004   21986621.6104
       227.0004        175.0004
    481556.34449    667324.17849  24241285.3824   24241290.0424   24241285.0044
       210.0004        146.0004
 11 10 10  0 15 30.0000000  0  9G26G05G10G16G07G08G13G02G04
  -4057642.99749  -3139302.60349  23597502.5724   23597507.0224   23597502.5744
       212.0004        146.0004
 -17726518.10549 -13780036.19149  21598451.5014   21598454.4204   21598452.6304
       234.0004        193.0004
 -19672799.39149 -15069381.24249  20601916.7674   20601919.1414   20601916.1624
       239.0004        198.0004
   1332541.78349   1044695.25849  24390571.9624   24390572.4794   24390572.0224
       209.0004        138.0004
 -23056651.78549 -17945247.40149  20568767.8864   20568769.7564   20568768.0324
       240.0004        205.0004
 -20346895.97849 -15536623.96849  21146114.0854   21146117.6644   21146114.3594
       238.0004        195.0004
 -13594791.23349 -10575505.23849  22449121.9704   22449125.3554   22449122.8644
       223.0004        162.0004
 -15075237.36049 -11460568.69649  21997633.1284   21997634.1704   21997632.8904
       227.0004        175.0004
    590920.01549    752542.57049  24262098.7584   24262098.7394   24262097.0164
       209.0004        138.0004
 11 10 10  0 16  0.0000000  0  9G26G05G10G16G07G08G13G02G04
  -4165036.35249  -3222985.74849  23577066.8884   23577070.8294   23577067.1264
       211.0004        145.0004
 -17793997.25249 -13832617.34949  21585610.8364   21585613.5584   21585610.8064
       233.0004        191.0004
 -19623006.14649 -15030581.32849  20611392.4954   20611394.7264   20611391.3654
       240.0004        198.0004
   1384251.63649   1084988.62449  24400411.7574   24400413.6444   24400411.4534
       209.0004        139.0004
 -23050733.36049 -17940635.63649  20569893.6534   20569895.4704   20569894.2184
       239.0004        204.0004
 -20405779.55349 -15582507.25149  21134910.4154   21134912.5644   21134909.6324
       240.0004        196.0004
 -13507604.95049 -10507567.89549  22465713.6134   22465716.3334   22465714.1904
       226.0004        162.0004
 -15016867.84049 -11415086.00849  22008741.3074   22008742.1474   22008741.2534
       229.0004        176.0004
    700338.73149    837803.89349  24282916.2264   24282920.4584   24282920.0794
       203.0004        132.0004
 11 10 10  0 16 30.0000000  0  9G26G05G10G16G07G08G13G02G04
  -4272283.13249  -3306554.56349  23556656.8894   23556660.2384   23556657.0924
       213.0004        146.0004
 -17861107.98249 -13884911.42849  21572840.3034   21572842.2974   21572841.0174
       235.0004        191.0004
 -19572745.66549 -14991417.34049  20620956.1514   20620958.9584   20620955.2194
       239.0004        197.0004
   1436489.88849   1125693.74149  24410352.6644   24410352.7054   24410352.3264
       211.0004        142.0004
 -23044253.68249 -17935586.50949  20571127.6354   20571128.6104   20571126.6824
       239.0004        203.0004
 -20464192.42149 -15628023.75649  21123793.1624   21123796.8504   21123793.3534
       239.0004        196.0004
 -13420243.74749 -10439494.26549  22482336.5124   22482339.7914   22482338.0664
       223.0004        162.0004
 -14957995.33049 -11369211.41049  22019944.1234   22019945.3614   22019944.7284
       227.0004        176.0004
    809810.00849    923106.21949  24303748.3914   24303756.1064   24303750.4164
       206.0004        141.0004
 11 10 10  0 17  0.0000000  0  9G26G05G10G16G07G08G13G02G04
  -4379382.39349  -3390008.40149  23536277.1204   23536280.2934   23536276.7254
       211.0004        146.0004
 -17927848.69349 -13936917.18749  21560139.6474   21560142.0324   21560140.3804
       233.0004        192.0004
 -19522018.94149 -14951890.04849  20630609.0154   20630612.1014   20630608.2354
       239.0004        197.0004
   1489254.30249   1166808.86349  24420392.9964   24420394.9764   24420393.3364
       210.0004        143.0004
 -23037213.34249 -17930100.52049  20572466.0894   20572468.2394   20572467.1104
       239.0004        204.0004
 -20522133.44749 -15673172.60749  21112768.6734   21112770.8584   21112768.0594
       239.0004        196.0004
 -13332709.07549 -10371285.45549  22498995.3144   22498997.3314   22498996.0914
       224.0004        161.0004
 -14898622.20749 -11322946.71949  22031243.4944   22031243.8474   22031243.0954
       230.0004        177.0004
    919330.84249   1008447.05749  24324588.9814   24324595.3464   24324590.9664
       203.0004        140.0004
 11 10 10  0 17 30.0000000  0  9G26G05G10G16G07G08G13G02G04
  -4486332.27449  -3473345.96449  23515925.3054   23515928.2844   23515925.3424
       208.0004        147.0004
 -17994216.77649 -13988632.58349  21547510.5334   21547513.2294   21547511.2334
       234.0004        193.0004
 -19470826.34749 -14911999.74349  20640350.9234   20640353.5884   20640350.2054
       239.0004        197.0004
   1542543.53749   1208332.92049  24430534.0504   24430534.7064   24430533.4434
       211.0004        142.0004
 -23029612.82549 -17924178.01849  20573912.6464   20573914.5454   20573912.7034
       238.0004        204.0004
 -20579601.09949 -15717952.57649  21101831.9094   21101835.2584   21101831.5784
       239.0004        196.0004
 -13245001.94849 -10302942.25849  22515685.3564   22515686.8694   22515685.2334
       224.0004        160.0004
 -14838750.59949 -11276293.60049  22042635.1034   22042636.7914   22042635.2224
       227.0004        174.0004
   1028898.89949   1093824.69849  24345439.7734   24345442.6924   24345439.4754
       201.0004        135.0004
 11 10 10  0 18  0.0000000  0  9G26G05G10G16G07G08G13G02G04
  -4593132.11649  -3556566.51149  23495602.5744   23495604.3224   23495603.0004
       211.0004        146.0004
 -18060210.48049 -14040056.24549  21534952.7464   21534954.8134   21534952.7734
       234.0004        192.0004
 -19419169.01249 -14871747.28349  20650180.7124   20650183.3914   20650180.0674
       238.0004        196.0004
   1596355.29149   1250264.13149  24440774.1544   24440774.5204   24440773.8344
       211.0004        141.0004
 -23021453.32249 -17917819.94649  20575465.6934   20575467.4744   20575466.3994
       239.0004        204.0004
 -20636594.27349 -15762362.82949  21090986.8564   21090990.0824   21090986.9704
       240.0004        196.0004
 -13157123.52349 -10234465.60149  22532407.3144   22532410.0574   22532407.8584
       224.0004        162.0004
 -14778382.94349 -11229253.93549  22054123.5484   22054124.7404   22054123.2544
       228.0004        174.0004
   1138510.92949   1179236.72949  24366299.6434   24366301.5304   24366299.0314
       207.0004        137.0004
 11 10 10  0 18 30.0000000  0  9G26G05G10G16G07G08G13G02G04
  -4699779.91049  -3639668.62449  23475307.2594   23475311.6374   23475307.7754
       211.0004        149.0004
 -18125827.44849 -14091186.35549  21522465.8384   21522468.1044   21522467.1374
       235.0004        193.0004
 -19367047.49049 -14831133.14549  20660098.8014   20660102.3974   20660097.9494
       237.0004        196.0004
   1650688.50249   1292601.66649  24451113.7454   24451114.1734   24451112.9864
       210.0004        140.0004
 -23012735.11049 -17911026.51749  20577124.4534   20577126.3354   20577124.7744
       239.0004        204.0004
 -20693111.46749 -15806402.18749  21080231.5784   21080235.1134   21080231.8794
       239.0004        197.0004
 -13069074.90949 -10165856.29849  22549163.3544   22549165.1724   22549163.8124
       224.0004        161.0004
 -14717521.31349 -11181829.34049  22065705.1474   22065706.2544   22065704.2954
       229.0004        174.0004
   1248164.97249   1264681.43049  24387164.7554   24387172.3174   24387165.8814
       200.0004        137.0004
 11 10 10  0 19  0.0000000  0  9G26G05G10G16G07G08G13G02G04
  -4806275.59849  -3722652.27549  23455041.8944   23455045.1444   23455042.5404
       207.0004        142.0004
 -18191066.25549 -14142021.78649  21510052.3134   21510053.5194   21510052.0104
       235.0004        193.0004
 -19314463.61549 -14790158.72249  20670105.6414   20670108.6284   20670104.6444
       239.0004        196.0004
   1705540.11149   1335343.15149  24461551.1774   24461552.6694   24461551.8344
       208.0004        142.0004
 -23003459.72349 -17903798.92449  20578889.5694   20578891.4874   20578890.0404
       239.0004        204.0004
 -20749152.23249 -15850070.29449  21069567.9704   21069570.8434   21069567.7684
       239.0004        197.0004
 -12980858.11549 -10097115.98549  22565950.9174   22565952.8694   22565951.6614
       225.0004        162.0004
 -14656169.05949 -11134022.42249  22077380.7284   22077380.7024   22077380.0084
       229.0004        174.0004
   1357857.45149   1350155.97049  24408038.9034   24408043.3964   24408040.7004
       201.0004        137.0004
 11 10 10  0 19 30.0000000  0  9G26G05G10G16G07G08G13G02G04
  -4912617.24349  -3805515.83149  23434806.6144   23434808.2324   23434806.7194
       215.0004        146.0004
 -18255924.61649 -14192560.75949  21497708.6524   21497711.7444   21497709.1174
       234.0004        193.0004
 -19261417.98149 -14748824.50149  20680200.2714   20680203.1284   20680199.3164
       239.0004        196.0004
   1760908.70449   1378487.47349  24472088.6504   24472087.5724   24472087.3214
       211.0004        141.0004
 -22993627.56249 -17896137.48749  20580760.4744   20580762.3904   20580760.4804
       238.0004        203.0004
 -20804714.78949 -15893365.76649  21058995.0924   21058997.7194   21058994.2624
       239.0004        196.0004
 -12892473.73049 -10028245.03649  22582769.1164   22582770.7304   22582770.8114
       224.0004        163.0004
 -14594328.09749 -11085834.71049  22089148.3944   22089148.5274   22089148.1374
       228.0004        174.0004
   1467585.75049   1435658.54749  24428921.5804   24428922.5984   24428921.6754
       209.0004        138.0004
 11 10 10  0 20  0.0000000  0  9G26G05G10G16G07G08G13G02G04
  -5018803.10549  -3888257.97049  23414600.3214   23414602.1704   23414599.7624
       212.0004        148.0004
 -18320399.85549 -14242801.20749  21485440.3144   21485442.5554   21485440.9264
       237.0004        194.0004
 -19207911.09649 -14707130.86049  20690382.3594   20690384.6734   20690381.9734
       240.0004        196.0004
   1816792.96249   1422033.62949  24482722.1014   24482723.7064   24482722.2364
       211.0004        140.0004
 -22983238.98549 -17888042.47649  20582737.3574   20582739.5504   20582737.8244
       239.0004        203.0004
 -20859797.42749 -15936287.28449  21048511.7634   21048515.6634   21048512.2654
       239.0004        196.0004
 -12803922.61649  -9959244.16749  22599620.1444   22599621.9764   22599620.6914
       225.0004        162.0004
 -14532000.63149 -11037267.88049  22101008.8174   22101009.4804   22101008.7934
       228.0004        173.0004
   1577348.15049   1521187.74349  24449809.0254   24449811.5694   24449808.1764
       204.0004        136.0004
 11 10 10  0 20 30.0000000  0  9G26G05G10G16G07G08G13G02G04
  -5124832.51649  -3970878.16949  23394422.3584   23394426.2354   23394421.2294
       209.0004        149.0004
 -18384490.64649 -14292742.09149  21473244.6244   21473246.3334   21473245.6794
       236.0004        194.0004
 -19153944.25549 -14665078.80349  20700651.5314   20700654.4744   20700651.1134
       239.0004        196.0004
   1873190.46749   1465979.73149  24493454.3924   24493455.7654   24493454.2254
       212.0004        141.0004
 -22972295.70649 -17879515.23549  20584819.3754   20584822.1114   20584819.9904
       238.0004        203.0004
 -20914399.48149 -15978834.32349  21038121.8674   21038125.4544   21038121.9574
       239.0004        197.0004
 -12715206.50249  -9890114.73449  22616503.1064   22616505.2324   22616503.6134
       223.0004        160.0004
 -14469189.29449 -10988324.01149  22112961.2104   22112961.7004   22112961.2854
       226.0004        173.0004
   1687141.41349   1606740.84749  24470699.9784   24470705.0614   24470700.0824
       203.0004        137.0004
 11 10 10  0 21  0.0000000  0  9G26G05G10G16G07G08G13G02G04
  -5230704.22149  -4053375.50349  23374275.7774   23374278.7684   23374276.7684
       212.0004        146.0004
 -18448194.54449 -14342381.48149  21461121.7624   21461123.5384   21461121.7584
       236.0004        194.0004
 -19099518.30549 -14622668.99349  20711008.7604   20711011.4954   20711007.9614
       240.0004        196.0004
   1930099.39949   1510324.34049  24504282.6434   24504285.1834   24504283.3884
       207.0004        140.0004
 -22960798.22849 -17870556.14149  20587006.8014   20587009.4984   20587007.5564
       238.0004        204.0004
 -20968519.54849 -16021005.78349  21027824.4104   21027826.3114   21027823.1354
       240.0004        197.0004
 -12626326.17149  -9820857.38049  22633415.1794   22633417.6874   22633415.7714
       223.0004        159.0004
 -14405896.38349 -10939004.89049  22125005.8564   22125006.1524   22125005.4474
       228.0004        173.0004
   1796962.61049   1692315.77849  24491600.7834   24491603.8964   24491601.0684
       210.0004        141.0004
 11 10 10  0 21 30.0000000  0  9G26G05G10G16G07G08G13G02G04
  -5336417.14249  -4135749.11649  23354159.2554   23354160.9494   23354159.3084
       213.0004        144.0004
 -18511510.19249 -14391718.35049  21449073.6104   21449075.5124   21449074.2664
       237.0004        196.0004
 -19044634.96149 -14579902.79849  20721452.5894   20721455.0584   20721452.1104
       239.0004        195.0004
   1987517.33849   1555065.54249  24515210.1874   24515209.2404   24515209.3224
       207.0004        138.0004
 -22948747.18549 -17861165.71049  20589301.1174   20589302.9624   20589301.2934
       239.0004        204.0004
 -21022157.03949 -16062801.21549  21017615.6254   21017619.7774   21017615.8794
       238.0004        197.0004
 -12537283.55049  -9751473.54649  22650359.3234   22650362.5114   22650361.0654
       223.0004        161.0004
 -14342125.31449 -10889313.16749  22137142.4374   22137141.8944   22137141.2114
       228.0004        175.0004
   1906808.68449   1777910.13349  24512503.0974   24512508.0664   24512503.2754
       206.0004        134.0004
 11 10 10  0 22  0.0000000  0  9G26G05G10G16G07G08G13G02G04
  -5441969.20449  -4217997.35349  23334074.2124   23334075.9314   23334072.6074
       215.0004        148.0004
 -18574434.50549 -14440750.27649  21437099.3074   21437101.3384   21437099.8994
       237.0004        195.0004
 -18989294.25749 -14536780.22249  20731983.5164   20731986.5244   20731982.6574
       239.0004        195.0004
   2045443.24049   1600202.62849  24526232.4824   24526233.9284   24526233.4484
       206.0004        137.0004
 -22936143.23149 -17851344.42649  20591699.3804   20591701.3564   20591699.4764
       239.0004        203.0004
 -21075309.82349 -16104218.94549  21007502.0194   21007505.1504   21007501.8574
       239.0004        197.0004
 -12448078.60349  -9681963.20749  22667336.0754   22667336.2044   22667335.0024
       226.0004        162.0004
 -14277877.25749 -10839249.76249  22149366.5434   22149368.3044   22149366.2144
       227.0004        173.0004
   2016678.16949   1863522.68049  24533408.6254   24533413.8084   24533409.6674
       203.0004        135.0004
 11 10 10  0 22 30.0000000  0  9G26G05G10G16G07G08G13G02G04
  -5547359.44449  -4300119.51749  23314017.3544   23314021.2704   23314017.5494
       211.0004        148.0004
 -18636965.78249 -14489475.94849  21425199.6594   21425201.6994   21425200.0604
       237.0004        194.0004
 -18933497.33149 -14493302.15149  20742601.5764   20742604.1134   20742600.5354
       239.0004        194.0004
   2103874.88349   1645733.73949  24537352.2364   24537353.9624   24537352.2454
       204.0004        136.0004
 -22922987.43249 -17841093.14949  20594202.2454   20594205.2494   20594203.2724
       239.0004        204.0004
 -21127977.13049 -16145258.37649  20997479.5684   20997482.8054   20997479.1274
       239.0004        198.0004
 -12358713.20549  -9612327.85149  22684340.4564   22684342.1584   22684340.8254
       222.0004        160.0004
 -14213155.13249 -10788816.97549  22161683.9854   22161683.6384   22161682.9584
       228.0004        173.0004
   2126567.89749   1949151.01549  24554321.3924   24554325.0624   24554322.9434
       209.0004        142.0004
 11 10 10  0 23  0.0000000  0  9G26G05G10G16G07G08G13G02G04
  -5652587.09849  -4382115.04849  23293993.4454   23293996.2864   23293992.2764
       212.0004        146.0004
 -18699102.38649 -14537894.07749  21413375.0644   21413377.2534   21413376.1214
       237.0004        195.0004
 -18877245.70149 -14449469.72449  20753305.2454   20753308.5644   20753304.6414
       238.0004        194.0004
   2162809.91449   1691657.11349  24548566.8554   24548569.0664   24548566.1844
       204.0004        137.0004
 -22909281.01849 -17830412.80949  20596811.6774   20596813.1544   20596811.6044
       240.0004        204.0004
 -21180158.14649 -16185918.88449  20987550.2044   20987553.1054   20987549.3774
       239.0004        198.0004
 -12269188.85149  -9542568.64949  22701376.6514   22701378.2984   22701376.4094
       222.0004        160.0004
 -14147962.10149 -10738017.23649  22174088.4964   22174090.2044   22174087.8964
       227.0004        172.0004
   2236474.72349   2034792.70649  24575233.9114   24575238.1974   24575235.7074
       203.0004        138.0004
 11 10 10  0 23 30.0000000  0  9G26G05G10G16G07G08G13G02G04
  -5757650.78749  -4463982.88649  23274001.6184   23274003.0324   23274001.7854
       215.0004        149.0004
 -18760842.27949 -14586003.08349  21401627.0144   21401628.8234   21401627.1234
       236.0004        195.0004
 -18820540.10149 -14405283.57449  20764096.6094   20764099.3314   20764095.7294
       240.0004        195.0004
   2222246.32549   1737971.17349  24559876.6634   24559877.6084   24559877.1584
       205.0004        135.0004
 -22895024.88649 -17819304.12049  20599523.5614   20599525.6984   20599524.0744
       239.0004        204.0004
 -21231851.73649 -16226199.58049  20977712.8044   20977715.8104   20977712.7854
       241.0004        198.0004
 -12179506.37849  -9472686.27349  22718442.7224   22718444.2704   22718443.2584
       224.0004        157.0004
 -14082300.22649 -10686852.18649  22186584.0774   22186584.4084   22186583.6644
       228.0004        172.0004
   2346396.40649   2120445.87349  24596151.4164   24596155.0044   24596153.6794
       206.0004        131.0004
 11 10 10  0 24  0.0000000  0  9G26G05G10G16G07G08G13G02G04
  -5862549.26249  -4545721.95349  23254038.8504   23254042.1294   23254039.2894
       212.0004        148.0004
 -18822183.48649 -14633801.42449  21389954.8334   21389956.4924   21389954.7674
       238.0004        195.0004
 -18763382.23349 -14360745.00649  20774973.4844   20774976.4314   20774972.9204
       239.0004        194.0004
   2282181.76649   1784674.13249  24571283.1994   24571283.2774   24571282.6834
       209.0004        136.0004
 -22880220.40149 -17807768.15449  20602341.3164   20602343.5444   20602341.4314
       239.0004        204.0004
 -21283057.18749 -16266099.91549  20967969.0584   20967971.5364   20967968.7614
       242.0004        198.0004
 -12089667.23449  -9402681.78249  22735537.9024   22735541.2344   22735537.5244
       222.0004        156.0004
 -14016172.73949 -10635324.31549  22199168.5974   22199170.2774   22199167.6684
       229.0004        173.0004
   2456329.63049   2206108.16749  24617072.2574   24617074.5654   24617072.6104
       210.0004        134.0004
 11 10 10  0 24 30.0000000  0  9G26G05G10G16G07G08G13G02G04
  -5967280.47049  -4627330.57949  23234110.0324   23234112.9804   23234110.5944
       215.0004        152.0004
 -18883123.30049 -14681286.99749  21378357.4754   21378359.8914   21378358.0484
       236.0004        195.0004
 -18705772.03349 -14315853.97449  20785936.8534   20785939.0824   20785935.9764
       239.0004        194.0004
   2342614.90749   1831764.83149  24582784.0364   24582781.8344   24582784.0104
       210.0004        135.0004
 -22864867.60549 -17795804.92649  20605262.8924   20605264.5854   20605263.2614
       239.0004        204.0004
 -21333772.23349 -16305618.09549  20958319.2594   20958321.2564   20958318.0724
       243.0004        198.0004
 -11999671.76049  -9332555.47949  22752663.4754   22752665.5104   22752664.7654
       221.0004        155.0004
 -13949581.11649 -10583434.78449  22211840.3874   22211841.2484   22211840.1874
       226.0004        173.0004
   2566273.00749   2291778.37949  24637992.5034   24638000.7954   24637992.2014
       200.0004        137.0004
 11 10 10  0 25  0.0000000  0  9G26G05G10G16G07G08G13G02G04
  -6071843.82449  -4708808.39749  23214211.0184   23214213.8214   23214211.1074
       212.0004        152.0004
 -18943660.20649 -14728458.59949  21366837.1274   21366839.1084   21366838.1574
       236.0004        195.0004
 -18647711.26349 -14270611.83549  20796984.6024   20796987.5484   20796984.1204
       238.0004        195.0004
   2403543.39249   1879241.54949  24594375.9744   24594378.7944   24594376.0854
       203.0004        134.0004
 -22848968.38449 -17783415.90149  20608287.9494   20608290.1844   20608288.1914
       239.0004        204.0004
 -21383996.73849 -16344754.04249  20948759.9654   20948763.6884   20948760.6534
       241.0004        198.0004
 -11909521.67349  -9262308.68249  22769818.4784   22769822.3204   22769819.9774
       222.0004        156.0004
 -13882528.56249 -10531186.06449  22224597.9814   22224600.1644   22224597.4564
       224.0004        172.0004
   2676223.31049   2377453.80849  24658916.2984   24658920.0724   24658917.8614
       200.0004        133.0004
 11 10 10  0 25 30.0000000  0  9G26G05G10G16G07G08G13G02G04
  -6176237.71749  -4790154.27449  23194344.5834   23194347.4024   23194345.0284
       210.0004        145.0004
 -19003791.78649 -14775314.39349  21355395.9834   21355397.1484   21355395.8114
       237.0004        195.0004
 -18589200.68449 -14225019.18849  20808119.3834   20808121.9914   20808118.2254
       239.0004        195.0004
   2464965.74449   1927103.07649  24606064.9324   24606065.4544   24606064.6354
       201.0004        132.0004
 -22832522.86649 -17770601.20349  20611417.0064   20611419.3914   20611417.6394
       239.0004        204.0004
 -21433728.82149 -16383506.28449  20939297.9334   20939300.0234   20939296.8074
       242.0004        199.0004
 -11819217.95249  -9191942.19949  22787002.8334   22787006.7664   22787003.2164
       222.0004        157.0004
 -13815017.37249 -10478579.98149  22237445.7334   22237446.8784   22237446.3754
       226.0004        173.0004
   2786177.78649   2463132.57849  24679842.5454   24679839.9644   24679838.3424
       210.0004        130.0004
 11 10 10  0 26  0.0000000  0  9G26G05G10G16G07G08G13G02G04
  -6280461.18749  -4871367.33149  23174512.8664   23174515.1064   23174514.2204
       213.0004        149.0004
 -19063516.69449 -14821853.27649  21344029.7584   21344031.9324   21344029.8524
       235.0004        195.0004
 -18530242.03549 -14179077.40149  20819337.9794   20819341.2924   20819337.4994
       239.0004        195.0004
   2526878.93849   1975347.11149  24617848.3714   24617847.5194   24617847.7974
       204.0004        133.0004
 -22815532.77749 -17757362.15449  20614650.9274   20614652.8104   20614650.8504
       239.0004        203.0004
 -21482968.41549 -16421874.76849  20929926.7984   20929929.7684   20929926.4404
       241.0004        198.0004
 -11728762.03749  -9121457.12649  22804216.5184   22804219.7474   22804216.9664
       222.0004        158.0004
 -13747050.36149 -10425618.69449  22250379.5264   22250381.6064   22250379.2914
       225.0004        171.0004
   2896133.71849   2548812.68949  24700761.7344   24700766.9434   24700762.9104
       198.0004        131.0004
 11 10 10  0 26 30.0000000  0  9G26G05G10G16G07G08G13G02G04
  -6384513.12849  -4952446.74949  23154711.8364   23154715.1594   23154711.8284
       212.0004        151.0004
 -19122832.74449 -14868073.58049  21332742.7764   21332744.7134   21332743.2824
       238.0004        196.0004
 -18470836.15249 -14132787.14349  20830643.4454   20830645.9644   20830642.6034
       241.0004        195.0004
   2589281.04349   2023972.06849  24629720.2654   24629720.6444   24629719.6924
       204.0004        131.0004
 -22797998.76549 -17743699.27849  20617987.4864   20617989.3434   20617987.6444
       239.0004        204.0004
 -21531714.14249 -16459858.41949  20920651.7424   20920653.9064   20920650.4344
       242.0004        198.0004
 -11638154.75549  -9050854.10549  22821458.5774   22821460.5454   22821457.9874
       221.0004        157.0004
 -13678630.32949 -10372304.40349  22263399.8024   22263400.6874   22263399.8174
       227.0004        171.0004
   3006088.47949   2634491.63949  24721685.2804   24721698.8004   24721687.8074
       195.0004        132.0004
 11 10 10  0 27  0.0000000  0  9G26G05G10G16G07G08G13G02G04
  -6488391.70349  -5033390.98449  23134944.3704   23134947.9764   23134945.0284
       211.0004        151.0004
 -19181737.82449 -14913973.66849  21321533.7964   21321534.8414   21321533.9674
       237.0004        195.0004
 -18410983.96449 -14086149.11249  20842032.9484   20842035.9164   20842032.4374
       240.0004        195.0004
   2652170.28649   2072976.66249  24641688.3394   24641687.6474   24641689.5334
       198.0004        129.0004
 -22779921.97449 -17729613.46049  20621427.0034   20621429.4204   20621427.7304
       240.0004        204.0004
 -21579964.75249 -16497456.28049  20911468.7434   20911472.3304   20911469.1904
       241.0004        199.0004
 -11547397.07949  -8980133.89349  22838729.0254   22838731.3154   22838729.5924
       220.0004        157.0004
 -13609759.89749 -10318639.15349  22276505.0414   22276506.7704   22276504.4594
       224.0004        169.0004
   3116039.52749   2720167.64749  24742610.8624   24742613.8204   24742611.8984
       205.0004        137.0004
 11 10 10  0 27 30.0000000  0  9G26G05G10G16G07G08G13G02G04
  -6592095.18649  -5114198.79449  23115209.0714   23115213.3684   23115210.2394
       212.0004        151.0004
 -19240229.10049 -14959551.28949  21310402.6784   21310404.3284   21310403.1524
       236.0004        194.0004
 -18350685.78349 -14039163.54149  20853506.3134   20853510.3214   20853505.9974
       239.0004        195.0004
   2715545.21249   2122359.70549  24653749.0834   24653749.7474   24653748.4644
       199.0004        131.0004
 -22761302.74849 -17715104.96349  20624970.3154   20624972.4764   20624970.6704
       240.0004        204.0004
 -21627718.73149 -16534667.14349  20902382.9584   20902384.6874   20902381.9514
       243.0004        199.0004
 -11456489.76349  -8909297.06049  22856029.1784   22856030.1994   22856029.6824
       223.0004        158.0004
 -13540440.83649 -10264624.32149  22289697.2574   22289697.7414   22289696.8224
       225.0004        170.0004
   3225985.12449   2805839.64049  24763534.0384   24763534.4004   24763534.4134
       203.0004        129.0004
 11 10 10  0 28  0.0000000  0  9G26G05G10G16G07G08G13G02G04
  -6695623.89349  -5194870.49949  23095508.9794   23095510.9654   23095509.6964
       213.0004        149.0004
 -19298305.96749 -15004805.99449  21299350.0464   21299353.1734   21299350.9034
       236.0004        195.0004
 -18289944.44449 -13991832.66149  20865066.7734   20865068.9964   20865064.8714
       240.0004        194.0004
   2779402.04249   2172118.22949  24665899.5824   24665903.2784   24665900.9754
       198.0004        130.0004
 -22742144.08349 -17700176.11949  20628616.2684   20628618.0494   20628616.4904
       240.0004        204.0004
 -21674976.72249 -16571491.51949  20893388.7924   20893391.7874   20893388.5704
       242.0004        199.0004
 -11365435.62449  -8838345.83149  22873355.7974   22873357.5014   22873356.2684
       224.0004        158.0004
 -13470677.31349 -10210263.15749  22302971.9644   22302973.4014   22302971.3574
       224.0004        172.0004
   3335921.06949   2891504.07349  24784449.4854   24784461.4504   24784450.7794
       195.0004        127.0004
 11 10 10  0 28 30.0000000  0  9G26G05G10G16G07G08G13G02G04
  -6798975.50349  -5275404.10349  23075841.9894   23075845.3754   23075842.1404
       214.0004        153.0004
 -19355966.20649 -15049736.05349  21288378.5234   21288380.7504   21288378.9924
       237.0004        196.0004
 -18228760.39349 -13944156.80349  20876708.0174   20876711.5624   20876707.6504
       239.0004        194.0004
   2843739.03249   2222250.92549  24678144.8804   24678143.7864   24678143.6984
       202.0004        131.0004
 -22722445.71649 -17684826.72749  20632364.7654   20632366.5174   20632365.0284
       240.0004        205.0004
 -21721737.09349 -16607928.13249  20884490.9924   20884493.7454   20884490.7014
       242.0004        200.0004
 -11274234.78849  -8767280.25349  22890710.5344   22890713.6744   22890709.1454
       224.0004        159.0004
 -13400471.37849 -10155557.25349  22316331.5104   22316333.0464   22316330.8294
       225.0004        171.0004
   3445845.23749   2977159.12849  24805369.0604   24805376.8464   24805371.6494
       204.0004        141.0004
 11 10 10  0 29  0.0000000  0  9G26G05G10G16G07G08G13G02G04
  -6902148.24649  -5355798.35849  23056208.0914   23056211.2484   23056209.6424
       213.0004        151.0004
 -19413206.70149 -15094339.05249  21277486.3834   21277488.3084   21277486.4574
       238.0004        197.0004
 -18167133.97849 -13896136.25149  20888435.9284   20888438.6804   20888434.9464
       240.0004        194.0004
   2908555.24749   2272757.03749  24690478.3384   24690481.4834   24690477.1044
       203.0004        132.0004
 -22702208.14549 -17669057.18149  20636214.9344   20636217.6834   20636216.2534
       239.0004        204.0004
 -21767997.67949 -16643975.29349  20875687.1684   20875690.6554   20875686.6654
       241.0004        200.0004
 -11182887.44449  -8696100.54049  22908094.2774   22908094.5614   22908092.9244
       222.0004        157.0004
 -13329824.93249 -10100508.09349  22329774.4594   22329776.5964   22329774.7694
       223.0004        168.0004
   3555756.27649   3062804.08049  24826284.0444   24826289.3194   24826285.9434
       196.0004        134.0004
 11 10 10  0 29 30.0000000  0  9G26G05G10G16G07G08G13G02G04
  -7005141.37349  -5436052.64449  23036611.5034   23036612.3714   23036609.6634
       216.0004        152.0004
 -19470026.80049 -15138614.44549  21266672.9904   21266675.5134   21266673.6154
       236.0004        195.0004
 -18105067.30049 -13847772.63449  20900246.3774   20900249.7284   20900245.5124
       239.0004        195.0004
   2973847.69149   2323634.21149  24702903.1134   24702902.7534   24702902.9884
       205.0004        134.0004
 -22681433.86749 -17652869.41649  20640169.0224   20640170.9644   20640169.2654
       240.0004        204.0004
 -21813759.18049 -16679633.57349  20866980.3644   20866982.5724   20866979.6424
       244.0004        200.0004
 -11091395.84949  -8624808.43149  22925502.3104   22925505.1814   22925504.5734
       219.0004        156.0004
 -13258741.45749 -10045118.37949  22343300.7124   22343303.4464   22343302.1044
       223.0004        165.0004
   3665650.38649   3148435.83949  24847190.5744   24847200.4724   24847199.8234
       191.0004        120.0004
 11 10 10  0 30  0.0000000  0  9G26G05G10G16G07G08G13G02G04
  -7107953.99749  -5516166.21949  23017045.3674   23017047.6084   23017045.7554
       214.0004        152.0004
 -19526423.95849 -15182560.29049  21255941.5284   21255943.2834   21255942.2034
       238.0004        197.0004
 -18042562.05049 -13799067.28449  20912141.2444   20912143.9564   20912140.3554
       240.0004        194.0004
   3039613.42449   2374880.16749  24715416.4954   24715419.0564   24715414.6554
       204.0004        133.0004
 -22660124.05749 -17636264.35849  20644223.2424   20644225.7804   20644224.1484
       239.0004        204.0004
 -21859020.42649 -16714902.04249  20858366.2224   20858369.3424   20858365.8304
       242.0004        201.0004
 -10999760.97149  -8553404.66449  22942940.8084   22942943.5304   22942939.4774
       220.0004        156.0004
 -13187224.03649  -9989390.53249  22356912.2664   22356912.1174   22356911.9834
       225.0004        167.0004
   3775524.64949   3234052.20049  24868107.2344   24868112.9834   24868108.3374
       204.0004        137.0004
 11 10 10  0 30 30.0000000  0  9G26G05G10G16G07G08G13G02G04
  -7210584.06049  -5596137.50849  22997515.8094   22997518.0464   22997516.9604
       217.0004        153.0004
 -19582396.19749 -15226175.03049  21245291.2614   21245293.2834   21245291.2414
       238.0004        198.0004
 -17979618.61949 -13750020.47849  20924119.1554   20924122.2294   20924118.2884
       240.0004        194.0004
   3105851.17349   2426493.94249  24728021.7714   24728025.1654   24728021.5284
       204.0004        133.0004
 -22638279.01949 -17619242.24049  20648381.2724   20648382.8634   20648381.3504
       240.0004        204.0004
 -21903779.94049 -16749779.55749  20849849.0314   20849852.1914   20849848.7784
       242.0004        200.0004
 -10907983.45649  -8481889.76649  22960405.9084   22960407.1924   22960406.7934
       219.0004        156.0004
 -13115274.88449  -9933326.25949  22370602.8074   22370603.7214   22370603.9094
       225.0004        169.0004
   3885377.46849   3319651.77649  24889012.5014   24889016.5604   24889009.3714
       202.0004        138.0004
 11 10 10  0 31  0.0000000  0  9G26G05G10G16G07G08G13G02G04
  -7313030.50749  -5675965.84949  22978019.4264   22978022.9604   22978020.7594
       212.0004        154.0004
 -19637941.19049 -15269456.84349  21234720.3244   21234722.3754   21234720.3874
       237.0004        197.0004
 -17916237.73649 -13700632.81049  20936179.9784   20936182.6714   20936178.9854
       240.0004        194.0004
   3172559.13849   2478474.14549  24740716.3684   24740715.3584   24740716.4474
       206.0004        133.0004
 -22615900.04149 -17601804.06249  20652639.7134   20652641.3144   20652639.7444
       240.0004        203.0004
 -21948036.64949 -16784265.27949  20841426.7994   20841430.1334   20841426.6834
       241.0004        200.0004
 -10816064.20049  -8410264.43449  22977896.9734   22977899.3964   22977896.4844
       219.0004        157.0004
 -13042896.64749  -9876927.66949  22384375.1284   22384377.8394   22384376.0274
       225.0004        170.0004
   3995206.40649   3405232.63749  24909908.9684   24909915.3594   24909905.6674
       193.0004        127.0004
 11 10 10  0 31 30.0000000  0  9G26G05G10G16G07G08G13G02G04
  -7415292.68349  -5755650.51649  22958561.6714   22958563.5534   22958561.4624
       216.0004        155.0004
 -19693058.10449 -15312405.11049  21224232.6044   21224233.4644   21224232.7734
       238.0004        197.0004
 -17852421.77649 -13650906.13449  20948322.9064   20948326.5434   20948322.8224
       238.0004        193.0004
   3239733.46549   2530817.78949  24753499.6214   24753500.8834   24753496.1784
       203.0004        132.0004
 -22592988.92249 -17583951.23749  20656999.2784   20657001.5544   20656999.7034
       241.0004        204.0004
 -21991790.66549 -16818359.29649  20833101.2474   20833103.9314   20833101.0344
       242.0004        200.0004
 -10724005.53249  -8338530.44749  22995414.1624   22995417.8524   22995415.3724
       219.0004        156.0004
 -12970092.84949  -9820197.45049  22398229.6264   22398231.1644   22398230.3934
       222.0004        166.0004
   4105007.55049   3490791.96149  24930804.4404   24930807.9584   24930810.8474
       209.0004        125.0004
 11 10 10  0 32  0.0000000  0  9G26G05G10G16G07G08G13G02G04
  -7517368.86349  -5835190.26049  22939136.4214   22939138.7464   22939135.8614
       217.0004        153.0004
 -19747744.28349 -15355017.73449  21213825.6004   21213827.8104   21213826.4904
       238.0004        198.0004
 -17788171.63849 -13600841.13449  20960550.0204   20960553.2844   20960549.4554
       240.0004        193.0004
   3307372.75049   2583523.69149  24766370.2764   24766375.6274   24766367.0814
       201.0004        132.0004
 -22569546.56149 -17565684.45349  20661460.1334   20661461.8644   20661460.9384
       240.0004        204.0004
 -22035040.62249 -16852060.52949  20824870.5164   20824873.9664   20824870.1274
       241.0004        200.0004
 -10631807.71449  -8266688.05549  23012960.8444   23012962.8994   23012960.4834
       221.0004        156.0004
 -12896865.50149  -9763137.18949  22412164.0924   22412165.5164   22412164.6804
       222.0004        164.0004
   4214779.13449   3576328.46249  24951696.8954   24951700.4654   24951696.4104
       206.0004        134.0004
 11 10 10  0 32 30.0000000  0  9G26G05G10G16G07G08G13G02G04
  -7619257.24549  -5914583.64049  22919747.7544   22919750.1014   22919747.0584
       216.0004        153.0004
 -19801997.64349 -15397293.08849  21203501.9694   21203504.0174   21203502.3084
       237.0004        198.0004
 -17723488.18449 -13550438.47749  20972859.5464   20972862.1184   20972858.4724
       240.0004        193.0004
   3375474.98049   2636590.33249  24779329.8494   24779329.7994   24779330.9084
       202.0004        132.0004
 -22545573.83349 -17547004.39349  20666022.7804   20666024.1314   20666022.7024
       241.0004        204.0004
 -22077785.70149 -16885368.35449  20816736.6064   20816739.5134   20816736.3704
       242.0004        200.0004
 -10539471.60749  -8194737.86749  23030531.8264   23030533.3414   23030531.7434
       222.0004        157.0004
 -12823217.50549  -9705749.13649  22426179.8164   22426181.2404   22426179.3914
       225.0004        167.0004
   4324518.96949   3661839.90549  24972573.7514   24972585.5024   24972576.1474
       189.0004        130.0004
 11 10 10  0 33  0.0000000  0  9G26G05G10G16G07G08G13G02G04
  -7720957.26649  -5993830.36049  22900394.2524   22900395.6034   22900393.4254
       218.0004        154.0004
 -19855816.47549 -15439229.84049  21193260.0294   21193262.1534   21193260.7384
       238.0004        197.0004
 -17658372.68649 -13499699.15049  20985249.8284   20985252.8604   20985249.4544
       240.0004        192.0004
   3444037.78249   2690015.90549  24792376.1354   24792379.0404   24792374.8254
       203.0004        130.0004
 -22521072.34649 -17527912.32149  20670684.7164   20670686.3954   20670685.0134
       241.0004        203.0004
 -22120025.12249 -16918282.15949  20808699.2024   20808701.5054   20808698.8014
       242.0004        200.0004
 -10446998.42049  -8122680.83849  23048128.0374   23048130.4434   23048127.9334
       221.0004        156.0004
 -12749151.70049  -9648035.51649  22440273.4254   22440276.1494   22440273.8704
       224.0004        168.0004
   4434224.24149   3747324.34149  24993454.8854   24993453.6934   24993456.5314
       210.0004        131.0004
 11 10 10  0 33 30.0000000  0  9G26G05G10G16G07G08G13G02G04
  -7822467.49249  -6072929.10549  22881078.7934   22881079.0814   22881077.8964
       219.0004        155.0004
 -19909198.73249 -15480826.42949  21183102.4764   21183103.6804   21183103.2704
       239.0004        199.0004
 -17592826.71949 -13448624.40349  20997723.7944   20997725.8154   20997722.8064
       237.0004        192.0004
   3513058.53549   2743798.25849  24805511.0184   24805513.4124   24805510.5444
       203.0004        132.0004
 -22496043.58749 -17508409.38049  20675447.5054   20675449.0344   20675448.2214
       240.0004        204.0004
 -22161758.06049 -16950801.29949  20800756.6424   20800760.2434   20800756.9994
       241.0004        201.0004
 -10354389.52949  -8050518.08949  23065751.6564   23065754.5304   23065750.8334
       221.0004        152.0004
 -12674670.83849  -9589998.52049  22454447.4584   22454448.8124   22454447.6694
       223.0004        168.0004
   4543892.14849   3832780.05249  25014326.0624   25014322.4094   25014323.7674
       207.0004        125.0004
 11 10 10  0 34  0.0000000  0  9G26G05G10G16G07G08G13G02G04
  -7923786.35449  -6151878.79749  22861796.6294   22861798.6184   22861797.2014
       217.0004        156.0004
 -19962142.57749 -15522081.39349  21173026.0284   21173028.9464   21173027.2624
       236.0004        197.0004
 -17526851.59449 -13397215.22849  21010277.1844   21010280.7654   21010276.7954
       235.0004        192.0004
   3582535.17349   2797935.81449  24818732.0574   24818734.7674   24818731.4314
       203.0004        133.0004
 -22470488.58249 -17488496.38649  20680309.9264   20680312.5814   20680310.8744
       240.0004        203.0004
 -22202983.65749 -16982925.12049  20792912.2364   20792915.0384   20792912.2994
       242.0004        201.0004
 -10261646.13249  -7978250.57249  23083400.3284   23083402.5144   23083401.6144
       220.0004        151.0004
 -12599778.23149  -9531640.67449  22468698.1104   22468700.5164   22468698.9414
       224.0004        167.0004
   4653520.33149   3918204.72249  25035186.5424   25035196.8794   25035186.3944
       191.0004        123.0004
 11 10 10  0 34 30.0000000  0  9G26G05G10G16G07G08G13G02G04
  -8024912.91949  -6230678.64849  22842552.4354   22842555.0674   22842553.8034
       215.0004        156.0004
 -20014646.34349 -15562993.42849  21163035.8284   21163038.3814   21163036.3524
       238.0004        199.0004
 -17460448.83949 -13345472.85049  21022913.4544   21022916.8334   21022913.4584
       236.0004        192.0004
   3652465.13949   2852426.66149  24832039.2844   24832041.8064   24832039.2834
       206.0004        134.0004
 -22444409.07249 -17468174.67849  20685273.8654   20685274.7584   20685273.2484
       241.0004        203.0004
 -22243701.47049 -17014653.25749  20785164.1104   20785166.7854   20785163.6654
       242.0004        201.0004
 -10168769.07249  -7905878.88849  23101073.9894   23101076.6984   23101074.7394
       219.0004        151.0004
 -12524476.39049  -9472963.92649  22483028.7424   22483029.9794   22483028.0164
       223.0004        166.0004
   4763106.03649   4003595.91149  25056038.1414   25056040.5604   25056039.6114
       208.0004        141.0004
 11 10 10  0 35  0.0000000  0  9G26G05G10G16G07G08G13G02G04
  -8125845.64649  -6309327.44849  22823345.5814   22823348.5824   22823345.8054
       215.0004        154.0004
 -20066708.08249 -15603561.03749  21153129.8304   21153131.1764   21153130.2904
       239.0004        199.0004
 -17393619.31949 -13293397.92549  21035630.2514   21035634.1614   21035630.0904
       235.0004        191.0004
   3722846.13649   2907268.97049  24845433.2394   24845433.8184   24845431.2904
       208.0004        134.0004
 -22417805.65349 -17447444.74249  20690335.1004   20690337.4144   20690335.9644
       240.0004        203.0004
 -22283910.58949 -17045985.01649  20777512.3934   20777515.4434   20777512.1804
       243.0004        201.0004
 -10075759.48749  -7833403.92249  23118773.4054   23118775.1124   23118773.5744
       217.0004        149.0004
 -12448768.27349  -9413970.57149  22497434.3064   22497435.9264   22497434.2954
       221.0004        167.0004
   4872646.65649   4088952.26749  25076882.7994   25076885.2754   25076886.2244
       208.0004        131.0004
 11 10 10  0 35 30.0000000  0  9G26G05G10G16G07G08G13G02G04
  -8226582.79549  -6387823.83849  22804175.4154   22804178.4364   22804175.4074
       216.0004        155.0004
 -20118325.39649 -15643782.33749  21143306.4334   21143308.3724   21143307.1314
       238.0004        198.0004
 -17326364.17649 -13240991.34549  21048428.9394   21048432.2434   21048428.2134
       236.0004        191.0004
   3793676.21449   2962461.15949  24858910.2564   24858910.8574   24858911.7744
       204.0004        134.0004
 -22390679.54549 -17426307.51149  20695498.1614   20695499.1364   20695498.2054
       241.0004        203.0004
 -22323609.75249 -17076919.40549  20769957.9554   20769960.9284   20769957.4544
       242.0004        202.0004
  -9982617.92549  -7760826.13349  23136497.5434   23136498.9304   23136497.1634
       218.0004        150.0004
 -12372656.27149  -9354662.54149  22511918.4184   22511919.1074   22511918.4134
       221.0004        166.0004
   4982140.74049   4174272.49549  25097717.8164                   25097713.5844
       186.0004        120.0004
 11 10 10  0 36  0.0000000  0  9G26G05G10G16G07G08G13G02G04
  -8327123.88349  -6466167.49549  22785042.8754   22785046.3794   22785043.9144
       218.0004        156.0004
 -20169497.12349 -15683656.42749  21133568.8204   21133570.5494   21133569.0914
       237.0004        197.0004
 -17258685.35349 -13188254.61949  21061308.3414   21061311.0704   21061307.7524
       236.0004        191.0004
   3864952.39649   3018000.94349  24872476.2624   24872476.7584   24872474.8354
       207.0004        135.0004
 -22363032.73749 -17404764.53749  20700758.5064   20700760.7954   20700758.5524
       240.0004        203.0004
 -22362799.46749 -17107456.82749  20762499.8544   20762503.1924   20762499.8974
       242.0004        202.0004
  -9889346.11749  -7688146.84949  23154245.1954   23154249.0804   23154246.2624
       216.0004        149.0004
 -12296143.67349  -9295042.35449  22526478.8804   22526480.2354   22526478.1594
       221.0004        167.0004
   5091584.46949   4259553.21949  25118545.1584   25118551.6094   25118546.4104
       208.0004        135.0004
 11 10 10  0 36 30.0000000  0  9G26G05G10G16G07G08G13G02G04
  -8427467.12149  -6544356.98949  22765949.6594   22765951.8214   22765950.5464
       217.0004        156.0004
 -20220220.89549 -15723181.44549  21123916.8694   21123918.8364   21123917.1204
       239.0004        199.0004
 -17190583.98649 -13135188.62449  21074267.2704   21074270.8814   21074266.8024
       236.0004        190.0004
   3936672.75449   3073886.87649  24886123.4134   24886123.7634   24886122.6884
       207.0004        134.0004
 -22334866.33749 -17382816.69149  20706118.4864   20706120.2994   20706118.9384
       240.0004        203.0004
 -22401478.27749 -17137596.13549  20755140.3344   20755142.8444   20755139.5864
       242.0004        201.0004
  -9795945.09349  -7615366.91349  23172020.2674   23172022.3534   23172020.8424
       216.0004        148.0004
 -12219233.43149  -9235112.32749  22541113.9884   22541115.7934   22541114.1714
       223.0004        167.0004
   5200975.72249   4344793.15249  25139361.7564   25139365.7444   25139362.5394
       203.0004        139.0004
 11 10 10  0 37  0.0000000  0  9G26G05G10G16G07G08G13G02G04
  -8527611.13249  -6622391.22849  22746892.6394   22746894.4494   22746892.4854
       219.0004        156.0004
 -20270494.77649 -15762355.90549  21114349.8474   21114351.6074   21114350.0294
       238.0004        199.0004
 -17122061.33549 -13081794.38249  21087307.3754   21087310.0484   21087306.4694
       237.0004        191.0004
   4008834.85749   3130117.05749  24899854.6324   24899855.0634   24899853.5164
       204.0004        133.0004
 -22306181.71349 -17360465.02449  20711576.6494   20711578.8094   20711577.1964
       241.0004        204.0004
 -22439645.24349 -17167336.61449  20747876.9734   20747880.0164   20747876.4114
       241.0004        201.0004
  -9702415.46849  -7542486.76049  23189816.3564   23189821.5014   23189818.0574
       214.0004        147.0004
 -12141927.97149  -9174874.31949  22555826.7214   22555826.1444   22555825.5734
       224.0004        166.0004
   5310312.34249   4429990.50549  25160165.1094   25160168.5294   25160165.1514
       181.0004        121.0004
 11 10 10  0 37 30.0000000  0  9G26G05G10G16G07G08G13G02G04
  -8627555.12749  -6700269.60749  22727873.2834   22727875.5054   22727873.8424
       218.0004        158.0004
 -20320317.45149 -15801178.77849  21104868.2764   21104870.2014   21104869.1914
       237.0004        198.0004
 -17053119.24649 -13028073.29649  21100425.7524   21100429.1084   21100425.6514
       236.0004        190.0004
   4081435.80149   3186689.15149  24913670.5364   24913671.3794   24913669.9694
       205.0004        133.0004
 -22276980.57249 -17337710.88449  20717134.3424   20717135.7314   20717134.1234
       241.0004        203.0004
 -22477300.68949 -17196678.50049  20740710.6644   20740714.5264   20740711.0304
       241.0004        201.0004
  -9608758.85749  -7469507.63749  23207639.9604   23207643.7944   23207640.2644
       211.0004        146.0004
 -12064230.81049  -9114331.08549  22570609.6954   22570610.5904   22570611.0274
       222.0004        164.0004
   5419591.13849   4515142.80149  25180962.6984                   25180959.8794
       201.0004        123.0004
 11 10 10  0 38  0.0000000  0  9G26G05G10G16G07G08G13G02G04
  -8727297.46449  -6777990.90349  22708893.1684   22708897.0454   22708893.2174
       217.0004        157.0004
 -20369686.47449 -15839648.16349  21095474.1454   21095475.7144   21095474.4794
       237.0004        199.0004
 -16983758.53849 -12974026.03049  21113625.3394   21113628.2824   21113624.8194
       237.0004        191.0004
   4154473.93449   3243601.90949  24927568.9954   24927570.8504   24927571.6614
       203.0004        131.0004
 -22247263.61349 -17314554.81349  20722788.1604   20722790.3114   20722788.9264
       240.0004        203.0004
 -22514443.35949 -17225620.81549  20733643.4534   20733646.2094   20733642.2754
       241.0004        201.0004
  -9514975.63349  -7396429.84149  23225487.6114   23225490.1524   23225488.0734
       215.0004        146.0004
 -11986144.26549  -9053484.44549  22585469.4344   22585470.2944   22585469.9064
       220.0004        164.0004
   5528810.22049   4600248.65749  25201747.1944   25201748.9104   25201748.7914
       208.0004        134.0004
 11 10 10  0 38 30.0000000  0  9G26G05G10G16G07G08G13G02G04
  -8826836.85949  -6855554.02749  22689952.1034   22689954.4614   22689952.2814
       220.0004        160.0004
 -20418600.55749 -15877763.04549  21086166.0564   21086168.2624   21086166.6184
       238.0004        199.0004
 -16913980.87249 -12919653.83449  21126904.0334   21126906.2964   21126903.0854
       237.0004        191.0004
   4227946.11049   3300852.90649  24941548.8794   24941549.8614   24941549.7334
       202.0004        131.0004
 -22217032.82349 -17290998.34049  20728542.1964   20728543.1654   20728542.2764
       241.0004        203.0004
 -22551072.85049 -17254163.25449  20726673.5144   20726675.6764   20726672.9004
       242.0004        201.0004
  -9421067.38349  -7323254.62149  23243355.6804   23243359.0404   23243356.0044
       210.0004        138.0004
 -11907671.77049  -8992337.06449  22600402.7374   22600403.3474   22600404.2544
       221.0004        167.0004
   5637966.67549   4685305.62849  25222520.0774   25222526.7034   25222520.1964
       197.0004        131.0004
 11 10 10  0 39  0.0000000  0  9G26G05G10G16G07G08G13G02G04
  -8926171.35749  -6932957.51149  22671049.1844   22671051.2644   22671046.9804
       218.0004        157.0004
 -20467057.23949 -15915521.51049  21076944.6394   21076947.6734   21076945.0534
       237.0004        198.0004
 -16843787.08749 -12864957.39749  21140260.8334   21140263.7554   21140260.1454
       237.0004        190.0004
   4301850.83249   3358440.97349  24955614.2984   24955615.3144   24955613.7894
       204.0004        133.0004
 -22186289.20049 -17267042.27249  20734391.2614   20734393.6534   20734391.9834
       240.0004        202.0004
 -22587187.68849 -17282304.66849  20719800.4224   20719803.5424   20719799.6884
       241.0004        201.0004
  -9327034.57249  -7249982.35949  23261251.3314   23261252.1654   23261250.8024
       210.0004        135.0004
 -11828815.57549  -8930890.69049  22615408.4244   22615410.0484   22615408.0814
       223.0004        166.0004
   5747058.73249   4770312.29849  25243274.7804   25243278.8104   25243274.0874
       198.0004        126.0004
 11 10 10  0 39 30.0000000  0  9G26G05G10G16G07G08G13G02G04
  -9025300.06249  -7010200.57749  22652183.7304   22652188.9034   22652183.5954
       214.0004        158.0004
 -20515054.88049 -15952922.28449  21067811.3314   21067813.5254   21067812.0564
       237.0004        198.0004
 -16773178.68649 -12809937.86449  21153697.0924   21153700.2964   21153696.2784
       237.0004        191.0004
   4376185.24349   3416363.85549  24969761.1134   24969758.8634   24969760.7214
       206.0004        134.0004
 -22155034.65849 -17242688.07649  20740339.5214   20740340.9024   20740339.6944
       241.0004        202.0004
 -22622787.74249 -17310044.96749  20713025.7524   20713028.8624   20713025.9084
       242.0004        201.0004
  -9232878.48349  -7176614.02049  23279168.9184   23279170.1934   23279171.9474
       207.0004        128.0004
 -11749579.08549  -8869147.99949  22630486.2704   22630487.5654   22630485.7934
       222.0004        164.0004
   5856083.51149   4855266.62449  25264026.0094   25264022.7174   25264025.8144
       208.0004        125.0004
 11 10 10  0 40  0.0000000  0  9G26G05G10G16G07G08G13G02G04
  -9124222.19549  -7087282.70449  22633360.0164   22633364.7704   22633359.8574
       215.0004        161.0004
 -20562592.00449 -15989964.23249  21058765.4484   21058767.3954   21058765.8174
       237.0004        198.0004
 -16702157.68949 -12754596.85949  21167212.5504   21167214.9254   21167211.8644
       238.0004        191.0004
   4450946.37549   3474619.21649  24983986.9974   24983986.7584   24983983.3144
       205.0004        133.0004
 -22123270.31049 -17217936.63549  20746383.1664   20746385.8894   20746383.9694
       241.0004        202.0004
 -22657872.98249 -17337384.09749  20706350.2724   20706352.4164   20706349.1744
       242.0004        201.0004
  -9138600.41249  -7103150.62949  23297108.9104   23297108.4234   23297109.0594
       207.0004        131.0004
 -11669965.50249  -8807111.44049  22645636.9764   22645636.5984   22645636.6834
       222.0004        164.0004
   5965038.08349   4940166.45049  25284756.1114   25284763.0254   25284758.1554
       200.0004        127.0004
 11 10 10  0 40 30.0000000  0  9G26G05G10G16G07G08G13G02G04
  -9222936.23849  -7164202.68549  22614574.5454   22614579.0924   22614575.7844
       218.0004        158.0004
 -20609666.58749 -16026645.73349  21049806.7834   21049809.8654   21049807.0874
       237.0004        199.0004
 -16630725.34949 -12698935.31149  21180804.7364   21180808.1054   21180804.6814
       237.0004        190.0004
   4526131.94049   3533205.31349  24998292.1924   24998294.2344   24998292.4094
       202.0004        132.0004
 -22090998.01549 -17192789.39349  20752525.3774   20752526.6674   20752525.5294
       240.0004        202.0004
 -22692442.44949 -17364321.33049  20699771.8784   20699774.0154   20699771.2904
       243.0004        202.0004
  -9044201.36049  -7029592.93949  23315072.4704   23315075.3924   23315066.5814
       204.0004        131.0004
 -11589977.56949  -8744783.19249  22660857.0704   22660859.6594   22660857.3504
       221.0004        163.0004
   6073920.51949   5025009.86649  25305476.5104   25305481.9424   25305476.7714
       194.0004        125.0004
 11 10 10  0 41  0.0000000  0  9G26G05G10G16G07G08G13G02G04
  -9321440.21449  -7240959.03349  22595830.3584   22595835.1674   22595831.1524
       216.0004        159.0004
 -20656276.14749 -16062964.87549  21040938.1924   21040940.2174   21040938.2204
       237.0004        199.0004
 -16558882.44649 -12642953.85949  21194476.0704   21194479.1524   21194475.6444
       237.0004        190.0004
   4601740.19549   3592120.71649  25012681.0054   25012681.6154   25012679.4094
       205.0004        130.0004
 -22058218.36249 -17167246.80449  20758762.2884   20758764.9094   20758763.3854
       239.0004        202.0004
 -22726495.03649 -17390855.79849  20693290.9074   20693294.0754   20693290.7914
       241.0004        202.0004
  -8949681.70749  -6955941.33349  23333059.3374   23333062.6464   23333059.6724
       206.0004        133.0004
 -11509617.50149  -8682164.97749  22676149.7124   22676150.8194   22676149.6924
       222.0004        164.0004
   6182728.70849   5109795.31549  25326182.2824   25326182.6204   25326185.0664
       202.0004        130.0004
 11 10 10  0 41 30.0000000  0  9G26G05G10G16G07G08G13G02G04
  -9419733.46849  -7317551.17849  22577126.6064   22577130.6324   22577126.9274
       218.0004        160.0004
 -20702420.10349 -16098921.21749  21032157.0924   21032159.0114   21032157.6524
       238.0004        199.0004
 -16486631.35449 -12586654.32449  21208226.1574   21208227.9494   21208225.3184
       238.0004        190.0004
   4677767.85549   3651362.94249  25027149.3274   25027148.7324   25027150.1464
       202.0004        129.0004
 -22024933.74649 -17141310.73449  20765096.4934   20765098.6434   20765096.5014
       240.0004        201.0004
 -22760031.21449 -17416987.86049  20686910.2584   20686912.2084   20686909.3284
       242.0004        202.0004
  -8855043.20949  -6882197.12249  23351067.4914   23351070.4564   23351066.9124
       202.0004        132.0004
 -11428889.20249  -8619259.82349  22691511.8304   22691512.5034   22691511.5384
       220.0004        163.0004
   6291459.36549   5194520.52549  25346873.5824   25346874.5174   25346872.6474
       196.0004        124.0004
 11 10 10  0 42  0.0000000  0  9G26G05G10G16G07G08G13G02G04
  -9517814.18749  -7393977.66149  22558463.1314   22558465.4264   22558463.0684
       220.0004        162.0004
 -20748095.89149 -16134512.76249  21023465.4404   21023467.2494   21023465.9634
       238.0004        199.0004
 -16413972.98449 -12530037.44549  21222051.3724   21222054.9134   21222050.9174
       237.0004        190.0004
   4754212.76249   3710930.35049  25041696.3204   25041699.6424   25041696.5004
       203.0004        133.0004
 -21991144.85049 -17114981.72549  20771526.7534   20771527.6054   20771526.9444
       241.0004        201.0004
 -22793049.83849 -17442716.64449  20680625.0864   20680629.0014   20680625.7264
       240.0004        202.0004
  -8760286.54049  -6808360.81349  23369100.1844   23369102.6444   23369101.2834
       206.0004        131.0004
 -11347795.34549  -8556069.82149  22706943.0554   22706944.9174   22706943.8534
       221.0004        161.0004
   6400110.73049   5279184.02749  25367544.8844                   25367549.5124
       193.0004        121.0004
 11 10 10  0 42 30.0000000  0  9G26G05G10G16G07G08G13G02G04
  -9615681.63149  -7470237.94649  22539838.3754   22539843.1054   22539838.6294
       219.0004        162.0004
 -20793302.17049 -16169738.43249  21014862.4744   21014865.6464   21014862.7854
       237.0004        200.0004
 -16340909.40049 -12473104.81049  21235954.2734   21235958.6584   21235954.2964
       236.0004        190.0004
   4831072.40749   3770820.91049  25056321.8484   25056324.3234   25056320.6884
       208.0004        134.0004
 -21956854.23049 -17088261.75749  20778051.7464   20778053.8104   20778052.1694
       240.0004        202.0004
 -22825550.83549 -17468042.08149  20674441.5924   20674444.4894   20674441.1444
       242.0004        202.0004
  -8665413.08949  -6734433.54149  23387153.7454   23387154.1104   23387154.8124
       201.0004        131.0004
 -11266339.09449  -8492597.43049  22722443.4924   22722445.1824   22722443.7714
       221.0004        161.0004
   6508679.72249   5363783.27149  25388209.8144   25388215.5844   25388208.2424
       200.0004        130.0004
 11 10 10  0 43  0.0000000  0  9G26G05G10G16G07G08G13G02G04
  -9713333.39949  -7546330.22649  22521255.3714   22521259.5934   22521256.5274
       221.0004        161.0004
 -20838036.31449 -16204596.22149  21006350.8394   21006352.6374   21006350.7614
       238.0004        201.0004
 -16267441.09649 -12415856.81449  21249936.9454   21249938.7504   21249936.1504
       238.0004        189.0004
   4908344.82849   3831033.11549  25071028.3104   25071029.8564   25071025.9074
       206.0004        135.0004
 -21922062.37549 -17061151.21749  20784672.6414   20784674.4674   20784672.5234
       241.0004        202.0004
 -22857532.83249 -17492963.10449  20668354.5564   20668358.5514   20668354.6904
       240.0004        202.0004
  -8570422.98249  -6660415.31349  23405228.5184   23405231.9034   23405228.4434
       202.0004        128.0004
 -11184522.74349  -8428844.43249  22738012.7494   22738015.0344   22738012.3394
       220.0004        162.0004
   6617164.89449   5448317.07949  25408848.6404   25408857.2514   25408849.4084
       194.0004        129.0004
 11 10 10  0 43 30.0000000  0  9G26G05G10G16G07G08G13G02G04
  -9810769.62049  -7622254.60749  22502713.8624   22502717.7894   22502714.4274
       219.0004        160.0004
 -20882297.73249 -16239085.65749  20997926.8044   20997929.2844   20997927.4304
       236.0004        199.0004
 -16193570.57949 -12358295.39449  21263991.9374   21263996.3294   21263991.5334
       235.0004        188.0004
   4986026.23349   3891564.06649  25085809.1084   25085808.9964   25085810.0274
       205.0004        132.0004
 -21886771.37849 -17033651.73749  20791387.1074   20791389.7474   20791388.0374
       239.0004        200.0004
 -22888996.64949 -17517480.35549  20662369.2674   20662370.7984   20662368.1154
       243.0004        202.0004
  -8475318.18149  -6586307.71649  23423327.6134   23423326.8924   23423327.1004
       200.0004        127.0004
 -11102350.04649  -8364813.77649  22753650.4094   22753652.1974   22753649.7144
       219.0004        162.0004
   6725562.73649   5532782.86949  25429480.4534   25429479.1084   25429481.9724
       198.0004        125.0004
 11 10 10  0 44  0.0000000  0  9G26G05G10G16G07G08G13G02G04
  -9907988.05649  -7698009.20049  22484214.7324   22484218.8464   22484214.2644
       220.0004        164.0004
 -20926084.03449 -16273204.86549  20989595.4884   20989597.6124   20989596.1064
       239.0004        200.0004
 -16119298.67149 -12300421.21649  21278127.4114   21278129.7644   21278125.9744
       238.0004        189.0004
   5064114.86449   3952412.33349  25100666.9084   25100667.1224   25100669.2564
       196.0004        126.0004
 -21850982.56749 -17005764.35149  20798198.3954   20798200.2604   20798198.5164
       239.0004        200.0004
 -22919941.19949 -17541592.97449  20656477.9954   20656482.6764   20656478.3314
       239.0004        202.0004
  -8380099.34549  -6512111.30249  23441448.7424   23441443.5444   23441448.7444
       197.0004        124.0004
 -11019823.69749  -8300507.54349  22769353.9654   22769354.8274   22769352.9274
       217.0004        162.0004
   6833871.57949   5617179.43049  25450089.5734   25450096.5884   25450090.3984
       201.0004        125.0004
 11 10 10  0 44 30.0000000  0  9G26G05G10G16G07G08G13G02G04
 -10004987.37549  -7773593.05649  22465754.8594   22465759.7954   22465755.5034
       220.0004        161.0004
 -20969393.58349 -16306952.57749  20981353.8784   20981355.9164   20981354.3184
       240.0004        201.0004
 -16044627.15149 -12242235.66249  21292336.5414   21292339.0864   21292335.6664
       236.0004        188.0004
   5142608.20049   4013575.95949  25115603.3134   25115606.6114   25115604.7344
       199.0004        128.0004
 -21814697.72649 -16977490.44649  20805103.4284   20805104.9334   20805103.3994
       240.0004        200.0004
 -22950365.87949 -17565300.50249  20650689.8654   20650692.6964   20650689.4794
       241.0004        202.0004
  -8284767.18349  -6437826.52249  23459586.1474   23459588.6514   23459585.8774
       194.0004        123.0004
 -10936946.75749  -8235928.12949  22785124.6804   22785126.3954   22785125.2444
       219.0004        161.0004
   6942088.79549   5701504.56049  25470683.0314   25470687.9784   25470685.7094
       199.0004        127.0004
 11 10 10  0 45  0.0000000  0  9G26G05G10G16G07G08G13G02G04
 -10101766.74249  -7849005.53349  22447339.7394   22447342.8384   22447339.1934
       220.0004        162.0004
 -21012224.79949 -16340327.55649  20973203.5474   20973205.6764   20973203.9634
       242.0004        201.0004
 -15969557.48449 -12183739.83649  21306620.8214   21306624.8674   21306620.2594
       235.0004        187.0004
   5221503.41549   4075052.66849  25130619.8024   25130620.1834   25130618.8834
       202.0004        130.0004
 -21777918.76649 -16948831.51849  20812101.3104   20812103.8454   20812101.9854
       239.0004        199.0004
 -22980271.13649 -17588603.29349  20644998.5054   20645002.1844   20644998.4854
       240.0004        202.0004
  -8189323.11949  -6363454.52749  23477751.6224   23477756.4814   23477753.3274
       195.0004        125.0004
 -10853722.51949  -8171078.07149  22800961.6164   22800963.8574   22800962.1884
       218.0004        161.0004
   7050211.85449   5785756.27149  25491257.2744   25491261.7484   25491261.2194
       191.0004        126.0004
 11 10 10  0 45 30.0000000  0  9G26G05G10G16G07G08G13G02G04
 -10198324.27849  -7924245.11749  22428964.3474   22428969.2724   22428965.0234
       220.0004        163.0004
 -21054575.78049 -16373328.32849  20965144.1184   20965146.3554   20965144.5054
       241.0004        201.0004
 -15894090.80649 -12124934.65449  21320982.2504   21320985.1254   21320980.9814
       235.0004        187.0004
   5300798.46149   4136840.90249  25145707.6244   25145708.9424   25145707.0024
       201.0004        131.0004
 -21740646.47349 -16919788.17349  20819194.9444   20819196.5414   20819194.5964
       240.0004        200.0004
 -23009655.81749 -17611500.43349  20639407.0894   20639410.1774   20639406.8164
       241.0004        202.0004
  -8093767.65749  -6288995.78749  23495936.0154   23495935.9464   23495933.2174
       192.0004        124.0004
 -10770153.60649  -8105959.43949  22816865.6344   22816866.4574   22816864.4064
       220.0004        160.0004
   7158238.64349   5869932.94449  25511812.4814   25511819.1994   25511813.5894
       188.0004        124.0004
 11 10 10  0 46  0.0000000  0  9G26G05G10G16G07G08G13G02G04
 -10294658.73549  -7999310.92049  22410632.2864   22410636.5504   22410633.4814
       220.0004        162.0004
 -21096444.69849 -16405953.46449  20957176.7654   20957178.9334   20957177.6574
       242.0004        202.0004
 -15818228.73149 -12065821.37849  21335419.4614   21335421.1634   21335417.7964
       235.0004        186.0004
   5380490.49549   4198938.55249  25160871.5064   25160873.3434   25160870.9444
       197.0004        128.0004
 -21702882.57549 -16890361.76649  20826380.4114   20826382.5974   20826381.1694
       239.0004        200.0004
 -23038519.46449 -17633991.57249  20633914.7644   20633917.5594   20633914.5374
       241.0004        202.0004
  -7998101.86049  -6214451.10649  23514136.5584   23514144.3434   23514136.7614
       190.0004        125.0004
 -10686242.94549  -8040574.51749  22832832.7544   22832833.4834   22832831.9614
       217.0004        160.0004
   7266166.86149   5954032.82449  25532356.4824   25532356.9424   25532353.4414
       195.0004        124.0004
 11 10 10  0 46 30.0000000  0  9G26G05G10G16G07G08G13G02G04
 -10390769.23949  -8074202.20749  22392344.3484   22392348.2974   22392345.6014
       222.0004        164.0004
 -21137830.35549 -16438202.04249  20949301.7564   20949303.9994   20949302.1144
       242.0004        202.0004
 -15741973.69949 -12006401.90249  21349927.8094   21349932.8334   21349927.7694
       233.0004        187.0004
   5460576.60949   4261343.26349  25176113.4164   25176111.9954   25176113.9684
       200.0004        127.0004
 -21664629.34049 -16860554.02349  20833661.2314   20833661.9844   20833660.9684
       241.0004        201.0004
 -23066862.52149 -17656077.05549  20628521.6474   20628524.0824   20628521.3384
       241.0004        202.0004
  -7902327.32349  -6139821.62949  23532363.4044   23532364.8654   23532363.6734
       196.0004        128.0004
 -10601994.29349  -7974926.22149  22848864.5934   22848866.2754   22848864.5124
       219.0004        159.0004
   7373993.48549   6038053.60049  25552872.2614   25552875.5374   25552871.5494
       191.0004        125.0004
 11 10 10  0 47  0.0000000  0  9G26G05G10G16G07G08G13G02G04
 -10486654.22849  -8148917.77649  22374098.1424   22374099.6834   22374098.3814
       222.0004        163.0004
 -21178730.85049 -16470072.56649  20941518.4984   20941520.4774   20941519.0244
       242.0004        203.0004
 -15665326.73549 -11946677.02149  21364514.7464   21364517.2214   21364513.8034
       235.0004        186.0004
   5541054.31249   4324053.10149  25191426.6984   25191430.3574   25191426.7894
       200.0004        129.0004
 -21625888.25949 -16830366.17249  20841031.4464   20841034.0634   20841032.2354
       239.0004        200.0004
 -23094684.30149 -17677756.34749  20623227.1514   20623229.7024   20623226.7174
       241.0004        202.0004
  -7806444.63449  -6065107.90749  23550608.5864   23550614.9024   23550612.8904
       199.0004        127.0004
 -10517410.39049  -7909016.70849  22864959.8304   22864960.2734   22864960.2974
       219.0004        159.0004
   7481716.51649   6121993.65349  25573370.3484   25573377.1134   25573372.0354
       187.0004        123.0004
 11 10 10  0 47 30.0000000  0  9G26G05G10G16G07G08G13G02G04
 -10582311.59549  -8223455.93949  22355894.9814   22355897.3504   22355895.6904
       221.0004        163.0004
 -21219143.79749 -16501563.18049  20933827.7174   20933830.1324   20933828.4624
       241.0004        202.0004
 -15588288.89449 -11886647.56649  21379175.3414   21379177.3274   21379174.1484
       234.0004        186.0004
   5621921.72849   4387066.53749  25206816.4054   25206820.0674   25206817.8514
       200.0004        131.0004
 -21586659.86949 -16799798.59649  20848497.4274   20848499.2794   20848497.5664
       241.0004        201.0004
 -23121983.66849 -17699028.56749  20618031.7114   20618034.4724   20618031.6634
       241.0004        202.0004
  -7710454.18649  -5990310.18149  23568877.0934   23568874.9874   23568878.3804
       201.0004        128.0004
 -10432493.48749  -7842847.70249  22881119.5284   22881119.4674   22881120.0554
       218.0004        158.0004
   7589334.39549   6205851.73549  25593850.6714   25593857.9324   25593851.9404
       196.0004        124.0004
 11 10 10  0 48  0.0000000  0  9G26G05G10G16G07G08G13G02G04
 -10677740.67549  -8297816.18049  22337736.3814   22337737.8574   22337736.9604
       222.0004        163.0004
 -21259068.15449 -16532673.08349  20926230.7104   20926232.7774   20926231.2354
       241.0004        202.0004
 -15510862.29149 -11826315.17149  21393907.2724   21393911.5144   21393907.4944
       233.0004        186.0004
   5703175.68349   4450381.18749  25222277.3834   25222280.6174   25222275.8704
       201.0004        132.0004
 -21546946.62649 -16768853.20949  20856054.3954   20856056.3784   20856055.1064
       241.0004        201.0004
 -23148760.99149 -17719894.00249  20612936.8284   20612939.1824   20612936.1254
       241.0004        202.0004
  -7614357.51649  -5915429.67549  23587164.5254   23587165.1354   23587166.2604
       203.0004        128.0004
 -10347247.19349  -7776422.01749  22897341.3054   22897342.4104   22897340.3414
       219.0004        158.0004
   7696844.15649   6289625.52749  25614308.0854   25614311.2814   25614310.3664
       197.0004        125.0004
 11 10 10  0 48 30.0000000  0  9G26G05G10G16G07G08G13G02G04
 -10772940.78049  -8371998.06249  22319621.1604   22319622.2274   22319620.3634
       224.0004        165.0004
 -21298503.06449 -16563401.59749  20918726.7544   20918728.7834   20918726.8974
       241.0004        203.0004
 -15433048.81349 -11765681.31349  21408716.3844   21408719.3894   21408714.6884
       235.0004        186.0004
   5784813.09949   4513994.62649  25237811.1644   25237813.6834   25237812.3864
       196.0004        128.0004
 -21506751.01749 -16737531.94549  20863704.4284   20863705.6404   20863703.9224
       242.0004        202.0004
 -23175016.83349 -17740353.08449  20607940.6224   20607943.0984   20607939.9804
       241.0004        202.0004
  -7518156.26649  -5840467.76649  23605471.2034   23605473.6924   23605469.5424
       200.0004        126.0004
 -10261675.40149  -7709742.70349  22913623.7524   22913625.8144   22913623.8344
       215.0004        157.0004
   7804242.60749   6373312.61349  25634746.7984   25634749.0204   25634744.5114
       192.0004        125.0004
 11 10 10  0 49  0.0000000  0  9G26G05G10G16G07G08G13G02G04
 -10867909.66449  -8445999.80149  22301547.6134   22301549.1584   22301548.1364
       223.0004        164.0004
 -21337445.81449 -16593746.60049  20911315.9164   20911318.1874   20911316.2534
       240.0004        203.0004
 -15354848.97149 -11704746.39949  21423597.2854   21423600.1864   21423596.1134
       234.0004        186.0004
   5866832.28549   4577905.55749  25253421.7664   25253423.1034   25253420.7794
       202.0004        127.0004
 -21466073.56449 -16705835.22849  20871443.6814   20871446.2794   20871444.0814
       241.0004        201.0004
 -23200749.62049 -17760404.59849  20603042.6214   20603046.3864   20603042.6834
       240.0004        202.0004
  -7421850.19149  -5765424.13949  23623795.8694   23623795.5974   23623797.8524
       204.0004        127.0004
 -10175780.18549  -7642811.37449  22929971.6404   22929970.6434   22929968.8994
       219.0004        156.0004
   7911528.74349   6456912.19949  25655159.6724   25655164.3244   25655161.4244
       192.0004        124.0004
 11 10 10  0 49 30.0000000  0  9G26G05G10G16G07G08G13G02G04
 -10962646.02049  -8519820.34249  22283520.1434   22283522.1374   22283520.4114
       224.0004        164.0004
 -21375894.64849 -16623706.73949  20903999.3004   20904001.4264   20903999.6904
       241.0004        202.0004
 -15276264.96849 -11643512.13049  21438549.8964   21438553.9604   21438548.9704
       232.0004        185.0004
   5949230.45449   4642111.80749  25269101.8634   25269102.0144   25269097.4034
       198.0004        128.0004
 -21424915.78149 -16673764.22649  20879276.3084   20879277.7394   20879276.7854
       241.0004        201.0004
 -23225959.18949 -17780048.40749  20598245.4324   20598248.8594   20598245.2854
       240.0004        202.0004
  -7325440.51149  -5690299.75549  23642142.6884   23642145.9054   23642143.9664
       202.0004        127.0004
 -10089565.04549  -7575630.77149  22946376.2044   22946377.0834   22946376.7694
       216.0004        157.0004
   8018700.09649   6540422.35349  25675558.0124   25675561.5824   25675556.0964
       194.0004        121.0004
 11 10 10  0 50  0.0000000  0  9G26G05G10G16G07G08G13G02G04
 -11057148.77149  -8593458.82149  22265537.8564   22265538.6224   22265538.0944
       224.0004        165.0004
 -21413848.73649 -16653281.35849  20896777.0614   20896779.4634   20896777.3714
       240.0004        203.0004
 -15197298.90949 -11581980.16549  21453578.1784   21453580.6964   21453577.1344
       234.0004        185.0004
   6032004.43649   4706610.91549  25284852.2474   25284854.8364   25284853.3094
       196.0004        130.0004
 -21383280.13749 -16641320.85749  20887199.5094   20887200.8104   20887199.7754
       242.0004        201.0004
 -23250646.13649 -17799284.96849  20593547.7394   20593551.1924   20593548.0384
       240.0004        202.0004
  -7228929.08149  -5615096.06849  23660506.8094   23660510.9324   23660505.1774
       191.0004        126.0004
 -10003033.08349  -7508203.24549  22962842.4544   22962844.9724   22962841.7324
       216.0004        159.0004
   8125753.84549   6623840.87649  25695927.4034                   25695926.6114
       192.0004        120.0004
 11 10 10  0 50 30.0000000  0  9G26G05G10G16G07G08G13G02G04
 -11151416.09049  -8666913.84749  22247598.5534   22247600.1264   22247597.6494
       224.0004        165.0004
 -21451305.70349 -16682468.61349  20889648.5144   20889651.1024   20889649.1854
       239.0004        202.0004
 -15117951.66549 -11520151.19049  21468677.3314   21468680.2734   21468676.6404
       234.0004        185.0004
   6115152.57949   4771401.61849  25300673.8244   25300675.2254   25300674.1194
       200.0004        132.0004
 -21341167.58249 -16608505.87649  20895213.2264   20895215.0364   20895213.5964
       242.0004        201.0004
 -23274809.44749 -17818113.50349  20588950.0874   20588953.0634   20588949.6814
       240.0004        202.0004
  -7132315.49049  -5539812.84949  23678893.7614   23678894.9084   23678892.2634
       197.0004        127.0004
  -9916186.68349  -7440530.75249  22979368.7944   22979371.9244   22979368.6914
       216.0004        158.0004
   8232688.07949   6707166.23749  25716277.2844                   25716278.5824
       185.0004        119.0004
 11 10 10  0 51  0.0000000  0  9G26G05G10G16G07G08G13G02G04
 -11245447.24549  -8740184.84949  22229705.0784   22229707.1594   22229705.4954
       225.0004        166.0004
 -21488264.44949 -16711267.64749  20882616.1844   20882618.5114   20882616.8434
       241.0004        203.0004
 -15038225.38949 -11458026.84249  21483847.1394   21483851.3354   21483847.1174
       232.0004        185.0004
   6198671.37949   4836481.09349  25316568.4484   25316571.3514   25316567.3224
       200.0004        131.0004
 -21298580.67149 -16575321.26749  20903316.9084   20903318.4354   20903317.5974
       242.0004        201.0004
 -23298449.26349 -17836534.12149  20584452.0544   20584454.6694   20584451.1064
       242.0004        202.0004
  -7035601.51649  -5464451.38849  23697298.2054   23697299.1754   23697297.6484
       202.0004        128.0004
  -9829029.55149  -7372616.10449  22995953.4624   22995955.6114   22995953.4804
       216.0004        157.0004
   8339500.48349   6790396.59949  25736603.7774
       188.0004        115.0004
 11 10 10  0 51 30.0000000  0  9G26G05G10G16G07G08G13G02G04
 -11339240.61949  -8813270.60449  22211856.8664   22211859.2444   22211858.0344
       224.0004        166.0004
 -21524723.23649 -16739677.09749  20875677.9094   20875680.2724   20875678.5154
       240.0004        202.0004
 -14958121.56749 -11395608.29949  21499090.7354   21499094.8864   21499090.9034
       235.0004        186.0004
   6282558.30549   4901847.38649  25332532.8344   25332532.4474   25332532.9814
       204.0004        132.0004
 -21255520.74749 -16541768.08049  20911510.9394   20911512.8904   20911511.7364
       242.0004        201.0004
 -23321565.55649 -17854546.81149  20580051.7514   20580055.7004   20580052.0904
       239.0004        202.0004
  -6938788.26449  -5389012.53249  23715720.6534   23715723.8134   23715720.1444
       199.0004        128.0004
  -9741564.87549  -7304461.83249  23012598.5354   23012600.0524   23012597.4554
       218.0004        158.0004
   8446188.66149     56104.16449  25756904.0524
       187.0004         74.0004
 11 10 10  0 52  0.0000000  0 10G26G05G10G16G07G08G13G02G04G28
 -11432795.40049  -8886170.42349  22194053.4404   22194057.3924   22194054.2604
       224.0004        168.0004
 -21560681.04049 -16767696.17649  20868835.8774   20868837.7174   20868836.3864
       240.0004        202.0004
 -14877641.75849 -11332896.77249  21514407.8924   21514409.6854   21514405.7804
       236.0004        185.0004
   6366810.39049   4967498.22649  25348564.8304   25348565.8104   25348563.6704
       202.0004        130.0004
 -21211989.63749 -16507847.71949  20919795.0114   20919796.9124   20919794.6664
       242.0004        202.0004
 -23344158.40049 -17872151.61249  20575754.0134   20575756.0264   20575753.2724
       241.0004        202.0004
  -6841876.59149  -5313496.96549  23734161.2474   23734166.3064   23734163.5434
       202.0004        128.0004
  -9653795.79549  -7236070.33549  23029301.5484   23029303.3514   23029299.9694
       221.0004        159.0004
   8552750.16149    139118.45849  25777183.3374
       186.0004        108.0004
   -189322.81549   -129105.61149  24448746.3494
       205.0004        130.0004
 11 10 10  0 52 30.0000000  0 10G26G05G10G16G07G08G13G02G04G28
 -11526109.51649  -8958882.69849  22176296.4324   22176298.8614   22176297.9164
       225.0004        168.0004
 -21596136.04449 -16795323.44849  20862088.5474   20862091.1064   20862089.1754
       240.0004        202.0004
 -14796787.78149 -11269893.70649  21529792.0034   21529795.6544   21529791.4884
       234.0004        185.0004
   6451425.54749   5033432.00749  25364665.1944   25364669.2854   25364664.6274
       200.0004        132.0004
 -21167989.08749 -16473561.57549  20928167.9344   20928169.0334   20928168.2124
       242.0004        201.0004
 -23366227.60949 -17889348.38149  20571553.5014   20571556.6164   20571553.6164
       240.0004        202.0004
  -6744867.18849  -5237905.24549  23752621.7274   23752625.9784   23752619.5694
       198.0004        127.0004
  -9565725.20449  -7167443.90249  23046059.0884   23046060.5204   23046058.7614
       218.0004        158.0004
   8659183.00659    222028.25959  25797435.1934
       181.0004        108.0004
   -288139.37149   -206105.56949  24429939.9864   24429945.1374
       198.0004        130.0004
 11 10 10  0 53  0.0000000  0  9G26G05G10G16G07G08G13G02G28
 -11619181.11349  -9031406.04049  22158585.3754   22158587.1604   22158584.3414
       224.0004        167.0004
 -21631085.51849 -16822556.80849  20855438.2984   20855440.4744   20855438.7264
       241.0004        202.0004
 -14715560.03549 -11206599.39649  21545249.5954   21545252.4474   21545248.5474
       236.0004        185.0004
   6536401.70749   5099647.09649  25380837.8444   25380838.7824   25380833.6894
       204.0004        132.0004
 -21123519.94449 -16438910.29149  20936629.9894   20936632.1064   20936629.8044
       242.0004        201.0004
 -23387771.81949 -17906136.05849  20567454.4174   20567456.8584   20567453.8604
       241.0004        202.0004
  -6647760.39349  -5162237.69149  23771097.7794   23771100.9154   23771101.9064
       195.0004        126.0004
  -9477355.98449  -7098584.76449  23062876.9784   23062878.4414   23062876.2524
       220.0004        157.0004
   -386884.30749   -283049.65249  24411150.6914   24411152.2174   24411151.5304
       203.0004        135.0004
 11 10 10  0 53 30.0000000  0  9G26G05G10G16G07G08G13G02G28
 -11712009.95349  -9103740.20649  22140919.4424   22140924.1084   22140920.4654
       222.0004        167.0004
 -21665529.03549 -16849395.91849  20848883.4024   20848885.6814   20848883.8814
       240.0004        202.0004
 -14633961.54749 -11143016.17749  21560777.9214   21560779.6964   21560776.4624
       236.0004        185.0004
   6621735.17949   5166140.56849  25397074.0034   25397076.9074   25397073.4874
       200.0004        133.0004
 -21078584.87049 -16403895.95449  20945181.1714   20945182.4514   20945181.6924
       242.0004        201.0004
 -23408791.87149 -17922515.31149  20563454.0054   20563456.7644   20563453.4834
       241.0004        202.0004
  -6550557.98449  -5086495.61549  23789599.8224   23789603.6374   23789601.7854
       194.0004        122.0004
  -9388691.54449  -7029495.59449  23079749.6734   23079749.0784   23079749.2604
       219.0004        157.0004
   -485556.08549   -359936.70449  24392374.5014   24392376.8474   24392373.7604
       202.0004        132.0004
 11 10 10  0 54  0.0000000  0  9G26G05G10G16G07G08G13G02G28
 -11804594.55249  -9175884.03449  22123304.4004   22123305.6664   22123302.6864
       227.0004        169.0004
 -21699465.48749 -16875839.91449  20842425.9724   20842428.1364   20842426.1744
       239.0004        202.0004
 -14551994.43849 -11079145.73649  21576376.2064   21576378.3724   21576374.9444
       235.0004        185.0004
   6707423.47549   5232910.55949  25413380.8144   25413384.1304   25413382.6454
       204.0004        129.0004
 -21033185.90449 -16368520.12549  20953820.1114   20953821.7594   20953819.9574
       242.0004        200.0004
 -23429288.01449 -17938486.31949  20559553.5074   20559556.6834   20559553.4424
       240.0004        202.0004
  -6453261.15649  -5010679.95849  23808111.6494                   23808114.0324
       187.0004        116.0004
  -9299735.48249  -6960179.20349  23096677.2044   23096676.0534   23096676.5654
       216.0004        156.0004
   -584152.27749   -436764.84549  24373611.0994   24373614.6864   24373610.8584
       199.0004        132.0004
 11 10 10  0 54 30.0000000  0  9G26G05G10G16G07G08G13G02G28
 -11896933.32149  -9247836.32649  22105729.8294   22105733.8754   22105730.9244
       224.0004        168.0004
 -21732892.63749 -16901887.04249  20836064.8924   20836067.0724   20836065.0294
       240.0004        202.0004
 -14469659.64249 -11014988.76949  21592041.8634   21592045.9604   21592041.7964
       233.0004        185.0004
   6793464.06249   5299955.05849  25429754.3994   25429755.5274   25429753.7244
       198.0004        130.0004
 -20987324.27049 -16332783.78949  20962547.1154   20962549.2764   20962547.8794
       243.0004        201.0004
 -23449259.65349 -17954048.62749  20555753.0004   20555756.1524   20555753.1124
       240.0004        202.0004
  -6355870.06649  -4934790.90249  23826647.1494                   23826645.0054
       191.0004        118.0004
  -9210490.21949  -6890637.41649  23113660.0114   23113659.7454   23113660.8524
       219.0004        155.0004
   -682669.33849   -513531.34249  24354863.9614   24354868.6064   24354865.3904
       200.0004        132.0004
 11 10 10  0 55  0.0000000  0  9G26G05G10G16G07G08G13G02G28
 -11989024.62249  -9319595.79849  22088207.6364   22088208.4214   22088206.9044
       225.0004        168.0004
 -21765809.14049 -16927536.27649  20829801.1744   20829803.1744   20829801.4024
       239.0004        202.0004
 -14386958.88249 -10950546.65949  21607781.5274   21607783.4344   21607779.8934
       235.0004        185.0004
   6879854.16549   5367271.90449  25446192.9184   25446195.2484   25446191.3364
       200.0004        127.0004
 -20941001.90349 -16296688.44849  20971362.3844   20971363.6974   20971362.3144
       242.0004        201.0004
 -23468706.52249 -17969202.01349  20552052.7414   20552055.2284   20552052.3884
       241.0004        202.0004
  -6258386.03649  -4858829.41149  23845197.6264                   23845196.6164
       197.0004        121.0004
  -9120959.22549  -6820873.01649  23130696.6144   23130696.3644   23130695.5934
       215.0004        155.0004
   -781104.60149   -590234.13349  24336133.5164   24336136.3244   24336131.2234
       203.0004        135.0004
 11 10 10  0 55 30.0000000  0  9G26G05G10G16G07G08G13G02G28
 -12080867.48949  -9391161.66549  22070729.2194   22070732.3564   22070729.3774
       225.0004        167.0004
 -21798213.61649 -16952786.51549  20823634.4904   20823636.7654   20823634.9364
       240.0004        202.0004
 -14303893.96749 -10885820.78049  21623587.1374   21623590.3954   21623587.1524
       233.0004        184.0004
   6966591.27249   5434859.16749  25462699.6744   25462702.3724   25462697.6804
       198.0004        128.0004
 -20894220.50949 -16260235.42049  20980264.9124   20980265.9144   20980265.1334
       243.0004        201.0004
 -23487628.87549 -17983946.68649  20548452.5854   20548454.5884   20548451.7114
       242.0004        202.0004
  -6160809.75849     62682.00349  23863767.2204
       197.0004         74.0004
  -9031145.44349  -6750888.24649  23147787.1504   23147787.8174   23147786.2514
       216.0004        155.0004
   -879455.51249   -666871.17749  24317418.2694   24317419.1624   24317414.3144
       198.0004        134.0004
 11 10 10  0 56  0.0000000  0  9G26G05G10G16G07G08G13G02G28
 -12172459.94049  -9462532.43649  22053299.5284   22053303.1094   22053299.6004
       226.0004        170.0004
 -21830104.16949 -16977636.31149  20817566.0914   20817568.0414   20817566.6554
       240.0004        202.0004
 -14220466.04949 -10820812.03349  21639461.6954   21639466.5744   21639461.8044
       233.0004        184.0004
   7053672.99449   5502714.95749  25479271.1754   25479270.6854   25479271.5364
       202.0004        127.0004
 -20846981.69349 -16223425.95149  20989253.6344   20989255.3704   20989253.4934
       240.0004        200.0004
 -23506026.47649 -17998282.46549  20544950.1844   20544953.7444   20544950.1054
       240.0004        202.0004
  -6063142.17849    138757.17949  23882349.1034
       189.0004        110.0004
  -8941051.74149  -6680685.38649  23164930.6644   23164933.4164   23164931.9934
       215.0004        152.0004
   -977718.96949   -743440.06949  24298716.0924   24298720.5764   24298717.6494
       198.0004        134.0004
 11 10 10  0 56 30.0000000  0  9G26G05G10G16G07G08G13G02G28
 -12263801.41849  -9533707.61349  22035918.9074   22035922.3884   22035918.3884
       226.0004        171.0004
 -21861480.05049 -17002085.04049  20811595.3284   20811597.6934   20811595.5304
       240.0004        202.0004
 -14136677.47249 -10755522.26149  21655408.4974   21655410.9464   21655407.0834
       235.0004        182.0004
   7141095.82549   5570836.57749  25495905.0854   25495906.7834   25495904.6304
       196.0004        128.0004
 -20799287.78849 -16186261.86849  20998328.8494   20998331.2434   20998329.4024
       238.0004        200.0004
 -23523899.89749 -18012209.79449  20541550.0064   20541552.4014   20541549.5804
       241.0004        203.0004
  -5965384.70149    214901.91149  23900948.4104
       184.0004        110.0004
  -8850682.11549  -6610267.48549  23182129.9664   23182130.4444   23182128.8924
       216.0004        154.0004
  -1075892.76549   -819939.10149  24280036.8914   24280041.5314   24280037.8744
       205.0004        137.0004
 11 10 10  0 57  0.0000000  0  9G26G05G10G16G07G08G13G02G28
 -12354889.98549  -9604685.73149  22018584.8404   22018588.0454   22018585.3144
       225.0004        172.0004
 -21892339.07649 -17026131.04149  20805722.9464   20805725.4714   20805723.4264
       240.0004        202.0004
 -14052529.63649 -10689952.54749  21671420.8824   21671423.8774   21671419.8444
       234.0004        182.0004
   7228857.54249   5639222.25149  25512607.3674   25512608.7694   25512605.1054
       199.0004        124.0004
 -20751140.36449 -16148744.39849  21007491.2364   21007493.2804   21007491.8264
       239.0004        200.0004
 -23541248.66649 -18025728.30049  20538248.6914   20538251.2684   20538247.7584
       240.0004        203.0004
  -5867537.56949     56592.66149  23919576.4204
       193.0004         74.0004
  -8760038.95249  -6539636.42149  23199376.1354   23199378.1214   23199375.8884
       211.0004        152.0004
  -1173973.98249   -896365.98349  24261373.4454   24261376.3244   24261372.1954
       204.0004        137.0004
 11 10 10  0 57 30.0000000  0  9G26G05G10G16G07G08G13G02G28
 -12445724.44349  -9675465.83449  22001298.8424   22001302.7214   22001300.0174
       226.0004        170.0004
 -21922680.59149 -17049773.79049  20799949.3834   20799951.6814   20799950.1764
       240.0004        202.0004
 -13968024.61849 -10624104.50949  21687499.6884   21687504.3054   21687500.3554
       232.0004        182.0004
   7316955.42549   5707869.87749  25529372.4594   25529371.5894   25529369.4314
       196.0004        123.0004
 -20702541.21449 -16110874.93949  21016739.1054   21016741.7914   21016739.6984
       238.0004        200.0004
 -23558073.11749 -18038838.26249  20535047.1694   20535049.3164   20535046.7844
       241.0004        203.0004
  -5769601.64749    132862.66249  23938207.5704
       180.0004        112.0004
  -8669125.66949  -6468794.91949  23216675.0104   23216679.0424   23216675.5364
       212.0004        153.0004
  -1271959.86749   -972718.57449  24242726.8104   24242730.2354   24242725.2424
       207.0004        137.0004
 11 10 10  0 58  0.0000000  0  9G26G05G10G16G07G08G13G02G28
 -12536303.72049  -9746047.10049  21984062.7924   21984065.2904   21984062.9724
       224.0004        171.0004
 -21952502.84649 -17073011.91149  20794274.7454   20794276.7454   20794275.0494
       240.0004        203.0004
 -13883164.02949 -10557979.40449  21703649.7504   21703652.7734   21703649.1364
       233.0004        182.0004
   7405386.75149   5776777.31749  25546198.2164                   25546201.0844
       194.0004        122.0004
 -20653492.09149 -16072654.84349  21026073.2804   21026075.0444   21026073.5024
       237.0004        198.0004
 -23574373.35249 -18051539.73049  20531944.2844   20531947.7244   20531944.2874
       240.0004        202.0004
  -5671578.48749    209195.70649  23956861.3154
       188.0004        109.0004
  -8577945.55249  -6397745.49049  23234026.2684   23234029.9564   23234026.9724
       212.0004        153.0004
  -1369847.90649  -1048994.93649  24224098.0484   24224101.9474   24224098.7764
       204.0004        137.0004
 11 10 10  0 58 30.0000000  0  9G26G05G10G16G07G08G13G02G28
 -12626626.01549  -9816428.16949  21966875.6154   21966878.7994   21966875.5954
       226.0004        171.0004
 -21981803.98849 -17095843.97549  20788698.7664   20788700.7184   20788699.0584
       240.0004        202.0004
 -13797949.24549 -10491578.30449  21719865.9974   21719868.7484   21719864.2944
       231.0004        180.0004
   7494148.97949   5845942.56549  25563091.5694                   25563089.0144
       194.0004        120.0004
 -20603994.69949 -16034085.45049  21035492.3844   21035494.0824   21035492.5734
       238.0004        199.0004
 -23590148.84649 -18063832.31849  20528942.9994   20528945.4164   20528942.4584
       241.0004        202.0004
  -5573468.41949     50311.51549  23975535.0464
       189.0004         74.0004
  -8486501.28949  -6326490.20949  23251430.8294   23251431.5044   23251429.0394
       216.0004        154.0004
  -1467634.92649  -1125192.57849  24205490.2774   24205493.5964   24205490.5604
       208.0004        137.0004
 11 10 10  0 59  0.0000000  0  9G26G05G10G16G07G08G13G02G28
 -12716690.54649  -9886608.27949  21949736.4244   21949738.5404   21949737.0304
       225.0004        171.0004
 -22010583.76249 -17118269.77149  20783221.7414   20783224.0254   20783222.3254
       240.0004        203.0004
 -13712383.02649 -10424903.33849  21736147.1094   21736151.5704   21736147.7364
       231.0004        180.0004
   7583238.80749   5915363.12349  25580044.6064                   25580043.5604
       198.0004        121.0004
 -20554051.75649 -15995168.88149  21044995.6474   21044997.8684   21044996.6184
       238.0004        198.0004
 -23605400.26949 -18075716.53749  20526040.3674   20526043.0174   20526040.4904
       240.0004        202.0004
  -5475273.00549    126707.72649  23994218.7474
       180.0004        110.0004
  -8394796.91549  -6255032.27249  23268879.6684   23268881.4224   23268881.0104
       212.0004        153.0004
  -1565318.82349  -1201309.88749  24186901.0564   24186904.3424   24186901.0164
       204.0004        135.0004
 11 10 10  0 59 30.0000000  0  8G26G05G10G16G07G08G02G28
 -12806495.19949  -9956585.88649  21932646.7884   21932649.5314   21932647.3094
       225.0004        171.0004
 -22038840.07349 -17140287.67749  20777845.2194   20777847.2294   20777845.6344
       240.0004        203.0004
 -13626466.14149 -10357955.14149  21752497.7724   21752500.3564   21752496.0584
       231.0004        179.0004
   7672654.26549   5985037.39949  25597059.0314   25597062.6364   25597058.8454
       191.0004        122.0004
 -20503664.23249 -15955905.87749  21054584.2224   21054586.3474   21054584.8774
       237.0004        198.0004
 -23620127.26249 -18087192.09849  20523238.4704   20523240.8414   20523237.5524
       241.0004        202.0004
  -8302834.93849  -6183373.60049  23286378.3594   23286381.9854   23286380.1454
       211.0004        151.0004
  -1662896.44249  -1277344.40049  24168334.1194   24168335.1674   24168333.6564
       206.0004        135.0004
 11 10 10  1  0  0.0000000  0  8G26G05G10G16G07G08G02G28
 -12896038.77349 -10026360.09849  21915606.8914   21915610.1234   21915607.8934
       224.0004        171.0004
 -22066571.23349 -17161896.37849  20772567.9474   20772569.7984   20772568.3264
       241.0004        203.0004
 -13540200.40849 -10290735.11749  21768913.7834   21768916.7524   21768912.6594
       231.0004        180.0004
   7762392.59949   6054963.28949  25614134.3494                   25614134.5424
       189.0004        119.0004
 -20452833.72549 -15916297.69149  21064257.7574   21064259.2704   21064258.0714
       238.0004        198.0004
 -23634330.06949 -18098259.21549  20520534.7374   20520537.9164   20520535.2544
       240.0004        202.0004
  -8210618.28849  -6111516.47349  23303926.0784   23303929.9964   23303927.7774
       212.0004        152.0004
  -1760364.81049  -1353293.74349  24149786.3554   24149787.7074   24149785.0074
       210.0004        138.0004
 11 10 10  1  0 30.0000000  0  8G26G05G10G16G07G08G02G28
 -12985320.13849 -10095930.00449  21898617.5424   21898620.5664   21898617.5154
       226.0004        172.0004
 -22093776.32549 -17183095.15849  20767391.0584   20767392.7744   20767391.2634
       241.0004        203.0004
 -13453587.97949 -10223244.94949  21785393.7714   21785397.9954   21785394.1364
       229.0004        177.0004
   7852450.70949   6125138.36849  25631272.2074                   25631270.8244
       184.0004        119.0004
 -20401562.75549 -15876346.29449  21074013.3934   21074015.6704   21074014.0454
       237.0004        197.0004
 -23648008.88849 -18108918.02849  20517932.6824   20517935.4984   20517932.0714
       240.0004        202.0004
  -8118150.47149  -6039463.61549  23321526.6294   23321526.0664   23321523.5324
       216.0004        152.0004
  -1857721.02549  -1429155.70549  24131260.7574   24131260.3654   24131258.6104
       211.0004        138.0004
 11 10 10  1  1  0.0000000  0  8G26G05G10G16G07G08G02G28
 -13074337.98249 -10165294.58349  21881678.3174   21881681.0464   21881678.7794
       226.0004        172.0004
 -22120454.24949 -17203883.15449  20762314.5674   20762316.4374   20762315.0104
       242.0004        203.0004
 -13366630.75149 -10155486.08049  21801942.8194   21801945.5884   21801941.0034
       231.0004        178.0004
   7942825.47149   6195560.06649  25648470.1954                   25648470.4964
       182.0004        117.0004
 -20349853.29349 -15836053.20849  21083853.7544   21083855.5694   21083853.8024
       238.0004        197.0004
 -23661164.00949 -18119168.76549  20515428.9864   20515431.7574   20515428.9934
       241.0004        202.0004
  -8025434.98849  -5967217.80449  23339166.6934   23339169.4794   23339167.7994
       213.0004        152.0004
  -1954963.61449  -1504929.13049  24112756.5314   24112758.9434   24112754.8294
       213.0004        139.0004
 11 10 10  1  1 30.0000000  0  8G26G05G10G16G07G08G02G28
 -13163090.62349 -10234452.49549  21864789.4864   21864790.9214   21864789.8814
       227.0004        171.0004
 -22146603.04749 -17224258.85149  20757338.6434   20757340.7964   20757338.9894
       241.0004        204.0004
 -13279329.91749 -10087459.49549  21818555.8354   21818559.2764   21818555.6824
       232.0004        178.0004
   8033515.22449     40686.35349  25665730.8594
       191.0004         74.0004
 -20297706.68249 -15795419.48449  21093776.9114   21093778.7224   21093777.2634
       238.0004        197.0004
 -23673795.05649 -18129011.12649  20513025.1354   20513028.1634   20513024.9364
       240.0004        202.0004
  -7932474.38349  -5894780.96249  23356858.4494   23356859.8744   23356857.6374
       217.0004        153.0004
  -2052088.51749  -1580610.86249  24094272.4974   24094274.6104   24094270.5064
       204.0004        138.0004
 11 10 10  1  2  0.0000000  0  8G26G05G10G16G07G08G02G28
 -13251577.04349 -10303402.96249  21847951.3294   21847953.4724   21847951.1864
       229.0004        173.0004
 -22172222.12049 -17244221.77749  20752463.4394   20752465.1164   20752463.9694
       241.0004        204.0004
 -13191688.08349 -10019167.18649  21835232.9064   21835236.5434   21835232.2224
       230.0004        178.0004
   8124516.54049    111602.44849  25683047.0554
       191.0004        110.0004
 -20245125.44949 -15754447.10749  21103782.5784   21103784.7724   21103782.9684
       238.0004        197.0004
 -23685902.96149 -18138445.85149  20510721.8884   20510724.0374   20510721.2364
       241.0004        202.0004
  -7839272.39349  -5822156.04749  23374594.2204   23374594.5264   23374593.6424
       217.0004        152.0004
  -2149094.02649  -1656199.53849  24075811.3834   24075816.3034   24075813.8044
       209.0004        139.0004
 11 10 10  1  2 30.0000000  0  8G26G05G10G16G07G08G02G28
 -13339795.49549 -10372144.62949  21831164.3304   21831166.1034   21831164.5004
       229.0004        173.0004
 -22197309.69149 -17263770.53549  20747689.5914   20747691.5684   20747689.6164
       241.0004        204.0004
 -13103706.33349  -9950609.98449  21851974.7824   21851978.6424   21851974.1884
       231.0004        177.0004
   8215827.08549    182761.61849  25700421.9444
       186.0004        111.0004
 -20192110.77749 -15713136.97149  21113870.8474   21113872.8094   21113871.2264
       237.0004        196.0004
 -23697487.06949 -18147472.40949  20508516.3814   20508519.7284   20508516.4044
       240.0004        202.0004
  -7745831.48449  -5749344.92849  23392374.9754   23392376.0374   23392374.4994
       213.0004        152.0004
  -2245976.60849  -1731692.44249  24057376.8924   24057378.1384   24057377.1184
       210.0004        140.0004
 11 10 10  1  3  0.0000000  0  8G26G05G10G16G07G08G02G28
 -13427745.08849 -10440676.76849  21814427.3704   21814430.3704   21814426.9264
       228.0004        174.0004
 -22221865.15549 -17282904.67049  20743016.5694   20743018.5794   20743017.1404
       241.0004        204.0004
 -13015386.80749  -9881789.60849  21868781.6494   21868785.5984   21868781.7334
       232.0004        178.0004
   8307443.65249     35117.28449  25717855.6364
       184.0004         74.0004
 -20138665.42149 -15671491.23549  21124042.0224   21124043.2654   21124041.9494
       238.0004        197.0004
 -23708548.47649 -18156091.67149  20506412.5514   20506414.9554   20506412.1544
       241.0004        202.0004
  -7652155.64949  -5676350.77749  23410200.1844   23410202.8904   23410200.7274
       216.0004        153.0004
  -2342734.07349  -1807087.84049  24038964.0924   24038966.4154   24038963.9484
       207.0004        138.0004
 11 10 10  1  3 30.0000000  0  8G26G05G10G16G07G08G02G28
 -13515423.76549 -10508997.80449  21797742.4864   21797744.9904   21797742.3264
       229.0004        174.0004
 -22245886.43849 -17301622.56549  20738445.8274   20738447.3394   20738445.9824
       241.0004        204.0004
 -12926731.06749  -9812707.24049  21885652.7664   21885656.1164   21885651.4104
       231.0004        178.0004
   8399364.24459    106704.17859  25735348.5284
       174.0004        111.0004
 -20084790.70149 -15629510.94249  21134293.4504   21134295.7144   21134293.8144
       238.0004        197.0004
 -23719086.74649 -18164303.30049  20504406.4694   20504409.4214   20504406.5364
       240.0004        202.0004
  -7558247.33849  -5603175.47449  23428071.7614   23428071.8954   23428070.5034
       217.0004        152.0004
  -2439363.02449  -1882383.12049  24020576.8914   24020576.9994   24020577.5574
       204.0004        137.0004
 11 10 10  1  4  0.0000000  0  8G26G05G10G16G07G08G02G28
 -13602830.50549 -10577106.97049  21781109.8854   21781112.5264   21781110.3004
       228.0004        173.0004
 -22269372.73649 -17319923.59149  20733976.3634   20733978.5694   20733976.6534
       242.0004        204.0004
 -12837741.00549  -9743364.36349  21902586.3774   21902590.3974   21902585.4704
       229.0004        178.0004
   8491585.57259    178504.06559  25752896.8014
       172.0004        111.0004
 -20030488.39849 -15587197.46949  21144627.4474   21144628.9164   21144627.2874
       239.0004        197.0004
 -23729102.29749 -18172107.61549  20502500.9704   20502503.7694   20502500.2674
       241.0004        202.0004
  -7464110.17449  -5529821.83049  23445983.0984   23445985.9504   23445984.2084
       212.0004        149.0004
  -2535861.28249  -1957576.54349  24002213.2674   24002218.2204   24002211.9194
       203.0004        137.0004
 11 10 10  1  4 30.0000000  0  8G26G05G10G16G07G08G02G28
 -13689964.15249 -10645003.31949  21764529.9084   21764531.7984   21764530.4174
       230.0004        175.0004
 -22292322.81749 -17337806.78049  20729608.9874   20729610.7114   20729609.5294
       241.0004        204.0004
 -12748419.15649  -9673762.93249  21919584.0724   21919587.6024   21919583.8644
       231.0004        178.0004
   8584105.06449     29513.22149  25770503.6954
       177.0004         74.0004
 -19975760.79549 -15544552.58649  21155041.1894   21155043.2394   21155041.4474
       238.0004        197.0004
 -23738595.63249 -18179505.01949  20500694.2114   20500696.9704   20500694.0574
       241.0004        202.0004
  -7369747.33249  -5456292.35449  23463942.4114   23463943.0204   23463939.7524
       217.0004        151.0004
  -2632226.14249  -2032666.00949  23983875.2154   23983877.6674   23983874.5094
       204.0004        138.0004
 11 10 10  1  5  0.0000000  0  8G26G05G10G16G07G08G02G28
 -13776823.17149 -10712685.67049  21748000.5784   21748002.1874   21747999.8814
       229.0004        175.0004
 -22314735.31749 -17355271.07449  20725343.9884   20725346.1874   20725344.3784
       241.0004        204.0004
 -12658766.58549  -9603903.79949  21936646.3484   21936648.0424   21936644.4274
       232.0004        179.0004
   8676919.43459    101757.67059  25788165.5884
       173.0004        107.0004
 -19920609.66549 -15501577.67749  21165535.5954   21165537.8234   21165535.8624
       238.0004        196.0004
 -23747566.35249 -18186495.17749  20498987.3224   20498989.8064   20498986.6604
       241.0004        202.0004
  -7275161.60849  -5382589.18649  23481940.2914   23481942.4984   23481940.0144
       213.0004        152.0004
  -2728454.46849  -2107649.09449  23965563.0704   23965567.1514   23965562.6274
       208.0004        139.0004
 11 10 10  1  5 30.0000000  0  8G26G05G10G16G07G08G02G28
 -13863405.98449 -10780152.84149  21731523.0144   21731526.5664   21731523.7494
       227.0004        175.0004
 -22336609.03349 -17372315.53449  20721181.8284   20721183.7664   20721182.4004
       241.0004        204.0004
 -12568785.39349  -9533788.60049  21953767.1614   21953771.4394   21953767.7404
       230.0004        178.0004
   8770027.70859    174171.71459  25805880.4404
       167.0004        108.0004
 -19865036.93149 -15458274.25849  21176111.0804   21176112.9504   21176111.5394
       239.0004        197.0004
 -23756015.30849 -18193078.77149  20497379.5294   20497382.0064   20497379.5964
       241.0004        202.0004
  -7180356.50949  -5308715.11249  23499977.2844   23499982.5114   23499979.3354
       209.0004        149.0004
  -2824543.60749  -2182523.73649  23947278.6034   23947281.8954   23947278.5524
       207.0004        139.0004
 11 10 10  1  6  0.0000000  0  8G26G05G10G16G07G08G02G28
 -13949711.26849 -10847403.70649  21715100.9974   21715103.0064   21715099.7674
       229.0004        174.0004
 -22357943.15849 -17388939.53749  20717122.0634   20717123.9294   20717122.1324
       241.0004        204.0004
 -12478477.49149  -9463418.81949  21970951.7194   21970956.9174   21970952.4314
       230.0004        178.0004
   8863424.56859     24913.75759  25823657.2494
       166.0004         74.0004
 -19809044.90449 -15414644.10449  21186766.2774   21186768.0404   21186766.5634
       239.0004        197.0004
 -23763942.80449 -18199256.01349  20495871.2284   20495873.6174   20495870.3994
       240.0004        202.0004
  -7085335.27049  -5234672.57749  23518063.1214   23518064.2404   23518062.4674
       211.0004        149.0004
  -2920491.22349  -2257288.08749  23929020.1334   23929022.9334   23929020.6904
       205.0004        137.0004
 11 10 10  1  6 30.0000000  0  7G26G05G10G07G08G02G28
 -14035738.06749 -10914437.60049  21698729.5044   21698732.4574   21698729.9144
       228.0004        175.0004
 -22378736.56149 -17405142.19649  20713164.6884   20713166.7774   20713165.3494
       241.0004        204.0004
 -12387844.70849  -9392795.88949  21988200.2074   21988202.7074   21988198.5134
       231.0004        178.0004
 -19752635.15649 -15370688.46149  21197500.3964   21197502.4554   21197501.1314
       239.0004        197.0004
 -23771349.05149 -18205027.11349  20494461.0024   20494464.2444   20494460.8464
       240.0004        202.0004
  -6990101.15649  -5160464.18349  23536185.6394   23536186.0244   23536185.2784
       213.0004        149.0004
  -3016294.44049  -2331939.91849  23910790.9134   23910790.5274   23910790.5824
       211.0004        137.0004
 11 10 10  1  7  0.0000000  0  7G26G05G10G07G08G02G28
 -14121484.36649 -10981252.94549  21682412.9334   21682415.7384   21682413.2594
       229.0004        176.0004
 -22398987.40349 -17420922.08749  20709311.2444   20709313.3584   20709311.5534
       241.0004        204.0004
 -12296888.54649  -9321920.97349  22005507.9784   22005511.6104   22005507.3804
       231.0004        178.0004
 -19695809.38649 -15326408.63649  21208314.6064   21208316.1764   21208314.7634
       240.0004        197.0004
 -23778234.07149 -18210392.04549  20493151.1614   20493153.6434   20493150.9254
       241.0004        202.0004
  -6894656.79949  -5086091.95549  23554345.3734   23554349.7524   23554345.8324
       209.0004        148.0004
  -3111950.03549  -2406476.73249  23892588.9644   23892590.2194   23892587.1144
       211.0004        140.0004
 11 10 10  1  7 30.0000000  0  7G26G05G10G07G08G02G28
 -14206948.83849 -11047848.65949  21666148.5824   21666152.3914   21666149.7024
       227.0004        176.0004
 -22418694.65149 -17436278.38849  20705560.4764   20705563.4994   20705561.4884
       240.0004        204.0004
 -12205611.11549  -9250795.72149  22022877.2454   22022881.1524   22022876.2624
       229.0004        177.0004
 -19638569.73549 -15281806.29549  21219206.4954   21219208.8134   21219207.2954
       240.0004        196.0004
 -23784598.28249 -18215351.15949  20491940.1804   20491943.1594   20491940.1714
       241.0004        202.0004
  -6799005.72649  -5011558.67749  23572548.5904   23572550.9044   23572550.4634
       211.0004        148.0004
  -3207455.34549  -2480896.42549  23874412.4474   23874415.9904   23874412.6314
       203.0004        140.0004
 11 10 10  1  8  0.0000000  0  7G26G05G10G07G08G02G28
 -14292130.87749 -11114224.29449  21649940.3274   21649942.6994   21649939.4554
       228.0004        177.0004
 -22437858.47349 -17451211.25449  20701914.9534   20701916.3584   20701915.1134
       242.0004        205.0004
 -12114015.07549  -9179422.18249  22040307.1184   22040311.0614   22040307.0374
       230.0004        177.0004
 -19580919.06049 -15236883.68349  21230177.5064   21230178.9314   21230177.5814
       240.0004        196.0004
 -23790442.73549 -18219905.26149  20490827.9994   20490830.7794   20490827.6524
       240.0004        202.0004
  -6703151.61549  -4936867.14449  23590789.7284   23590792.1824   23590790.1954
       210.0004        146.0004
  -3302808.41749  -2555197.49649  23856267.5314   23856271.6094   23856266.8424
       208.0004        139.0004
 11 10 10  1  8 30.0000000  0  7G26G05G10G07G08G02G28
 -14377028.16849 -11180378.02749  21633783.8734   21633787.8544   21633784.7374
       227.0004        177.0004
 -22456476.59349 -17465718.88549  20698371.7304   20698373.5534   20698372.3974
       241.0004        205.0004
 -12022101.31749  -9107801.10849  22057799.9824   22057801.9674   22057798.0834
       232.0004        176.0004
 -19522858.23549 -15191641.48949  21241225.3724   21241227.6294   21241226.0374
       239.0004        195.0004
 -23795767.20349 -18224054.17649  20489814.5674   20489817.4314   20489814.4904
       240.0004        202.0004
  -6607096.84449  -4862019.26849  23609065.5274   23609068.8844   23609068.0704
       208.0004        145.0004
  -3398005.78949  -2629377.24149  23838152.7744   23838154.0724   23838151.6244
       205.0004        139.0004
 11 10 10  1  9  0.0000000  0  7G26G05G10G07G08G02G28
 -14461639.25249 -11246308.70849  21617683.7554   21617686.9004   21617683.5904
       229.0004        178.0004
 -22474547.83849 -17479800.38249  20694932.2144   20694934.7544   20694932.9354
       239.0004        205.0004
 -11929871.61949  -9035933.80649  22075348.9174   22075351.9044   22075348.7564
       230.0004        176.0004
 -19464389.05149 -15146081.08149  21252351.9944   21252353.8074   21252352.4244
       240.0004        195.0004
 -23800572.13449 -18227798.26549  20488899.9064   20488903.2174   20488900.3214
       240.0004        203.0004
  -6510844.20649  -4787017.24649  23627384.0204   23627385.4734   23627384.2384
       211.0004        147.0004
  -3493044.55849  -2703433.42449  23820068.5144   23820069.5974   23820067.8414
       208.0004        141.0004
 11 10 10  1  9 30.0000000  0  7G26G05G10G07G08G02G28
 -14545963.47849 -11312015.91049  21601636.9944   21601640.4164   21601637.3054
       228.0004        178.0004
 -22492071.91649 -17493455.52749  20691597.8064   20691600.3034   20691598.5824
       241.0004        205.0004
 -11837328.83949  -8963822.56649  22092959.0054   22092962.3404   22092958.7994
       230.0004        175.0004
 -19405514.43749 -15100204.77449  21263554.8654   21263557.2404   21263555.7274
       238.0004        195.0004
 -23804858.38749 -18231138.19449  20488085.2764   20488087.1734   20488084.6954
       241.0004        202.0004
  -6414398.37149  -4711864.64249  23645736.7654   23645739.8344   23645737.3344
       209.0004        145.0004
  -3587922.82949  -2777364.52149  23802014.0294   23802016.3654   23802012.4794
       212.0004        142.0004
 11 10 10  1 10  0.0000000  0  7G26G05G10G07G08G02G28
 -14629999.25849 -11377498.32549  21585646.3364   21585649.2874   21585646.2374
       231.0004        179.0004
 -22509047.48549 -17506683.25349  20688367.4754   20688369.6914   20688367.8904
       240.0004        205.0004
 -11744474.36349  -8891468.44249  22110629.0354   22110631.6434   22110628.5404
       230.0004        173.0004
 -19346236.04649 -15054013.83049  21274835.7584   21274837.4584   21274836.5884
       241.0004        196.0004
 -23808625.84849 -18234073.86549  20487367.0484   20487370.4384   20487367.4454
       239.0004        202.0004
  -6317761.53649  -4636563.20749  23664123.3744   23664129.8624   23664123.9014
       208.0004        143.0004
  -3682637.45349  -2851168.08849  23783989.1864   23783992.6704   23783989.0934
       208.0004        143.0004
 11 10 10  1 10 30.0000000  0  7G26G05G10G07G08G02G28
 -14713745.47849 -11442755.09549  21569709.1304   21569712.6194   21569709.5194
       230.0004        179.0004
 -22525473.71149 -17519482.92649  20685241.8964   20685244.0524   20685242.5744
       241.0004        205.0004
 -11651310.05949  -8818872.91149  22128357.2644   22128360.6884   22128356.5794
       228.0004        173.0004
 -19286556.06349 -15007509.95349  21286192.8154   21286194.3044   21286192.9204
       240.0004        195.0004
 -23811875.52249 -18236606.07449  20486749.6014   20486752.2964   20486749.2634
       240.0004        202.0004
  -6220937.51349  -4561115.95349  23682551.3354   23682552.9234   23682550.6734
       208.0004        145.0004
  -3777186.12749  -2924842.38849  23765995.0784   23765999.3044   23765996.0334
       211.0004        143.0004
 11 10 10  1 11  0.0000000  0  7G26G05G10G07G08G02G28
 -14797200.19249 -11507784.73049  21553827.9404   21553832.0864   21553827.8554
       230.0004        180.0004
 -22541349.14949 -17531853.40249  20682220.2434   20682223.1354   20682221.2524
       240.0004        205.0004
 -11557837.99349  -8746037.53049  22146144.4524   22146148.1704   22146143.7604
       228.0004        172.0004
 -19226476.11949 -14960694.42849  21297625.8914   21297626.7284   21297626.1374
       238.0004        195.0004
 -23814607.61849 -18238734.97449  20486229.5374   20486232.0844   20486229.4774
       241.0004        202.0004
  -6123928.95449  -4485524.87049  23701013.0944   23701013.7014   23701012.4014
       213.0004        146.0004
  -3871565.79349  -2998385.00849  23748039.1264   23748038.9844   23748038.4594
       213.0004        144.0004
 11 10 10  1 11 30.0000000  0  7G26G05G10G07G08G02G28
 -14880361.79249 -11572586.00149  21538003.6934   21538006.9944   21538004.3434
       231.0004        179.0004
 -22556672.51849 -17543793.69149  20679304.7624   20679307.0914   20679305.0704
       240.0004        205.0004
 -11464059.52249  -8672963.41349  22163989.6074   22163993.2374   22163988.4464
       227.0004        171.0004
 -19165998.05749 -14913568.65249  21309133.8464   21309135.9864   21309134.4814
       237.0004        195.0004
 -23816821.82549 -18240460.31249  20485808.4654   20485811.0664   20485808.2244
       241.0004        202.0004
  -6026738.50649  -4409792.05149  23719506.4584   23719510.9204   23719506.0694
       206.0004        144.0004
  -3965772.69249  -3071792.93949  23730112.1354   23730112.6784   23730110.3394
       213.0004        146.0004
 11 10 10  1 12  0.0000000  0  8G26G05G10G07G08G02G15G28
 -14963229.49749 -11637158.26649  21522234.4254   21522237.6524   21522235.0154
       232.0004        180.0004
 -22571443.68549 -17555303.70349  20676493.6744   20676495.8884   20676494.2014
       240.0004        205.0004
 -11369977.10849  -8599652.46449  22181893.2754   22181896.9194   22181893.2704
       228.0004        172.0004
 -19105123.71749 -14866134.11549  21320718.0914   21320719.4494   21320718.4854
       237.0004        194.0004
 -23818519.63949 -18241783.26749  20485485.1334   20485488.0154   20485485.0944
       241.0004        202.0004
  -5929370.11249  -4333920.59249  23738038.0394   23738035.2304   23738036.1124
       210.0004        144.0004
    -63621.57649    -36825.74549  25012775.8844
       206.0004         74.0004
  -4059805.07049  -3145064.90349  23712218.2124   23712218.9974   23712216.5764
       215.0004        145.0004
 11 10 10  1 12 30.0000000  0  7G26G05G10G07G08G02G28
 -15045801.78149 -11701500.30349  21506520.7814   21506524.5584   21506521.4514
       231.0004        180.0004
 -22585661.74249 -17566382.71449  20673788.4474   20673790.6144   20673788.8654
       241.0004        206.0004
 -11275592.42649  -8526105.98249  22199854.2034   22199858.0644   22199853.2874
       227.0004        171.0004
 -19043855.61749 -14818392.74749  21332377.0324   21332378.5614   21332377.0834
       236.0004        194.0004
 -23819701.34149 -18242704.05549  20485260.2914   20485262.9184   20485260.0044
       241.0004        202.0004
  -5831827.10349  -4257913.03249  23756595.9704   23756598.4824   23756596.2884
       210.0004        147.0004
  -4153660.59349  -3218199.06949  23694357.5434   23694359.0284   23694357.2364
       214.0004        146.0004
 11 10 10  1 13  0.0000000  0  7G26G05G10G07G08G02G28
 -15128077.13049 -11765610.96749  21490866.2984   21490868.2954   21490865.7154
       234.0004        181.0004
 -22599325.29049 -17577029.64149  20671188.7554   20671190.6744   20671188.9894
       240.0004        206.0004
 -11180907.63549  -8452325.63449  22217870.6894   22217875.2474   22217870.8364
       225.0004        171.0004
 -18982196.08049 -14770346.36349  21344109.8474   21344112.3964   21344110.1654
       236.0004        194.0004
 -23820367.24949 -18243222.92349  20485133.8274   20485136.4424   20485133.2534
       241.0004        202.0004
  -5734112.42749  -4181771.77449  23775191.4024   23775193.5634   23775191.7874
       211.0004        145.0004
  -4247335.83449  -3291192.76549  23676529.1164   23676533.2534   23676530.4914
       212.0004        147.0004
 11 10 10  1 13 30.0000000  0  7G26G05G10G07G08G02G28
 -15210054.33549 -11829489.30749  21475265.5614   21475267.7374   21475265.7784
       232.0004        180.0004
 -22612433.46349 -17587243.81549  20668693.3694   20668696.4134   20668693.9374
       240.0004        205.0004
 -11085924.62549  -8378312.89649  22235946.4684   22235950.2444   22235945.8064
       225.0004        171.0004
 -18920146.45849 -14721996.02549  21355917.1834   21355919.9404   21355917.8344
       235.0004        194.0004
 -23820518.30749 -18243340.61749  20485104.7364   20485107.7784   20485104.4864
       241.0004        202.0004
  -5636229.02749  -4105499.00349  23793820.9284   23793819.3004   23793819.3984
       211.0004        145.0004
  -4340828.27749  -3364043.99249  23658739.5224   23658741.8894   23658739.7084
       212.0004        146.0004
 11 10 10  1 14  0.0000000  0  7G26G05G10G07G08G02G28
 -15291731.79449 -11893134.10249  21459722.3554   21459724.7344   21459723.3284
       233.0004        181.0004
 -22624985.12649 -17597024.34649  20666305.8464   20666307.7144   20666305.9744
       241.0004        206.0004
 -10990645.48649  -8304069.43249  22254078.2704   22254081.3024   22254077.0114
       227.0004        171.0004
 -18857709.08049 -14673343.55049  21367798.7504   21367801.5944   21367799.5084
       235.0004        193.0004
 -23820154.77849 -18243057.33149  20485174.1994   20485176.6464   20485173.7464
       242.0004        202.0004
  -5538180.23249  -4029097.34049  23812475.7514   23812480.0214   23812476.5524
       209.0004        147.0004
  -4434135.29949  -3436750.74349  23640985.4534   23640986.5774   23640983.9364
       215.0004        147.0004
 11 10 10  1 14 30.0000000  0  7G26G05G10G07G08G02G28
 -15373108.05149 -11956544.16849  21444237.5174   21444239.8004   21444237.4014
       232.0004        180.0004
 -22636979.74049 -17606370.79449  20664022.4304   20664025.3244   20664023.5914
       240.0004        205.0004
 -10895071.95049  -8229596.55249  22272264.4134   22272268.7024   22272264.5174
       226.0004        171.0004
 -18794885.60349 -14624390.20449  21379754.8534   21379756.2874   21379754.5354
       236.0004        195.0004
 -23819276.93549 -18242373.28249  20485340.4954   20485343.6154   20485340.5654
       241.0004        202.0004
  -5439968.92849  -3952569.05649  23831167.1554   23831166.2674   23831165.6364
       211.0004        146.0004
  -4527254.06449  -3509310.80849  23623265.0354   23623266.8644   23623264.2344
       212.0004        145.0004
 11 10 10  1 15  0.0000000  0  7G26G05G10G07G08G02G28
 -15454181.65249 -12019718.40749  21428809.3864   21428811.6384   21428810.4974
       233.0004        180.0004
 -22648416.36949 -17615282.45549  20661846.3224   20661849.2994   20661846.8344
       240.0004        205.0004
 -10799205.61349  -8154895.52149  22290506.2094   22290511.3034   22290505.3174
       224.0004        170.0004
 -18731678.15049 -14575137.66549  21391782.3644   21391784.1224   21391782.9134
       236.0004        194.0004
 -23817885.47849 -18241289.01849  20485605.7034   20485608.3834   20485605.4864
       241.0004        202.0004
  -5341598.50949  -3875916.81749  23849886.7904   23849884.0674   23849886.5074
       212.0004        145.0004
  -4620181.83849  -3581722.04249  23605578.9474   23605583.3264   23605581.2144
       210.0004        144.0004
 11 10 10  1 15 30.0000000  0  7G26G05G10G07G08G02G28
 -15534951.60649 -12082656.01649  21413439.6094   21413441.9644   21413439.2044
       233.0004        180.0004
 -22659294.39549 -17623758.84749  20659777.2604   20659778.9074   20659777.5384
       241.0004        206.0004
 -10703049.09949  -8079968.40149  22308804.7584   22308808.8934   22308804.4684
       226.0004        170.0004
 -18668089.03349 -14525587.71549  21403882.6714   21403884.5914   21403883.0374
       236.0004        194.0004
 -23815981.41849 -18239805.32549  20485967.7054   20485970.8014   20485967.4654
       240.0004        202.0004
  -5243072.62649  -3799143.37149  23868633.8794   23868636.0544   23868633.4064
       212.0004        146.0004
  -4712916.25349  -3653982.60449  23587932.2344   23587935.0034   23587933.3034
       210.0004        146.0004
 11 10 10  1 16  0.0000000  0  8G26G05G10G07G08G02G15G28
 -15615416.28949 -12145355.77549  21398127.7114   21398130.1134   21398128.2514
       233.0004        181.0004
 -22669612.76749 -17631799.13049  20657812.8784   20657815.3794   20657812.9794
       240.0004        206.0004
 -10606604.30549  -8004816.62649  22327158.6054   22327161.3154   22327157.7924
       229.0004        171.0004
 -18604120.34649 -14475741.99049  21416055.4754   21416058.1824   21416056.0784
       237.0004        194.0004
 -23813565.35149 -18237922.65949  20486427.6244   20486430.4424   20486427.1334
       241.0004        202.0004
  -5144394.00949  -3722250.96149  23887409.0654   23887410.5304   23887410.2554
       204.0004        141.0004
    -31499.29849     -5783.32749  24861914.2694
       208.0004         74.0004
  -4805454.27249  -3726090.16849  23570324.7744   23570326.3664   23570324.2294
       213.0004        147.0004
 11 10 10  1 16 30.0000000  0  8G26G05G10G07G08G02G15G28
 -15695574.60049 -12207816.79049  21382874.6034   21382876.4134   21382874.7154
       233.0004        180.0004
 -22679371.14349 -17639403.07049  20655956.2324   20655958.4154   20655956.6324
       240.0004        205.0004
 -10509872.91149  -7929441.52849  22345566.3484   22345568.8504   22345565.7494
       229.0004        171.0004
 -18539774.06449 -14425602.04549  21428300.8304   21428302.3514   21428301.0304
       237.0004        194.0004
 -23810637.64349 -18235641.31949  20486985.1514   20486987.1404   20486984.4904
       241.0004        202.0004
  -5045566.01749  -3645242.14149  23906219.4694   23906220.7264   23906218.5634
       209.0004        144.0004
   -130421.81749    -82865.97749  24843088.6984
       204.0004        127.0004
  -4897793.43049  -3798042.71949  23552753.5404   23552754.2554   23552752.1924
       212.0004        146.0004
 11 10 10  1 17  0.0000000  0  8G26G05G10G07G08G02G15G28
 -15775424.20949 -12270037.25549  21367678.8034   21367681.5704   21367678.6464
       231.0004        180.0004
 -22688567.65949 -17646569.18249  20654205.5374   20654208.6134   20654206.4214
       240.0004        206.0004
 -10412856.55349  -7853844.37249  22364026.7194   22364031.2534   22364026.6104
       226.0004        170.0004
 -18475051.37249 -14375168.78249  21440616.8174   21440618.8434   21440617.3694
       237.0004        194.0004
 -23807198.18749 -18232961.20749  20487639.0354   20487641.9604   20487638.9674
       241.0004        202.0004
  -4946591.04149  -3568118.80349  23925052.0904   23925053.8214   23925050.6154
       204.0004        144.0004
   -229301.95849   -159915.36949  24824273.0914   24824267.2114
       201.0004        132.0004
  -4989930.17349  -3869837.58749  23535221.2604   23535222.6094   23535219.3974
       212.0004        146.0004
 11 10 10  1 17 30.0000000  0  8G26G05G10G07G08G02G15G28
 -15854964.92049 -12332017.05149  21352542.7074   21352545.7364   21352543.5474
       231.0004        181.0004
 -22697202.72249 -17653297.81149  20652563.5164   20652565.3294   20652563.6024
       241.0004        206.0004
 -10315558.47649  -7778027.70849  22382541.8694   22382546.5424   22382542.2914
       229.0004        171.0004
 -18409955.65249 -14324444.85449  21453004.6114   21453006.0424   21453004.6834
       238.0004        193.0004
 -23803249.31649 -18229884.15549  20488390.6014   20488393.3544   20488390.1634
       240.0004        202.0004
  -4847473.24049  -3490884.18749  23943914.8344   23943914.4624   23943914.1534
       213.0004        142.0004
   -328140.30349   -236932.12749  24805462.0754   24805467.0224   24805463.0694
       198.0004        133.0004
  -5081863.20149  -3941473.69449  23517724.7904   23517728.5534   23517724.4064
       210.0004        144.0004
 11 10 10  1 18  0.0000000  0  8G26G05G10G07G08G02G15G28
 -15934194.56049 -12393754.44949  21337466.1404   21337468.3624   21337466.4164
       232.0004        181.0004
 -22705274.77249 -17659587.72549  20651026.5514   20651029.1254   20651027.3424
       239.0004        205.0004
 -10217979.50249  -7701992.14749  22401112.6504   22401114.7254   22401111.3004
       230.0004        170.0004
 -18344487.90349 -14273431.03749  21465461.6094   21465464.0394   21465462.2314
       237.0004        193.0004
 -23798790.31249 -18226409.59249  20489239.2774   20489242.0464   20489239.0454
       241.0004        202.0004
  -4748215.06949  -3413540.11549  23962801.0614   23962804.6904   23962800.6594
       206.0004        141.0004
   -426934.75149   -313914.73549  24786665.1304   24786665.9444   24786664.3284
       203.0004        136.0004
  -5173588.57149  -4012948.01049  23500269.5134   23500272.6224   23500269.4134
       210.0004        145.0004
 11 10 10  1 18 30.0000000  0  8G26G05G10G07G08G02G15G28
 -16013112.22249 -12455248.71749  21322448.4464   21322451.1614   21322448.7944
       232.0004        181.0004
 -22712783.71449 -17665438.84749  20649597.5224   20649600.1834   20649598.4384
       240.0004        205.0004
 -10120121.98349  -7625739.56549  22419734.2114   22419736.5314   22419732.7654
       230.0004        171.0004
 -18278651.14149 -14222129.67649  21477990.7284   21477992.2814   21477991.0824
       237.0004        193.0004
 -23793822.64149 -18222538.65949  20490184.5734   20490187.4294   20490184.0624
       240.0004        202.0004
  -4648820.47049  -3336089.84249  23981715.6004   23981716.1694   23981718.3024
       213.0004        143.0004
   -525685.03249   -390862.97049  24767873.2674   24767873.7314   24767874.5154
       206.0004        135.0004
  -5265104.45549  -4084259.09149  23482855.5054   23482856.1234   23482854.2314
       209.0004        143.0004
 11 10 10  1 19  0.0000000  0  8G26G05G10G07G08G02G15G28
 -16091716.24449 -12516498.57149  21307489.6584   21307493.2714   21307490.2034
       231.0004        181.0004
 -22719728.51349 -17670850.38649  20648276.8424   20648278.4834   20648276.9594
       240.0004        205.0004
 -10021987.92549  -7549271.47649  22438405.7044   22438410.4934   22438406.2024
       225.0004        169.0004
 -18212446.53349 -14170541.67849  21490588.7434   21490590.7524   21490589.0824
       237.0004        193.0004
 -23788346.43849 -18218271.47549  20491226.5404   20491228.9874   20491226.4234
       241.0004        202.0004
  -4549292.04249  -3258535.20149  24000657.8114   24000659.0464   24000656.4234
       209.0004        144.0004
   -624390.14049   -467775.91049  24749089.1594   24749090.4744   24749089.9214
       205.0004        137.0004
  -5356407.79049  -4155404.52249  23465481.4954   23465484.4074   23465479.8384
       210.0004        145.0004
 11 10 10  1 19 30.0000000  0  8G26G05G10G07G08G02G15G28
 -16170005.34849 -12577503.06249  21292592.5534   21292595.1404   21292592.4184
       231.0004        182.0004
 -22726108.42149 -17675821.74449  20647061.4944   20647064.5054   20647062.2804
       240.0004        205.0004
  -9923579.13949  -7472589.32449  22457132.0204   22457136.8474   22457132.7754
       227.0004        169.0004
 -18145876.40349 -14118668.86649  21503256.5314   21503258.9454   21503257.3704
       238.0004        193.0004
 -23782362.94749 -18213609.00349  20492365.7094   20492368.0344   20492365.1874
       241.0004        203.0004
  -4449633.05149  -3180878.87949  24019621.1184   24019620.7544   24019620.5124
       203.0004        136.0004
   -723049.45449   -544653.21549  24730315.4064   24730317.3784   24730315.5654
       202.0004        138.0004
  -5447495.98349  -4226382.33049  23448148.2884   23448150.4414   23448147.0464
       212.0004        147.0004
 11 10 10  1 20  0.0000000  0  8G26G05G10G07G08G02G15G28
 -16247977.78749 -12638260.78649  21277753.8104   21277757.7714   21277754.8734
       233.0004        182.0004
 -22731922.97149 -17680352.57049  20645955.7534   20645958.2934   20645956.3614
       240.0004        205.0004
  -9824897.70349  -7395694.71049  22475913.5094   22475915.0314   22475911.8724
       228.0004        168.0004
 -18078942.62549 -14066512.68649  21515994.5184   21515995.6144   21515994.6094
       239.0004        192.0004
 -23775872.68549 -18208551.64649  20493600.2494   20493603.0674   20493600.0174
       241.0004        201.0004
  -4349846.17349  -3103122.84749  24038607.6784   24038608.4104   24038608.1364
       208.0004        138.0004
   -821661.55649   -621493.65649  24711548.4624   24711550.5164   24711550.2164
       201.0004        136.0004
  -5538366.27249  -4297190.35449  23430855.2034   23430857.5424   23430855.0864
       211.0004        147.0004
 11 10 10  1 20 30.0000000  0  8G26G05G10G07G08G02G15G28
 -16325632.68549 -12698771.12549  21262978.2054   21262980.1984   21262978.1224
       234.0004        183.0004
 -22737171.46049 -17684442.31649  20644958.0914   20644959.5354   20644957.8244
       240.0004        206.0004
  -9725946.08249  -7318589.57849  22494743.4434   22494745.8424   22494741.5274
       225.0004        166.0004
 -18011647.94249 -14014075.29149  21528799.8184   21528801.6634   21528800.2854
       237.0004        192.0004
 -23768876.63149 -18203100.16749  20494931.8054   20494934.4894   20494931.6114
       242.0004        202.0004
  -4249935.13649  -3025270.08749  24057624.2344   24057623.9724   24057623.8494
       210.0004        143.0004
   -920226.27549   -698297.31149  24692794.4284   24692794.9984   24692793.7134
       205.0004        137.0004
  -5629015.85449  -4367826.38949  23413605.2434   23413607.2944   23413606.1064
       212.0004        148.0004
 11 10 10  1 21  0.0000000  0  8G26G05G10G07G08G02G15G28
 -16402968.85649 -12759033.09549  21248261.3024   21248264.0854   21248261.0054
       234.0004        184.0004
 -22741853.53349 -17688090.68949  20644065.0434   20644068.8644   20644066.1004
       239.0004        205.0004
  -9626726.44049  -7241275.57549  22513623.6174   22513627.1864   22513622.9784
       225.0004        168.0004
 -17943994.16549 -13961358.06949  21541673.9364   21541675.4114   21541674.4864
       238.0004        191.0004
 -23761375.63949 -18197255.23049  20496359.0254   20496361.8614   20496358.6864
       241.0004        202.0004
  -4149903.75749  -2947323.59149  24076658.3034   24076657.1034   24076656.9584
       205.0004        137.0004
  -1018742.65849   -775063.34049  24674045.8794   24674046.3264   24674045.5144
       199.0004        135.0004
  -5719442.47549  -4438288.67649  23396396.6644   23396401.6144   23396397.5004
       212.0004        150.0004
 11 10 10  1 21 30.0000000  0  8G26G05G10G07G08G02G15G28
 -16479984.01349 -12819044.90349  21233604.8794   21233608.3814   21233605.3784
       233.0004        184.0004
 -22745967.88149 -17691296.68749  20643283.3734   20643285.2464   20643283.5924
       239.0004        204.0004
  -9527239.84949  -7163753.57249  22532554.5844   22532558.0314   22532554.5844
       225.0004        167.0004
 -17875982.47449 -13908361.94549  21554616.1054   21554617.6964   21554615.7194
       236.0004        190.0004
 -23753369.62649 -18191016.76749  20497882.9114   20497884.8844   20497882.5134
       242.0004        203.0004
  -4049753.73649  -2869284.64149  24095715.1104   24095715.9394   24095714.8324
       208.0004        140.0004
  -1117208.98649   -851790.21349  24655309.4934   24655308.9874   24655310.5454
       203.0004        136.0004
  -5809642.77649  -4508574.60449  23379233.1384   23379235.9274   23379231.3514
       215.0004        147.0004
 11 10 10  1 22  0.0000000  0  8G26G05G10G07G08G02G15G28
 -16556677.07649 -12878805.69949  21219012.0674   21219014.4084   21219012.0704
       235.0004        185.0004
 -22749513.91349 -17694059.83849  20642608.3494   20642610.5354   20642609.0184
       240.0004        205.0004
  -9427488.65449  -7086025.39149  22551536.7104   22551540.8564   22551536.1174
       225.0004        168.0004
 -17807615.60649 -13855089.08449  21567625.7574   21567627.9314   21567626.0794
       237.0004        190.0004
 -23744859.85849 -18184385.76349  20499501.7154   20499504.6824   20499501.8044
       242.0004        202.0004
  -3949488.63449  -2791155.96949  24114794.3764   24114797.4494   24114793.2674
       206.0004        138.0004
  -1215624.86749   -928477.77749  24636579.2134   24636582.0994   24636580.2994
       201.0004        139.0004
  -5899614.50349  -4578682.44649  23362112.9704   23362114.4554   23362112.4534
       219.0004        149.0004
 11 10 10  1 22 30.0000000  0  8G26G05G10G07G08G02G15G28
 -16633046.85849 -12938314.59749  21204478.7854   21204481.5964   21204478.7454
       234.0004        184.0004
 -22752491.67349 -17696380.18349  20642042.1764   20642044.1144   20642041.8814
       240.0004        205.0004
  -9327475.40249  -7008093.00349  22570569.4354   22570572.1884   22570567.9634
       223.0004        165.0004
 -17738895.64249 -13801541.06049  21580702.8104   21580704.3684   21580703.3844
       238.0004        190.0004
 -23735847.19149 -18177362.88949  20501217.6454   20501219.2484   20501217.0524
       242.0004        202.0004
  -3849111.91249  -2712940.32949  24133896.5164   24133896.6244   24133896.5374
       206.0004        137.0004
  -1313989.53549  -1005125.55749  24617863.9004   24617863.6734   24617863.6384
       210.0004        140.0004
  -5989354.98749  -4648610.07349  23345035.4254   23345037.8594   23345033.4634
       216.0004        152.0004
 11 10 10  1 23  0.0000000  0  8G26G05G10G07G08G02G15G28
 -16709091.40149 -12997570.04349  21190007.9894   21190011.3634   21190008.2144
       233.0004        185.0004
 -22754900.22649 -17698256.98849  20641583.0694   20641585.7624   20641583.8474
       240.0004        205.0004
  -9227201.48549  -6929957.49649  22589650.7914   22589654.0864   22589650.7524
       224.0004        165.0004
 -17669823.99849 -13747718.99349  21593846.9444   21593847.9594   21593847.4714
       236.0004        190.0004
 -23726332.28749 -18169948.65849  20503027.1314   20503029.8524   20503027.2894
       241.0004        202.0004
  -3748626.36949  -2634639.95449  24153017.0234   24153020.3954   24153016.2054
       206.0004        140.0004
  -1412301.60049  -1081732.38449  24599153.9404   24599152.9704   24599153.5144
       202.0004        134.0004
  -6078861.20649  -4718355.18149  23328001.5734   23328005.5524   23328002.3104
       216.0004        153.0004
 11 10 10  1 23 30.0000000  0  8G26G05G10G07G08G02G15G28
 -16784810.13449 -13056571.60449  21175599.4674   21175601.2664   21175600.0924
       234.0004        185.0004
 -22756739.34349 -17699690.06749  20641233.2704   20641236.1134   20641233.9014
       241.0004        205.0004
  -9126669.24849  -6851620.69449  22608779.8534   22608783.9954   22608779.3414
       219.0004        165.0004
 -17600403.75449 -13693625.31149  21607056.2644   21607058.5954   21607057.1084
       234.0004        189.0004
 -23716316.17049 -18162143.87549  20504933.5524   20504936.5264   20504933.0354
       241.0004        202.0004
  -3648035.63249  -2556257.61449  24172159.9404   24172161.1864   24172160.4534
       210.0004        143.0004
  -1510560.78849  -1158297.94049  24580457.6034   24580455.4794   24580457.3474
       210.0004        139.0004
  -6168131.01749  -4787916.08149  23311014.6624   23311017.1284   23311015.0094
       216.0004        152.0004
 11 10 10  1 24  0.0000000  0  8G26G05G10G07G08G02G15G28
 -16860201.28249 -13115317.93849  21161252.8664   21161255.3714   21161252.2314
       234.0004        185.0004
 -22758008.21949 -17700678.81249  20640992.4224   20640994.3604   20640992.8064
       240.0004        205.0004
  -9025880.24349  -6773083.84249  22627960.4394   22627963.3284   22627959.6194
       222.0004        162.0004
 -17530636.28349 -13639261.05349  21620333.3934   21620334.8554   21620334.0624
       235.0004        189.0004
 -23705799.42949 -18153948.99349  20506935.0814   20506937.1654   20506934.9444
       242.0004        202.0004
  -3547342.16149  -2477795.13249  24191319.2904   24191320.5644   24191319.3874
       204.0004        134.0004
  -1608765.64949  -1234821.09849  24561768.3014   24561769.3614   24561768.0574
       208.0004        143.0004
  -6257161.40749  -4857290.41849  23294074.6674   23294076.5404   23294072.4354
       218.0004        153.0004
 11 10 10  1 24 30.0000000  0  8G26G05G10G07G08G02G15G28
 -16935263.74949 -13173808.19849  21146968.6944   21146970.5944   21146968.8354
       234.0004        184.0004
 -22758706.55249 -17701222.97149  20640858.4444   20640861.2544   20640859.3394
       238.0004        205.0004
  -8924837.15349  -6694348.98949  22647189.6534   22647191.2614   22647187.3854
       224.0004        162.0004
 -17460524.09849 -13584628.18649  21633675.5184   21633677.7754   21633675.9694
       235.0004        191.0004
 -23694783.15449 -18145364.85349  20509031.7624   20509033.7344   20509031.0034
       242.0004        202.0004
  -3446549.52349  -2399255.35149  24210504.0464   24210503.0204   24210503.2094
       202.0004        132.0004
  -1706915.68749  -1311301.63649  24543090.2904   24543090.3134   24543090.3254
       204.0004        137.0004
  -6345949.86549  -4926476.21049  23277177.4194   23277181.1314   23277176.6874
       216.0004        153.0004
 11 10 10  1 25  0.0000000  0  8G26G05G10G07G08G02G15G28
 -17009995.89449 -13232041.05649  21132747.8074   21132750.0384   21132747.2504
       234.0004        185.0004
 -22758833.46949 -17701321.87349  20640835.1644   20640837.4224   20640835.6444
       240.0004        205.0004
  -8823541.97249  -6615417.67249  22666465.3024   22666468.3914   22666464.5114
       222.0004        163.0004
 -17390068.77149 -13529727.94049  21647082.8684   21647084.1454   21647082.5954
       235.0004        188.0004
 -23683268.31349 -18136392.22449  20511221.8824   20511224.8864   20511221.7684
       241.0004        202.0004
  -3345660.50649  -2320640.60049  24229699.5824   24229701.2304   24229699.1714
       206.0004        141.0004
  -1805009.81449  -1387738.64049  24524424.2114   24524424.1054   24524424.6154
       207.0004        139.0004
  -6434493.52749  -4995471.29349  23260326.8594   23260329.8094   23260328.3864
       213.0004        153.0004
 11 10 10  1 25 30.0000000  0  8G26G05G10G07G08G02G15G28
 -17084396.39049 -13290015.47049  21118588.7884   21118592.2814   21118589.8794
       234.0004        184.0004
 -22758388.99749 -17700975.54049  20640920.7624   20640921.5564   20640920.4054
       241.0004        205.0004
  -8721996.74349  -6536291.54249  22685786.5894   22685791.8274   22685786.5824
       223.0004        163.0004
 -17319272.97749 -13474562.41149  21660554.5204   21660555.6374   21660554.3914
       234.0004        188.0004
 -23671255.95549 -18127031.90949  20513508.1874   20513510.9204   20513507.5554
       242.0004        202.0004
  -3244678.80349  -2241953.58549  24248916.1104   24248917.0134   24248915.9804
       211.0004        148.0004
  -1903047.37549  -1464131.44049  24505768.3014   24505769.1884   24505770.0944
       206.0004        142.0004
  -6522790.29849  -5064273.95449  23243525.1804   23243529.5884   23243526.6374
       216.0004        153.0004
 11 10 10  1 26  0.0000000  0  8G26G05G10G07G08G02G15G28
 -17158463.26649 -13347729.86149  21104495.5134   21104497.7934   21104495.0674
       235.0004        184.0004
 -22757372.40349 -17700183.38549  20641112.1814   20641114.9964   20641113.0174
       240.0004        205.0004
  -8620203.14149  -6456971.87749  22705158.3604   22705161.0554   22705157.1574
       224.0004        163.0004
 -17248137.93349 -13419132.51249  21674091.2094   21674092.6344   21674090.8534
       235.0004        190.0004
 -23658746.32449 -18117284.12549  20515889.1384   20515891.1744   20515888.8674
       242.0004        202.0004
  -3143606.43249  -2163195.91949  24268149.0174   24268145.7644   24268146.8334
       199.0004        125.0004
  -2001026.91949  -1540479.06449  24487123.4794   24487124.3164   24487124.2654
       206.0004        142.0004
  -6610836.69349  -5132881.51849  23226771.5254   23226773.8164   23226771.4744
       216.0004        152.0004
 11 10 10  1 26 30.0000000  0  8G26G05G10G07G08G02G15G28
 -17232195.76249 -13405183.72149  21090464.1644   21090467.0924   21090464.9404
       235.0004        186.0004
 -22755783.38549 -17698945.20349  20641415.9914   20641417.7114   20641416.2254
       240.0004        205.0004
  -8518163.58149  -6377460.54149  22724576.7564   22724579.3864   22724576.4784
       225.0004        164.0004
 -17176666.26049 -13363440.29749  21687691.5594   21687693.5304   21687692.2714
       235.0004        189.0004
 -23645740.63449 -18107149.80749  20518364.1634   20518366.0344   20518363.7184
       243.0004        202.0004
  -3042447.50349  -2084370.68549  24287402.8124   24287396.8934   24287399.6494
       205.0004        130.0004
  -2098947.97949  -1616781.16349  24468489.2204   24468492.3054   24468489.0964
       205.0004        137.0004
  -6698630.77349  -5201292.48449  23210064.9554   23210066.6394   23210064.4724
       214.0004        153.0004
 11 10 10  1 27  0.0000000  0  8G26G05G10G07G08G02G15G28
 -17305592.10049 -13462375.66149  21076497.4964   21076500.7304   21076497.9334
       235.0004        187.0004
 -22753621.39249 -17697260.53149  20641826.4764   20641829.5854   20641827.4384
       240.0004        205.0004
  -8415879.60249  -6297758.75749  22744040.2194   22744043.6194   22744038.8574
       224.0004        164.0004
 -17104859.62049 -13307487.08649  21701355.8314   21701357.6814   21701356.3544
       235.0004        189.0004
 -23632239.57649 -18096629.48849  20520932.8074   20520935.2604   20520932.7764
       243.0004        203.0004
  -2941204.85249  -2005480.28049  24306664.0434   24306668.3344   24306665.4284
       213.0004        149.0004
  -2196809.07549  -1693036.69449  24449865.4954   24449867.7284   24449867.1294
       204.0004        138.0004
  -6786169.35449  -5269504.37549  23193405.3544   23193409.1304   23193404.9654
       214.0004        152.0004
 11 10 10  1 27 30.0000000  0  8G26G05G10G07G08G02G15G28
 -17378651.53549 -13519305.08449  21062594.8794   21062597.6424   21062595.2304
       236.0004        188.0004
 -22750886.70749 -17695129.60549  20642347.1154   20642349.5754   20642347.3874
       239.0004        204.0004
  -8313354.04449  -6217868.72549  22763548.6274   22763552.8724   22763549.1464
       223.0004        164.0004
 -17032720.87949 -13251275.08449  21715083.5554   21715084.9894   21715084.0324
       236.0004        189.0004
 -23618244.69249 -18085724.36549  20523595.7734   20523598.2114   20523595.5454
       242.0004        203.0004
  -2839881.82549  -1926527.30249  24325947.2024   24325948.3844   24325947.3644
       205.0004        145.0004
  -2294610.04149  -1769245.25449  24431257.1554   24431256.7964   24431257.1884
       208.0004        140.0004
  -6873450.45249  -5337515.61949  23176798.6954   23176799.9754   23176797.1454
       216.0004        155.0004
 11 10 10  1 28  0.0000000  0  8G26G05G10G07G08G02G15G28
 -17451372.37649 -13575970.65249  21048757.3214   21048758.5634   21048757.1474
       237.0004        188.0004
 -22747578.43249 -17692551.73149  20642976.5154   20642979.2724   20642976.8234
       240.0004        204.0004
  -8210588.53749  -6137791.70949  22783106.2104   22783108.3454   22783104.1074
       226.0004        164.0004
 -16960251.53649 -13194805.47649  21728874.2584   21728875.2374   21728874.2334
       236.0004        189.0004
 -23603756.69549 -18074435.00349  20526353.0864   20526355.1064   20526352.8234
       243.0004        203.0004
  -2738481.47149  -1847514.15949  24345239.1214   24345244.0024   24345237.9084
       192.0004        126.0004
  -2392349.43949  -1845405.72549  24412656.1604   24412656.7904   24412657.2084
       205.0004        142.0004
  -6960471.28949  -5405324.04049  23160238.9824   23160239.4054   23160237.6434
       216.0004        152.0004
 11 10 10  1 28 30.0000000  0  8G26G05G10G07G08G02G15G28
 -17523753.02349 -13632371.09549  21034983.3294   21034985.3814   21034983.2644
       236.0004        187.0004
 -22743696.16049 -17689526.57749  20643715.3814   20643717.8854   20643715.9094
       240.0004        205.0004
  -8107585.24449  -6057529.41749  22802707.2994   22802710.6494   22802705.2454
       222.0004        164.0004
 -16887453.80649 -13138079.96949  21742727.0484   21742728.7444   21742727.5384
       237.0004        189.0004
 -23588776.09749 -18062761.79149  20529203.0374   20529206.1024   20529203.2904
       242.0004        202.0004
  -2637006.77149  -1768442.86649  24364553.6354   24364546.2414   24364553.2484
       215.0004        132.0004
  -2490026.58349  -1921517.73849  24394069.2924   24394070.6434   24394070.1294
       207.0004        139.0004
  -7047229.13749  -5472927.54349  23143726.8884   23143731.3184   23143727.0684
       214.0004        153.0004
 11 10 10  1 29  0.0000000  0  8G26G05G10G07G08G02G15G28
 -17595792.19949 -13688505.47049  21021273.8354   21021277.1364   21021273.9904
       235.0004        188.0004
 -22739240.12449 -17686054.35149  20644564.1264   20644565.6844   20644564.2774
       240.0004        205.0004
  -8004346.17749  -5977083.39449  22822352.5454   22822355.7404   22822351.1914
       224.0004        164.0004
 -16814329.61249 -13081100.09149  21756642.5714   21756644.2874   21756642.4024
       235.0004        189.0004
 -23573304.14749 -18050705.70449  20532148.0894   20532150.2114   20532147.2294
       243.0004        202.0004
  -2535460.37649  -1689315.65849  24383877.2064   24383881.6574   24383875.8384
       208.0004        144.0004
  -2587640.34549  -1997580.41949  24375495.1594   24375493.9394   24375493.6434
       207.0004        139.0004
  -7133721.16149  -5540323.92749  23127268.2054   23127272.0754   23127268.8964
       216.0004        154.0004
 11 10 10  1 29 30.0000000  0  8G26G05G10G07G08G02G15G28
 -17667488.35749 -13744372.57949  21007630.6394   21007632.9334   21007630.8714
       235.0004        187.0004
 -22734209.29449 -17682134.22549  20645519.7694   20645523.1314   20645520.6044
       239.0004        204.0004
  -7900873.29749  -5896455.19049  22842044.0344   22842046.4334   22842042.6254
       224.0004        163.0004
 -16740880.65049 -13023867.14849  21770619.0234   21770620.9834   21770619.4274
       237.0004        190.0004
 -23557341.68449 -18038267.41649  20535185.1654   20535187.5854   20535185.0284
       243.0004        202.0004
  -2433845.25249  -1610135.15949  24403210.4534   24403219.6854   24403211.5884
       194.0004        134.0004
  -2685189.41049  -2073592.53049  24356931.8894   24356932.0814   24356932.7824
       210.0004        145.0004
  -7219944.57349  -5607510.99249  23110861.1114   23110864.2264   23110861.1734
       214.0004        154.0004
 11 10 10  1 30  0.0000000  0  8G26G05G10G07G08G02G15G28
 -17738840.44149 -13799971.58749  20994053.0984   20994054.9284   20994052.8794
       235.0004        186.0004
 -22728603.83349 -17677766.34049  20646587.1194   20646590.0644   20646587.7164
       239.0004        204.0004
  -7797168.88349  -5815646.57049  22861776.8004   22861779.8134   22861776.0674
       219.0004        161.0004
 -16667109.81249 -12966383.39049  21784657.0474   21784658.9484   21784657.2764
       236.0004        189.0004
 -23540890.11049 -18025447.98549  20538316.5214   20538318.1794   20538315.7694
       243.0004        202.0004
  -2332165.22949  -1530904.09049  24422561.7484   24422561.4344   24422561.4174
       206.0004        138.0004
  -2782673.10849  -2149553.75049  24338380.4784   24338383.1854   24338381.5414
       207.0004        145.0004
  -7305897.31549  -5674487.13149  23094506.9344   23094508.6304   23094505.6504
       217.0004        154.0004
 11 10 10  1 30 30.0000000  0  8G26G05G10G07G08G02G15G28
 -17809846.78349 -13855301.18949  20980540.5924   20980543.0474   20980541.4054
       238.0004        187.0004
 -22722423.10849 -17672950.19649  20647764.3364   20647766.3824   20647764.4274
       240.0004        205.0004
  -7693234.83849  -5734659.00749  22881553.3554   22881557.6764   22881553.9194
       220.0004        161.0004
 -16593018.63349 -12908650.01349  21798755.9844   21798758.1894   21798756.6694
       235.0004        188.0004
 -23523950.01649 -18012247.89949  20541539.3134   20541541.8444   20541539.5664
       243.0004        202.0004
  -2230422.89349  -1451624.26149  24441922.9354   24441919.9724   24441923.2754
       208.0004        134.0004
  -2880090.55149  -2225463.40349  24319842.5534   24319842.6464   24319843.2644
       207.0004        141.0004
  -7391576.55449  -5741250.17149  23078201.9304   23078204.2984   23078201.5804
       219.0004        155.0004
 11 10 10  1 31  0.0000000  0  8G26G05G10G07G08G02G15G28
 -17880506.50049 -13910360.69549  20967094.4744   20967097.6564   20967094.4904
       237.0004        188.0004
 -22715667.36249 -17667685.98549  20649048.5494   20649052.0614   20649049.4684
       239.0004        205.0004
  -7589073.63049  -5653494.44049  22901376.6344   22901379.8074   22901374.8724
       222.0004        162.0004
 -16518609.48449 -12850668.87549  21812915.2514   21812917.7964   21812915.3674
       235.0004        187.0004
 -23506522.84149 -17998668.26149  20544855.5784   20544857.9424   20544855.2474
       243.0004        202.0004
  -2128621.48649  -1372298.37349  24461292.2564   24461298.7854   24461294.6784
       191.0004        132.0004
  -2977441.27449  -2301321.09449  24301318.1284   24301317.6374   24301319.9774
       209.0004        143.0004
  -7476979.83549  -5807798.19149  23061948.4554   23061952.6924   23061948.0944
       217.0004        154.0004
 11 10 10  1 31 30.0000000  0  8G26G05G10G07G08G02G15G28
 -17950817.94649 -13965148.81049  20953715.2324   20953717.3854   20953714.7814
       238.0004        188.0004
 -22708336.44549 -17661973.58349  20650444.4384   20650446.9474   20650444.8924
       241.0004        205.0004
  -7484687.00049  -5572154.22149  22921241.3224   22921243.6664   22921240.3964
       221.0004        161.0004
 -16443884.34649 -12792441.50949  21827134.6944   21827137.5004   21827135.0484
       234.0004        186.0004
 -23488609.42549 -17984709.75249  20548264.1344   20548267.0694   20548264.5664
       242.0004        203.0004
  -2026764.17049  -1292929.18349  24480674.8744   24480680.4294   24480675.5414
       198.0004        135.0004
  -3074723.87349  -2377125.70049  24282805.6834   24282807.8144   24282805.1274
       211.0004        144.0004
  -7562104.38849  -5874129.00349  23045750.5284   23045753.9534   23045750.3234
       217.0004        154.0004
 11 10 10  1 32  0.0000000  0  8G26G05G10G07G08G02G15G28
 -18020779.10349 -14019663.97549  20940401.3254   20940404.9754   20940401.7284
       237.0004        188.0004
 -22700429.50149 -17655812.34549  20651949.6274   20651951.2114   20651950.1634
       240.0004        205.0004
  -7380076.92249  -5490639.87749  22941145.1394   22941149.0654   22941145.7684
       219.0004        158.0004
 -16368844.74649 -12733969.10549  21841414.8314   21841417.6244   21841415.1694
       234.0004        185.0004
 -23470210.50249 -17970372.92149  20551766.1454   20551768.1734   20551765.5804
       243.0004        203.0004
  -1924853.46949  -1213518.23849  24500069.6354   24500069.2614   24500067.7444
       204.0004        137.0004
  -3171936.61249  -2452875.80349  24264305.4164   24264307.5804   24264305.9284
       209.0004        147.0004
  -7646947.45049  -5940240.47049  23029606.1584   23029608.5194   23029605.2574
       221.0004        158.0004
 11 10 10  1 32 30.0000000  0  8G26G05G10G07G08G02G15G28
 -18090389.29649 -14073905.65749  20927155.3504   20927157.6814   20927155.2724
       237.0004        189.0004
 -22691947.11049 -17649202.67949  20653562.5424   20653565.3194   20653563.0234
       239.0004        204.0004
  -7275245.66949  -5408953.20349  22961095.7464   22961099.6554   22961094.9634
       221.0004        160.0004
 -16293493.10149 -12675253.54349  21855753.7194   21855755.6084   21855754.4184
       234.0004        185.0004
 -23451327.53949 -17955658.90749  20555359.6184   20555361.1734   20555359.1774
       243.0004        202.0004
  -1822893.05549  -1134068.54949  24519473.9434   24519474.2794   24519472.7874
       203.0004        133.0004
  -3269079.77749  -2528571.67649  24245820.9584   24245822.0324   24245821.3534
       211.0004        146.0004
  -7731507.06849  -6006131.06049  23013515.4664   23013517.0044   23013514.7054
       222.0004        158.0004
 11 10 10  1 33  0.0000000  0  8G26G05G10G07G08G02G15G28
 -18159647.03449 -14127872.71649  20913976.2094   20913978.4474   20913976.3584
       238.0004        189.0004
 -22682888.69349 -17642144.17149  20655286.4044   20655289.1134   20655286.6874
       239.0004        203.0004
  -7170195.47349  -5327095.90549  22981084.4194   22981090.0554   22981084.8914
       218.0004        158.0004
 -16217831.74749 -12616296.64249  21870152.0084   21870153.8104   21870152.2874
       235.0004        186.0004
 -23431961.55549 -17940568.51149  20559043.8864   20559046.7454   20559043.9594
       243.0004        202.0004
  -1720885.66049  -1054582.28849  24538884.3874   24538887.0554   24538882.8624
       199.0004        134.0004
  -3366151.75249  -2604212.16649  24227349.5034   24227348.5384   24227349.7454
       214.0004        145.0004
  -7815780.17949  -6071798.40649  22997478.1004   22997479.2894   22997478.4724
       221.0004        154.0004
 11 10 10  1 33 30.0000000  0  8G26G05G10G07G08G02G15G28
 -18228551.01149 -14181564.11649  20900864.4194   20900866.5554   20900863.7854
       238.0004        189.0004
 -22673254.47449 -17634636.99249  20657120.5324   20657122.5964   20657120.8394
       240.0004        204.0004
  -7064928.53549  -5245069.72849  23001115.9274   23001120.3684   23001116.1774
       218.0004        157.0004
 -16141862.69049 -12557099.98149  21884608.0554   21884609.9504   21884608.6264
       234.0004        185.0004
 -23412113.49049 -17925102.48449  20562821.1984   20562823.3544   20562821.0174
       243.0004        202.0004
  -1618834.54449   -975061.95249  24558298.1614   24558300.8584   24558302.9484
       193.0004        132.0004
  -3463151.65249  -2679796.46549  24208890.5604   24208890.9904   24208890.8924
       212.0004        147.0004
  -7899764.44449  -6137240.68449  22981496.2394   22981500.2774   22981496.0994
       221.0004        158.0004
 11 10 10  1 34  0.0000000  0  8G26G05G10G07G08G02G15G28
 -18297100.02649 -14234978.94349  20887819.7884   20887822.5794   20887820.2784
       238.0004        189.0004
 -22663044.10549 -17626680.87549  20659064.2244   20659065.5724   20659064.7174
       240.0004        204.0004
  -6959446.68549  -5162876.09349  23021191.4074   23021193.2894   23021189.4204
       222.0004        156.0004
 -16065587.85149 -12497665.05349  21899122.9414   21899124.4284   21899123.1424
       232.0004        185.0004
 -23391784.79549 -17909261.93249  20566689.3854   20566691.8734   20566689.1184
       242.0004        202.0004
  -1516742.84149   -895509.93949  24577732.8024   24577734.6394   24577730.1974
       206.0004        136.0004
  -3560078.78349  -2755324.00849  24190443.6864   24190446.7914   24190443.7364
       204.0004        146.0004
  -7983457.33149  -6202455.92149  22965570.2974   22965572.1584   22965569.1094
       221.0004        157.0004
 11 10 10  1 34 30.0000000  0  8G26G05G10G07G08G02G15G28
 -18365291.78749 -14288115.39149  20874842.5744   20874845.5914   20874843.4124
       238.0004        190.0004
 -22652257.18249 -17618275.48249  20661115.1754   20661118.2854   20661116.2684
       240.0004        204.0004
  -6853751.69549  -5080516.37149  23041305.3104   23041307.4344   23041302.6974
       220.0004        157.0004
 -15989008.68949 -12437992.97549  21913695.6354   21913697.2454   21913695.9394
       233.0004        185.0004
 -23370975.56649 -17893046.94049  20570649.9434   20570651.8494   20570649.8024
       243.0004        202.0004
  -1414612.59649   -815927.98649  24597170.1214   24597166.4424   24597168.9474
       201.0004        131.0004
  -3656931.11149  -2830793.29849  24172014.5564   24172017.3494   24172015.6844
       209.0004        146.0004
  -8066855.89849  -6267441.81449  22949700.1804   22949701.8424   22949699.4874
       222.0004        157.0004
 11 10 10  1 35  0.0000000  0  8G26G05G10G07G08G02G15G28
 -18433125.60849 -14340972.95249  20861935.1274   20861937.4484   20861935.2574
       238.0004        190.0004
 -22640893.91749 -17609421.00449  20663278.9414   20663280.5114   20663278.8584
       240.0004        204.0004
  -6747846.14349  -4997992.57749  23061456.2464   23061459.3944   23061455.5864
       218.0004        157.0004
 -15912127.86949 -12378085.84649  21928325.4414   21928327.4114   21928325.6094
       232.0004        185.0004
 -23349687.62149 -17876458.91349  20574700.4724   20574702.9824   20574699.9694
       243.0004        202.0004
  -1312447.48249   -736318.82649  24616603.3074   24616608.2674   24616606.2814
       195.0004        130.0004
  -3753708.17049  -2906204.00949  24153599.8094   24153597.8284   24153599.5124
       207.0004        144.0004
  -8149957.67549  -6332196.42549  22933885.8454   22933889.4284   22933885.4724
       221.0004        157.0004
 11 10 10  1 35 30.0000000  0  8G26G05G10G07G08G02G15G28
 -18500600.64949 -14393550.91949  20849094.0164   20849097.2274   20849094.8884
       238.0004        190.0004
 -22628955.02849 -17600117.99449  20665549.7694   20665552.3724   20665550.7394
       239.0004        204.0004
  -6641732.60249  -4915306.70049  23081648.3364   23081651.6804   23081648.2914
       218.0004        155.0004
 -15834948.23949 -12317945.89749  21943011.8834   21943014.3924   21943012.0834
       231.0004        184.0004
 -23327922.72849 -17859499.26149  20578842.1234   20578844.9624   20578842.3624
       244.0004        203.0004
  -1210251.29949   -656685.40749  24636052.6374   24636054.7344   24636054.6464
       200.0004        131.0004
  -3850409.88949  -2981555.95049  24135195.7344   24135198.0304   24135194.8504
       202.0004        141.0004
  -8232760.79449  -6396718.32949  22918128.1914   22918132.2864   22918129.4554
       221.0004        158.0004
 11 10 10  1 36  0.0000000  0  8G26G05G10G07G08G02G15G28
 -18567714.21449 -14445847.23349  20836323.3794   20836326.4024   20836323.0664
       238.0004        190.0004
 -22616439.23849 -17590365.43749  20667931.0704   20667933.8604   20667931.4674
       238.0004        203.0004
  -6535412.23149  -4832459.67149  23101879.9304   23101883.9684   23101880.5544
       217.0004        157.0004
 -15757470.24149 -12257573.45549  21957755.9544   21957757.6304   21957755.9384
       231.0004        183.0004
 -23305680.70449 -17842167.80049  20583074.4524   20583076.9034   20583073.8514
       243.0004        202.0004
  -1108025.56049   -577029.01249  24655509.1444   24655509.4204   24655508.1264
       203.0004        131.0004
  -3947033.96049  -3056847.35549  24116809.9114   24116811.6024   24116810.3644
       208.0004        145.0004
  -8315261.75949  -6461004.80249  22902431.6964   22902432.5714   22902429.7314
       222.0004        159.0004
 11 10 10  1 36 30.0000000  0  8G26G05G10G07G08G02G15G28
 -18634465.62149 -14497861.33649  20823621.2544   20823623.7264   20823620.9574
       240.0004        191.0004
 -22603347.02749 -17580163.72849  20670422.6864   20670425.2824   20670423.3924
       238.0004        203.0004
  -6428887.53349  -4749453.40949  23122151.0654   23122154.9014   23122151.0734
       219.0004        158.0004
 -15679696.92649 -12196970.88549  21972555.0434   21972557.4074   21972556.1464
       231.0004        182.0004
 -23282963.16349 -17824465.81549  20587398.1654   20587400.2574   20587397.7584
       244.0004        203.0004
  -1005773.98749   -497352.52949  24674965.8844   24674962.7924   24674965.2054
       198.0004        131.0004
  -4043579.95949  -3132077.98549  24098438.7724   24098438.7914   24098438.8194
       209.0004        145.0004
  -8397458.47749  -6525054.17349  22886788.4884   22886791.1214   22886788.1384
       221.0004        160.0004
 11 10 10  1 37  0.0000000  0  8G26G05G10G07G08G02G15G28
 -18700854.15149 -14549592.69549  20810988.1764   20810990.2284   20810988.4514
       239.0004        190.0004
 -22589678.95749 -17569513.29949  20673024.8214   20673026.5314   20673025.6324
       241.0004        204.0004
  -6322161.15049  -4666289.99749  23142460.0844   23142464.9474   23142460.4284
       218.0004        158.0004
 -15601630.50649 -12136139.92449  21987411.7864   21987412.6874   21987411.4644
       233.0004        183.0004
 -23259772.35149 -17806395.04749  20591810.9334   20591812.9314   20591810.3064
       243.0004        202.0004
   -903500.14049   -417658.58049  24694421.8974   24694427.4384   24694425.2224
       199.0004        129.0004
  -4140047.42749  -3207247.41249  24080080.9284   24080084.0444   24080079.6784
       209.0004        145.0004
  -8479349.00649  -6588864.96149  22871204.7064   22871208.3714   22871205.0924
       220.0004        160.0004
 11 10 10  1 37 30.0000000  0  8G26G05G10G07G08G02G15G28
 -18766876.84649 -14601038.94049  20798424.3884   20798426.1764   20798424.7584
       239.0004        191.0004
 -22575433.74949 -17558413.15949  20675735.8014   20675737.1824   20675735.7214
       239.0004        203.0004
  -6215233.69049  -4582969.90949  23162809.7814   23162812.3864   23162808.7044
       221.0004        156.0004
 -15523271.61049 -12075081.06749  22002322.3134   22002324.4944   22002322.8724
       232.0004        183.0004
 -23236107.67449 -17787955.03249  20596313.8454   20596316.5094   20596313.9094
       244.0004        202.0004
   -801205.62549   -337948.54349  24713896.7004   24713895.1504   24713893.8874
       205.0004        132.0004
  -4236433.62149  -3282353.50749  24061736.9384   24061739.6284   24061738.0404
       208.0004        145.0004
  -8560929.56449  -6652434.21149  22855680.1794   22855682.7654   22855681.1534
       219.0004        160.0004
 11 10 10  1 38  0.0000000  0  8G26G05G10G07G08G02G15G28
 -18832533.67149 -14652200.04949  20785930.3404   20785932.5354   20785930.5114
       239.0004        191.0004
 -22560612.52749 -17546864.15749  20678554.7224   20678557.5664   20678555.6544
       239.0004        203.0004
  -6108108.71349  -4499495.89049  23183193.7764   23183195.6614   23183192.9124
       220.0004        156.0004
 -15444623.70549 -12013797.01149  22017288.7554   22017290.7074   22017289.3604
       234.0004        185.0004
 -23211971.63349 -17769147.72049  20600906.9924   20600909.4304   20600906.5904
       243.0004        201.0004
   -698894.52349   -258225.64449  24733363.5064   24733363.8184   24733362.9794
       201.0004        132.0004
  -4332739.06449  -3357396.58149  24043413.1034   24043414.3934   24043412.3694
       210.0004        149.0004
  -8642198.82049  -6715760.89849  22840215.7234   22840218.7654   22840215.1314
       220.0004        160.0004
 11 10 10  1 38 30.0000000  0  8G26G05G10G07G08G02G15G28
 -18897823.37649 -14703075.13349  20773505.9494   20773508.5604   20773505.8524
       238.0004        191.0004
 -22545215.67549 -17534866.62849  20681484.4904   20681487.7324   20681485.0954
       239.0004        203.0004
  -6000788.54849  -4415869.78349  23203614.4994   23203618.9894   23203615.1784
       217.0004        155.0004
 -15365688.77749 -11952289.28049  22032309.0224   22032310.9464   22032309.6794
       233.0004        184.0004
 -23187365.55149 -17749974.15049  20605589.0684   20605591.7714   20605589.0634
       242.0004        201.0004
   -596570.17449   -178492.44549  24752830.1794   24752838.2494   24752831.6274
       200.0004        133.0004
  -4428962.72449  -3432375.99049  24025101.1674   24025103.0594   24025101.8784
       209.0004        146.0004
  -8723153.93949  -6778842.77749  22824810.4274   22824812.4884   22824809.2224
       220.0004        160.0004
 11 10 10  1 39  0.0000000  0  8G26G05G10G07G08G02G15G28
 -18962743.96749 -14753662.60549  20761150.4064   20761154.6714   20761151.1994
       237.0004        190.0004
 -22529242.51449 -17522420.04349  20684525.1114   20684527.3964   20684525.2794
       239.0004        203.0004
  -5893274.41449  -4332092.54349  23224073.9984   23224079.6334   23224074.4644
       218.0004        156.0004
 -15286468.06649 -11890558.87149  22047384.2194   22047387.0014   22047384.1924
       232.0004        183.0004
 -23162289.67949 -17730434.51949  20610359.9194   20610363.6734   20610360.6464
       242.0004        201.0004
   -494234.63249    -98750.48949  24772307.9594   24772308.8014   24772309.1284
       202.0004        131.0004
  -4525103.07549  -3507290.52249  24006806.4344   24006806.4734   24006807.0344
       208.0004        143.0004
  -8803792.31449  -6841677.86049  22809465.4984   22809469.3184   22809465.0734
       220.0004        159.0004
 11 10 10  1 39 30.0000000  0  8G26G05G10G07G08G02G15G28
 -19027294.19949 -14803961.51349  20748868.2884   20748871.0214   20748868.1104
       238.0004        190.0004
 -22512693.48849 -17509524.71849  20687673.5844   20687676.3234   20687673.8644
       238.0004        202.0004
  -5785568.61749  -4248165.95349  23244571.8244   23244574.3824   23244569.3604
       220.0004        156.0004
 -15206964.25549 -11828607.87749  22062513.1744   22062515.5064   22062513.7274
       232.0004        184.0004
 -23136745.45149 -17710529.93049  20615222.5334   20615224.1784   20615222.0944
       245.0004        201.0004
   -391891.03849    -19002.22549  24791788.3984   24791782.1114   24791784.2044
       205.0004        127.0004
  -4621159.11449  -3582139.37149  23988527.8794   23988527.8674   23988527.5424
       209.0004        145.0004
  -8884111.41249  -6904264.16849  22794182.1484   22794183.7464   22794181.4114
       222.0004        164.0004
 11 10 10  1 40  0.0000000  0  8G26G05G10G07G08G02G15G28
 -19091472.64749 -14853970.73049  20736655.8004   20736658.4104   20736656.0864
       240.0004        191.0004
 -22495568.75049 -17496180.79549  20690932.9324   20690934.9024   20690933.2494
       239.0004        203.0004
  -5677673.30849  -4164091.69249  23265105.3594   23265105.8874   23265103.8544
       221.0004        153.0004
 -15127178.94649 -11766437.50349  22077696.3044   22077698.0124   22077697.1124
       233.0004        182.0004
 -23110734.03949 -17690261.29349  20620171.3214   20620174.4484   20620171.2664
       243.0004        201.0004
   -289542.44249     60749.91149  24811256.0024   24811259.4204   24811258.9174
       194.0004        130.0004
  -4717129.61049  -3656921.53649  23970263.2134   23970266.9174   23970263.0234
       204.0004        145.0004
  -8964108.73049  -6966599.71749  22778958.1634   22778960.8264   22778957.9664
       222.0004        162.0004
 11 10 10  1 40 30.0000000  0  8G26G05G10G07G08G02G15G28
 -19155277.75949 -14903689.05349  20724513.8804   20724516.7014   20724514.3154
       238.0004        191.0004
 -22477868.11849 -17482388.12549  20694301.9524   20694303.3874   20694302.3744
       240.0004        204.0004
  -5569590.51949  -4079871.33849  23285672.4294   23285674.1614   23285670.7314
       221.0004        154.0004
 -15047114.19649 -11704049.39649  22092931.9134   22092933.7574   22092932.6374
       232.0004        182.0004
 -23084256.63349 -17669629.53049  20625210.4364   20625212.8854   20625209.7944
       243.0004        201.0004
   -187191.38549    140503.98949  24830734.4104   24830736.9474   24830734.9474
       200.0004        129.0004
  -4813013.83349  -3731636.58449  23952018.1914   23952021.1524   23952018.5874
       209.0004        147.0004
  -9043781.78549  -7028682.58749  22763796.7764   22763799.1064   22763795.7714
       224.0004        162.0004
 11 10 10  1 41  0.0000000  0  8G26G05G10G07G08G02G15G28
 -19218708.68949 -14953115.74849  20712443.6414   20712445.9124   20712443.7884
       237.0004        191.0004
 -22459592.56649 -17468147.46549  20697779.6284   20697781.3294   20697779.9604
       239.0004        204.0004
  -5461322.57749  -3995506.72449  23306274.6124   23306277.3384   23306274.4404
       219.0004        155.0004
 -14966772.58349 -11641445.54849  22108221.3074   22108221.8954   22108221.2964
       233.0004        183.0004
 -23057314.86649 -17648635.93749  20630336.0924   20630339.5264   20630336.1664
       242.0004        201.0004
    -84841.48249    220257.09649  24850216.9204   24850212.1294   24850213.1534
       206.0004        131.0004
  -4908810.39149  -3806283.20549  23933790.2714   23933790.0284   23933790.5714
       209.0004        143.0004
  -9123128.30849  -7090511.04549  22748697.2484   22748699.1654   22748696.7494
       221.0004        161.0004
 11 10 10  1 41 30.0000000  0  8G26G05G10G07G08G02G15G28
 -19281763.69849 -15002249.52049  20700443.3914   20700447.0964   20700444.2794
       237.0004        190.0004
 -22440741.61749 -17453458.43349  20701365.0764   20701368.6484   20701366.0184
       238.0004        203.0004
  -5352871.35049  -3910999.27549  23326911.3124   23326914.8054   23326910.0344
       216.0004        150.0004
 -14886155.63549 -11578627.15649  22123561.9394   22123563.5004   22123561.7134
       233.0004        181.0004
 -23029909.66249 -17627281.24049  20635552.6714   20635554.2014   20635551.9124
       244.0004        201.0004
     17504.98449    300007.55649  24869690.3434   24869689.5844   24869690.4874
       206.0004        134.0004
  -5004518.44349  -3880860.81349  23915575.6534   23915579.5884   23915576.0414
       208.0004        147.0004
  -9202145.74149  -7152083.04549  22733659.9844   22733663.3854   22733660.5344
       222.0004        162.0004
 11 10 10  1 42  0.0000000  0  8G26G05G10G07G08G02G15G28
 -19344442.29549 -15051089.97049  20688516.6284   20688519.0844   20688516.8644
       237.0004        191.0004
 -22421316.21549 -17438321.77349  20705062.7854   20705064.9204   20705062.9864
       240.0004        203.0004
  -5244239.91149  -3826351.37549  23347582.5094   23347586.8704   23347582.8774
       218.0004        152.0004
 -14805265.91449 -11515596.21749  22138953.7704   22138955.6304   22138954.6404
       232.0004        180.0004
 -23002043.30649 -17605567.20149  20640854.6284   20640857.2974   20640854.4034
       242.0004        201.0004
    119843.92649    379752.19249  24889161.0234   24889165.7154   24889161.6084
       202.0004        133.0004
  -5100137.52349  -3955369.20349  23897379.7164   23897382.5104   23897379.9834
       208.0004        146.0004
  -9280832.14249  -7213397.09849  22718687.7904   22718690.1874   22718687.0614
       223.0004        162.0004
 11 10 10  1 42 30.0000000  0  8G26G05G10G07G08G02G15G28
 -19406741.51149 -15099634.80249  20676661.1924   20676664.3984   20676661.5954
       238.0004        191.0004
 -22401315.36649 -17422736.72149  20708869.2354   20708871.3354   20708869.1434
       238.0004        202.0004
  -5135428.89049  -3741563.56749  23368287.5874   23368293.1014   23368286.9044
       215.0004        151.0004
 -14724104.12749 -11452353.27549  22154399.0504   22154400.8264   22154399.1754
       233.0004        180.0004
 -22973715.10649 -17583493.28749  20646245.8754   20646248.1384   20646245.4244
       244.0004        201.0004
    222174.54249    459490.30649  24908635.4904   24908637.1584   24908633.7534
       205.0004        131.0004
  -5195664.93549  -4029806.01149  23879200.6174   23879203.3054   23879201.2824
       209.0004        146.0004
  -9359183.86049  -7274450.36249  22703777.4894   22703780.8634   22703777.7384
       224.0004        164.0004
 11 10 10  1 43  0.0000000  0  8G26G05G10G07G08G02G15G28
 -19468661.65049 -15147884.29749  20664879.0684   20664881.2214   20664879.4194
       239.0004        192.0004
 -22380740.47649 -17406704.35749  20712783.6294   20712786.6734   20712784.2894
       238.0004        202.0004
  -5026441.96849  -3656638.71449  23389027.3084   23389032.9224   23389026.3944
       213.0004        151.0004
 -14642674.02549 -11388901.25149  22169895.0724   22169896.1914   22169894.1194
       232.0004        179.0004
 -22944928.22649 -17561061.95049  20651722.6064   20651725.9794   20651722.8934
       242.0004        200.0004
    324491.73549    539217.96349  24928109.8484   24928106.5924   24928108.2654
       205.0004        132.0004
  -5291101.40249  -4104171.99849  23861040.6284   23861044.2764   23861040.8564
       210.0004        148.0004
  -9437200.09949  -7335242.23649  22688931.8284   22688935.0984   22688931.9964
       224.0004        164.0004
 11 10 10  1 43 30.0000000  0  8G26G05G10G07G08G02G15G28
 -19530200.83949 -15195836.95749  20653168.6524   20653171.2584   20653169.0004
       240.0004        193.0004
 -22359591.48949 -17390224.65049  20716808.4544   20716811.6064   20716809.3244
       239.0004        203.0004
  -4917280.71449  -3571578.01949  23409802.8134   23409804.9334   23409800.6574
       217.0004        152.0004
 -14560977.13049 -11325241.35149  22185441.1784   22185443.4404   22185441.4794
       232.0004        180.0004
 -22915683.36849 -17538273.74949  20657289.0694   20657291.1084   20657288.5914
       243.0004        201.0004
    426793.40449    618933.53049  24947573.6384   24947577.1194   24947574.6034
       197.0004        129.0004
  -5386445.46649  -4178466.09549  23842898.1784   23842899.9034   23842899.0484
       212.0004        149.0004
  -9514877.30349  -7395769.91849  22674150.6134   22674152.7274   22674150.2144
       224.0004        166.0004
 11 10 10  1 44  0.0000000  0  8G26G05G10G07G08G02G15G28
 -19591356.87649 -15243491.05949  20641531.8024   20641533.9754   20641531.6794
       240.0004        194.0004
 -22337868.08549 -17373297.34749  20720943.9124   20720944.9784   20720944.1814
       240.0004        203.0004
  -4807946.69549  -3486382.66749  23430607.0264   23430609.3324   23430604.7834
       213.0004        149.0004
 -14479014.42149 -11261374.32449  22201037.5544   22201039.9534   22201038.0404
       230.0004        180.0004
 -22885980.79449 -17515128.89449  20662940.6674   20662943.0474   20662940.2464
       243.0004        200.0004
    529077.49449    698635.38149  24967035.7774   24967035.7724   24967037.2664
       198.0004        127.0004
  -5481694.83949  -4252686.35349  23824773.2134   23824773.7914   23824773.1324
       212.0004        149.0004
  -9592212.95349  -7456031.43749  22659434.1394   22659435.8514   22659433.6844
       225.0004        166.0004
 11 10 10  1 44 30.0000000  0  8G26G05G10G07G08G02G15G28
 -19652129.67049 -15290846.53149  20629966.1584   20629969.2824   20629966.4814
       240.0004        194.0004
 -22315571.83049 -17355923.65649  20725185.1454   20725187.6324   20725185.5854
       238.0004        202.0004
  -4698442.93049  -3401055.06549  23451444.4514   23451448.8514   23451443.7004
       213.0004        150.0004
 -14396789.02049 -11197302.58449  22216684.1604   22216686.5414   22216685.0394
       229.0004        179.0004
 -22855823.19749 -17491629.46649  20668680.0944   20668682.3434   20668679.5504
       244.0004        201.0004
    631339.92249    778320.38249  24986500.4324   24986499.1974   24986497.9434
       199.0004        124.0004
  -5576849.91449  -4326833.10249  23806665.3874   23806667.4164   23806664.9954
       211.0004        149.0004
  -9669205.80649  -7516025.84349  22644782.5464   22644785.5224   22644782.3284
       225.0004        166.0004
 11 10 10  1 45  0.0000000  0  8G26G05G10G07G08G02G15G28
 -19712517.04749 -15337901.67649  20618474.6284   20618477.6344   20618474.6714
       240.0004        195.0004
 -22292702.18949 -17338103.17149  20729536.3264   20729539.4384   20729537.2844
       238.0004        202.0004
  -4588770.85249  -3315596.32249  23472313.7024   23472318.0014   23472312.7734
       213.0004        151.0004
 -14314302.32049 -11133027.24749  22232381.9204   22232384.1374   22232383.0964
       232.0004        180.0004
 -22825211.08349 -17467775.88649  20674504.0114   20674507.3894   20674504.1394
       242.0004        201.0004
    733578.40049    857986.70249  25005953.6854   25005953.9054   25005954.7664
       194.0004        123.0004
  -5671908.72949  -4400904.96249  23788576.1264   23788576.6894   23788575.9544
       211.0004        147.0004
  -9745852.29249  -7575750.37049  22630197.7584   22630199.0774   22630197.1504
       225.0004        165.0004
 11 10 10  1 45 30.0000000  0  8G26G05G10G07G08G02G15G28
 -19772517.63549 -15384655.39749  20607056.7564   20607060.1894   20607057.6324
       239.0004        194.0004
 -22269259.79849 -17319836.38649  20733997.9744   20734001.1224   20733998.6244
       238.0004        201.0004
  -4478932.67149  -3230008.14149  23493215.5384   23493219.3424   23493215.7904
       213.0004        152.0004
 -14231556.37949 -11068549.87949  22248128.4484   22248129.6804   22248128.4624
       232.0004        180.0004
 -22794146.05049 -17443569.37049  20680417.0064   20680418.9604   20680416.3254
       244.0004        201.0004
    835790.15749    937632.21149  25025401.7344   25025399.0254   25025402.8364
       191.0004        123.0004
  -5766870.28549  -4474900.99049  23770505.5734   23770506.5644   23770505.7014
       213.0004        149.0004
  -9822150.24349  -7635203.30349  22615678.3444   22615680.8054   22615677.9954
       225.0004        166.0004
 11 10 10  1 46  0.0000000  0  8G26G05G10G07G08G02G15G28
 -19832131.20649 -15431107.52149  20595713.2324   20595715.9454   20595713.4374
       241.0004        194.0004
 -22245245.74449 -17301124.16149  20738568.3874   20738570.3004   20738568.9744
       238.0004        201.0004
  -4368931.10349  -3144292.62749  23514146.4594   23514150.8564   23514147.9254
       212.0004        150.0004
 -14148553.95649 -11003872.65649  22263923.5394   22263924.6314   22263923.4144
       232.0004        180.0004
 -22762629.99449 -17419011.40049  20686413.7444   20686416.4764   20686413.6264
       244.0004        201.0004
    937971.68249   1017254.15049  25044848.2164                   25044848.2254
       186.0004        120.0004
  -5861734.54549  -4548821.16349  23752453.9164   23752455.4304   23752453.3764
       214.0004        150.0004
  -9898098.07349  -7694383.38849  22601225.0704   22601228.5674   22601224.7454
       224.0004        166.0004
 11 10 10  1 46 30.0000000  0  8G26G05G10G07G08G02G15G28
 -19891355.00049 -15477255.99049  20584443.7364   20584445.9484   20584444.1094
       241.0004        195.0004
 -22220659.27649 -17281965.88549  20743245.7554   20743248.9714   20743246.6804
       237.0004        201.0004
  -4258767.35049  -3058450.74049  23535111.0364   23535115.7864   23535111.8464
       215.0004        152.0004
 -14065296.06549 -10938996.38549  22279766.5484   22279767.2744   22279765.9714
       232.0004        178.0004
 -22730663.15449 -17394102.16749  20692497.9094   20692499.3004   20692496.8234
       244.0004        201.0004
   1040121.16749   1096851.12449  25064288.4244                   25064279.9974
       186.0004        118.0004
  -5956498.53749  -4622663.18249  23734420.8794   23734422.3394   23734419.0944
       212.0004        150.0004
  -9973692.26549  -7753287.95449  22586841.0144   22586842.4234   22586840.9104
       225.0004        166.0004
 11 10 10  1 47  0.0000000  0  8G26G05G10G07G08G02G15G28
 -19950188.04749 -15523099.93349  20573248.9694   20573250.4044   20573248.4834
       242.0004        195.0004
 -22195501.17449 -17262362.19349  20748033.4734   20748035.7654   20748034.2094
       238.0004        201.0004
  -4148444.01849  -2972484.50849  23556105.8174   23556110.3714   23556105.1844
       215.0004        153.0004
 -13981784.79249 -10873922.67649  22295657.5984   22295658.5864   22295658.4294
       231.0004        177.0004
 -22698246.95649 -17368842.79049  20698665.6194   20698667.8164   20698665.2114
       244.0004        201.0004
   1142235.23049   1176420.52949  25083714.6844                   25083710.7664
       182.0004        119.0004
  -6051161.84849  -4696426.81649  23716407.1784   23716408.1674   23716408.2514
       214.0004        151.0004
 -10048930.69249  -7811915.27849  22572522.4164   22572526.2574   22572522.1424
       223.0004        166.0004
 11 10 10  1 47 30.0000000  0  8G26G05G10G07G08G02G15G28
 -20008629.54449 -15568638.79549  20562126.3134   20562129.3134   20562127.1214
       239.0004        194.0004
 -22169772.06949 -17242313.57249  20752930.7504   20752932.4584   20752930.7984
       239.0004        201.0004
  -4037963.89149  -2886396.12049  23577130.5294   23577131.8684   23577129.1714
       219.0004        152.0004
 -13898022.34349 -10808653.24149  22311597.4514   22311598.3544   22311598.1364
       231.0004        177.0004
 -22665383.12849 -17343234.61849  20704919.3064   20704921.8474   20704919.3044
       244.0004        201.0004
   1244310.93949     41741.14149  25103141.7244
       184.0004         74.0004
  -6145723.78449  -4770111.44649  23698412.0794   23698414.7574   23698411.6274
       210.0004        150.0004
 -10123811.64749  -7870264.05449  22558273.4514   22558276.6974   22558273.1124
       223.0004        165.0004
 11 10 10  1 48  0.0000000  0  8G26G05G10G07G08G02G15G28
 -20066677.96949 -15613871.35149  20551079.9734   20551082.9084   20551079.8724
       239.0004        194.0004
 -22143472.61049 -17221820.50349  20757935.5724   20757937.0644   20757935.4074
       238.0004        201.0004
  -3927328.66449  -2800186.84949  23598182.6794   23598185.9304   23598182.4524
       217.0004        150.0004
 -13814010.94249 -10743189.83149  22327584.3214   22327585.7294   22327584.4224
       231.0004        179.0004
 -22632073.29249 -17317278.89849  20711258.1994   20711260.0594   20711257.6984
       244.0004        201.0004
   1346345.60549    121243.29449  25122559.3394
       179.0004        108.0004
  -6240183.26049  -4843716.14649  23680436.4834   23680439.7594   23680437.7284
       210.0004        151.0004
 -10198332.73049  -7928332.42349  22544093.5074   22544095.0254   22544092.6554
       224.0004        167.0004
 11 10 10  1 48 30.0000000  0  8G26G05G10G07G08G02G15G28
 -20124331.87849 -15658796.48549  20540109.3764   20540111.8684   20540109.0634
       239.0004        194.0004
 -22116603.05649 -17200883.20049  20763047.2614   20763050.3924   20763047.8404
       238.0004        201.0004
  -3816539.97549  -2713857.98349  23619265.2384   23619269.2334   23619264.9934
       217.0004        152.0004
 -13729752.37349 -10677533.80449  22343617.2964   22343619.3874   22343617.9804
       232.0004        177.0004
 -22598318.41349 -17290976.39149  20717681.6964   20717683.8274   20717681.3444
       244.0004        201.0004
   1448336.66749    200709.01049  25141967.8354
       180.0004        108.0004
  -6334538.98449  -4917240.07549  23662480.3464   23662484.2224   23662481.9734
       214.0004        153.0004
 -10272491.27949  -7986118.26449  22529981.3954   22529983.7234   22529981.0914
       226.0004        166.0004
 11 10 10  1 49  0.0000000  0  8G26G05G10G07G08G02G15G28
 -20181590.05749 -15703413.23949  20529213.1804   20529216.3614   20529213.3274
       240.0004        194.0004
 -22089163.99549 -17179502.12449  20768269.2514   20768271.7864   20768269.6224
       238.0004        201.0004
  -3705600.44649  -2627411.60449  23640375.2784   23640380.6984   23640375.3214
       214.0004        150.0004
 -13645248.44349 -10611686.59449  22359698.5384   22359699.2834   22359698.5554
       231.0004        177.0004
 -22564120.08849 -17264328.33949  20724188.9904   20724191.3054   20724188.7424
       243.0004        200.0004
   1550281.13349     35145.85249  25161367.6414
       180.0004         74.0004
  -6428789.45749  -4990681.96449  23644546.9084   23644549.4204   23644547.0044
       215.0004        155.0004
 -10346284.75349  -8043619.65449  22515938.4104   22515940.6864   22515937.5434
       223.0004        167.0004
 11 10 10  1 49 30.0000000  0  8G26G05G10G07G08G02G15G28
 -20238451.42349 -15747720.77649  20518392.6824   20518396.0124   20518393.2574
       239.0004        195.0004
 -22061156.86749 -17157678.43449  20773599.7374   20773601.5744   20773600.1654
       240.0004        201.0004
  -3594512.93549  -2540849.93949  23661514.2564   23661520.1924   23661515.3614
       214.0004        149.0004
 -13560502.07149 -10545650.45549  22375825.3804   22375826.9964   22375825.8054
       231.0004        176.0004
 -22529480.50749 -17237336.45949  20730781.0414   20730782.9704   20730780.3434
       244.0004        200.0004
   1652175.84759    114614.85159  25180763.4424
       175.0004        105.0004
  -6522934.56049  -5064041.82649  23626629.9514   23626634.7114   23626630.8624
       213.0004        153.0004
 -10419711.90949  -8100835.59649  22501964.4194   22501968.2874   22501964.7054
       223.0004        166.0004
 11 10 10  1 50  0.0000000  0  7G26G05G10G07G08G15G28
 -20294914.30949 -15791717.80949  20507648.5884   20507651.1764   20507648.4514
       239.0004        195.0004
 -22032581.14349 -17135411.67849  20779036.5354   20779039.4294   20779036.9394
       239.0004        201.0004
  -3483278.49249  -2454173.74049  23682684.2704   23682685.8594   23682682.8624
       217.0004        146.0004
 -13475514.16049 -10479426.13149  22391998.0474   22391999.1634   22391998.6024
       231.0004        176.0004
 -22494399.72849 -17210000.80749  20737455.9954   20737458.7844   20737456.0684
       244.0004        200.0004
  -6616972.12449  -5137317.83849  23608734.6674   23608739.0054   23608736.7344
       212.0004        153.0004
 -10492769.44049  -8157763.53049  22488063.1674   22488065.9134   22488063.6434
       223.0004        166.0004
 11 10 10  1 50 30.0000000  0  7G26G05G10G07G08G15G28
 -20350977.22849 -15835403.20349  20496980.5404   20496982.8804   20496980.3274
       240.0004        195.0004
 -22003436.90449 -17112701.91749  20784582.4314   20784585.7134   20784583.1364
       238.0004        202.0004
  -3371899.37349  -2367384.81749  23703878.1714   23703881.8964   23703877.2474
       213.0004        148.0004
 -13390286.74549 -10413015.17549  22408216.0734   22408217.5084   22408216.2804
       230.0004        175.0004
 -22458879.61649 -17182322.79449  20744215.6774   20744217.9214   20744215.0774
       244.0004        200.0004
  -6710901.27149  -5210509.42449  23590862.7854   23590865.1124   23590862.8684
       213.0004        153.0004
 -10565455.22249  -8214401.78349  22474230.4304   22474233.3344   22474230.4014
       224.0004        164.0004
 11 10 10  1 51  0.0000000  0  7G26G05G10G07G08G15G28
 -20406639.78249 -15878776.64849  20486387.9534   20486390.0884   20486388.5394
       240.0004        195.0004
 -21973726.24449 -17089550.80049  20790237.0204   20790239.1684   20790237.3824
       239.0004        201.0004
  -3260378.49749  -2280485.45049  23725098.3154   23725102.9714   23725097.2664
       211.0004        146.0004
 -13304822.53549 -10346419.70549  22424479.4334   22424481.7134   22424480.6044
       230.0004        175.0004
 -22422922.11949 -17154303.96949  20751057.6764   20751060.3344   20751057.6584
       242.0004        200.0004
  -6804721.27249  -5283615.90549  23573008.0644   23573011.8454   23573007.8864
       209.0004        154.0004
 -10637767.52649  -8270749.01149  22460470.3904   22460473.0484   22460470.7544
       226.0004        166.0004
 11 10 10  1 51 30.0000000  0  7G26G05G10G07G08G15G28
 -20461899.02949 -15921835.75749  20475872.7004   20475874.5664   20475872.4574
       240.0004        195.0004
 -21943448.27149 -17065957.61749  20795998.9764   20796000.7864   20795999.2034
       239.0004        202.0004
  -3148716.62549  -2193476.21049  23746347.7454   23746351.5904   23746347.3394
       213.0004        146.0004
 -13219122.09449 -10279640.15149  22440788.2244   22440789.2604   22440788.1574
       230.0004        176.0004
 -22386527.27749 -17125944.34649  20757984.7524   20757986.4834   20757983.9554
       244.0004        201.0004
  -6898429.89649  -5356635.56849  23555176.4964   23555179.5574   23555177.4444
       214.0004        155.0004
 -10709702.91149  -8326802.54349  22446781.9554   22446785.5014   22446781.8694
       225.0004        165.0004
 11 10 10  1 52  0.0000000  0  7G26G05G10G07G08G15G28
 -20516755.38049 -15964580.96349  20465433.0894   20465436.2904   20465434.0114
       240.0004        196.0004
 -21912605.21949 -17041924.08049  20801867.8014   20801870.0824   20801868.0334
       239.0004        201.0004
  -3036917.04549  -2106359.64349  23767621.6314   23767626.0114   23767620.7534
       210.0004        146.0004
 -13133188.69649 -10212679.06049  22457140.5064   22457142.0144   22457140.3504
       231.0004        177.0004
 -22349697.81449 -17097246.06549  20764991.9744   20764994.6954   20764991.8054
       243.0004        200.0004
  -6992027.38449  -5429568.67549  23537366.9444   23537368.5764   23537366.2264
       215.0004        156.0004
 -10781260.45149  -8382561.64249  22433164.1614   22433167.8734   22433165.0884
       224.0004        166.0004
 11 10 10  1 52 30.0000000  0  7G26G05G10G07G08G15G28
 -20571207.11849 -16007010.88949  20455070.9904   20455074.3484   20455071.7154
       238.0004        195.0004
 -21881196.98249 -17017450.13749  20807843.9044   20807846.7584   20807843.9944
       238.0004        201.0004
  -2924982.15149  -2019137.69049  23788922.1204   23788926.6114   23788923.5534
       210.0004        145.0004
 -13047024.16049 -10145537.89649  22473537.5664   22473538.2874   22473537.9304
       232.0004        177.0004
 -22312435.17249 -17068210.24449  20772083.4724   20772085.6754   20772083.1414
       244.0004        200.0004
  -7085512.26749  -5502414.04849  23519575.2054   23519578.2984   23519575.7394
       213.0004        153.0004
 -10852437.44449  -8438024.23049  22419621.2584   22419623.3454   22419621.0454
       227.0004        169.0004
 11 10 10  1 53  0.0000000  0  7G26G05G10G07G08G15G28
 -20625252.10549 -16049123.83049  20444787.2684   20444790.2934   20444786.8064
       239.0004        196.0004
 -21849223.36149 -16992535.61149  20813928.4014   20813931.0094   20813929.2454
       239.0004        201.0004
  -2812913.19049  -1931811.22949  23810249.1954   23810252.2454   23810248.8504
       214.0004        144.0004
 -12960629.75849 -10078217.58149  22489977.0504   22489979.1174   22489977.9504
       228.0004        176.0004
 -22274739.86449 -17038837.28149  20779255.9554   20779258.5284   20779255.0104
       243.0004        199.0004
  -7178882.38549  -5575169.99049  23501806.6314   23501810.5884   23501808.2724
       213.0004        156.0004
 -10923231.20949  -8493188.16449  22406149.1254   22406151.8614   22406148.5054
       226.0004        170.0004
 11 10 10  1 53 30.0000000  0  7G26G05G10G07G08G15G28
 -20678890.19449 -16090919.68949  20434579.9754   20434582.7844   20434580.4884
       240.0004        196.0004
 -21816686.57249 -16967182.27349  20820121.0324   20820122.6094   20820121.1844
       239.0004        201.0004
  -2700713.14049  -1844382.61749  23831599.6004   23831603.4754   23831599.2384
       210.0004        143.0004
 -12874008.34549 -10010720.39349  22506459.5584   22506461.8854   22506460.8564
       227.0004        175.0004
 -22236614.37349 -17009129.12949  20786511.7014   20786513.8104   20786511.3354
       244.0004        199.0004
  -7272137.82149  -5647836.58649  23484063.7324   23484065.1924   23484064.2634
       215.0004        158.0004
 -10993640.50549  -8548052.53449  22392750.6274   22392752.5564   22392750.5564
       228.0004        168.0004
 11 10 10  1 54  0.0000000  0  7G26G05G10G07G08G15G28
 -20732118.97649 -16132396.64449  20424451.8984   20424453.8404   20424451.9804
       241.0004        198.0004
 -21783586.42149 -16941389.96949  20826418.8044   20826421.6334   20826419.4614
       238.0004        200.0004
  -2588383.21949  -1756852.81149  23852975.2814   23852978.4044   23852973.9774
       211.0004        145.0004
 -12787160.96949  -9943047.11849  22522987.4514   22522988.9964   22522987.3404
       227.0004        175.0004
 -22198059.30049 -16979086.22149  20793848.1654   20793850.5334   20793847.4294
       242.0004        198.0004
  -7365276.45049  -5720412.13449  23466340.5224   23466340.9744   23466339.9874
       213.0004        154.0004
 -11063661.86349  -8602614.61849  22379426.2774   22379428.4034   22379426.4544
       229.0004        170.0004
 11 10 10  1 54 30.0000000  0  8G26G05G10G21G07G08G15G28
 -20784938.13249 -16173554.43649  20414400.4344   20414402.9294   20414400.8354
       241.0004        198.0004
 -21749924.36449 -16915159.80449  20832824.5874   20832827.2724   20832825.3074
       239.0004        201.0004
  -2475926.24149  -1669224.02549  23874375.0284   23874378.3184   23874375.4594
       211.0004        144.0004
   -115951.69749    -85029.22749  24986894.8034
       204.0004        109.0004
 -12700090.06249  -9875199.66649  22539555.2104   22539558.2214   22539556.9064
       226.0004        174.0004
 -22159076.79149 -16948710.25549  20801265.9734   20801268.4634   20801266.0814
       242.0004        198.0004
  -7458297.45349  -5792896.04649  23448638.7814   23448639.8804   23448638.9024
       215.0004        156.0004
 -11133293.98749  -8656873.40049  22366174.6694   22366177.6424   22366175.3984
       228.0004        170.0004
 11 10 10  1 55  0.0000000  0  8G26G05G10G21G07G08G15G28
 -20837346.48249 -16214392.10849  20404427.5594   20404429.8544   20404428.0104
       241.0004        198.0004
 -21715701.23249 -16888492.43849  20839337.3094   20839339.6334   20839337.6704
       239.0004        201.0004
  -2363344.74349  -1581498.19349  23895799.0614   23895802.0634   23895798.5244
       210.0004        143.0004
    -18657.16249     -8535.32849  24979301.9554
       204.0004         74.0004
 -12612797.77149  -9807179.71149  22556166.9004   22556169.8974   22556167.5464
       227.0004        176.0004
 -22119668.53549 -16918002.52549  20808765.3964   20808767.6964   20808764.8504
       242.0004        198.0004
  -7551200.15549  -5865287.78049  23430960.1084   23430960.7774   23430959.4244
       217.0004        158.0004
 -11202534.93649  -8710827.35649  22352999.4724   22353002.0794   22352998.3974
       228.0004        171.0004
 11 10 10  1 55 30.0000000  0  8G26G05G10G21G07G08G15G28
 -20889341.74249 -16254907.84849  20394532.3784   20394535.0064   20394532.9544
       241.0004        198.0004
 -21680916.92249 -16861387.80949  20845956.8264   20845958.6734   20845957.1764
       239.0004        200.0004
  -2250639.91049  -1493676.27149  23917247.3074   23917251.1634   23917244.8764
       213.0004        146.0004
    -58090.00049    -39263.96649  24971796.4674
       204.0004        111.0004
 -12525285.19649  -9738988.10749  22572821.0134   22572822.5954   22572820.5584
       227.0004        174.0004
 -22079835.10549 -16886963.50249  20816345.3964   20816347.6944   20816345.2954
       243.0004        199.0004
  -7643982.40249  -5937585.68649  23413302.8444   23413305.0844   23413303.3024
       216.0004        156.0004
 -11271381.59749  -8764474.08749  22339898.5464   22339900.8414   22339897.8694
       228.0004        172.0004
 11 10 10  1 56  0.0000000  0  7G26G05G10G07G08G15G28
 -20940923.03849 -16295101.03549  20384716.9584   20384719.4354   20384717.2514
       243.0004        198.0004
 -21645572.76449 -16833846.94049  20852681.9044   20852684.5254   20852682.4334
       239.0004        200.0004
  -2137814.41049  -1405760.30449  23938716.6474   23938719.3844   23938716.3404
       211.0004        145.0004
 -12437554.58049  -9670626.58449  22589514.6254   22589517.2934   22589513.4974
       226.0004        171.0004
 -22039578.23149 -16855594.51849  20824006.9974   20824008.5814   20824005.8154
       244.0004        199.0004
  -7736643.44649  -6009789.09749  23395671.4874   23395672.3064   23395672.1784
       217.0004        158.0004
 -11339832.22349  -8817812.22149  22326871.6684   22326875.3184   22326872.7054
       228.0004        173.0004
 11 10 10  1 56 30.0000000  0  8G26G05G10G21G07G08G15G28
 -20992089.51649 -16334970.99349  20374980.6654   20374982.6214   20374980.6044
       242.0004        199.0004
 -21609669.81849 -16805870.66949  20859514.8354   20859517.1904   20859515.1544
       240.0004        201.0004
  -2024870.70849  -1317752.22849  23960207.5364   23960213.2144   23960207.2044
       209.0004        143.0004
   -135529.16849     -6236.78349  24957064.3194
       204.0004         74.0004
 -12349608.19049  -9602096.96949  22606250.7964   22606253.2194   22606251.2334
       226.0004        172.0004
 -21998900.05749 -16823897.25849  20831746.0404   20831749.0704   20831746.0694
       242.0004        197.0004
  -7829182.69149  -6081897.60849  23378061.9724   23378062.4344   23378062.6354
       220.0004        158.0004
 -11407884.96949  -8870840.31349  22313922.0904   22313924.1274   22313922.2604
       227.0004        171.0004
 11 10 10  1 57  0.0000000  0  8G26G05G10G21G07G08G15G28
 -21042839.36549 -16374516.29249  20365322.7414   20365325.6994   20365322.8924
       241.0004        198.0004
 -21573208.41749 -16777459.22049  20866453.0764   20866455.7084   20866453.2284
       240.0004        200.0004
  -1911810.46149  -1229653.34449  23981722.1404   23981725.9464   23981720.7894
       211.0004        145.0004
   -173533.18049    -35850.49149  24949829.2284
       204.0004        127.0004
 -12261447.37949  -9533400.25449  22623027.2914   22623029.0954   22623027.6164
       226.0004        173.0004
 -21957801.06049 -16791872.06849  20839567.6714   20839570.1834   20839567.3754
       243.0004        198.0004
  -7921597.79649  -6153909.39049  23360474.8004   23360475.8904   23360475.0164
       218.0004        156.0004
 -11475536.94349  -8923556.11449  22301048.2454   22301051.5964   22301048.1194
       228.0004        173.0004
 11 10 10  1 57 30.0000000  0  8G26G05G10G21G07G08G15G28
 -21093171.73149 -16413736.29449  20355744.8304   20355747.8384   20355744.8674
       242.0004        199.0004
 -21536190.17249 -16748613.86749  20873497.3024   20873499.8354   20873498.0284
       240.0004        201.0004
  -1798635.81549  -1141465.30449  24003257.9844   24003263.3544   24003258.8624
       208.0004        144.0004
   -211058.73049    -65091.10249  24942687.2314
       206.0004        131.0004
 -12173074.67149  -9464538.42149  22639844.2434   22639846.0284   22639844.0634
       228.0004        173.0004
 -21916283.52749 -16759520.75649  20847468.4984   20847470.4614   20847468.0504
       243.0004        198.0004
  -8013887.99949  -6225823.82449  23342913.9284   23342914.0084   23342913.5664
       218.0004        160.0004
 -11542786.79249  -8975958.58449  22288252.4634   22288254.2174   22288251.2424
       230.0004        174.0004
 11 10 10  1 58  0.0000000  0  8G26G05G10G21G07G08G15G28
 -21143085.84949 -16452630.40049  20346246.8074   20346249.1714   20346246.9804
       243.0004        199.0004
 -21498615.70749 -16719335.10449  20880648.3514   20880649.7454   20880648.5164
       241.0004        201.0004
  -1685349.64349  -1053190.40449  24024816.7004   24024822.1154   24024815.8964
       208.0004        145.0004
   -248104.99949    -93958.20949  24935638.7844   24935640.1834
       206.0004        133.0004
 -12084492.30849  -9395513.22149  22656700.6094   22656702.1724   22656700.3994
       227.0004        171.0004
 -21874349.04649 -16726844.54249  20855448.3614   20855450.6274   20855447.9284
       243.0004        198.0004
  -8106052.69249  -6297640.47349  23325374.7184   23325375.6044   23325375.5404
       217.0004        160.0004
 -11609632.49549  -9028046.11349  22275531.9494   22275533.4174   22275531.0164
       230.0004        173.0004
 11 10 10  1 58 30.0000000  0  8G26G05G10G21G07G08G15G28
 -21192579.44649 -16491196.84449  20336828.3484   20336830.9944   20336828.8944
       242.0004        199.0004
 -21460485.20649 -16689623.03349  20887903.2234   20887905.6004   20887903.6104
       240.0004        200.0004
  -1571953.03549   -964829.42449  24046395.7914   24046399.7174   24046396.0774
       213.0004        145.0004
   -284670.20749   -122450.58249  24928678.2514   24928681.6574   24928681.6294
       206.0004        134.0004
 -11995701.28749  -9326325.43249  22673596.9234   22673598.2464   22673598.0774
       228.0004        171.0004
 -21831998.26749 -16693843.94849  20863507.1164   20863509.7834   20863506.8784
       242.0004        197.0004
  -8198089.96449  -6369357.86749  23307859.9894   23307860.6534   23307859.5974
       220.0004        157.0004
 -11676071.33449  -9079816.62049  22262888.3054   22262890.2634   22262888.8504
       230.0004        173.0004
 11 10 10  1 59  0.0000000  0  8G26G05G10G21G07G08G15G28
 -21241651.64049 -16529434.92449  20327490.0904   20327492.5374   20327490.0194
       242.0004        199.0004
 -21421799.82449 -16659478.59049  20895265.8714   20895267.2524   20895265.7154
       240.0004        200.0004
  -1458448.45349   -876384.29149  24067995.3494   24067996.9884   24067994.6584
       210.0004        144.0004
   -320753.19149   -150567.16749  24921814.7014   24921814.4664   24921813.9544
       208.0004        136.0004
 -11906703.51349  -9256976.52449  22690533.2634   22690534.0484   22690534.3334
       229.0004        171.0004
 -21789233.13549 -16660520.48049  20871645.2214   20871647.4444   20871645.0164
       243.0004        197.0004
  -8289998.17749  -6440974.64649  23290371.3134   23290371.7124   23290372.2874
       219.0004        158.0004
 -11742101.27449  -9131268.50649  22250323.8114   22250325.2554   22250322.6534
       229.0004        173.0004
 11 10 10  1 59 30.0000000  0  8G26G05G10G21G07G08G15G28
 -21290301.32049 -16567343.80549  20318232.4684   20318234.7224   20318232.7734
       242.0004        199.0004
 -21382561.41549 -16628903.21949  20902731.5194   20902734.2514   20902732.0464
       240.0004        199.0004
  -1344838.55849   -787857.13149  24089615.3694   24089617.9674   24089614.2534
       212.0004        143.0004
   -356353.63549   -178307.75049  24915037.9864   24915041.8854   24915039.2294
       200.0004        134.0004
 -11817500.94049  -9187468.01549  22707508.7714   22707509.2314   22707509.4824
       230.0004        174.0004
 -21746055.58849 -16626875.65349  20879861.9494   20879863.7704   20879861.4454
       243.0004        197.0004
  -8381777.08149  -6512490.64049  23272904.8934   23272907.5424   23272906.9234
       219.0004        161.0004
 -11807720.52049  -9182400.36649  22237835.6274   22237838.8034   22237835.9964
       228.0004        174.0004
 11 10 10  2  0  0.0000000  0  8G26G05G10G21G07G08G15G28
 -21338527.78949 -16604922.88149  20309055.4814   20309058.2634   20309055.5084
       242.0004        199.0004
 -21342771.14749 -16597897.82749  20910304.0724   20910306.1804   20910304.5414
       240.0004        199.0004
  -1231125.84449   -699249.83249  24111254.8774   24111257.5644   24111253.4344
       213.0004        143.0004
   -391470.73949   -205671.71849  24908356.0074   24908357.0714   24908355.8054
       207.0004        135.0004
 -11728096.26649  -9117802.04749  22724521.1594   22724522.5084   22724520.7884
       229.0004        174.0004
 -21702467.31249 -16592910.77549  20888156.4444   20888158.4834   20888155.9684
       244.0004        197.0004
  -8473425.55649  -6583904.96549  23255465.8144   23255467.1004   23255464.7814
       218.0004        159.0004
 -11872927.26149  -9233210.79849  22225427.8534   22225429.7094   22225427.8614
       230.0004        174.0004
 11 10 10  2  0 30.0000000  0  8G26G05G10G21G07G08G15G28
 -21386328.89649 -16642170.48849  20299958.6234   20299961.5574   20299959.1704
       241.0004        198.0004
 -21302428.72249 -16566462.15849  20917980.6744   20917983.0404   20917980.9554
       241.0004        199.0004
  -1117311.52249   -610563.35149  24132912.5774   24132914.5634   24132910.6814
       209.0004        140.0004
   -426102.08649   -232657.16249  24901766.9474   24901766.8674   24901766.7764
       207.0004        137.0004
 -11638490.46649  -9047979.34949  22741571.7854   22741573.7544   22741572.3294
       228.0004        173.0004
 -21658468.83749 -16558626.25549  20896529.1884   20896531.3704   20896528.7164
       244.0004        198.0004
  -8564941.79749  -6655216.40349  23238051.2554   23238051.1824   23238051.7714
       221.0004        159.0004
 -11937718.87349  -9283697.73849  22213097.6384   22213099.4024   22213097.5764
       229.0004        174.0004
 11 10 10  2  1  0.0000000  0  8G26G05G10G21G07G08G15G28
 -21433704.29349 -16679086.38749  20290943.3604   20290946.3384   20290943.7674
       241.0004        198.0004
 -21261536.21049 -16534597.86549  20925762.3014   20925764.7024   20925762.9044
       241.0004        200.0004
  -1003398.54649   -521800.01749  24154589.8574   24154592.0744   24154588.0594
       211.0004        140.0004
   -460248.51749   -259264.74349  24895268.6274   24895269.5454   24895267.2114
       206.0004        137.0004
 -11548686.45249  -8978002.19949  22758660.9204   22758661.8534   22758661.2094
       226.0004        170.0004
 -21614063.11949 -16524024.40449  20904979.2744   20904981.5244   20904978.5824
       244.0004        198.0004
  -8656325.03149  -6726424.11749  23220659.8944   23220661.7194   23220660.3104
       217.0004        159.0004
 -12002093.95649  -9333860.11749  22200848.3764   22200850.6304   22200848.7124
       231.0004        177.0004
 11 10 10  2  1 30.0000000  0  8G26G05G10G21G07G08G15G28
 -21480650.87549 -16715668.11949  20282009.8934   20282012.3934   20282009.8234
       241.0004        199.0004
 -21220092.91149 -16502304.39849  20933648.9964   20933651.1954   20933648.8254
       240.0004        200.0004
   -889387.32849   -432960.12949  24176284.9514   24176288.0734   24176282.4594
       208.0004        139.0004
   -493906.57749   -285491.78649  24888864.5714   24888865.8714   24888864.2464
       209.0004        136.0004
 -11458684.11849  -8907870.51849  22775788.1654   22775789.5694   22775787.9684
       227.0004        170.0004
 -21569249.38949 -16489104.61649  20913506.6404   20913508.7204   20913506.2784
       244.0004        198.0004
  -8747572.38349  -6797525.92649  23203297.0464   23203298.8644   23203297.9184
       219.0004        161.0004
 -12066048.83149  -9383695.06549  22188677.9534   22188680.8574   22188677.8374
       230.0004        175.0004
 11 10 10  2  2  0.0000000  0  8G26G05G10G21G07G08G15G28
 -21527169.76149 -16751916.58949  20273157.6484   20273160.4214   20273157.9524
       241.0004        198.0004
 -21178102.21649 -16469584.36149  20941638.9274   20941641.4484   20941639.3854
       240.0004        200.0004
   -775282.01449   -344046.93749  24197999.6604   24197999.8744   24197997.1834
       208.0004        138.0004
   -527078.05049   -311339.65049  24882550.6714   24882553.6044   24882550.2484
       211.0004        136.0004
 -11368487.36749  -8837587.34249  22792952.3454   22792953.4654   22792952.6534
       225.0004        170.0004
 -21524031.61649 -16453869.99049  20922111.9054   20922114.0154   20922111.0934
       244.0004        199.0004
  -8838684.95249  -6868522.72549  23185958.2924   23185958.9064   23185958.8214
       216.0004        159.0004
 -12129583.71949  -9433202.75949  22176587.1804   22176589.7464   22176587.8344
       231.0004        175.0004
 11 10 10  2  2 30.0000000  0  8G26G05G10G21G07G08G15G28
 -21573258.44749 -16787829.84549  20264387.6514   20264390.1214   20264387.8554
       242.0004        199.0004
 -21135563.76749 -16436437.50749  20949733.9224   20949736.6074   20949734.5624
       240.0004        200.0004
   -661083.47549   -255061.05649  24219730.9824   24219732.5304   24219727.8694
       209.0004        138.0004
   -559760.37749   -336806.40049  24876333.2304   24876333.6654   24876332.4544
       211.0004        137.0004
 -11278096.67949  -8767153.05949  22810152.1204   22810154.5344   22810152.7714
       223.0004        169.0004
 -21478410.07849 -16418320.74749  20930792.8284   20930795.3674   20930792.3784
       244.0004        198.0004
  -8929659.79049  -6939412.25249  23168645.5174   23168647.0814   23168646.4324
       219.0004        158.0004
 -12192695.25449  -9482380.55549  22164578.8474   22164579.6024   22164577.2464
       231.0004        175.0004
 11 10 10  2  3  0.0000000  0  8G26G05G10G21G07G08G15G28
 -21618916.31849 -16823407.41849  20255698.8864   20255701.6294   20255699.4754
       241.0004        199.0004
 -21092479.36149 -16402865.24449  20957933.6624   20957935.2854   20957933.6724
       242.0004        200.0004
   -546794.81849   -166004.99149  24241479.0344   24241481.7454   24241477.8334
       210.0004        138.0004
   -591952.83249   -361891.41049  24870205.6694   24870207.7254   24870205.0814
       210.0004        137.0004
 -11187514.76749  -8696569.77449  22827388.8664   22827391.1434   22827389.2644
       223.0004        167.0004
 -21432386.73949 -16382458.42049  20939551.0724   20939552.8534   20939550.9234
       244.0004        198.0004
  -9020496.58949  -7010194.28449  23151360.6184   23151363.4264   23151361.0214
       217.0004        160.0004
 -12255382.18849  -9531227.48449  22152648.4134   22152650.5914   22152648.6664
       229.0004        174.0004
 11 10 10  2  3 30.0000000  0  8G26G05G10G21G07G08G15G28
 -21664142.37749 -16858648.50649  20247092.5444   20247095.7444   20247092.6854
       241.0004        199.0004
 -21048850.30549 -16368868.59449  20966235.7644   20966237.3524   20966235.8554
       240.0004        199.0004
   -432418.34449    -76880.50249  24263242.4254   24263246.0204   24263241.4364
       207.0004        139.0004
   -623655.52849   -386594.77649  24864172.5554   24864175.3584   24864173.2864
       210.0004        137.0004
 -11096743.65849  -8625839.03349  22844663.3644   22844665.9644   22844662.5664
       222.0004        167.0004
 -21385963.38949 -16346284.38449  20948385.8434   20948387.5664   20948385.0544
       245.0004        199.0004
  -9111194.26749  -7080867.82349  23134101.4134   23134104.3744   23134102.1794
       218.0004        162.0004
 -12317642.73149  -9579742.18549  22140800.6474   22140804.1884   22140800.3384
       229.0004        175.0004
 11 10 10  2  4  0.0000000  0  8G26G05G10G21G07G08G15G28
 -21708934.49449 -16893551.44949  20238569.1974   20238572.3814   20238569.5454
       243.0004        199.0004
 -21004676.94249 -16334447.82149  20974640.6584   20974643.3804   20974641.6404
       240.0004        199.0004
   -317955.31549     12311.47149  24285023.4864   24285028.0024   24285022.1254
       204.0004        137.0004
   -654866.19649   -410914.77749  24858232.3444   24858236.2534   24858232.3604
       204.0004        134.0004
 -11005784.34149  -8554961.65649  22861971.7514   22861973.6484   22861971.9274
       223.0004        167.0004
 -21339141.13149 -16309799.51549  20957294.8854   20957298.0654   20957294.5974
       244.0004        199.0004
  -9201750.50149  -7151431.14549  23116868.9514   23116870.6744   23116869.8814
       217.0004        160.0004
 -12379473.79949  -9627922.21249  22129034.9824   22129037.6414   22129034.6684
       228.0004        175.0004
 11 10 10  2  4 30.0000000  0  8G26G05G10G21G07G08G15G28
 -21753291.71249 -16928115.51949  20230128.3094   20230130.9874   20230128.2864
       242.0004        199.0004
 -20959960.41349 -16299603.79949  20983150.3654   20983152.9264   20983150.3314
       240.0004        199.0004
   -203407.86549    101569.20749  24306821.1424   24306826.3804   24306820.5834
       205.0004        135.0004
   -685583.62249   -434850.42149  24852387.8494   24852391.9284   24852386.3374
       202.0004        135.0004
 -10914638.63249  -8483939.05149  22879316.4484   22879318.6084   22879316.9484
       224.0004        169.0004
 -21291921.13049 -16273004.71349  20966280.7174   20966283.1184   20966280.3264
       245.0004        199.0004
  -9292164.00249  -7221883.21849  23099665.1024   23099665.9284   23099664.4064
       219.0004        160.0004
 -12440873.70549  -9675766.27949  22117351.0894   22117353.5774   22117351.0464
       231.0004        173.0004
 11 10 10  2  5  0.0000000  0  8G26G05G10G21G07G08G15G28
 -21797213.75949 -16962340.52949  20221770.6814   20221773.0364   20221770.7524
       243.0004        200.0004
 -20914702.83949 -16264338.16349  20991762.0694   20991765.0384   20991762.9474
       237.0004        198.0004
    -88779.23849    190890.17649  24328633.2694   24328640.0314   24328633.0844
       206.0004        136.0004
   -715808.83749   -458402.54049  24846636.9244   24846636.8564   24846635.1374
       205.0004        135.0004
 -10823309.42349  -8412773.45949  22896696.4994   22896698.5374   22896697.2854
       224.0004        169.0004
 -21244306.13749 -16235902.12749  20975341.5324   20975343.9544   20975341.1314
       244.0004        198.0004
  -9382434.58549  -7292223.82349  23082484.3544   23082488.5784   23082485.9794
       217.0004        161.0004
 -12501841.51649  -9723273.64349  22105748.4064   22105751.9344   22105748.7384
       229.0004        175.0004
 11 10 10  2  5 30.0000000  0  8G26G05G10G21G07G08G15G28
 -21840698.14849 -16996224.51849  20213495.1384   20213497.8554   20213495.4954
       242.0004        200.0004
 -20868904.08349 -16228650.81449  21000478.0304   21000480.0754   21000478.1974
       237.0004        198.0004
     25929.83949    280273.85349  24350462.1584   24350465.6234   24350461.5224
       206.0004        136.0004
   -745539.31449   -481569.15749  24840978.6694   24840982.0224   24840979.2814
       203.0004        135.0004
 -10731796.88749  -8341465.02049  22914110.9114   22914112.9774   22914110.7134
       225.0004        170.0004
 -21196296.21249 -16198491.81149  20984477.5244   20984479.8184   20984477.0024
       244.0004        198.0004
  -9472559.61449  -7362451.05649  23065335.7604   23065338.4414   23065336.5244
       220.0004        163.0004
 -12562373.98149  -9770441.77249  22094230.1624   22094232.7014   22094229.7564
       230.0004        174.0004
 11 10 10  2  6  0.0000000  0  8G26G05G10G21G07G08G15G28
 -21883744.82149 -17029767.43649  20205304.3754   20205306.4484   20205304.8864
       243.0004        200.0004
 -20822566.36449 -16192543.52149  21009295.7764   21009298.0604   21009296.0654
       237.0004        197.0004
    140716.02149    369717.65649  24372306.0004   24372311.2554   24372305.7194
       207.0004        134.0004
   -774775.61549   -504350.66049  24835414.6874   24835414.7514   24835415.4684
       204.0004        132.0004
 -10640104.31649  -8270016.28249  22931558.4964   22931559.2964   22931559.3044
       224.0004        169.0004
 -21147894.66849 -16160776.33349  20993688.1194   20993690.0404   20993687.6214
       241.0004        198.0004
  -9562539.10649  -7432564.94849  23048213.7844   23048215.2894   23048214.0324
       218.0004        162.0004
 -12622470.68549  -9817270.35749  22082794.3764   22082796.2204   22082794.5534
       230.0004        175.0004
 11 10 10  2  6 30.0000000  0  8G26G05G10G21G07G08G15G28
 -21926352.11549 -17062967.96849  20197196.6574   20197198.4354   20197196.5904
       242.0004        200.0004
 -20775690.63449 -16156017.00649  21018214.5504   21018218.2784   21018215.6584
       236.0004        197.0004
    255577.68649    459220.22349  24394162.7774   24394164.7354   24394161.7034
       208.0004        138.0004
   -803516.07749   -526745.81249  24829948.6614   24829947.2634   24829947.3174
       206.0004        132.0004
 -10548233.00449  -8198428.23749  22949041.9694   22949043.2984   22949042.7424
       225.0004        168.0004
 -21099102.40849 -16122756.41149  21002972.2134   21002974.9974   21002972.1214
       240.0004        197.0004
  -9652371.47149  -7502564.23949  23031118.1774   23031120.4094   23031119.2354
       218.0004        161.0004
 -12682128.69449  -9863757.09449  22071441.6194   22071443.9814   22071441.1754
       231.0004        175.0004
 11 10 10  2  7  0.0000000  0  8G26G05G10G21G07G08G15G28
 -21968518.90649 -17095825.22949  20189172.0004   20189174.5914   20189172.2334
       241.0004        199.0004
 -20728278.33749 -16119072.38349  21027237.8624   21027240.1654   21027238.7254
       237.0004        197.0004
    370512.65449    548779.92349  24416036.9664   24416040.4764   24416035.8354
       210.0004        139.0004
   -831759.84749   -548753.91549  24824572.4034   24824574.0164   24824572.0024
       207.0004        131.0004
 -10456184.95749  -8126702.51549  22966557.5224   22966560.1424   22966557.2594
       225.0004        167.0004
 -21049920.82349 -16084433.10349  21012332.4544   21012334.4444   21012331.7994
       241.0004        197.0004
  -9742055.11149  -7572447.57249  23014053.5164   23014055.4144   23014054.7634
       221.0004        165.0004
 -12741346.45649  -9909900.77749  22060172.9064   22060174.9574   22060172.8804
       232.0004        176.0004
 11 10 10  2  7 30.0000000  0  8G26G05G10G21G07G08G15G28
 -22010244.00449 -17128338.29149  20181232.0684   20181234.6064   20181232.0934
       243.0004        200.0004
 -20680330.89949 -16081710.74649  21036362.6564   21036364.6814   21036362.7764
       237.0004        197.0004
    485518.72649    638395.01549  24437919.2614   24437924.3354   24437918.8434
       206.0004        137.0004
   -859506.71449   -570374.83749  24819292.7884   24819293.2064   24819290.6004
       204.0004        131.0004
 -10363962.02249  -8054840.47649  22984105.8764   22984109.1924   22984106.6374
       224.0004        169.0004
 -21000351.76049 -16045807.86849  21021764.0844   21021767.0834   21021763.9624
       240.0004        196.0004
  -9831589.15849  -7642214.34149  22997014.4354   22997016.8094   22997015.6134
       217.0004        164.0004
 -12800122.11249  -9955699.97649  22048988.4344   22048991.2474   22048988.2324
       231.0004        176.0004
 11 10 10  2  8  0.0000000  0  8G26G05G10G21G07G08G15G28
 -22051526.20749 -17160506.23849  20173376.0624   20173378.9914   20173376.6584
       241.0004        201.0004
 -20631849.11449 -16043932.75249  21045587.2904   21045590.2254   21045588.3584
       236.0004        197.0004
    600593.95049    728064.00449  24459820.3234   24459820.8604   24459818.1404
       210.0004        138.0004
   -886755.37349   -591607.54149  24814106.2894   24814108.3464   24814104.3844
       202.0004        131.0004
 -10271565.39449  -7982843.09749  23001688.3374   23001691.1594   23001689.6374
       224.0004        169.0004
 -20950396.43749 -16006881.64049  21031270.8104   21031272.8844   21031270.3034
       241.0004        196.0004
  -9920971.35449  -7711862.76949  22980006.5594   22980008.3644   22980006.7524
       221.0004        164.0004
 -12858453.48049 -10001152.96249  22037887.8474   22037890.1624   22037888.3204
       231.0004        177.0004
 11 10 10  2  8 30.0000000  0  8G26G05G10G21G07G08G15G28
 -22092363.96849 -17192327.90649  20165604.9734   20165607.5714   20165605.0514
       242.0004        201.0004
 -20582834.04049 -16005739.23649  21054915.5354   21054917.9174   21054915.9274
       236.0004        197.0004
    715736.57749    817785.52049  24481728.5744   24481733.5954   24481728.8954
       209.0004        139.0004
   -913505.12849   -612451.51249  24809016.7224   24809019.7124   24809016.7364
       203.0004        130.0004
 -10178997.00049  -7910711.90249  23019304.2084   23019306.4784   23019304.8664
       225.0004        165.0004
 -20900056.31149 -15967655.56549  21040849.8424   21040852.9564   21040849.6604
       240.0004        197.0004
 -10010200.69349  -7781392.10949  22963027.3504   22963027.3284   22963026.8954
       224.0004        164.0004
 -12916338.69849 -10046258.30849  22026873.8164   22026875.3274   22026873.1854
       233.0004        177.0004
 11 10 10  2  9  0.0000000  0  8G26G05G10G21G07G08G15G28
 -22132757.01149 -17223803.06449  20157918.8004   20157921.4584   20157919.0584
       242.0004        201.0004
 -20533287.64249 -15967131.66749  21064341.7314   21064346.0344   21064342.9234
       235.0004        197.0004
    830943.81749    907557.35249  24503652.0214   24503656.4104   24503650.3284
       206.0004        137.0004
   -939755.65049   -632906.45449  24804021.4344   24804021.1604   24804021.9134
       203.0004        131.0004
 -10086258.87849  -7838448.41949  23036951.7224   23036953.8804   23036953.0774
       222.0004        164.0004
 -20849333.71249 -15928131.46749  21050502.1764   21050504.8624   21050501.9064
       240.0004        197.0004
 -10099276.03749  -7850801.51749  22946076.8824   22946078.6174   22946077.2094
       222.0004        167.0004
 -12973776.25549 -10091014.81449  22015942.6264   22015944.8654   22015942.0264
       230.0004        177.0004
 11 10 10  2  9 30.0000000  0  8G26G05G10G21G07G08G15G28
 -22172703.60949 -17254930.30549  20150317.7974   20150319.8554   20150317.6364
       243.0004        202.0004
 -20483211.07749 -15928110.99849  21073872.8714   21073875.0684   21073873.4944
       237.0004        196.0004
    946213.43249    997377.79049  24525589.7634   24525589.0294   24525588.0434
       207.0004        135.0004
   -965506.08249   -652971.72349  24799122.5564   24799121.4114   24799121.0794
       203.0004        132.0004
  -9993352.66349  -7766053.96149  23054631.4634   23054634.1004   23054631.7614
       222.0004        165.0004
 -20798230.04049 -15888310.42549  21060226.8004   21060229.0384   21060226.5374
       240.0004        196.0004
 -10188196.45349  -7920090.13749  22929154.7094   22929157.3664   22929154.8074
       221.0004        167.0004
 -13030764.61449 -10135421.31549  22005098.4994   22005100.2584   22005098.4384
       233.0004        176.0004
 11 10 10  2 10  0.0000000  0  8G26G05G10G21G07G08G15G28
 -22212203.47549 -17285709.47549  20142800.5944   20142803.5374   20142801.2424
       242.0004        201.0004
 -20432606.23349 -15888678.67249  21083502.6784   21083505.3484   21083503.2774
       237.0004        196.0004
   1061543.13949   1087245.10949  24547534.9814   24547538.1204   24547534.3224
       211.0004        138.0004
   -990756.22749   -672647.15349  24794315.7754   24794315.6874   24794317.3074
       207.0004        132.0004
  -9900280.60549  -7693530.28749  23072342.7454   23072344.5294   23072343.0904
       222.0004        165.0004
 -20746747.19549 -15848193.93549  21070023.8504   21070026.5814   21070023.4274
       240.0004        196.0004
 -10276960.82249  -7989257.14349  22912263.4914   22912265.6684   22912265.0714
       223.0004        167.0004
 -13087302.07249 -10179476.47249  21994339.5414   21994341.7914   21994339.3714
       232.0004        178.0004
 11 10 10  2 10 30.0000000  0  8G26G05G10G21G07G08G15G28
 -22251254.23849 -17316138.62649  20135370.0624   20135372.5924   20135369.9094
       243.0004        202.0004
 -20381473.27049 -15848834.81949  21093232.5494   21093235.3154   21093232.8954
       235.0004        196.0004
   1176931.91749   1177158.42949  24569493.1364   24569496.3154   24569491.6034
       209.0004        139.0004
  -1015504.71049   -691931.68649  24789606.5824   24789608.4494   24789606.3634
       207.0004        133.0004
  -9807043.57749  -7620878.07349  23090084.4674   23090087.0894   23090084.8244
       219.0004        163.0004
 -20694885.86549 -15807782.52149  21079892.7164   21079895.3384   21079892.2184
       239.0004        194.0004
 -10365566.73649  -8058300.73049  22895402.8724   22895402.8604   22895403.2714
       222.0004        165.0004
 -13143386.03149 -10223178.24149  21983667.4394   21983669.8944   21983667.0004
       233.0004        178.0004
 11 10 10  2 11  0.0000000  0  8G26G05G10G21G07G08G15G28
 -22289855.51149 -17346217.50749  20128023.8434   20128026.8014   20128023.9414
       242.0004        202.0004
 -20329814.56749 -15808581.30949  21103062.0434   21103066.0674   21103063.0654
       235.0004        195.0004
   1292376.47349   1267115.21549  24591458.0654   24591464.5514   24591458.4644
       201.0004        135.0004
  -1039751.33749   -710825.15249  24784992.8584   24784994.1484   24784992.7424
       206.0004        134.0004
  -9713644.33149  -7548099.44549  23107857.4754   23107860.1994   23107857.4754
       217.0004        162.0004
 -20642648.37649 -15767078.00149  21089832.7804   21089836.0184   21089832.4694
       239.0004        194.0004
 -10454013.70949  -8127220.49549  22878571.0734   22878574.2484   22878571.7654
       220.0004        168.0004
 -13199015.39249 -10266525.76949  21973080.9074   21973083.8664   21973081.1854
       232.0004        180.0004
 11 10 10  2 11 30.0000000  0  8G26G05G10G21G07G08G15G28
 -22328006.23449 -17375945.30449  20120764.1814   20120766.5744   20120764.3254
       242.0004        201.0004
 -20277631.50649 -15767919.21049  21112993.3614   21112995.5064   21112993.8974
       236.0004        196.0004
   1407874.61249   1357113.70949  24613440.9564   24613443.1044   24613437.7214
       209.0004        138.0004
  -1063495.88049   -729327.39649  24780474.4354   24780475.5594   24780474.2004
       207.0004        137.0004
  -9620084.47949  -7475195.67449  23125662.1514   23125663.9954   23125662.1354
       221.0004        164.0004
 -20590036.59549 -15726081.81549  21099844.0184   21099847.4304   21099843.8184
       238.0004        194.0004
 -10542300.58749  -8196015.48249  22861771.7194   22861773.0314   22861772.1634
       222.0004        168.0004
 -13254188.73249 -10309517.97149  21962582.9124   21962584.1944   21962582.2964
       234.0004        179.0004
 11 10 10  2 12  0.0000000  0  8G26G05G10G21G07G08G15G28
 -22365705.07049 -17405320.98449  20113590.0144   20113592.7334   20113590.0564
       242.0004        201.0004
 -20224924.96649 -15726849.20849  21123024.0564   21123025.6994   21123024.0014
       237.0004        196.0004
   1523425.23149   1447153.14949  24635426.4414   24635431.2534   24635426.9384
       208.0004        135.0004
  -1086736.93149   -747437.30849  24776051.6004   24776054.4734   24776053.3244
       208.0004        137.0004
  -9526364.95849  -7402167.46649  23143495.6314   23143498.0544   23143495.8374
       223.0004        163.0004
 -20537051.34549 -15684794.60949  21109927.4504   21109930.3724   21109927.0214
       239.0004        194.0004
 -10630424.76649  -8264683.64949  22845002.7404   22845003.8094   22845002.0964
       224.0004        168.0004
 -13308903.33549 -10352152.71949  21952171.0264   21952172.4064   21952169.9474
       233.0004        180.0004
 11 10 10  2 12 30.0000000  0  8G26G05G10G21G07G08G15G28
 -22402950.74149 -17434343.59149  20106502.3294   20106505.2164   20106502.6414
       242.0004        202.0004
 -20171696.78449 -15685372.74049  21133151.5694   21133154.6214   21133151.9864
       237.0004        196.0004
   1639025.66749   1537231.41749  24657426.0254   24657428.5744   24657427.1084
       207.0004        135.0004
  -1109474.02049   -765154.51449  24771725.3294   24771725.6954   24771725.2544
       206.0004        135.0004
  -9432487.74749  -7329016.36949  23161360.1974   23161362.2104   23161360.0904
       223.0004        164.0004
 -20483694.54349 -15643217.86749  21120080.8774   21120083.4694   21120080.2644
       239.0004        194.0004
 -10718385.62049  -8333224.55949  22828263.0994   22828265.2744   22828265.0814
       223.0004        167.0004
 -13363157.92149 -10394428.99749  21941845.7674   21941847.7674   21941845.8384
       233.0004        180.0004
 11 10 10  2 13  0.0000000  0  8G26G05G10G21G07G08G15G28
 -22439743.01249 -17463012.90049  20099501.6724   20099504.1014   20099501.4514
       241.0004        202.0004
 -20117948.77649 -15643491.20349  21143379.7274   21143382.6974   21143380.2384
       237.0004        196.0004
   1754673.31049   1627346.42249  24679432.2594   24679437.2574   24679431.0254
       206.0004        134.0004
  -1131707.26549   -782479.13649  24767492.1474   24767495.8704   24767492.5654
       205.0004        135.0004
  -9338455.27649  -7255744.31949  23179254.6294   23179256.5844   23179254.2584
       221.0004        163.0004
 -20429968.69949 -15601353.60849  21130304.2394   21130307.1524   21130304.1884
       240.0004        193.0004
 -10806182.21049  -8401637.46249  22811556.3204   22811558.3904   22811556.9224
       221.0004        170.0004
 -13416951.36549 -10436345.94249  21931609.3734   21931611.7414   21931609.0924
       233.0004        180.0004
 11 10 10  2 13 30.0000000  0  8G26G05G10G21G07G08G15G28
 -22476080.40249 -17491327.75449  20092586.2594   20092588.9464   20092586.5734
       241.0004        201.0004
 -20063682.01749 -15601205.42349  21153705.6424   21153709.4134   21153706.4974
       236.0004        196.0004
   1870366.00649   1717496.57149  24701446.4594   24701452.2274   24701445.7924
       202.0004        134.0004
  -1153435.38549   -799410.11449  24763359.9024   24763360.1964   24763359.1204
       203.0004        134.0004
  -9244268.65549  -7182352.15649  23197177.3234   23197179.2104   23197178.4784
       222.0004        162.0004
 -20375874.76949 -15559202.50049  21140598.4934   21140601.0574   21140597.8794
       240.0004        193.0004
 -10893812.76049  -8469920.91749  22794879.4334   22794882.8354   22794880.4684
       221.0004        168.0004
 -13470281.72749 -10477902.04949  21921461.2904   21921463.4724   21921460.4554
       233.0004        181.0004
 11 10 10  2 14  0.0000000  0  8G26G05G10G21G07G08G15G28
 -22511961.48949 -17519287.02649  20085758.4254   20085761.2574   20085758.7194
       243.0004        202.0004
 -20008898.23249 -15558516.77549  21164132.2414   21164134.0504   21164132.6444
       239.0004        197.0004
   1986102.37649   1807680.70449  24723472.5214   24723476.5734   24723472.1654
       203.0004        131.0004
  -1174658.60249   -815947.64749  24759320.3854   24759322.3284   24759318.6434
       206.0004        135.0004
  -9149929.92449  -7108841.47549  23215129.1634   23215131.1844   23215131.1694
       221.0004        162.0004
 -20321414.20949 -15516765.71649  21150961.6284   21150964.3894   21150961.3674
       239.0004        193.0004
 -10981276.14249  -8538074.18949  22778237.0104   22778238.7584   22778236.9834
       224.0004        169.0004
 -13523146.94849 -10519095.71449  21911400.5304   21911403.6874   21911400.4624
       233.0004        181.0004
 11 10 10  2 14 30.0000000  0  8G26G05G10G21G07G08G15G28
 -22547384.83449 -17546889.59649  20079017.2264   20079020.3814   20079017.6214
       243.0004        201.0004
 -19953598.32449 -15515425.92749  21174655.3524   21174657.4864   21174655.6314
       238.0004        196.0004
   2101880.30549   1897897.29549  24745500.9894   24745507.3914   24745503.4944
       203.0004        132.0004
  -1195375.79249   -832090.90149  24755379.1684   24755379.6244   24755376.8364
       204.0004        136.0004
  -9055440.46949  -7035213.33349  23233110.2784   23233112.9944   23233110.5834
       220.0004        162.0004
 -20266588.60049 -15474044.47949  21161395.4914   21161397.3714   21161394.6864
       241.0004        194.0004
 -11068570.69749  -8606095.94849  22761625.0184   22761627.0064   22761626.5504
       224.0004        169.0004
 -13575545.39549 -10559925.64549  21901429.8144   21901431.9254   21901430.0434
       233.0004        181.0004
 11 10 10  2 15  0.0000000  0  8G26G05G10G21G07G08G15G28
 -22582350.27549 -17574135.40549  20072364.3164   20072366.5144   20072363.9554
       243.0004        201.0004
 -19897784.43049 -15471934.59449  21185275.8624   21185278.7484   21185275.9094
       239.0004        196.0004
   2217696.83549   1988143.91849  24767543.7024   24767548.1084   24767544.2804
       205.0004        132.0004
  -1215587.02549   -847839.89849  24751529.9554   24751532.8834   24751532.0814
       204.0004        135.0004
  -8960802.40349  -6961469.40649  23251118.0844   23251120.1884   23251118.9754
       220.0004        161.0004
 -20211400.11349 -15431040.46649  21171896.8814   21171899.6934   21171896.4704
       240.0004        194.0004
 -11155695.20849  -8673985.21649  22745045.6644   22745047.5694   22745046.1754
       225.0004        168.0004
 -13627475.77249 -10600390.86249  21891547.6394   21891550.3374   21891547.2734
       231.0004        182.0004
 11 10 10  2 15 30.0000000  0  8G26G05G10G21G07G08G15G28
 -22616856.45949 -17601023.32749  20065797.1154   20065800.3754   20065797.9044
       244.0004        202.0004
 -19841458.11749 -15428043.98949  21195994.9534   21195996.9604   21195995.0284
       239.0004        197.0004
   2333550.55349   2078419.47849  24789587.9464   24789593.7724   24789587.1024
       200.0004        130.0004
  -1235291.65149   -863194.13549  24747782.6904   24747782.9474   24747781.0464
       207.0004        137.0004
  -8866017.19149  -6887610.75249  23269154.7594   23269158.2744   23269156.6584
       220.0004        162.0004
 -20155850.29049 -15387754.89249  21182467.8374   21182470.1804   21182467.5694
       241.0004        194.0004
 -11242648.30349  -8741740.89649  22728500.5504   22728502.2124   22728500.2544
       225.0004        170.0004
 -13678936.18549 -10640489.87449  21881755.3124   21881757.5164   21881755.6494
       233.0004        182.0004
 11 10 10  2 16  0.0000000  0  8G26G05G10G21G07G08G15G28
 -22650901.99249 -17627552.31949  20059318.7814   20059321.5544   20059319.0644
       244.0004        202.0004
 -19784620.37049 -15383754.86249  21206810.2854   21206812.6944   21206810.8724
       238.0004        196.0004
   2449439.91749   2168722.85949  24811645.4994   24811646.3374   24811642.4424
       204.0004        134.0004
  -1254488.66549   -878152.83449  24744128.3404   24744130.7824   24744127.6814
       202.0004        135.0004
  -8771086.05549  -6813638.43649  23287220.7284   23287223.9484   23287220.9984
       221.0004        163.0004
 -20099939.92149 -15344188.38049  21193107.2074   21193109.5964   21193106.9244
       241.0004        194.0004
 -11329428.29249  -8809361.71149  22711986.2954   22711987.7524   22711985.5744
       224.0004        168.0004
 -13729924.73949 -10680221.18849  21872052.1884   21872055.2694   21872052.6774
       235.0004        182.0004
 11 10 10  2 16 30.0000000  0  9G26G05G10G21G07G08G27G15G28
 -22684486.25049 -17653721.87649  20052928.1714   20052930.6764   20052928.4754
       244.0004        203.0004
 -19727273.81149 -15339069.25249  21217722.7574   21217725.0894   21217723.6104
       238.0004        196.0004
   2565361.32249   2259051.23749  24833698.9354   24833705.5464   24833698.4384
       195.0004        131.0004
  -1273178.69849   -892716.48249  24740570.3814   24740574.2834   24740571.0864
       203.0004        134.0004
  -8676011.73849  -6739554.58249  23305313.9454   23305315.6734   23305313.4014
       220.0004        163.0004
 -20043671.85449 -15300343.14049  21203814.8124   21203817.0824   21203814.4584
       241.0004        194.0004
   -289189.06449   -203780.54749  23901702.4624   23901699.3364
       206.0004        129.0004
 -11416034.22949  -8876846.85849  22695504.1714   22695505.9134   22695505.9134
       224.0004        169.0004
 -13780440.91749 -10719584.43049  21862439.5814   21862441.5804   21862439.5964
       235.0004        182.0004
 11 10 10  2 17  0.0000000  0  9G26G05G10G21G07G08G27G15G28
 -22717608.27349 -17679531.26949  20046625.3544   20046628.0204   20046625.6624
       244.0004        202.0004
 -19669419.41249 -15293987.91449  21228732.7634   21228734.7354   21228733.2894
       237.0004        195.0004
   2681313.38849   2349403.43349  24855767.0614   24855770.0714   24855766.4094
       203.0004        133.0004
  -1291360.78849   -906884.32849  24737113.5574   24737114.5034   24737113.5544
       204.0004        137.0004
  -8580795.32849  -6665360.02049  23323432.7494   23323433.5554   23323432.3584
       220.0004        160.0004
 -19987047.03149 -15256219.92349  21214589.9044   21214592.8414   21214589.7364
       240.0004        193.0004
   -379776.43349   -274367.90649  23884466.4754   23884468.1904
       205.0004        136.0004
 -11502464.48549  -8944195.12649  22679058.6174   22679059.2014   22679058.2264
       226.0004        169.0004
 -13830482.36749 -10758577.73649  21852917.8134   21852918.8654   21852916.9894
       234.0004        181.0004
 11 10 10  2 17 30.0000000  0  9G26G05G10G21G07G08G27G15G28
 -22750266.95549 -17704979.60349  20040410.2834   20040413.1704   20040410.4584
       243.0004        202.0004
 -19611058.87949 -15248512.16249  21239837.3224   21239840.5494   21239838.2644
       237.0004        195.0004
   2797293.60949   2439777.60949  24877834.4684   24877839.2474   24877836.7574
       199.0004        132.0004
  -1309034.73049   -920656.22749  24733749.8464   24733750.0754   24733749.1064
       207.0004        137.0004
  -8485438.70849  -6591056.16349  23341576.8884   23341579.3634   23341578.6974
       218.0004        160.0004
 -19930067.46349 -15211820.27949  21225433.1164   21225435.5544   21225433.2444
       241.0004        194.0004
   -470179.57349   -344811.86349  23867264.8324   23867267.1534   23867261.5174
       207.0004        140.0004
 -11588717.67649  -9011405.37449  22662644.3834   22662645.8314   22662645.5974
       223.0004        169.0004
 -13880047.77949 -10797200.12449  21843484.4214   21843486.9654   21843484.5194
       233.0004        182.0004
 11 10 10  2 18  0.0000000  0  9G26G05G10G21G07G08G27G15G28
 -22782460.92649 -17730065.84349  20034284.0554   20034286.8514   20034284.1244
       243.0004        202.0004
 -19552193.60849 -15202643.15249  21251039.5414   21251042.7534   21251040.0454
       237.0004        195.0004
   2913300.65349   2530172.70049  24899912.8104   24899915.0164   24899911.6914
       201.0004        134.0004
  -1326199.71049   -934031.52649  24730483.0244   24730483.9864   24730481.9984
       206.0004        137.0004
  -8389942.87449  -6516643.85149  23359749.2984   23359751.9664   23359750.9254
       218.0004        160.0004
 -19872734.38449 -15167145.16649  21236342.9764   21236345.7404   21236342.5224
       240.0004        192.0004
   -560397.46749   -415111.54349  23850094.4584   23850097.5634   23850093.2014
       207.0004        139.0004
 -11674792.17349  -9078476.35549  22646264.9504   22646266.6024   22646265.8214
       225.0004        170.0004
 -13929135.25749 -10835450.08349  21834144.0904   21834146.8964   21834143.0564
       234.0004        182.0004
 11 10 10  2 18 30.0000000  0  9G26G05G10G21G07G08G27G15G28
 -22814189.44049 -17754789.39849  20028246.1544   20028248.5734   20028246.2864
       243.0004        202.0004
 -19492825.68249 -15156382.45749  21262337.2334   21262339.7814   21262337.8184
       239.0004        196.0004
   3029332.17049   2620586.87149  24921991.7364   24921996.6964   24921989.4524
       196.0004        134.0004
  -1342855.83149   -947010.32349  24727313.2834   24727315.0074   24727314.9124
       211.0004        139.0004
  -8294309.85549  -6442124.66149  23377948.1634   23377951.2554   23377949.0974
       217.0004        158.0004
 -19815049.64749 -15122196.03549  21247320.1994   21247322.4674   21247320.0944
       240.0004        192.0004
   -650429.23249   -485266.17249  23832960.6894   23832966.2954   23832962.4694
       206.0004        140.0004
 -11760686.70549  -9145407.13349  22629920.6294   22629920.9514   22629919.6794
       225.0004        168.0004
 -13977743.67749 -10873326.75949  21824894.0464   21824895.6704   21824894.2124
       233.0004        182.0004
 11 10 10  2 19  0.0000000  0  9G26G05G10G21G07G08G27G15G28
 -22845451.80649 -17779149.70049  20022296.9244   20022299.9704   20022297.5754
       243.0004        202.0004
 -19432957.23849 -15109731.74349  21273730.5454   21273732.0434   21273730.4544
       239.0004        195.0004
   3145385.48049   2711017.97549  24944075.7544   24944079.4154   24944075.8444
       200.0004        133.0004
  -1359003.34449   -959592.79649  24724240.4084   24724243.6614   24724240.4214
       207.0004        139.0004
  -8198542.07949  -6367500.46649  23396173.1024   23396174.7344   23396171.8564
       216.0004        158.0004
 -19757015.72949 -15076974.81149  21258363.4944   21258365.8994   21258363.1424
       240.0004        193.0004
   -740274.79249   -555275.72149  23815863.7904   23815867.1814   23815865.0644
       208.0004        139.0004
 -11846400.70549  -9212197.27749  22613609.0384   22613610.9144   22613609.5254
       225.0004        171.0004
 -14025871.97249 -10910829.30149  21815735.2324   21815738.1564   21815735.2184
       233.0004        182.0004
 11 10 10  2 19 30.0000000  0  9G26G05G10G21G07G08G27G15G28
 -22876246.55549 -17803145.61249  20016438.0214   20016439.9294   20016438.2424
       245.0004        203.0004
 -19372589.28149 -15062691.82349  21285216.9394   21285220.2154   21285218.0314
       237.0004        195.0004
   3261458.85849   2801464.74149  24966164.2714   24966167.0764   24966162.8914
       205.0004        135.0004
  -1374641.10649   -971778.07149  24721265.9084   24721266.9054   24721265.1604
       209.0004        138.0004
  -8102640.54249  -6292772.01249  23414420.9264   23414424.0524   23414421.8444
       217.0004        159.0004
 -19698633.29149 -15031482.01249  21269473.4684   21269475.8464   21269473.1104
       241.0004        192.0004
   -829932.41549   -625138.83149  23798804.1744   23798807.0194   23798803.4564
       209.0004        138.0004
 -11931931.96449  -9278845.01949  22597333.5284   22597335.1124   22597333.9554
       226.0004        171.0004
 -14073517.89149 -10947955.96749  21806668.5764   21806670.7724   21806668.2384
       232.0004        181.0004
 11 10 10  2 20  0.0000000  0  9G26G05G10G21G07G08G27G15G28
 -22906572.59649 -17826776.29249  20010666.5134   20010669.1174   20010666.5274
       244.0004        203.0004
 -19311723.37149 -15015263.89149  21296799.6674   21296802.6454   21296800.0534
       235.0004        195.0004
   3377550.24949   2891925.52049  24988254.8484   24988257.7894   24988256.2864
       206.0004        132.0004
  -1389769.07749   -983566.09049  24718386.5154   24718387.7584   24718386.0984
       211.0004        138.0004
  -8006606.91649  -6217940.62449  23432696.2144   23432699.6794   23432695.7664
       218.0004        157.0004
 -19639904.06849 -14985718.97449  21280649.2574   21280651.7064   21280649.3634
       241.0004        192.0004
   -919401.11049   -694854.72749  23781779.0164   23781782.2904   23781779.1964
       207.0004        140.0004
 -12017278.87949  -9345349.11649  22581092.5554   22581093.1744   22581093.0164
       226.0004        170.0004
 -14120680.10349 -10984705.71849  21797693.8354   21797696.2494   21797692.8874
       232.0004        180.0004
 11 10 10  2 20 30.0000000  0  9G26G05G10G21G07G08G27G15G28
 -22936429.20549 -17850041.17549  20004984.9794   20004987.4984   20004985.5344
       244.0004        204.0004
 -19250361.63749 -14967449.60949  21308476.6354   21308479.4604   21308477.2224
       236.0004        195.0004
   3493657.38249   2982398.62249  25010350.0084   25010353.1114   25010349.0534
       207.0004        135.0004
  -1404386.89949   -994956.58049  24715605.3794   24715607.1394   24715605.8164
       209.0004        138.0004
  -7910442.90349  -6143007.65349  23450996.2574   23450997.3064   23450996.5094
       220.0004        157.0004
 -19580829.98949 -14939687.22249  21291891.1834   21291893.3974   21291890.8794
       239.0004        192.0004
  -1008680.16349   -764422.84049  23764789.8294   23764793.0494   23764789.5204
       207.0004        141.0004
 -12102440.10749  -9411708.50749  22564887.6314   22564887.8434   22564886.3374
       226.0004        172.0004
 -14167357.31449 -11021077.55449  21788811.5054   21788813.9554   21788811.5914
       234.0004        182.0004
 11 10 10  2 21  0.0000000  0  9G26G05G10G21G07G08G27G15G28
 -22965815.63149 -17872939.67749  19999393.0804   19999395.4994   19999393.3034
       245.0004        204.0004
 -19188505.69549 -14919250.20549  21320247.5574   21320250.4724   21320247.9674
       235.0004        194.0004
   3609778.05049   3072882.25349  25032447.2704   25032451.8924   25032443.8094
       204.0004        134.0004
  -1418494.71049  -1005949.67949  24712920.8534   24712918.9354   24712920.2394
       209.0004        137.0004
  -7814150.12749  -6067974.31249  23469320.7524   23469321.9294   23469320.4274
       220.0004        157.0004
 -19521412.85749 -14893388.16249  21303197.2364   21303199.9714   21303196.7734
       238.0004        192.0004
  -1097768.90449   -833842.63949  23747835.2274   23747839.1154   23747834.3084
       205.0004        141.0004
 -12187414.56049  -9477922.29649  22548716.6124   22548718.8934   22548716.1554
       225.0004        173.0004
 -14213548.22249 -11057070.44849  21780021.5544   21780024.3664   21780021.3244
       234.0004        183.0004
 11 10 10  2 21 30.0000000  0  9G26G05G10G21G07G08G27G15G28
 -22994730.51849 -17895470.74549  19993890.7164   19993893.0674   19993891.1464
       245.0004        204.0004
 -19126157.24649 -14870667.01149  21332111.2374   21332114.6634   21332111.7474
       235.0004        193.0004
   3725910.55649   3163375.06849  25054546.8794   25054552.8544   25054545.6214
       204.0004        133.0004
  -1432092.17249  -1016545.09049  24710333.3204   24710332.2744   24710332.7904
       209.0004        137.0004
  -7717729.93749  -5992841.70249  23487669.3254   23487669.2754   23487668.7884
       220.0004        157.0004
 -19461654.23249 -14846823.00249  21314569.6684   21314571.6964   21314569.6314
       239.0004        193.0004
  -1186666.18549   -903113.24049  23730920.4554   23730922.2744   23730920.9794
       211.0004        143.0004
 -12272200.78549  -9543989.48049  22532581.8404   22532583.6564   22532582.9864
       226.0004        173.0004
 -14259251.34449 -11092683.24249  21771324.1974   21771327.5004   21771324.6394
       234.0004        182.0004
 11 10 10  2 22  0.0000000  0  9G26G05G10G21G07G08G27G15G28
 -23023172.55349 -17917633.30749  19988479.0564   19988480.9344   19988479.0224
       245.0004        204.0004
 -19063317.67949 -14821701.13149  21344069.8004   21344072.5504   21344070.3864
       235.0004        194.0004
   3842053.05649   3253875.70549  25076648.8724   25076650.6424   25076647.2434
       204.0004        130.0004
  -1445178.20949  -1026741.97049  24707840.9214   24707842.8744   24707841.9654
       205.0004        137.0004
  -7621183.89949  -5917611.02849  23506039.8284   23506041.6574   23506040.5444
       218.0004        156.0004
 -19401555.27949 -14799992.64749  21326005.5834   21326008.0964   21326004.9684
       238.0004        191.0004
  -1275370.76349   -972233.71149  23714040.9514   23714041.4974   23714039.9214
       212.0004        144.0004
 -12356796.41449  -9609908.13649  22516483.7144   22516485.8564   22516484.7284
       225.0004        174.0004
 -14304464.56949 -11127914.31949  21762721.3444   21762723.3054   21762720.6114
       233.0004        183.0004
 11 10 10  2 22 30.0000000  0  9G26G05G10G21G07G08G27G15G28
 -23051141.46349 -17939427.21349  19983155.4264   19983158.5144   19983155.7774
       244.0004        204.0004
 -18999989.50749 -14772354.50249  21356120.4474   21356123.6394   21356120.8524
       235.0004        194.0004
   3958202.72249   3344381.92149  25098751.9674   25098754.1774   25098748.3424
       205.0004        129.0004
  -1457754.12649  -1036541.38349  24705449.0144   24705451.0114   24705448.7544
       201.0004        136.0004
  -7524514.26449  -5842284.07249  23524434.7484   23524438.2814   23524436.1554
       218.0004        154.0004
 -19341118.09649 -14752898.75549  21337505.8004   21337508.6794   21337505.9254
       237.0004        191.0004
  -1363882.52149  -1041203.91449  23697196.6774   23697199.7084   23697197.4284
       211.0004        144.0004
 -12441201.01249  -9675677.93349  22500422.1514   22500424.4834   22500422.9884
       225.0004        174.0004
 -14349187.47949 -11162763.31149  21754210.0874   21754213.2714   21754209.8104
       233.0004        182.0004
 11 10 10  2 23  0.0000000  0  9G26G05G10G21G07G08G27G15G28
 -23078636.99249 -17960852.28049  19977923.5314   19977926.3224   19977923.5644
       244.0004        204.0004
 -18936175.04849 -14722629.02049  21368264.4754   21368267.1734   21368264.9154
       235.0004        193.0004
   4074357.05449   3434891.73749  25120856.7254   25120860.6644   25120854.4664
       200.0004        128.0004
  -1469819.81649  -1045943.20149  24703152.6724   24703154.5624   24703154.0614
       203.0004        136.0004
  -7427722.92949  -5766862.27549  23542853.7104   23542856.6994   23542854.2654
       218.0004        156.0004
 -19280345.18349 -14705543.26349  21349071.0294   21349073.8564   21349071.0214
       238.0004        191.0004
  -1452201.02049  -1110023.54649  23680391.3824   23680393.9764   23680390.8184
       214.0004        143.0004
 -12525413.70049  -9741298.18049  22484396.5504   22484399.5654   22484398.8504
       228.0004        174.0004
 -14393419.14849 -11197229.51949  21745792.9134   21745795.3044   21745793.1684
       233.0004        182.0004
 11 10 10  2 23 30.0000000  0  9G26G05G10G21G07G08G27G15G28
 -23105656.54549 -17981906.46549  19972782.1144   19972784.6684   19972782.2814
       245.0004        205.0004
 -18871874.66849 -14672524.87349  21380500.6964   21380503.2094   21380500.6954
       236.0004        193.0004
   4190515.45749   3525404.75849  25142955.4754   25142959.8424   25142958.1384
       197.0004        125.0004
  -1481373.81549  -1054946.30349  24700955.1794   24700954.6144   24700953.8714
       207.0004        136.0004
  -7330810.20049  -5691345.87549  23561297.1364   23561297.7614   23561296.4044
       218.0004        155.0004
 -19219236.96349 -14657926.46049  21360699.6484   21360702.0584   21360699.3624
       237.0004        190.0004
  -1540324.30949  -1178691.05049  23663621.5584   23663623.3254   23663621.4284
       206.0004        141.0004
 -12609431.68449  -9806766.71249  22468409.4394   22468410.9724   22468409.8884
       229.0004        175.0004
 -14437156.71649 -11231310.72449  21737470.4084   21737472.4864   21737470.5964
       235.0004        182.0004
 11 10 10  2 24  0.0000000  0  9G26G05G10G21G07G08G27G15G28
 -23132199.98649 -18002589.61749  19967731.7464   19967733.4654   19967731.9554
       246.0004        205.0004
 -18807090.80049 -14622043.97949  21392829.0744   21392830.9944   21392829.6214
       236.0004        192.0004
   4306674.93849   3615918.64549  25165064.6324   25165067.7854   25165064.7834
       203.0004        129.0004
  -1492416.54649  -1063551.02549  24698853.8184   24698854.6504   24698854.3614
       209.0004        138.0004
  -7233778.34149  -5615736.64649  23579762.4594   23579763.2664   23579762.1294
       219.0004        156.0004
 -19157795.44049 -14610049.96249  21372391.2894   21372393.9334   21372391.0144
       238.0004        190.0004
  -1628252.08349  -1247206.17449  23646888.5634   23646891.8794   23646887.8184
       208.0004        141.0004
 -12693253.95149  -9872082.76149  22452458.1834   22452460.6724   22452458.9124
       228.0004        175.0004
 -14480399.75049 -11265006.56949  21729242.4154   21729243.8824   21729241.7534
       235.0004        182.0004
 11 10 10  2 24 30.0000000  0  9G26G05G10G21G07G08G27G15G28
 -23158266.51549 -18022901.15849  19962770.6324   19962773.0814   19962771.0304
       245.0004        205.0004
 -18741825.83849 -14571188.19149  21405247.2114   21405250.4314   21405247.8954
       235.0004        192.0004
   4422833.10749   3706431.52749  25187162.4254   25187174.6694   25187159.8424
       188.0004        124.0004
  -1502948.52549  -1071757.73349  24696849.3864   24696850.7884   24696850.3964
       207.0004        138.0004
  -7136629.34249  -5540036.15949  23598248.0194   23598250.6724   23598248.1934
       216.0004        153.0004
 -19096022.30949 -14561915.07749  21384146.3394   21384149.4334   21384146.2944
       238.0004        191.0004
  -1715983.71549  -1315568.47849  23630192.4884   23630197.4484   23630192.6574
       210.0004        145.0004
 -12776879.19549  -9937245.27649  22436544.8554   22436547.0084   22436545.9044
       229.0004        175.0004
 -14523147.20849 -11298316.26249  21721106.1284   21721108.7824   21721106.7044
       233.0004        182.0004
 11 10 10  2 25  0.0000000  0  9G26G05G10G21G07G08G27G15G28
 -23183855.19949 -18042840.33149  19957901.2494   19957903.6174   19957901.5404
       245.0004        205.0004
 -18676080.90649 -14519958.40449  21417758.3154   21417761.5674   21417758.5144
       234.0004        192.0004
   4538988.06049   3796941.76849  25209270.9164   25209272.0184   25209272.4914
       198.0004        126.0004
  -1512969.25749  -1079566.09349  24694941.1414   24694942.9414   24694942.4094
       206.0004        136.0004
  -7039364.39349  -5464245.33249  23616757.0784   23616757.9994   23616757.1704
       217.0004        155.0004
 -19033919.37249 -14513523.17549  21395963.8144   21395966.8934   21395964.2594
       237.0004        191.0004
  -1803518.24749  -1383777.19249  23613536.1694   23613540.7444   23613536.3204
       211.0004        147.0004
 -12860306.01649 -10002253.16949  22420669.3554   22420671.2154   22420670.4934
       227.0004        175.0004
 -14565397.37849 -11331238.43249  21713067.7384   21713068.9894   21713067.1304
       235.0004        183.0004
 11 10 10  2 25 30.0000000  0  9G26G05G10G21G07G08G27G15G28
 -23208964.90649 -18062406.29349  19953122.9284   19953125.2694   19953123.3944
       244.0004        205.0004
 -18609858.34849 -14468356.43249  21430360.9154   21430363.6414   21430361.1554
       236.0004        192.0004
   4655137.98549   3887448.20749  25231375.9764   25231371.5684   25231374.2614
       197.0004        121.0004
  -1522478.99049  -1086976.26749  24693133.3014   24693134.4614   24693131.3684
       205.0004        137.0004
  -6941985.07349  -5388365.36349  23635288.0694   23635290.1234   23635288.5584
       216.0004        153.0004
 -18971488.16549 -14464875.49549  21407844.2184   21407846.8134   21407844.0944
       238.0004        190.0004
  -1890854.65449  -1451831.50749  23596915.8924   23596921.4284   23596916.6014
       208.0004        147.0004
 -12943533.03149 -10067105.40049  22404830.9384   22404833.6104   22404832.8414
       227.0004        175.0004
 -14607148.83749 -11363772.01949  21705121.1014   21705123.8424   21705122.3024
       234.0004        184.0004
 11 10 10  2 26  0.0000000  0  9G26G05G10G21G07G08G27G15G28
 -23233594.78049 -18081598.35849  19948436.2694   19948438.4824   19948436.5774
       245.0004        205.0004
 -18543159.88149 -14416383.62049  21443053.2024   21443055.4204   21443053.0924
       235.0004        191.0004
   4771280.99259   3977949.26159  25253468.8934                   25253474.5184
       172.0004        117.0004
  -1531477.24649  -1093987.91249  24691420.8944   24691421.4864   24691421.2404
       204.0004        136.0004
  -6844492.61449  -5312397.24049  23653839.3084   23653842.1544   23653839.6154
       216.0004        153.0004
 -18908730.15149 -14415973.14849  21419786.8474   21419789.9094   21419786.5334
       238.0004        191.0004
  -1977992.05349  -1519730.76249  23580333.9674   23580338.9804   23580334.5304
       205.0004        142.0004
 -13026558.49849 -10131800.57949  22389032.2994   22389035.2544   22389032.7554
       230.0004        176.0004
 -14648400.41149 -11395916.05949  21697272.5714   21697274.0984   21697271.9714
       235.0004        183.0004
 11 10 10  2 26 30.0000000  0  9G26G05G10G21G07G08G27G15G28
 -23257744.53749 -18100416.28849  19943840.8454   19943843.1954   19943840.8864
       245.0004        205.0004
 -18475988.34049 -14364042.19049  21455835.5434   21455837.7144   21455835.5204
       236.0004        191.0004
   4887414.06749   4068442.54649  25275573.4834
       191.0004        119.0004
  -1539964.50449  -1100601.35149  24689806.0124   24689806.2614   24689804.6084
       203.0004        134.0004
  -6746889.58349  -5236342.98549  23672413.1044   23672415.5974   23672412.6804
       215.0004        155.0004
 -18845648.02949 -14366818.26049  21431791.2394   21431793.8004   21431791.0154
       239.0004        191.0004
  -2064930.26449  -1587474.81149  23563789.5264   23563795.9454   23563791.0874
       207.0004        142.0004
 -13109381.25849 -10196337.83249  22373272.1924   22373274.3114   22373272.1684
       227.0004        176.0004
 -14689151.72349 -11427670.29549  21689516.5474   21689519.5804   21689516.7854
       234.0004        184.0004
 11 10 10  2 27  0.0000000  0  9G26G05G10G21G07G08G27G15G28
 -23281412.18049 -18118858.54349  19939336.9144   19939339.2544   19939336.9594
       245.0004        205.0004
 -18408343.50749 -14311331.95649  21468707.4744   21468710.1214   21468708.0234
       236.0004        192.0004
   5003536.32849   4158927.38649  25297676.0654
       187.0004        117.0004
  -1547939.85949  -1106815.90349  24688288.2034   24688288.1924   24688287.9004
       207.0004        137.0004
  -6649176.29049  -5160202.81749  23691006.8434   23691010.2954   23691007.2004
       214.0004        156.0004
 -18782242.13949 -14317411.07549  21443856.2744   21443859.2974   21443856.7314
       238.0004        189.0004
  -2151667.14949  -1655062.00949  23547287.2574   23547289.1794   23547286.6764
       211.0004        144.0004
 -13191998.75449 -10260715.11349  22357550.8074   22357551.8284   22357551.1734
       230.0004        176.0004
 -14729400.19649 -11459032.72849  21681859.1034   21681859.8394   21681858.6214
       236.0004        184.0004
 11 10 10  2 27 30.0000000  0  9G26G05G10G21G07G08G27G15G28
 -23304597.75549 -18136925.16849  19934924.7724   19934926.7274   19934925.3474
       245.0004        205.0004
 -18340229.20449 -14258255.90249  21481668.9504   21481671.9764   21481669.1764
       235.0004        191.0004
   5119644.97259     62531.63859  25319756.3304
       159.0004         74.0004
  -1555404.55849  -1112632.54749  24686867.2494   24686867.3844   24686867.6664
       206.0004        138.0004
  -6551355.13849  -5083978.58849  23709621.1354   23709625.3194   23709621.8974
       215.0004        156.0004
 -18718515.04049 -14267753.58949  21455984.3934   21455986.1394   21455984.1914
       240.0004        190.0004
  -2238203.15049  -1722492.65049  23530818.5884   23530823.4674   23530819.0204
       211.0004        147.0004
 -13274410.75249 -10324932.30449  22341867.5114   22341869.8824   22341867.4214
       226.0004        175.0004
 -14769145.51449 -11490003.06149  21674294.0854   21674296.2514   21674294.1064
       234.0004        185.0004
 11 10 10  2 28  0.0000000  0  9G26G05G10G21G07G08G27G15G28
 -23327299.77749 -18154615.00749  19930604.4384   19930606.7414   19930604.2774
       244.0004        205.0004
 -18271646.43449 -14204814.83349  21494719.6434   21494722.9784   21494720.7294
       236.0004        192.0004
   5235738.63949    153043.36649  25341859.6434
       179.0004        111.0004
  -1562357.38249  -1118050.32949  24685543.9414   24685545.0224   24685543.8714
       205.0004        138.0004
  -6453426.76449  -5007670.77149  23728257.4534   23728260.1244   23728257.8444
       218.0004        159.0004
 -18654467.70849 -14217846.59749  21468172.0534   21468174.2744   21468171.4274
       239.0004        189.0004
  -2324536.51849  -1789765.35549  23514390.3774   23514394.9374   23514389.6024
       214.0004        147.0004
 -13356615.08449 -10388987.63549  22326223.8544   22326227.0704   22326224.7264
       228.0004        176.0004
 -14808385.74849 -11520579.81649  21666828.1504   21666830.3294   21666827.4974
       235.0004        184.0004
