     2.11           OBSERVATION DATA    G (GPS)             RINEX VERSION / TYPE
Linux 2.4.21-27.ELsmp|Opteron|gcc -static|Linux x86_64|=+   COMMENT
HEADER CHANGED BY EPN CB ON 2011-10-15                      COMMENT
TO BE CONFORM WITH THE INFORMATION IN                       COMMENT
ftp://epncb.oma.be/pub/station/log/brus.log                 COMMENT
                                                            COMMENT
teqc  2010Oct21                         20111015 00:01:18UTCPGM / RUN BY / DATE
teqc  2010Oct21                         20111015 00:01:03UTCCOMMENT
teqc  2010Oct21                         20111014 01:01:02UTCCOMMENT
BIT 2 OF LLI FLAGS DATA COLLECTED UNDER A/S CONDITION       COMMENT
BRUS                                                        MARKER NAME
13101M004                                                   MARKER NUMBER
Carine Bruyninx     ROB                                     OBSERVER / AGENCY
RT919994505         ASHTECH Z-XII3T     1L01-1D04           REC # / TYPE / VERS
CR519994604         ASH701945B_M    NONE                    ANT # / TYPE
  4027894.0130   307045.5980  4919474.9120                  APPROX POSITION XYZ
        3.9702        0.0000        0.0000                  ANTENNA: DELTA H/E/N
     1     1                                                WAVELENGTH FACT L1/2
     7    L1    L2    C1    P2    P1    S1    S2            # / TYPES OF OBSERV
    30.0000                                                 INTERVAL
 SNR is mapped to RINEX snr flag value [0-9]                COMMENT
  L1 & L2: min(max(int(snr_dBHz/6), 0), 9)                  COMMENT
pseudorange smoothing corrections not applied               COMMENT
COORDINATES IN ETRF2000                                     COMMENT
Forced Modulo Decimation to 30 seconds                      COMMENT
  2011    10    14     0     0    0.0000000     GPS         TIME OF FIRST OBS
                                                            END OF HEADER
 11 10 14  0  0  0.0000000  0  9G05G10G07G08G13G16G02G04G26
 -16641671.71349 -12700469.24749  21588586.7334   21588589.4144   21588587.1704
       234.0004        193.0004
 -20073492.83549 -15631521.78849  20621073.2254   20621076.3844   20621072.7364
       238.0004        198.0004
 -22775139.38049 -17725578.01549  20572263.2214   20572264.7354   20572262.9184
       239.0004        205.0004
 -20013785.89249 -15580981.89449  21133579.5354   21133582.2744   21133578.9014
       240.0004        197.0004
 -10890446.20449  -8172706.64449  22462246.1104   22462250.8864   22462246.4844
       222.0004        162.0004
   1449768.65349   1216502.18649  24420728.8754   24420731.5234   24420729.4184
       210.0004        143.0004
 -15797515.00249 -12022740.40449  22019795.4764   22019798.0764   22019796.3014
       228.0004        177.0004
    512553.38449    683707.07849  24290997.1454   24291002.2554   24290997.2514
       209.0004        136.0004
  -3768447.34549  -2123950.45049  23560935.4594   23560940.4884   23560937.9524
       209.0004        146.0004
 11 10 14  0  0 30.0000000  0  9G05G10G07G08G13G16G02G04G26
 -16708818.57849 -12752791.47049  21575808.7774   21575811.3904   21575809.1684
       234.0004        192.0004
 -20022747.99649 -15591980.37849  20630730.0004   20630733.1294   20630729.1864
       239.0004        198.0004
 -22768122.72149 -17720110.48749  20573597.5324   20573600.0414   20573598.2354
       239.0004        205.0004
 -20072124.77949 -15626440.75649  21122477.3864   21122480.4074   21122477.3684
       239.0004        197.0004
 -10803133.56349  -8104670.83349  22478861.5744   22478864.8114   22478860.9464
       224.0004        163.0004
   1502789.78649   1257817.38149  24430816.9774   24430819.9774   24430817.7814
       209.0004        144.0004
 -15738003.13349 -11976367.54549  22031121.6104   22031122.2844   22031120.9564
       229.0004        176.0004
    622039.59849    769020.96549  24311830.2624   24311837.1644   24311830.1244
       209.0004        143.0004
  -3875580.52549  -2207430.80649  23540548.4434   23540553.6674   23540549.4064
       208.0004        146.0004
 11 10 14  0  1  0.0000000  0  9G05G10G07G08G13G16G02G04G26
 -16775594.59949 -12804824.73749  21563101.5654   21563104.6194   21563102.5994
       234.0004        193.0004
 -19971537.47749 -15552076.10349  20640475.3244   20640477.9884   20640474.3714
       238.0004        197.0004
 -22760545.97549 -17714206.51949  20575039.3974   20575041.6664   20575039.7254
       239.0004        205.0004
 -20129991.92049 -15671532.01549  21111466.2614   21111468.8194   21111465.2304
       239.0004        197.0004
 -10715646.74049  -8036499.32549  22495511.3164   22495513.2514   22495511.1224
       225.0004        163.0004
   1556334.86649   1299540.83049  24441007.7574   24441008.0284   24441007.7194
       210.0004        142.0004
 -15677993.54649 -11929606.84749  22042539.3014   22042540.8344   22042539.5034
       226.0004        175.0004
    731574.61749    854372.85849  24332672.4794   24332680.7134   24332674.9194
       199.0004        136.0004
  -3982564.64349  -2290795.09549  23520190.7804   23520193.9484   23520190.7564
       209.0004        147.0004
 11 10 14  0  1 30.0000000  0  9G05G10G07G08G13G16G02G04G26
 -16841997.66449 -12856567.38549  21550465.9214   21550469.0354   21550466.6704
       234.0004        194.0004
 -19919861.74849 -15511809.33349  20650308.3244   20650311.5594   20650307.7464
       238.0004        197.0004
 -22752409.43649 -17707866.35749  20576588.1304   20576590.3054   20576588.5454
       239.0004        205.0004
 -20187385.10349 -15716253.95549  21100542.7294   21100547.0024   21100543.2854
       238.0004        196.0004
 -10627986.84649  -7968192.93249  22512191.8834   22512193.3764   22512192.0244
       224.0004        162.0004
   1610402.48649   1341671.44649  24451296.8384   24451297.4484   24451297.7004
       211.0004        142.0004
 -15617488.03349 -11882459.71949  22054054.3634   22054055.2734   22054054.5084
       227.0004        174.0004
    841155.95449    939760.85749  24353528.7104   24353527.6374   24353528.3224
       207.0004        134.0004
  -4089398.57049  -2374042.25649  23499862.6764   23499865.7934   23499863.2514
       212.0004        147.0004
 11 10 14  0  2  0.0000000  0  9G05G10G07G08G13G16G02G04G26
 -16908025.70749 -12908017.79149  21537900.7164   21537904.1984   21537901.4134
       234.0004        194.0004
 -19867721.71249 -15471180.76249  20660230.7594   20660233.8644   20660229.7944
       238.0004        198.0004
 -22743714.32649 -17701090.93949  20578242.4514   20578244.6484   20578242.7334
       238.0004        204.0004
 -20244303.79049 -15760606.16249  21089712.9114   21089715.9904   21089712.5264
       239.0004        197.0004
 -10540155.32349  -7899752.81749  22528904.4014   22528908.1604   22528905.8624
       223.0004        162.0004
   1664989.87049   1384207.05049  24461683.6924   24461684.8234   24461683.3554
       209.0004        142.0004
 -15556489.57549 -11834928.47449  22065662.4244   22065661.9054   22065662.5464
       229.0004        175.0004
    950780.38349   1025182.58949  24374387.1654   24374393.4034   24374390.1884
       206.0004        138.0004
  -4196081.01449  -2457171.42249  23479561.8024   23479563.8504   23479561.6794
       212.0004        150.0004
 11 10 14  0  2 30.0000000  0  9G05G10G07G08G13G16G02G04G26
 -16973677.66549 -12959175.15849  21525407.6144   21525410.4304   21525408.5654
       234.0004        194.0004
 -19815119.21549 -15430191.81849  20670240.7354   20670243.6254   20670239.8084
       238.0004        197.0004
 -22734461.96449 -17693881.29549  20580003.6314   20580005.3064   20580003.4524
       239.0004        204.0004
 -20300747.24549 -15804588.06349  21078971.7584   21078974.7174   21078971.9874
       239.0004        197.0004
 -10452153.67349  -7831180.11449  22545651.5444   22545654.2154   22545651.6754
       224.0004        162.0004
   1720094.86749   1427146.00349  24472171.3454   24472171.5404   24472170.4154
       213.0004        141.0004
 -15495000.77549 -11787015.13949  22077362.7874   22077363.3544   22077362.7314
       227.0004        175.0004
   1060444.86949   1110635.36149  24395257.4634   24395263.0484   24395253.8934
       201.0004        137.0004
  -4302611.27549  -2540181.98649  23459288.1744   23459290.8054   23459286.3684
       209.0004        144.0004
 11 10 14  0  3  0.0000000  0  9G05G10G07G08G13G16G02G04G26
 -17038951.28649 -13010037.72249  21512987.6244   21512989.4234   21512987.5494
       235.0004        194.0004
 -19762055.31249 -15388843.35249  20680338.4934   20680340.9904   20680337.9134
       238.0004        197.0004
 -22724652.96449 -17686237.91249  20581869.5134   20581872.0484   20581869.9954
       238.0004        204.0004
 -20356714.00449 -15848198.50849  21068322.4184   21068325.4094   21068321.6894
       240.0004        197.0004
 -10363983.36449  -7762475.99649  22562430.0354   22562432.6024   22562429.0344
       224.0004        163.0004
   1775715.62449   1470486.85749  24482754.1954   24482755.1284   24482752.8114
       211.0004        140.0004
 -15433024.30449 -11738721.79849  22089156.4494   22089158.2864   22089156.7214
       228.0004        175.0004
   1170146.56449   1196117.07849  24416134.7634   24416136.7304   24416134.7354
       209.0004        139.0004
  -4408988.07349  -2623072.99049  23439044.4884   23439047.7444   23439045.7274
       213.0004        145.0004
 11 10 14  0  3 30.0000000  0  9G05G10G07G08G13G16G02G04G26
 -17103843.16549 -13060602.81949  21500637.7654   21500641.3224   21500638.3754
       234.0004        194.0004
 -19708529.58249 -15347135.00749  20690523.9964   20690527.1934   20690523.1764
       241.0004        197.0004
 -22714286.87649 -17678160.43949  20583842.1774   20583844.8614   20583842.4224
       238.0004        204.0004
 -20412201.48649 -15891435.48549  21057762.4474   21057765.9884   21057762.3924
       239.0004        197.0004
 -10275644.15149  -7693640.26549  22579239.8914   22579243.0024   22579239.2974
       225.0004        163.0004
   1831851.91349   1514229.44649  24493436.8844   24493439.4954   24493436.2554
       210.0004        140.0004
 -15370561.08249 -11690049.19149  22101043.3394   22101043.7134   22101043.1104
       228.0004        175.0004
   1279884.25749   1281627.01149  24437017.7754   24437019.6694   24437017.4304
       206.0004        138.0004
  -4515208.72949  -2705842.35049  23418832.9834   23418834.8964   23418833.0514
       212.0004        149.0004
 11 10 14  0  4  0.0000000  0  9G05G10G07G08G13G16G02G04G26
 -17168353.19749 -13110870.37549  21488362.6654   21488365.3444   21488363.3354
       237.0004        195.0004
 -19654545.06049 -15305069.16949  20700796.4204   20700799.8814   20700795.9764
       240.0004        197.0004
 -22703366.61549 -17669651.14149  20585920.0674   20585922.7414   20585920.3594
       239.0004        204.0004
 -20467210.77949 -15934299.85449  21047294.3774   21047298.3254   21047294.6054
       238.0004        197.0004
 -10187139.27249  -7624675.46249  22596082.5464   22596085.1144   22596082.7814
       225.0004        164.0004
   1888499.58249   1558370.47049  24504215.2024   24504216.4164   24504216.6794
       208.0004        141.0004
 -15307615.76549 -11641000.91149  22113021.2004   22113021.9894   22113020.9564
       228.0004        174.0004
   1389652.99449   1367161.11349  24457905.1574   24457910.4494   24457902.9254
       205.0004        136.0004
  -4621274.23549  -2788490.74549  23398649.5224   23398652.6034   23398648.3214
       211.0004        150.0004
 11 10 14  0  4 30.0000000  0  9G05G10G07G08G13G16G02G04G26
 -17232477.91949 -13160837.69249  21476160.9234   21476162.5774   21476160.9704
       238.0004        196.0004
 -19600101.09449 -15262645.30449  20711156.7424   20711160.0404   20711156.4764
       239.0004        196.0004
 -22691891.64049 -17660709.59949  20588103.4304   20588106.0544   20588104.1564
       238.0004        204.0004
 -20521739.10049 -15976789.42249  21036918.7884   21036921.7414   21036918.2664
       240.0004        197.0004
 -10098468.27349  -7555581.19149  22612956.3374   22612958.7644   22612955.5034
       224.0004        162.0004
   1945657.93249   1602909.46749  24515093.8824   24515094.1924   24515094.7794
       209.0004        138.0004
 -15244189.33149 -11591577.73649  22125091.1974   22125091.7764   22125090.9224
       228.0004        175.0004
   1499451.78649   1452718.52349  24478797.0684   24478801.5334   24478797.8114
       207.0004        141.0004
  -4727181.70349  -2871015.98949  23378495.5624   23378498.9774   23378494.7824
       211.0004        148.0004
 11 10 14  0  5  0.0000000  0  9G05G10G07G08G13G16G02G04G26
 -17296215.57849 -13210503.39449  21464031.2144   21464033.3974   21464031.8404
       237.0004        195.0004
 -19545199.05549 -15219864.50249  20721604.8694   20721607.8164   20721604.2254
       240.0004        196.0004
 -22679863.18049 -17651336.76349  20590393.0064   20590395.0624   20590393.4954
       239.0004        205.0004
 -20575785.38949 -16018903.39049  21026634.4404   21026636.6314   21026633.5864
       240.0004        198.0004
 -10009632.96749  -7486358.90749  22629861.1474   22629862.3074   22629860.4664
       225.0004        162.0004
   2003324.74649   1647844.65449  24526066.7534   24526066.5034   24526067.0204
       209.0004        139.0004
 -15180284.52849 -11541781.79849  22137252.2234   22137251.9434   22137251.3264
       227.0004        174.0004
   1609277.77949   1538297.19549  24499699.1684   24499699.8224   24499700.2924
       207.0004        138.0004
  -4832930.18749  -2953417.44249  23358372.1044   23358373.6704   23358372.3584
       211.0004        145.0004
 11 10 14  0  5 30.0000000  0  9G05G10G07G08G13G16G02G04G26
 -17359564.48449 -13259866.17649  21451976.5624   21451979.0064   21451977.0064
       238.0004        196.0004
 -19489840.43249 -15176727.93349  20732138.6564   20732142.5844   20732138.2314
       239.0004        196.0004
 -22667282.42149 -17641533.56949  20592786.7404   20592789.1464   20592786.9504
       239.0004        205.0004
 -20629348.63049 -16060640.95749  21016440.0984   21016444.2914   21016440.6694
       238.0004        198.0004
  -9920634.32949  -7417009.34049  22646796.8264   22646799.4224   22646797.4074
       225.0004        163.0004
   2061498.03949   1693174.51949  24537136.4224   24537137.8524   24537136.6944
       203.0004        139.0004
 -15115904.25249 -11491615.36049  22149501.9344   22149503.5934   22149503.3494
       228.0004        174.0004
   1719127.75649   1623894.55949  24520603.1794   24520603.7544   24520600.3344
       203.0004        133.0004
  -4938518.47949  -3035694.02449  23338281.6284   23338282.9544   23338281.5004
       214.0004        149.0004
 11 10 14  0  6  0.0000000  0  9G05G10G07G08G13G16G02G04G26
 -17422521.77849 -13308923.80849  21439996.5194   21439998.6484   21439996.9534
       238.0004        197.0004
 -19434025.45449 -15133235.76349  20742759.9824   20742763.3784   20742759.2754
       239.0004        195.0004
 -22654149.04149 -17631299.76649  20595285.9604   20595288.5624   20595286.5054
       239.0004        205.0004
 -20682427.40149 -16102001.02449  21006340.4074   21006343.7634   21006340.4554
       240.0004        199.0004
  -9831473.20349  -7347533.16849  22663763.6694   22663766.4834   22663763.3024
       224.0004        162.0004
   2120176.20949   1738897.77749  24548303.4234   24548306.0744   24548302.1894
       205.0004        135.0004
 -15051050.31149 -11441079.85249  22161845.1594   22161845.8374   22161843.3644
       228.0004        174.0004
   1828999.86549   1709509.17349  24541508.2154   24541514.8294   24541510.0764
       207.0004        139.0004
  -5043945.25049  -3117844.69449  23318216.7514   23318220.5074   23318217.0454
       210.0004        150.0004
 11 10 14  0  6 30.0000000  0  9G05G10G07G08G13G16G02G04G26
 -17485086.15749 -13357675.26849  21428090.4724   21428092.8574   21428090.5574
       236.0004        196.0004
 -19377755.84249 -15089389.31649  20753467.6134   20753470.9774   20753467.0544
       239.0004        195.0004
 -22640465.22549 -17620637.04349  20597890.5594   20597892.2454   20597890.3484
       239.0004        205.0004
 -20735021.23549 -16142983.20749  20996331.9654   20996335.6444   20996331.2954
       240.0004        199.0004
  -9742151.58449  -7277931.92849  22680759.8224   22680762.4974   22680761.5204
       221.0004        161.0004
   2179356.58149   1785012.36349  24559563.6384   24559565.1504   24559563.3624
       205.0004        136.0004
 -14985725.83749 -11390177.68949  22174273.9074   22174275.7254   22174275.1264
       227.0004        174.0004
   1938890.52449   1795138.22849  24562421.0894   24562423.6564   24562422.5664
       205.0004        140.0004
  -5149209.49649  -3199868.74349  23298184.6924   23298189.2684   23298186.1554
       210.0004        147.0004
 11 10 14  0  7  0.0000000  0  9G05G10G07G08G13G16G02G04G26
 -17547255.66149 -13406119.03749  21416259.1284   21416262.1794   21416260.5014
       237.0004        196.0004
 -19321032.36449 -15045189.21949  20764262.1044   20764265.2764   20764261.3444
       240.0004        195.0004
 -22626231.55949 -17609545.86749  20600598.2184   20600600.7254   20600598.6724
       239.0004        204.0004
 -20787128.87149 -16183586.54949  20986416.4694   20986419.4374   20986416.0184
       241.0004        199.0004
  -9652670.38949  -7208206.34549  22697788.4124   22697790.8874   22697789.2044
       221.0004        159.0004
   2239037.37649   1831516.90249  24570921.8394   24570921.2054   24570921.7324
       206.0004        136.0004
 -14919933.55649 -11338910.99349  22186795.2024   22186795.2064   22186794.6964
       228.0004        173.0004
   2048797.27049   1880779.79349  24583331.8024   24583338.2424   24583332.4894
       196.0004        130.0004
  -5254310.01549  -3281765.25249  23278187.2934   23278188.4874   23278187.2984
       215.0004        150.0004
 11 10 14  0  7 30.0000000  0  9G05G10G07G08G13G16G02G04G26
 -17609028.03049 -13454253.34949  21404505.2674   21404507.6304   21404505.8824
       237.0004        196.0004
 -19263856.08949 -15000636.30449  20775142.4884   20775145.9114   20775141.8554
       238.0004        195.0004
 -22611449.26849 -17598027.19549  20603411.5284   20603413.9324   20603411.8634
       239.0004        205.0004
 -20838748.88249 -16223809.91849  20976593.0124   20976596.6314   20976593.1464
       241.0004        199.0004
  -9563030.79749  -7138357.33949  22714845.7114   22714849.1114   22714846.1554
       220.0004        159.0004
   2299216.82449   1878409.97749  24582374.1914   24582374.1244   24582373.2874
       208.0004        137.0004
 -14853675.61449 -11287281.43849  22199404.2824   22199403.7934   22199403.5384
       228.0004        174.0004
   2158717.95249   1966432.21349  24604252.5594   24604255.2624   24604252.9534
       206.0004        132.0004
  -5359245.23949  -3363532.94349  23258218.0864   23258221.1024   23258218.3034
       212.0004        148.0004
 11 10 14  0  8  0.0000000  0  9G05G10G07G08G13G16G02G04G26
 -17670400.86249 -13502076.32549  21392826.9894   21392828.9404   21392826.9534
       238.0004        197.0004
 -19206227.84549 -14955731.19249  20786108.9604   20786112.1984   20786108.4534
       240.0004        196.0004
 -22596118.74149 -17586081.32649  20606329.2724   20606331.3014   20606329.5254
       239.0004        204.0004
 -20889880.18549 -16263652.48349  20966863.8624   20966866.6394   20966863.3164
       242.0004        199.0004
  -9473233.36049  -7068385.33749  22731934.2074   22731936.8084   22731934.5044
       222.0004        159.0004
   2359892.90849   1925690.00449  24593918.8184   24593917.6344   24593918.3294
       205.0004        135.0004
 -14786954.57449 -11235291.03549  22212099.2134   22212101.4404   22212098.9904
       228.0004        173.0004
   2268649.58449   2052093.31549  24625171.9854   24625174.7764   24625171.1254
       208.0004        140.0004
  -5464013.82749  -3445170.75249  23238280.0824   23238284.3004   23238281.3234
       213.0004        151.0004
 11 10 14  0  8 30.0000000  0  9G05G10G07G08G13G16G02G04G26
 -17731372.76949 -13549586.89949  21381224.2574   21381226.0284   21381224.0034
       237.0004        196.0004
 -19148149.14749 -14910475.08349  20797160.4624   20797163.6864   20797159.8814
       239.0004        196.0004
 -22580241.51349 -17573709.44949  20609350.2744   20609352.7364   20609350.3814
       239.0004        205.0004
 -20940522.30749 -16303113.85449  20957227.1694   20957229.9084   20957226.2374
       242.0004        199.0004
  -9383280.09849  -6998291.91349  22749052.2824   22749054.1864   22749052.5204
       223.0004        158.0004
   2421062.72249   1973354.80549  24605558.7934   24605562.1264   24605557.3704
       201.0004        133.0004
 -14719773.48949 -11182942.16049  22224884.6874   22224884.2714   22224883.5554
       227.0004        172.0004
   2378589.15849   2137760.46149  24646089.3994   24646100.1814   24646091.9364
       195.0004        133.0004
  -5568614.82949  -3526677.98649  23218376.3134   23218379.8194   23218375.8394
       215.0004        153.0004
 11 10 14  0  9  0.0000000  0  9G05G10G07G08G13G16G02G04G26
 -17791941.60249 -13596783.39349  21369697.3894   21369699.6834   21369698.3454
       237.0004        195.0004
 -19089620.88749 -14864868.68549  20808298.5474   20808301.5554   20808297.9494
       240.0004        196.0004
 -22563818.33149 -17560912.16449  20612474.8494   20612477.9274   20612475.6244
       239.0004        205.0004
 -20990673.48449 -16342192.68249  20947682.4734   20947686.2844   20947682.8084
       242.0004        200.0004
  -9293171.78849  -6928077.69149  22766198.4194   22766200.7194   22766199.7204
       220.0004        158.0004
   2482724.87749   2021403.23649  24617294.6874   24617295.6384   24617295.4314
       204.0004        134.0004
 -14652134.59749 -11130236.56849  22237756.6374   22237757.2524   22237756.0504
       229.0004        174.0004
   2488534.60849   2223432.03849  24667016.6314   24667017.8414   24667015.8664
       208.0004        134.0004
  -5673046.89349  -3608053.62049  23198501.7914   23198505.1034   23198503.0124
       212.0004        147.0004
 11 10 14  0  9 30.0000000  0  9G05G10G07G08G13G16G02G04G26
 -17852105.83849 -13643664.61749  21358249.6224   21358250.7424   21358249.8784
       238.0004        196.0004
 -19030644.53749 -14818913.11349  20819521.1614   20819524.6104   20819520.7284
       240.0004        196.0004
 -22546850.71649 -17547690.64149  20615704.3844   20615706.7514   20615704.7064
       238.0004        205.0004
 -21040333.57749 -16380888.83949  20938233.8694   20938236.6494   20938233.4504
       242.0004        200.0004
  -9202909.84549  -6857743.73749  22783373.8804   22783377.3524   22783374.9674
       219.0004        158.0004
   2544876.74749   2069833.24549  24629120.5254   24629122.6214   24629119.3404
       200.0004        132.0004
 -14584041.12949 -11077176.74349  22250713.9104   22250713.8804   22250713.5644
       228.0004        174.0004
   2598482.39849   2309105.73049  24687936.5464   24687938.1174   24687937.7714
       206.0004        131.0004
  -5777309.19349  -3689296.93649  23178663.7394   23178665.3164   23178663.5394
       216.0004        150.0004
 11 10 14  0 10  0.0000000  0  9G05G10G07G08G13G16G02G04G26
 -17911862.42949 -13690228.19249  21346877.3204   21346880.6174   21346877.4994
       236.0004        196.0004
 -18971220.55049 -14772608.72849  20830829.0234   20830831.9874   20830828.6994
       240.0004        195.0004
 -22529338.71549 -17534044.92149  20619036.8314   20619039.4024   20619037.1084
       239.0004        205.0004
 -21089500.33349 -16419200.57149  20928877.0184   20928880.0394   20928876.8114
       241.0004        200.0004
  -9112494.72649  -6787290.42249  22800580.6364   22800583.2214   22800581.2064
       223.0004        159.0004
   2607517.18149   2118643.94749  24641038.6394   24641041.2554   24641040.2794
       199.0004        130.0004
 -14515494.70849 -11023763.95849  22263756.4394   22263757.7964   22263756.7654
       226.0004        172.0004
   2708431.23949   2394780.24649  24708856.8244   24708864.4944   24708859.8114
       191.0004        132.0004
  -5881399.09049  -3770405.94549  23158855.0624   23158857.4554   23158855.3704
       214.0004        152.0004
 11 10 14  0 10 30.0000000  0  9G05G10G07G08G13G16G02G04G26
 -17971208.99249 -13736472.25949  21335584.2654   21335587.4304   21335585.2184
       238.0004        197.0004
 -18911350.08449 -14725956.44449  20842222.5354   20842225.2264   20842221.6574
       240.0004        195.0004
 -22511283.49449 -17519975.91249  20622472.6514   20622474.8584   20622472.6534
       239.0004        205.0004
 -21138172.66449 -16457127.04049  20919615.2344   20919617.8874   20919614.4514
       243.0004        200.0004
  -9021927.23749  -6716718.38349  22817814.0934   22817817.5434   22817815.0264
       221.0004        157.0004
   2670643.96449   2167833.64549  24653053.4194   24653053.3584   24653053.6654
       199.0004        131.0004
 -14446497.80849 -10970000.15849  22276887.9134   22276887.5634   22276886.3674
       226.0004        172.0004
   2818378.49749   2480453.21349  24729781.0524   24729787.7284   24729781.9704
       204.0004        138.0004
  -5985315.62749  -3851379.79949  23139080.5624   23139082.8924   23139080.7944
       216.0004        152.0004
 11 10 14  0 11  0.0000000  0  9G05G10G07G08G13G16G02G04G26
 -18030145.22449 -13782396.59849  21324369.4774   21324371.5354   21324369.8894
       238.0004        196.0004
 -18851035.25249 -14678957.88049  20853698.8944   20853703.1774   20853699.0634
       239.0004        196.0004
 -22492687.23549 -17505485.32249  20626011.0134   20626013.3394   20626011.9214
       239.0004        205.0004
 -21186351.04549 -16494668.61949  20910446.2114   20910450.0534   20910446.8674
       241.0004        200.0004
  -8931210.00449  -6646029.67449  22835078.1594   22835080.8894   22835078.1384
       222.0004        157.0004
   2734253.75149   2217399.72449  24665157.7974   24665162.8464   24665156.9374
       198.0004        132.0004
 -14377054.33149 -10915888.38349  22290102.1524   22290102.9544   22290102.1704
       227.0004        171.0004
   2928319.79749   2566121.74549  24750701.3134   24750706.6684   24750703.2124
       203.0004        134.0004
  -6089058.76449  -3932218.57149  23119339.0564   23119340.4504   23119337.5894
       214.0004        151.0004
 11 10 14  0 11 30.0000000  0  9G05G10G07G08G13G16G02G04G26
 -18088667.54549 -13827998.40749  21313232.5194   21313234.8274   21313233.0654
       237.0004        196.0004
 -18790275.97849 -14631613.02049  20865262.7664   20865265.1294   20865261.3264
       241.0004        195.0004
 -22473549.91549 -17490573.11849  20629653.2504   20629655.1254   20629653.4194
       239.0004        205.0004
 -21234033.49549 -16531823.74649  20901374.2884   20901376.2924   20901373.1084
       243.0004        201.0004
  -8840343.14449  -6575224.37749  22852370.6494   22852371.8044   22852370.2354
       223.0004        158.0004
   2798345.41749   2267341.30649  24677354.6884   24677357.1194   24677353.5914
       200.0004        132.0004
 -14307166.11249 -10861430.05249  22303400.5024   22303402.2024   22303400.8574
       227.0004        173.0004
   3038253.96049   2651784.83649  24771620.9684   24771621.6804   24771624.9994
       191.0004        124.0004
  -6192626.11549  -4012920.41649  23099629.3204   23099632.2994   23099629.8944
       213.0004        149.0004
 11 10 14  0 12  0.0000000  0  9G05G10G07G08G13G16G02G04G26
 -18146775.10349 -13873277.01449  21302174.5814   21302177.9684   21302175.3354
       236.0004        197.0004
 -18729074.60549 -14583923.66849  20876907.9684   20876911.5594   20876907.2704
       240.0004        195.0004
 -22453873.68449 -17475240.98449  20633397.5014   20633399.4564   20633397.9094
       240.0004        205.0004
 -21281219.49149 -16568592.03749  20892393.4374   20892396.7504   20892393.5934
       242.0004        200.0004
  -8749328.56849  -6504303.94949  22869689.6504   22869690.8204   22869689.7734
       223.0004        161.0004
   2862916.20149   2317656.21849  24689641.5994   24689643.8994   24689638.3954
       201.0004        132.0004
 -14236836.73149 -10806627.96549  22316783.2844   22316785.0794   22316784.3034
       226.0004        172.0004
   3148178.00549   2737439.86449  24792537.6424   24792546.8594   24792540.0324
       201.0004        134.0004
  -6296017.05249  -4093484.74949  23079955.8114   23079959.2844   23079955.6994
       215.0004        155.0004
 11 10 14  0 12 30.0000000  0  9G05G10G07G08G13G16G02G04G26
 -18204465.04249 -13918230.20749  21291196.7504   21291199.6304   21291197.3704
       237.0004        198.0004
 -18667430.78249 -14535889.54849  20888638.5424   20888641.6804   20888638.0314
       240.0004        195.0004
 -22433658.20949 -17459488.66349  20637243.7484   20637246.2644   20637244.4184
       239.0004        205.0004
 -21327907.06449 -16604971.94549  20883510.0054   20883513.0254   20883509.7194
       243.0004        201.0004
  -8658166.36649  -6433268.49949  22887036.8774   22887038.2944   22887037.1594
       225.0004        160.0004
   2927964.97549   2368343.54449  24702019.8924   24702023.1884   24702020.4434
       204.0004        134.0004
 -14166067.59049 -10751483.19649  22330250.3774   22330252.1234   22330249.9154
       224.0004        169.0004
   3258089.74549   2823085.25049  24813453.0024   24813459.6434   24813457.0994
       202.0004        141.0004
  -6399229.23149  -4173909.78149  23060314.3724   23060318.1054   23060313.9894
       214.0004        153.0004
 11 10 14  0 13  0.0000000  0  9G05G10G07G08G13G16G02G04G26
 -18261736.28549 -13962857.15749  21280299.2294   21280301.2584   21280299.2724
       238.0004        198.0004
 -18605346.88049 -14487512.50949  20900452.4614   20900455.9164   20900451.9664
       239.0004        195.0004
 -22412906.17649 -17443318.24549  20641193.3154   20641195.4774   20641193.5964
       240.0004        205.0004
 -21374096.65449 -16640963.82149  20874719.5334   20874723.5794   20874719.4564
       242.0004        202.0004
  -8566858.22049  -6362119.32549  22904413.2774   22904414.0904   22904412.9814
       223.0004        159.0004
   2993488.41049   2419400.71549  24714488.3444   24714491.5554   24714487.9304
       205.0004        135.0004
 -14094862.40449 -10695998.65749  22343801.5214   22343800.2414   22343800.3394
       224.0004        168.0004
   3367985.95749   2908718.63749  24834364.7104   24834371.7824   24834366.4554
       188.0004        124.0004
  -6502262.75149  -4254195.62649  23040707.4214   23040710.6694   23040708.2684
       214.0004        152.0004
 11 10 14  0 13 30.0000000  0  9G05G10G07G08G13G16G02G04G26
 -18318586.75949 -14007156.21949  21269480.1434   21269482.8874   21269480.4704
       236.0004        197.0004
 -18542824.27749 -14438793.63049  20912350.5184   20912353.2534   20912349.8854
       240.0004        195.0004
 -22391618.45849 -17426730.40449  20645243.7934   20645246.5514   20645244.4114
       240.0004        205.0004
 -21419787.01849 -16676566.68849  20866026.5924   20866028.9264   20866025.5434
       244.0004        202.0004
  -8475405.16649  -6290857.24049  22921813.5524   22921817.7814   22921814.2534
       219.0004        155.0004
   3059484.37549   2470826.10949  24727046.5394   24727046.8794   24727045.9824
       204.0004        134.0004
 -14023223.79349 -10640176.37949  22357432.0544   22357434.2024   22357433.2574
       223.0004        168.0004
   3477864.04149   2994337.91949  24855279.2824   24855280.7624   24855282.6214
       204.0004        128.0004
  -6605115.97949  -4334340.96149  23021134.3164   23021138.9984   23021136.1864
       213.0004        153.0004
 11 10 14  0 14  0.0000000  0  9G05G10G07G08G13G16G02G04G26
 -18375013.58649 -14051125.16949  21258742.7774   21258745.1454   21258743.5594
       238.0004        198.0004
 -18479863.70549 -14389733.48049  20924331.5834   20924334.8164   20924330.8324
       240.0004        195.0004
 -22369795.03049 -17409725.12649  20649396.5834   20649399.1314   20649396.9554
       239.0004        205.0004
 -21464976.78549 -16711779.47149  20857425.2764   20857429.3864   20857425.8614
       241.0004        201.0004
  -8383807.94349  -6219482.82749  22939245.1874   22939247.5944   22939245.2164
       222.0004        157.0004
   3125950.93449   2522618.21449  24739695.5674   24739695.8584   24739698.8374
       204.0004        132.0004
 -13951154.03549 -10584018.13649  22371147.6564   22371149.3974   22371146.8854
       226.0004        170.0004
   3587721.98349   3079941.57449  24876183.0164   24876189.2444   24876183.8544
       204.0004        139.0004
  -6707786.87149  -4414344.21349  23001598.0304   23001601.4584   23001598.7714
       217.0004        155.0004
 11 10 14  0 14 30.0000000  0  9G05G10G07G08G13G16G02G04G26
 -18431015.17549 -14094762.78349  21248086.6104   21248088.9654   21248086.5244
       238.0004        199.0004
 -18416466.26649 -14340332.91549  20936395.9704   20936398.8094   20936395.2334
       240.0004        195.0004
 -22347437.77649 -17392303.89649  20653651.8564   20653653.9404   20653651.6404
       240.0004        205.0004
 -21509664.89649 -16746601.36649  20848922.1294   20848925.7324   20848922.0884
       243.0004        202.0004
  -8292067.93349  -6147997.12449  22956703.2764   22956704.7734   22956704.0534
       220.0004        157.0004
   3192886.14449   2574775.51749  24752432.7984   24752434.7144   24752431.1734
       203.0004        134.0004
 -13878655.87849 -10527526.10849  22384944.7964   22384945.7714   22384943.7414
       226.0004        170.0004
   3697557.02049   3165527.24249  24897082.5474   24897088.1174   24897081.4814
       188.0004        130.0004
  -6810274.47749  -4494204.69849  22982095.9854   22982099.4534   22982095.4434
       217.0004        154.0004
 11 10 14  0 15  0.0000000  0  9G05G10G07G08G13G16G02G04G26
 -18486589.86549 -14138067.72749  21237509.8254   21237513.1224   21237510.5624
       237.0004        198.0004
 -18352633.25649 -14290592.93249  20948542.2014   20948546.0664   20948542.0604
       239.0004        194.0004
 -22324548.00349 -17374467.70249  20658007.0974   20658009.5094   20658007.6744
       240.0004        205.0004
 -21553851.01349 -16781032.08049  20840513.1324   20840517.1364   20840513.1564
       241.0004        202.0004
  -8200186.37949  -6076401.14449  22974185.9134   22974188.9194   22974187.1834
       220.0004        157.0004
   3260287.22749   2627295.80349  24765258.9624   24765259.1894   24765257.5184
       203.0004        134.0004
 -13805732.53249 -10470702.74749  22398818.5524   22398821.2644   22398819.3744
       222.0004        168.0004
   3807366.45549   3251092.87249  24917977.5074   24917984.0104   24917979.5034
       200.0004        128.0004
  -6912577.59849  -4573921.35249  22962628.7514   22962631.1704   22962627.5524
       217.0004        155.0004
 11 10 14  0 15 30.0000000  0  9G05G10G07G08G13G16G02G04G26
 -18541735.64449 -14181038.47449  21227016.7594   21227018.5454   21227017.4104
       238.0004        198.0004
 -18288365.74449 -14240514.37749  20960772.3574   20960775.8564   20960771.9704
       239.0004        195.0004
 -22301126.92849 -17356217.51649  20662463.8804   20662466.0234   20662464.6934
       239.0004        205.0004
 -21597534.10649 -16815070.83349  20832201.1474   20832204.3514   20832201.0444
       242.0004        201.0004
  -8108164.24949  -6004695.61349  22991698.6264   22991701.8334   22991698.5844
       220.0004        156.0004
   3328152.26749   2680177.64749  24778173.8754   24778174.9804   24778172.6914
       201.0004        132.0004
 -13732386.52349 -10413550.04149  22412777.7974   22412778.3344   22412776.5404
       225.0004        167.0004
   3917147.68349   3336636.83849  24938868.1034   24938868.6674   24938872.9514
       204.0004        130.0004
  -7014694.74749  -4653493.12549  22943195.7004   22943197.8574   22943195.8214
       217.0004        155.0004
 11 10 14  0 16  0.0000000  0  9G05G10G07G08G13G16G02G04G26
 -18596450.61849 -14223673.52149  21216605.0944   21216606.9894   21216605.4934
       238.0004        199.0004
 -18223665.31049 -14190098.48249  20973084.5344   20973088.2414   20973084.0814
       238.0004        194.0004
 -22277175.91549 -17337554.38049  20667022.3094   20667024.2794   20667022.4254
       240.0004        205.0004
 -21640713.51749 -16848717.10749  20823983.7764   20823987.6964   20823983.8664
       241.0004        201.0004
  -8016002.89849  -5932881.63949  23009237.0264   23009237.8044   23009236.8244
       221.0004        156.0004
   3396478.68049   2733419.03549  24791174.4424   24791177.3384   24791173.5884
       203.0004        130.0004
 -13658620.89049 -10356070.32749  22426814.9104   22426816.7164   22426815.2144
       225.0004        168.0004
   4026897.91249   3422156.56749  24959753.9704   24959760.5064   24959752.7224
       192.0004        134.0004
  -7116625.03649  -4732919.30949  22923798.1224   22923801.2344   22923798.2644
       216.0004        154.0004
 11 10 14  0 16 30.0000000  0  9G05G10G07G08G13G16G02G04G26
 -18650732.55849 -14265971.13649  21206275.2654   21206278.0574   21206276.0264
       238.0004        200.0004
 -18158532.88049 -14139345.95549  20985478.8004   20985482.2894   20985478.3714
       239.0004        193.0004
 -22252695.84049 -17318478.99749  20671679.9394   20671682.0424   20671680.7764
       240.0004        205.0004
 -21683388.15949 -16881970.05649  20815864.1434   20815867.0194   20815863.8354
       243.0004        201.0004
  -7923703.06249  -5860959.72249  23026800.4324   23026802.1074   23026802.2214
       222.0004        158.0004
   3465264.58149   2787018.43349  24804264.2394   24804265.4064   24804264.1424
       204.0004        132.0004
 -13584437.92049 -10298265.42749  22440932.4004   22440932.0824   22440931.4884
       225.0004        169.0004
   4136615.37949   3507650.46149  24980629.4764   24980640.5294   24980633.6164
       200.0004        131.0004
  -7218366.78249  -4812198.57749  22904437.6324   22904440.9114   22904437.6304
       216.0004        154.0004
 11 10 14  0 17  0.0000000  0  9G05G10G07G08G13G16G02G04G26
 -18704579.86949 -14307930.07549  21196028.4194   21196031.0534   21196028.4674
       238.0004        199.0004
 -18092970.27249 -14088258.23249  20997955.7944   20997957.9074   20997954.9044
       237.0004        193.0004
 -22227688.83449 -17298993.01649  20676439.0464   20676440.7604   20676439.5154
       240.0004        205.0004
 -21725557.59549 -16914829.33549  20807839.2924   20807842.3664   20807838.4554
       242.0004        202.0004
  -7831266.04349  -5788930.90649  23044390.1784   23044393.2704   23044390.7204
       221.0004        157.0004
   3534507.27449   2840973.70749  24817440.7074   24817442.2864   24817441.2114
       204.0004        135.0004
 -13509841.01549 -10240138.01049  22455125.5934   22455127.2664   22455126.6164
       223.0004        169.0004
   4246296.54649   3593116.27249  25001507.3154   25001501.1984   25001509.0674
       212.0004        128.0004
  -7319919.05849  -4891330.18749  22885113.7364   22885116.4734   22885112.8104
       218.0004        155.0004
 11 10 14  0 17 30.0000000  0  9G05G10G07G08G13G16G02G04G26
 -18757990.32949 -14349548.62549  21185865.2584   21185867.1644   21185866.2174
       239.0004        200.0004
 -18026978.62949 -14036836.18849  21010512.3094   21010516.3054   21010511.7274
       236.0004        193.0004
 -22202155.30249 -17279096.75549  20681297.3384   20681300.0754   20681298.0994
       239.0004        205.0004
 -21767220.62049 -16947294.01749  20799910.0654   20799914.0524   20799910.5794
       242.0004        202.0004
  -7738692.87449  -5716795.99649  23062007.4154   23062009.0234   23062005.9714
       220.0004        153.0004
   3604204.25149   2895283.04249  24830704.8564   24830706.1064   24830705.3954
       207.0004        134.0004
 -13434832.69749 -10181690.00549  22469398.8514   22469401.4574   22469399.6444
       223.0004        168.0004
   4355939.34749   3678552.48749  25022374.6504   25022374.4304   25022373.1124
       196.0004        126.0004
  -7421280.29249  -4970312.95149  22865825.2954   22865827.3614   22865825.0794
       217.0004        155.0004
 11 10 14  0 18  0.0000000  0  9G05G10G07G08G13G16G02G04G26
 -18810961.95849 -14390825.23149  21175784.4054   21175786.8874   21175785.0604
       238.0004        199.0004
 -17960558.95449 -13985080.62949  21023151.9714   21023155.4244   21023151.5654
       237.0004        193.0004
 -22176096.18649 -17258790.94949  20686256.9154   20686258.5514   20686256.9124
       241.0004        204.0004
 -21808375.83849 -16979362.99949  20792079.2714   20792082.7644   20792079.0304
       242.0004        202.0004
  -7645984.22049  -5644555.53649  23079648.1504   23079651.1494   23079647.4944
       219.0004        154.0004
   3674354.21849   2949945.35549  24844054.0974   24844056.2444   24844052.7074
       207.0004        134.0004
 -13359415.33649 -10122923.24149  22483753.5514   22483753.0204   22483750.9374
       225.0004        167.0004
   4465541.82649   3763956.80649  25043226.7504   25043237.0834   25043227.2504
       205.0004        130.0004
  -7522449.01349  -5049145.68649  22846572.3794   22846575.7784   22846573.7954
       217.0004        157.0004
 11 10 14  0 18 30.0000000  0  9G05G10G07G08G13G16G02G04G26
 -18863493.41449 -14431758.81449  21165788.0884   21165790.9074   21165788.5674
       238.0004        200.0004
 -17893713.02849 -13932992.92949  21035872.2504   21035875.7214   21035871.6844
       235.0004        192.0004
 -22149513.73649 -17238077.34949  20691314.0114   20691317.3154   20691314.9444
       241.0004        204.0004
 -21849023.79049 -17011036.70349  20784344.1564   20784347.3484   20784343.9434
       242.0004        202.0004
  -7553141.70949  -5572210.77849  23097316.3974   23097318.3924   23097317.3924
       218.0004        152.0004
   3744953.64049   3004957.88349  24857487.1604   24857488.3194   24857487.2374
       203.0004        134.0004
 -13283592.85649 -10063840.79849  22498179.9564   22498181.2104   22498180.6694
       223.0004        167.0004
   4575100.38349   3849326.93849  25064075.7154   25064078.0654   25064077.1954
       211.0004        140.0004
  -7623424.40049  -5127827.78749  22827357.8384   22827361.9474   22827358.7094
       217.0004        154.0004
 11 10 14  0 19  0.0000000  0  9G05G10G07G08G13G16G02G04G26
 -18915582.83349 -14472347.97649  21155876.2254   21155878.8594   21155876.5674
       239.0004        200.0004
 -17826442.02949 -13880574.00449  21048673.1744   21048677.1064   21048673.0274
       236.0004        192.0004
 -22122409.34649 -17216957.04849  20696473.4014   20696474.9744   20696473.5004
       242.0004        205.0004
 -21889163.67749 -17042314.52249  20776705.9514   20776709.2934   20776705.9934
       243.0004        203.0004
  -7460166.45749  -5499762.54449  23115009.3794   23115010.3324   23115007.4754
       220.0004        151.0004
   3816000.37749   3060318.97649  24871008.8724   24871009.9774   24871006.1124
       207.0004        136.0004
 -13207367.92849 -10004444.78249  22512686.4844   22512686.1384   22512685.5734
       223.0004        168.0004
   4684612.48549   3934661.09649  25084914.2784   25084912.0594   25084916.5344
       188.0004        123.0004
  -7724205.24749  -5206358.29349  22808179.4194   22808184.1894   22808179.9644
       215.0004        156.0004
 11 10 14  0 19 30.0000000  0  9G05G10G07G08G13G16G02G04G26
 -18967226.82049 -14512590.04849  21146048.5714   21146050.5554   21146049.1414
       238.0004        200.0004
 -17758746.06149 -13827823.92549  21061556.6604   21061558.6964   21061555.7294
       237.0004        192.0004
 -22094783.01949 -17195430.03049  20701729.6094   20701732.4824   20701729.9264
       240.0004        204.0004
 -21928793.30349 -17073194.73449  20769164.2464   20769167.7114   20769164.0894
       242.0004        202.0004
  -7367058.29049  -5427210.77049  23132725.1454   23132728.6424   23132726.8874
       217.0004        151.0004
   3887493.32649   3116027.75049  24884613.4484   24884614.5024   24884613.3554
       209.0004        138.0004
 -13130741.97949  -9944736.27749  22527266.5564   22527268.3254   22527266.5914
       223.0004        168.0004
   4794077.27949   4019958.34749  25105748.3744   25105748.6094   25105744.4734
       201.0004        125.0004
  -7824788.76249  -5284735.02849  22789037.7774   22789042.4954   22789038.7544
       215.0004        157.0004
 11 10 14  0 20  0.0000000  0  9G05G10G07G08G13G16G02G04G26
 -19018425.02449 -14552484.75849  21136305.3584   21136307.5174   21136306.2774
       238.0004        199.0004
 -17690627.90749 -13774744.86349  21074518.4854   21074521.9594   21074518.1244
       236.0004        192.0004
 -22066637.32449 -17173498.31949  20707086.3814   20707088.2574   20707086.4504
       243.0004        205.0004
 -21967913.13149 -17103677.70649  20761720.3814   20761723.3344   20761720.2084
       243.0004        202.0004
  -7273819.73749  -5354557.37249  23150469.1674   23150471.2954   23150468.9274
       218.0004        148.0004
   3959428.76549   3172081.32049  24898300.2924   24898302.1164   24898300.2584
       203.0004        134.0004
 -13053719.15649  -9884718.52949  22541924.1584   22541925.4284   22541923.8994
       223.0004        168.0004
   4903490.48349   4105215.31149  25126565.9844   25126570.9024   25126566.8924
       209.0004        141.0004
  -7925175.15549  -5362958.16949  22769937.0944   22769939.2034   22769936.5144
       219.0004        157.0004
 11 10 14  0 20 30.0000000  0  9G05G10G07G08G13G16G02G04G26
 -19069175.69449 -14592030.73249  21126648.3494   21126650.8994   21126648.9934
       239.0004        200.0004
 -17622089.28449 -13721338.16949  21087560.2004   21087564.3884   21087560.1494
       236.0004        192.0004
 -22037973.90749 -17151163.16649  20712540.2344   20712542.0654   20712540.7744
       242.0004        205.0004
 -22006523.03149 -17133763.32649  20754373.3734   20754376.2154   20754372.4944
       243.0004        202.0004
  -7180452.00949  -5281803.34549  23168235.6974   23168238.6594   23168235.6564
       216.0004        148.0004
   4031804.03249   3228477.64549  24912074.2914   24912074.1904   24912074.3064
       204.0004        134.0004
 -12976302.87049  -9824394.16849  22556655.8894   22556657.0984   22556656.1244
       223.0004        167.0004
   5012849.50649   4190430.11349  25147375.0954   25147381.1214   25147377.1044
       192.0004        134.0004
  -8025363.43449  -5441026.93849  22750871.5984   22750873.9274   22750870.9514
       219.0004        158.0004
 11 10 14  0 21  0.0000000  0  9G05G10G07G08G13G16G02G04G26
 -19119475.93249 -14631225.72749  21117077.0804   21117078.9894   21117077.0754
       239.0004        200.0004
 -17553130.32449 -13667603.93549  21100683.4874   21100686.4474   21100683.0354
       237.0004        192.0004
 -22008793.17849 -17128424.92749  20718093.5884   20718095.6464   20718093.8254
       242.0004        205.0004
 -22044621.14549 -17163450.16149  20747122.6974   20747126.4084   20747122.9634
       242.0004        203.0004
  -7086954.97749  -5208948.55149  23186027.3894   23186029.5634   23186028.4534
       215.0004        147.0004
   4104617.69549   3285215.53449  24925929.8214   24925932.7684   24925929.7314
       202.0004        132.0004
 -12898494.85549  -9763764.55449  22571462.4544   22571464.1624   22571461.6734
       222.0004        165.0004
   5122153.18349   4275601.75949  25168174.6734                   25168174.4134
       194.0004        120.0004
  -8125350.90349  -5518939.23849  22731842.7284   22731848.1044   22731843.5904
       217.0004        158.0004
 11 10 14  0 21 30.0000000  0  9G05G10G07G08G13G16G02G04G26
 -19169324.22449 -14670068.55149  21107590.4784   21107592.6224   21107590.7754
       238.0004        199.0004
 -17483752.60649 -13613543.39849  21113885.8744   21113889.1904   21113885.1114
       237.0004        192.0004
 -21979096.80049 -17105284.89749  20723743.8934   20723746.2564   20723744.8764
       241.0004        204.0004
 -22082207.22449 -17192737.99949  20739970.8444   20739974.4014   20739970.7764
       243.0004        203.0004
  -6993330.09349  -5135994.13649  23203843.3884   23203848.1284   23203844.8454
       215.0004        147.0004
   4177867.05249   3342292.96249  24939867.1214   24939869.9534   24939866.6884
       200.0004        133.0004
 -12820298.59549  -9702832.42349  22586343.0464   22586343.8894   22586341.6924
       223.0004        167.0004
   5231398.25949   4360727.80649  25188964.6894   25188970.7344   25188966.5344
       205.0004        131.0004
  -8225137.04049  -5596694.65249  22712854.8034   22712859.0934   22712855.2214
       216.0004        157.0004
 11 10 14  0 22  0.0000000  0  9G05G10G07G08G13G16G02G04G26
 -19218718.96049 -14708557.96649  21098190.9804   21098193.1464   21098191.6874
       238.0004        199.0004
 -17413957.72949 -13559157.80649  21127167.7714   21127170.7774   21127166.7074
       236.0004        192.0004
 -21948886.48549 -17081744.37849  20729493.7154   20729495.5204   20729493.7644
       242.0004        204.0004
 -22119281.08449 -17221626.69949  20732915.5284   20732918.9164   20732915.3004
       242.0004        202.0004
  -6899578.68249  -5062941.12749  23221686.4354   23221687.6634   23221686.1314
       217.0004        148.0004
   4251549.39849   3399707.82749  24953891.7884   24953891.6914   24953889.5644
       204.0004        133.0004
 -12741716.89149  -9641599.95249  22601295.6614   22601297.9044   22601295.2564
       221.0004        167.0004
   5340582.17249   4445806.17449  25209744.4484   25209746.3644   25209744.0454
       203.0004        135.0004
  -8324720.23249  -5674291.88849  22693904.5344   22693908.6144   22693906.3384
       219.0004        160.0004
 11 10 14  0 22 30.0000000  0  9G05G10G07G08G13G16G02G04G26
 -19267658.61349 -14746692.76149  21088878.3904   21088880.5194   21088878.6844
       238.0004        200.0004
 -17343747.59449 -13504448.63849  21140527.3884   21140530.8774   21140527.0244
       236.0004        191.0004
 -21918163.53649 -17057804.41649  20735339.0544   20735341.6874   20735339.5604
       241.0004        203.0004
 -22155841.88349 -17250115.61649  20725959.1214   20725961.7104   20725958.4544
       243.0004        202.0004
  -6805701.79349  -4989790.34249  23239548.6064   23239552.9304   23239550.7314
       215.0004        143.0004
   4325662.25149   3457458.12149  24967994.3234   24967993.3144   24967994.9314
       209.0004        135.0004
 -12662752.61949  -9580069.38349  22616322.5894   22616324.1604   22616323.3004
       222.0004        166.0004
   5449702.44949   4530834.82449  25230504.9294   25230513.9644   25230504.4054
       193.0004        130.0004
  -8424099.73549  -5751730.47049  22674995.1494   22674996.5884   22674995.4144
       220.0004        159.0004
 11 10 14  0 23  0.0000000  0  9G05G10G07G08G13G16G02G04G26
 -19316140.65249 -14784470.97649  21079652.2524   21079655.1864   21079652.6474
       237.0004        200.0004
 -17273122.99749 -13449416.50449  21153966.7934   21153970.4534   21153966.3804
       236.0004        192.0004
 -21886929.07849 -17033465.87749  20741283.5864   20741285.0774   20741283.8664
       242.0004        203.0004
 -22191888.72749 -17278204.06149  20719098.0424   20719102.2454   20719098.1584
       242.0004        202.0004
  -6711699.84449  -4916542.12549  23257439.0054   23257439.0544   23257439.9824
       211.0004        136.0004
   4400203.74949   3515542.41649  24982178.4444   24982179.4304   24982176.6074
       205.0004        132.0004
 -12583408.35949  -9518242.70749  22631420.9334   22631421.7804   22631420.9024
       221.0004        165.0004
   5558756.84849   4615812.08849  25251259.3514   25251263.0874   25251260.3904
       203.0004        126.0004
  -8523273.48649  -5829008.68349  22656121.0134   22656125.1234   22656121.0164
       217.0004        160.0004
 11 10 14  0 23 30.0000000  0  9G05G10G07G08G13G16G02G04G26
 -19364163.30449 -14821891.21149  21070513.7934   21070516.1184   21070514.0594
       238.0004        199.0004
 -17202085.78749 -13394062.85449  21167485.5174   21167488.3844   21167484.9644
       238.0004        192.0004
 -21855185.05049 -17008730.26549  20747323.2894   20747326.4534   20747324.3724
       241.0004        203.0004
 -22227421.16049 -17305891.65749  20712337.9894   20712340.5124   20712337.4904
       243.0004        203.0004
  -6617574.49749  -4843197.71549  23275349.6054   23275347.1234   23275353.3864
       207.0004        131.0004
   4475170.99049   3573958.45249  24996442.6294   24996446.4934   24996442.1294
       203.0004        133.0004
 -12503687.76949  -9456122.78949  22646592.5914   22646593.3664   22646591.3604
       224.0004        164.0004
   5667742.67549   4700736.13349  25271999.3204   25271995.1004   25272000.2794
       205.0004        127.0004
  -8622240.62549  -5906125.91349  22637288.5254   22637293.1584   22637288.8244
       220.0004        162.0004
 11 10 14  0 24  0.0000000  0  9G05G10G07G08G13G16G02G04G26
 -19411724.61749 -14858951.98849  21061463.2094   21061464.8654   21061463.6314
       237.0004        200.0004
 -17130636.87249 -13338388.40449  21181081.6404   21181084.3244   21181080.9074
       237.0004        192.0004
 -21822932.49349 -16983598.39549  20753461.4114   20753463.4934   20753461.4564
       240.0004        202.0004
 -22262438.49249 -17333177.86849  20705674.2094   20705677.0084   20705673.2574
       243.0004        203.0004
  -6523326.38649  -4769757.66249  23293283.2804   23293283.8344   23293282.2514
       205.0004        131.0004
   4550562.03049   3632704.67149  25010790.9424   25010790.5054   25010791.7304
       205.0004        129.0004
 -12423593.07449  -9393711.34649  22661831.5804   22661833.0914   22661833.2854
       220.0004        164.0004
   5776657.85849   4785605.07349  25292722.1584   25292732.4514   25292722.7434
       194.0004        127.0004
  -8720999.41049  -5983080.77349  22618495.3814   22618499.4794   22618495.5164
       217.0004        160.0004
 11 10 14  0 24 30.0000000  0  9G05G10G07G08G13G16G02G04G26
 -19458823.15749 -14895652.14949  21052500.0934   21052503.1704   21052500.5334
       237.0004        200.0004
 -17058777.84449 -13282394.37649  21194755.2254   21194758.3124   21194754.6284
       237.0004        191.0004
 -21790173.05749 -16958071.56849  20759694.8414   20759697.4634   20759695.5564
       240.0004        203.0004
 -22296940.20849 -17360062.30349  20699108.6304   20699111.5494   20699108.4734
       244.0004        203.0004
  -6428956.50749  -4696222.68849  23311241.9304   23311245.9854   23311244.8484
       206.0004        132.0004
   4626373.94049   3691778.86749  25025217.4574   25025214.8944   25025218.1414
       205.0004        131.0004
 -12343127.66149  -9331011.04249  22677145.4184   22677145.0294   22677144.8944
       221.0004        165.0004
   5885499.93649   4870416.93449  25313437.2434   25313443.9874   25313437.3164
       201.0004        130.0004
  -8819548.84849  -6059872.54249  22599741.2154   22599746.3514   22599741.5414
       217.0004        159.0004
 11 10 14  0 25  0.0000000  0  9G05G10G07G08G13G16G02G04G26
 -19505457.50849 -14931990.59949  21043626.4894   21043629.2254   21043627.0014
       238.0004        201.0004
 -16986510.75849 -13226082.38549  21208508.2554   21208510.4944   21208507.4954
       237.0004        191.0004
 -21756908.52049 -16932151.14649  20766025.0824   20766027.5114   20766025.2544
       240.0004        202.0004
 -22330926.22749 -17386544.90249  20692641.0444   20692644.1374   20692640.9464
       243.0004        203.0004
  -6334466.67249  -4622594.26449  23329223.1064   23329225.2704   23329224.1844
       204.0004        132.0004
   4702603.84349   3751178.79849  25039722.6394   25039722.9394   25039721.7494
       203.0004        132.0004
 -12262294.82749  -9268024.44549  22692527.1234   22692528.9294   22692527.0014
       219.0004        164.0004
   5994265.64049   4955169.35149  25334132.8044   25334133.6534   25334133.9374
       201.0004        130.0004
  -8917887.74749  -6136500.23949  22581028.3024   22581033.3404   22581029.2834
       219.0004        161.0004
 11 10 14  0 25 30.0000000  0  9G05G10G07G08G13G16G02G04G26
 -19551625.28949 -14967965.48849  21034840.4064   21034843.5954   21034841.2214
       237.0004        200.0004
 -16913836.31949 -13169452.96649  21222337.1404   21222340.5214   21222336.5614
       236.0004        191.0004
 -21723139.67349 -16905837.76349  20772451.5464   20772453.1724   20772451.7294
       241.0004        202.0004
 -22364395.55649 -17412624.87649  20686272.4804   20686275.3324   20686271.8354
       242.0004        203.0004
  -6239857.15149  -4548872.60149  23347226.3604   23347228.0074   23347225.0664
       203.0004        133.0004
   4779249.85449   3810903.00549  25054308.6734   25054309.7464   25054307.5304
       206.0004        135.0004
 -12181096.84349  -9204753.31749  22707978.2144   22707979.7994   22707978.9344
       222.0004        164.0004
   6102953.53749   5039861.23149  25354814.2324   25354819.2554   25354816.1464
       193.0004        122.0004
  -9016014.60349  -6212962.70149  22562357.0424   22562360.4084   22562355.9314
       219.0004        164.0004
 11 10 14  0 26  0.0000000  0  9G05G10G07G08G13G16G02G04G26
 -19597324.51549 -15003575.28849  21026144.5644   21026146.9394   21026145.4674
       238.0004        200.0004
 -16840756.15849 -13112507.39449  21236242.5824   21236247.3394   21236242.8764
       237.0004        191.0004
 -21688868.59749 -16879133.02749  20778972.8194   20778974.9774   20778973.0494
       241.0004        203.0004
 -22397347.62449 -17438301.80449  20680000.6374   20680004.5244   20680001.0664
       240.0004        203.0004
  -6145129.10849  -4475058.58649  23365253.3644   23365252.0224   23365254.5854
       203.0004        133.0004
   4856309.34049   3870949.37749  25068973.2694   25068974.4184   25068972.8324
       206.0004        136.0004
 -12099537.12949  -9141200.31049  22723499.9834   22723499.6024   22723498.7514
       221.0004        163.0004
   6211560.36649   5124489.91949  25375480.5024   25375491.5874   25375481.8944
       198.0004        126.0004
  -9113927.93349  -6289258.75149  22543722.9924   22543728.6304   22543722.6684
       219.0004        162.0004
 11 10 14  0 26 30.0000000  0  9G05G10G07G08G13G16G02G04G26
 -19642553.84549 -15038818.91849  21017537.3944   21017540.8344   21017538.0354
       238.0004        201.0004
 -16767272.05849 -13055247.08249  21250228.6604   21250230.5404   21250227.0964
       238.0004        190.0004
 -21654096.75449 -16852038.08849  20785589.9834   20785592.2694   20785590.0884
       241.0004        202.0004
 -22429782.16449 -17463575.45449  20673829.5484   20673833.1744   20673829.0234
       241.0004        203.0004
  -6050283.53449  -4401153.01549  23383300.8004   23383305.6484   23383302.0844
       203.0004        133.0004
   4933779.58349   3931315.80149  25083714.3864   25083716.0654   25083714.5714
       204.0004        134.0004
 -12017618.69649  -9077367.78849  22739086.6684   22739088.8984   22739087.4974
       219.0004        163.0004
   6320083.89949   5209053.39949  25396133.1954   25396140.3734   25396134.7984
       195.0004        130.0004
  -9211626.71549  -6365387.65649  22525132.0694   22525135.8064   22525132.5114
       219.0004        161.0004
 11 10 14  0 27  0.0000000  0  9G05G10G07G08G13G16G02G04G26
 -19687311.66649 -15073695.13549  21009021.4044   21009023.7564   21009021.7964
       240.0004        202.0004
 -16693385.28149 -12997672.98149  21264286.9844   21264291.2094   21264287.1954
       236.0004        190.0004
 -21618825.62349 -16824554.08749  20792300.5224   20792303.9184   20792301.8054
       240.0004        202.0004
 -22461698.47849 -17488445.30149  20667755.3314   20667759.2164   20667755.9054
       240.0004        203.0004
  -5955321.45349  -4327156.60649  23401372.4774   23401373.2804   23401373.0054
       204.0004        131.0004
   5011658.44149   3992000.65949  25098531.7404   25098534.6204   25098531.4194
       198.0004        127.0004
 -11935344.15549  -9013257.77049  22754743.5024   22754746.5024   22754743.0634
       220.0004        163.0004
   6428521.97249   5293550.32649  25416766.9814   25416773.4354   25416773.8974
       196.0004        129.0004
  -9309109.48649  -6441348.26449  22506581.1694   22506586.5404   22506580.5714
       218.0004        161.0004
 11 10 14  0 27 30.0000000  0  9G05G10G07G08G13G16G02G04G26
 -19731595.83049 -15108202.28249  21000593.0734   21000595.7024   21000594.0164
       238.0004        201.0004
 -16619097.07549 -12939786.09049  21278424.2204   21278427.7584   21278423.5984
       237.0004        189.0004
 -21583056.47149 -16796682.02749  20799108.1764   20799110.4934   20799108.3064
       240.0004        201.0004
 -22493096.37549 -17512911.17449  20661781.9234   20661784.3784   20661780.8934
       242.0004        203.0004
  -5860243.86949  -4253070.19649  23419464.8234   23419466.1084   23419462.6004
       199.0004        127.0004
   5089943.13649   4053001.73049  25113428.8674   25113430.0134   25113434.9234
       197.0004        126.0004
 -11852716.72149  -8948872.79149  22770467.3624   22770468.9634   22770467.0474
       219.0004        162.0004
   6536872.21749   5377978.95649  25437388.8444   25437392.6364   25437389.1844
       200.0004        123.0004
  -9406374.69649  -6517139.30649  22488073.0354   22488077.1394   22488073.2524
       218.0004        165.0004
 11 10 14  0 28  0.0000000  0  9G05G10G07G08G13G16G02G04G26
 -19775405.25549 -15142339.49649  20992256.7454   20992259.2534   20992257.5604
       239.0004        202.0004
 -16544409.61249 -12881588.08949  21292637.3394   21292640.0684   21292636.6974
       236.0004        189.0004
 -21546791.61749 -16768423.69849  20806009.4334   20806011.0664   20806009.5574
       240.0004        202.0004
 -22523975.92249 -17536973.15049  20655903.3114   20655908.0704   20655904.0374
       239.0004        203.0004
  -5765052.16449  -4178894.92649  23437579.5294   23437580.9994   23437584.1394
       199.0004        126.0004
   5168630.60949   4114316.62949  25128405.5144   25128407.2934   25128405.6834
       199.0004        129.0004
 -11769739.94149  -8884215.57649  22786256.7274   22786258.3334   22786256.4994
       218.0004        162.0004
   6645131.62849   5462336.85249  25457989.1764   25457994.5184   25457989.5514
       197.0004        126.0004
  -9503421.62349  -6592760.25149  22469604.1064   22469609.5954   22469604.8894
       220.0004        163.0004
 11 10 14  0 28 30.0000000  0  9G05G10G07G08G13G16G02G04G26
 -19818737.12949 -15176104.59049  20984011.6964   20984014.0444   20984011.8124
       240.0004        202.0004
 -16469323.73349 -12823079.62349  21306925.0484   21306928.6574   21306923.8994
       235.0004        188.0004
 -21510031.81749 -16739779.69849  20813003.9444   20813006.2724   20813004.2244
       240.0004        201.0004
 -22554335.72549 -17560630.13149  20650128.1754   20650131.0134   20650127.0284
       241.0004        203.0004
  -5669746.55749  -4104630.80449  23455713.1484   23455715.7444   23455713.8344
       197.0004        124.0004
   5247719.30749   4175944.22749  25143453.9874   25143454.9084   25143456.0914
       200.0004        130.0004
 -11686416.13549  -8819287.95149  22802112.5144   22802113.4774   22802113.1644
       220.0004        161.0004
   6753298.90449   5546622.84549  25478571.6054   25478579.3514   25478572.0114
       198.0004        127.0004
  -9600248.06449  -6668209.43149  22451180.4624   22451184.4394   22451180.1074
       221.0004        164.0004
 11 10 14  0 29  0.0000000  0  9G05G10G07G08G13G16G02G04G26
 -19861590.00349 -15209496.43849  20975856.6064   20975859.4614   20975857.1364
       241.0004        203.0004
 -16393841.17049 -12764262.05949  21321288.7364   21321292.0664   21321287.9874
       236.0004        188.0004
 -21472778.76049 -16710751.34049  20820093.6994   20820095.3214   20820093.6694
       240.0004        201.0004
 -22584175.81649 -17583882.13149  20644448.8174   20644452.3344   20644449.0664
       241.0004        203.0004
  -5574328.18949  -4030278.79649  23473873.0414   23473873.5244   23473875.4114
       196.0004        124.0004
   5327206.27949   4237882.15949  25158579.6754   25158579.6734   25158577.7724
       199.0004        127.0004
 -11602748.35549  -8754092.29649  22818035.7654   22818036.1084   22818035.5204
       222.0004        162.0004
   6861371.10449   5630834.78249  25499136.8834   25499145.2984   25499137.5544
       192.0004        126.0004
  -9696852.88049  -6743485.88849  22432795.4514   22432800.4814   22432796.6804
       219.0004        164.0004
 11 10 14  0 29 30.0000000  0  9G05G10G07G08G13G16G02G04G26
 -19903962.42449 -15242513.91249  20967793.3394   20967796.0054   20967794.0764
       240.0004        202.0004
 -16317963.47649 -12705136.60849  21335729.1734   21335731.3004   21335727.5154
       236.0004        188.0004
 -21435034.07449 -16681339.90249  20827275.3534   20827278.3104   20827276.4564
       240.0004        202.0004
 -22613495.71149 -17606728.78749  20638870.2564   20638872.9654   20638869.3104
       241.0004        203.0004
  -5478798.49349  -3955840.11449  23492051.9644   23492055.8734   23492050.6814
       190.0004        125.0004
   5407088.92249   4300128.36649  25173782.6984   25173784.7694   25173786.0224
       199.0004        130.0004
 -11518739.79849  -8688631.10849  22834021.5204   22834022.5914   22834022.1874
       221.0004        163.0004
   6969345.82749   5714970.70249  25519684.3774   25519690.2194   25519687.7064
       193.0004        125.0004
  -9793235.14249  -6818588.93049  22414455.6574   22414459.3714   22414455.8454
       221.0004        163.0004
 11 10 14  0 30  0.0000000  0  9G05G10G07G08G13G16G02G04G26
 -19945852.76049 -15275155.72549  20959822.3724   20959824.0794   20959822.7704
       242.0004        203.0004
 -16241692.17949 -12645704.43649  21350241.8514   21350245.3244   21350241.5004
       235.0004        188.0004
 -21396799.89349 -16651547.02449  20834552.4134   20834553.8634   20834552.3724
       242.0004        202.0004
 -22642295.15749 -17629169.90349  20633389.0264   20633392.6164   20633389.2944
       241.0004        203.0004
  -5383158.31749  -3881315.41549  23510245.9454   23510256.9514   23510248.3464
       187.0004        124.0004
   5487364.44149   4362680.73249  25189056.8844   25189060.5274   25189056.1364
       198.0004        130.0004
 -11434393.64349  -8622906.85249  22850072.2854   22850072.5424   22850071.6724
       220.0004        162.0004
   7077220.51949   5799028.86249  25540214.5244   25540217.0154   25540211.9544
       199.0004        126.0004
  -9889393.34949  -6893517.37749  22396157.7604   22396161.3774   22396157.2324
       222.0004        165.0004
 11 10 14  0 30 30.0000000  0  9G05G10G07G08G13G16G02G04G26
 -19987259.23349 -15307420.51149  20951943.1224   20951945.2404   20951943.4584
       242.0004        203.0004
 -16165028.75349 -12585966.71749  21364830.6394   21364833.6264   21364829.6804
       235.0004        187.0004
 -21358077.85249 -16621374.01049  20841919.4994   20841922.6604   20841920.5254
       240.0004        202.0004
 -22670573.90349 -17651205.27549  20628009.2944   20628011.2644   20628007.8014
       242.0004        203.0004
  -5287408.65149  -3806705.32849  23528472.4424   23528471.5674   23528470.6184
       195.0004        125.0004
   5568030.48149   4425537.38949  25204407.4304   25204411.1424   25204409.8464
       200.0004        131.0004
 -11349712.90249  -8556921.88549  22866188.5014   22866185.8164   22866187.4004
       222.0004        159.0004
   7184993.34849   5883007.73149  25560721.3084   25560727.3774   25560723.7414
       191.0004        126.0004
  -9985326.15749  -6968270.19549  22377901.8904   22377904.2744   22377902.2634
       221.0004        165.0004
 11 10 14  0 31  0.0000000  0  9G05G10G07G08G13G16G02G04G26
 -20028180.49549 -15339307.20949  20944155.9504   20944158.3414   20944156.2424
       242.0004        204.0004
 -16087975.25149 -12525925.05849  21379494.2924   21379496.6094   21379492.8324
       234.0004        186.0004
 -21318869.14649 -16590821.77849  20849381.0044   20849383.6254   20849381.6244
       240.0004        202.0004
 -22698331.90949 -17672834.88149  20622725.8394   20622729.0564   20622725.5944
       241.0004        203.0004
  -5191550.85649  -3732010.97249  23546712.9204   23546717.2234   23546712.9734
       201.0004        128.0004
   5649084.15949   4488696.07949  25219830.8264   25219833.6874   25219829.8574
       198.0004        130.0004
 -11264700.82849  -8490678.71749  22882364.4094   22882363.7054   22882362.8384
       220.0004        160.0004
   7292660.84649   5966904.36249  25581209.0954   25581221.0854   25581209.4424
       194.0004        125.0004
 -10081032.49849  -7042846.56249  22359689.9474   22359692.8974   22359690.4034
       222.0004        165.0004
 11 10 14  0 31 30.0000000  0  9G05G10G07G08G13G16G02G04G26
 -20068614.15549 -15370813.95649  20936460.8534   20936463.6844   20936461.9124
       241.0004        203.0004
 -16010532.74249 -12465580.26249  21394229.0264   21394233.6794   21394229.0194
       232.0004        186.0004
 -21279175.05349 -16559891.32249  20856934.9714   20856937.1404   20856935.8204
       241.0004        203.0004
 -22725567.74449 -17694057.59949  20617542.7854   20617546.1294   20617542.9124
       241.0004        204.0004
  -5095584.94749  -3657232.36449  23564973.5624   23564979.9114   23564976.3234
       202.0004        128.0004
   5730523.27949   4552155.15749  25235328.2724   25235331.0114   25235328.9614
       200.0004        129.0004
 -11179359.69549  -8424179.14949  22898602.9024   22898605.4744   22898602.4134
       218.0004        160.0004
   7400221.91549   6050717.99949  25601679.7624   25601684.1944   25601683.3254
       198.0004        126.0004
 -10176510.52249  -7117244.99149  22341521.5864   22341524.3214   22341522.2144
       223.0004        166.0004
 11 10 14  0 32  0.0000000  0  9G05G10G07G08G13G16G02G04G26
 -20108558.80549 -15401939.66049  20928860.4184   20928862.7154   20928861.3064
       242.0004        204.0004
 -15932702.96849 -12404933.70749  21409041.0984   21409044.1734   21409039.5364
       234.0004        186.0004
 -21238997.69649 -16528584.28449  20864581.2334   20864582.6474   20864580.9344
       242.0004        203.0004
 -22752281.50749 -17714873.50649  20612460.0664   20612462.8754   20612459.5254
       241.0004        203.0004
  -4999512.31949  -3582370.60849  23583257.7754   23583257.7354   23583256.4764
       202.0004        128.0004
   5812345.39349   4615912.64449  25250901.6154   25250900.9364   25250902.7764
       200.0004        127.0004
 -11093693.21649  -8357426.08749  22914905.9484   22914906.3144   22914904.1324
       218.0004        160.0004
   7507673.97449   6134446.75449  25622125.6754   25622128.1294   25622126.9614
       193.0004        124.0004
 -10271758.97849  -7191464.54049  22323396.9504   22323398.3474   22323396.2394
       225.0004        166.0004
 11 10 14  0 32 30.0000000  0  9G05G10G07G08G13G16G02G04G26
 -20148013.48649 -15432683.56549  20921352.4234   20921354.8654   20921353.0144
       241.0004        204.0004
 -15854487.64349 -12343986.72649  21423925.8524   21423928.0774   21423924.4094
       234.0004        186.0004
 -21198338.93149 -16496902.13149  20872317.1564   20872319.6674   20872317.7764
       241.0004        202.0004
 -22778473.69249 -17735282.98649  20607475.5384   20607478.4074   20607475.1864
       241.0004        203.0004
  -4903334.32249  -3507426.74349  23601557.9024   23601561.6094   23601559.6514
       200.0004        129.0004
   5894547.05649   4679965.92949  25266539.2174   25266545.6134   25266540.2774
       194.0004        129.0004
 -11007704.83249  -8290422.18049  22931267.1744   22931269.0174   22931266.8154
       215.0004        158.0004
   7615014.01349   6218088.25249  25642552.7914   25642561.4914   25642556.7474
       195.0004        122.0004
 -10366777.09349  -7265504.62649  22305314.1304   22305316.9814   22305313.4404
       222.0004        165.0004
 11 10 14  0 33  0.0000000  0  9G05G10G07G08G13G16G02G04G26
 -20186976.07449 -15463044.02149  20913937.9524   20913940.2994   20913938.2644
       241.0004        204.0004
 -15775888.61349 -12282740.74449  21438880.8574   21438885.0214   21438880.1554
       233.0004        186.0004
 -21157200.69649 -16464846.36949  20880146.1544   20880147.7714   20880146.2744
       242.0004        203.0004
 -22804143.99749 -17755285.80949  20602589.8554   20602593.6774   20602589.9584
       240.0004        203.0004
  -4807051.78549  -3432401.41549  23619880.0424   23619881.7324   23619879.4254
       200.0004        129.0004
   5977125.84049   4744313.04949  25282255.9314   25282257.4764   25282256.1524
       197.0004        131.0004
 -10921397.40449  -8223169.64549  22947689.6794   22947693.5664   22947691.5624
       217.0004        159.0004
   7722239.49249   6301640.37749  25662957.5614   25662961.4434   25662954.6094
       195.0004        122.0004
 -10461563.23549  -7339363.93949  22287278.5854   22287278.8824   22287278.4754
       226.0004        166.0004
 11 10 14  0 33 30.0000000  0  9G05G10G07G08G13G16G02G04G26
 -20225444.44849 -15493019.37749  20906617.4894   20906619.7904   20906618.0814
       241.0004        204.0004
 -15696906.50949 -12221196.27049  21453911.6164   21453914.7994   21453910.6124
       234.0004        186.0004
 -21115583.58449 -16432417.44649  20888065.3654   20888067.3744   20888065.5884
       242.0004        203.0004
 -22829291.00849 -17774880.87449  20597804.8214   20597808.5434   20597804.6884
       240.0004        203.0004
  -4710664.94649  -3357294.81849  23638219.8384   23638223.8404   23638223.1364
       199.0004        128.0004
   6060080.08449   4808952.68649  25298042.2914   25298043.8914   25298041.8154
       201.0004        131.0004
 -10834773.16449  -8155670.28149  22964175.8544   22964176.3124   22964176.4774
       219.0004        158.0004
   7829349.29049   6385102.29449  25683340.8764                   25683342.8604
       193.0004        121.0004
 -10556115.45049  -7413040.96249  22269285.7344   22269287.5994   22269286.3414
       225.0004        168.0004
 11 10 14  0 34  0.0000000  0  9G05G10G07G08G13G16G02G04G26
 -20263417.29249 -15522608.60749  20899391.8394   20899394.2214   20899392.1964
       241.0004        204.0004
 -15617543.44649 -12159354.95849  21469013.9694   21469017.5064   21469013.0314
       234.0004        186.0004
 -21073489.80349 -16399617.09849  20896075.8504   20896077.9264   20896076.1774
       242.0004        203.0004
 -22853915.42149 -17794068.72549  20593119.3084   20593122.3844   20593119.5564
       240.0004        203.0004
  -4614175.26249  -3282108.10549  23656582.9774   23656586.8814   23656584.0634
       198.0004        128.0004
   6143406.71449   4873882.49749  25313899.1494   25313899.1124   25313898.7674
       202.0004        132.0004
 -10747835.80749  -8087926.90149  22980719.4574   22980720.3024   22980717.9524
       219.0004        158.0004
   7936341.14149   6468472.41349  25703699.2554                   25703704.3424
       187.0004        118.0004
 -10650432.66349  -7486534.89249  22251338.3314   22251339.4724   22251337.2424
       226.0004        167.0004
 11 10 14  0 34 30.0000000  0  9G05G10G07G08G13G16G02G04G26
 -20300893.48749 -15551810.83549  20892258.8254   20892262.4184   20892259.9624
       240.0004        203.0004
 -15537801.53349 -12097218.42649  21484187.1464   21484191.2954   21484187.0734
       232.0004        186.0004
 -21030921.45349 -16366446.95749  20904176.2974   20904177.8894   20904176.6694
       242.0004        203.0004
 -22878017.20249 -17812849.32349  20588532.8594   20588535.7314   20588532.6584
       241.0004        203.0004
  -4517583.98549  -3206842.21849  23674965.3934   23674968.0544   23674962.8294
       200.0004        129.0004
   6227102.37449   4939099.90149  25329826.8234   25329826.8974   25329825.9184
       203.0004        132.0004
 -10660588.56349  -8019942.06149  22997322.0014   22997323.2764   22997321.9044
       218.0004        160.0004
   8043211.94949   6551748.30449  25724036.6674
       190.0004        119.0004
 -10744514.03249  -7559845.01949  22233433.6314   22233436.9284   22233434.7114
       225.0004        168.0004
 11 10 14  0 35  0.0000000  0  9G05G10G07G08G13G16G02G04G26
 -20337870.27749 -15580623.92249  20885223.7774   20885226.3174   20885224.1924
       241.0004        204.0004
 -15457681.66849 -12034787.39149  21499433.1924   21499437.6684   21499433.3194
       233.0004        186.0004
 -20987879.59449 -16332907.86849  20912366.6384   20912368.8154   20912367.6004
       242.0004        203.0004
 -22901595.48549 -17831221.99649  20584046.2214   20584049.4794   20584045.7664
       241.0004        204.0004
  -4420891.71049  -3131497.63749  23693363.4264   23693363.3714   23693362.4614
       202.0004        127.0004
   6311165.31549   5004603.49149  25345821.9644   25345825.3624   25345820.5424
       202.0004        132.0004
 -10573033.97949  -7951717.74249  23013983.8234   23013983.6244   23013983.8004
       220.0004        161.0004
   8149959.87549   6634928.35249  25744350.8804
       184.0004        114.0004
 -10838357.59749  -7632969.86849  22215575.1794   22215578.7314   22215577.4574
       224.0004        167.0004
 11 10 14  0 35 30.0000000  0  9G05G10G07G08G13G16G02G04G26
 -20374347.81249 -15609047.97549  20878281.4924   20878284.7104   20878282.3984
       240.0004        203.0004
 -15377186.63549 -11972064.01449  21514754.1214   21514755.6464   21514752.1984
       236.0004        187.0004
 -20944367.25649 -16299002.15549  20920646.7394   20920649.4364   20920646.9544
       241.0004        203.0004
 -22924651.10749 -17849187.40949  20579658.0774   20579661.9114   20579658.5184
       240.0004        204.0004
  -4324100.16249  -3056075.68249  23711781.3884   23711787.2974   23711783.1644
       199.0004        129.0004
   6395591.70849   5070390.31149  25361886.8544   25361891.0304   25361885.5194
       203.0004        134.0004
 -10485176.34549  -7883257.25849  23030703.3574   23030704.3604   23030702.0914
       222.0004        159.0004
   8256581.81749     32487.31749  25764639.6244
       188.0004         74.0004
 -10931962.85249  -7705909.01149  22197763.3934   22197765.7074   22197763.2434
       225.0004        169.0004
 11 10 14  0 36  0.0000000  0  9G05G10G07G08G13G16G02G04G26
 -20410323.51249 -15637080.99249  20871436.0664   20871438.3124   20871436.8494
       241.0004        204.0004
 -15296317.07049 -11909048.79949  21530140.9434   21530144.9044   21530140.7634
       235.0004        187.0004
 -20900384.70049 -16264730.01749  20929016.3044   20929018.2664   20929017.0954
       241.0004        202.0004
 -22947183.11749 -17866744.80349  20575371.4824   20575374.2324   20575370.8514
       241.0004        204.0004
  -4227209.19449  -2980576.26549  23730221.0084   23730223.3744   23730221.2984
       203.0004        128.0004
   6480380.09849   5136459.16549  25378023.8744   25378023.0634   25378024.4404
       202.0004        133.0004
 -10397017.50349  -7814562.08249  23047479.4614   23047478.1634   23047478.9364
       221.0004        158.0004
   8363076.76949    115442.36149  25784907.0274
       183.0004        107.0004
 -11025327.69049  -7778660.80749  22179996.7394   22180000.2204   22179996.4564
       224.0004        169.0004
 11 10 14  0 36 30.0000000  0  9G05G10G07G08G13G16G02G04G26
 -20445795.77349 -15664721.71549  20864685.8824   20864688.5794   20864686.5514
       240.0004        204.0004
 -15215074.75049 -11845743.11449  21545600.8224   21545604.7874   21545599.8564
       234.0004        186.0004
 -20855934.43549 -16230093.44749  20937474.6334   20937477.4464   20937474.8774
       240.0004        202.0004
 -22969191.49049 -17883894.18049  20571182.6884   20571185.8874   20571182.8744
       241.0004        204.0004
  -4130220.00049  -2905000.31549  23748675.7614   23748677.3004   23748677.6034
       200.0004        127.0004
   6565527.32949   5202807.63849  25394223.1774   25394226.4724   25394226.2694
       200.0004        131.0004
 -10308561.03849  -7745634.99049  23064311.2964   23064311.7574   23064312.1264
       221.0004        160.0004
   8469441.61559    198272.98259  25805140.5454
       167.0004        111.0004
 -11118450.83249  -7851224.27749  22162275.7244   22162279.0844   22162275.9854
       225.0004        168.0004
 11 10 14  0 37  0.0000000  0  9G05G10G07G08G13G16G02G04G26
 -20480762.61449 -15691968.60749  20858031.8104   20858034.7064   20858032.7414
       240.0004        204.0004
 -15133460.66649 -11782147.75349  21561132.6274   21561135.2034   21561131.4854
       235.0004        186.0004
 -20811017.41949 -16195093.20549  20946022.4214   20946024.4084   20946023.2294
       242.0004        202.0004
 -22990675.55249 -17900634.99549  20567095.2224   20567097.4834   20567094.5684
       241.0004        204.0004
  -4033133.42649  -2829348.45249  23767150.5304   23767157.8684   23767151.5634
       200.0004        127.0004
   6651031.31849   5269434.09949  25410495.5014   25410498.8444   25410494.4744
       200.0004        130.0004
 -10219810.06649  -7676478.41549  23081201.6784   23081199.8234   23081200.2714
       221.0004        158.0004
   8575675.24359     25512.23359  25825360.5584
       173.0004         74.0004
 -11211330.71049  -7923598.20649  22144600.6574   22144604.7944   22144600.7124
       223.0004        168.0004
 11 10 14  0 37 30.0000000  0  9G05G10G07G08G13G16G02G04G26
 -20515223.39849 -15718821.16449  20851474.5184   20851476.9164   20851475.1524
       241.0004        204.0004
 -15051477.48349 -11718264.78649  21576732.9044   21576736.1174   21576732.3224
       235.0004        186.0004
 -20765636.37549 -16159731.35049  20954657.9964   20954660.4124   20954658.1134
       242.0004        202.0004
 -23011636.07349 -17916967.86249  20563105.8314   20563109.2154   20563105.9394
       241.0004        204.0004
  -3935950.87249  -2753621.80949  23785647.4504   23785643.8034   23785642.4734
       194.0004        122.0004
   6736888.57449   5336335.84149  25426834.5194   25426836.0504   25426833.5544
       198.0004        130.0004
 -10130768.02749  -7607095.03249  23098145.2424   23098144.7754   23098144.2144
       220.0004        159.0004
   8681769.56549    108160.81749  25845551.5644
       177.0004        109.0004
 -11303966.59549  -7995781.99049  22126972.6534   22126975.9174   22126972.6214
       224.0004        170.0004
 11 10 14  0 38  0.0000000  0  9G05G10G07G08G13G16G02G04G26
 -20549176.02949 -15745277.76349  20845013.2424   20845016.0344   20845013.9664
       240.0004        203.0004
 -14969126.66149 -11654095.33149  21592402.3134   21592407.3074   21592403.0274
       233.0004        185.0004
 -20719792.49749 -16124008.85349  20963381.9044   20963384.4624   20963382.6534
       242.0004        203.0004
 -23032072.27049 -17932892.15849  20559216.4934   20559219.9574   20559216.5554
       240.0004        204.0004
  -3838672.71249  -2677820.68449  23804157.3654   23804159.9694   23804154.1454
       189.0004        122.0004
   6823096.83649   5403511.07249  25443237.5654   25443241.7974   25443240.5584
       199.0004        131.0004
 -10041437.34549  -7537486.73049  23115141.9244   23115143.6034   23115143.6364
       218.0004        158.0004
   8787732.13759    190681.17059  25865714.1894
       167.0004        107.0004
 -11396356.60249  -8067774.18449  22109390.9454   22109395.5414   22109392.3184
       223.0004        169.0004
 11 10 14  0 38 30.0000000  0 10G05G10G28G07G08G13G16G02G04G26
 -20582619.52349 -15771337.62449  20838649.2504   20838651.9504   20838649.6164
       240.0004        203.0004
 -14886410.59949 -11589641.28649  21608144.7544   21608147.1044   21608143.3514
       236.0004        186.0004
   -347296.99249   -251618.42849  24344018.2944   24344018.9754
       203.0004        135.0004
 -20673487.85249 -16087927.31349  20972193.5354   20972195.5934   20972193.7354
       242.0004        202.0004
 -23051984.39149 -17948408.08649  20555427.9564   20555431.1954   20555427.9414
       241.0004        204.0004
  -3741300.37249  -2601946.25549  23822686.1934   23822691.5644   23822687.4754
       190.0004        123.0004
   6909652.97449   5470957.43149  25459711.3544   25459710.6764   25459711.3924
       201.0004        130.0004
  -9951821.97649  -7467656.58149  23132197.6724   23132196.7604   23132197.1664
       221.0004        156.0004
   8893564.46049      6166.73049  25885854.2344
       188.0004         74.0004
 -11488499.66949  -8139573.94249  22091857.9084   22091860.2334   22091857.2064
       225.0004        170.0004
 11 10 14  0 39  0.0000000  0 10G05G10G28G07G08G13G16G02G04G26
 -20615552.12449 -15796999.39749  20832382.3274   20832384.7784   20832382.9134
       240.0004        203.0004
 -14803330.13349 -11524903.27149  21623954.5724   21623957.0614   21623953.8954
       235.0004        184.0004
   -445717.21249   -328309.49549  24325290.4114   24325291.4924   24325288.9824
       206.0004        137.0004
 -20626724.08349 -16051488.02149  20981092.8464   20981094.4874   20981093.1944
       243.0004        202.0004
 -23071372.54349 -17963515.73049  20551738.6744   20551741.6034   20551737.9654
       241.0004        204.0004
  -3643834.66849  -2525999.06949  23841236.2944   23841234.9124   23841233.7394
       196.0004        123.0004
   6996554.66649   5538672.99849  25476247.5904   25476251.7114   25476246.3634
       202.0004        130.0004
  -9861924.50549  -7397606.63949  23149303.2274   23149302.3534   23149303.4214
       216.0004        155.0004
   8999248.70049     88526.59649  25905968.2814
       177.0004        101.0004
 -11580394.44349  -8211180.25949  22074369.1604   22074372.9924   22074369.6444
       224.0004        167.0004
 11 10 14  0 39 30.0000000  0 10G05G10G28G07G08G13G16G02G04G26
 -20647972.04249 -15822261.67149  20826212.4644   20826215.5854   20826213.4564
       240.0004        203.0004
 -14719886.76649 -11459882.47749  21639830.9544   21639836.0614   21639831.4724
       232.0004        184.0004
   -544051.29659   -404933.43259  24306574.6234   24306580.0324   24306575.9864
       202.0004        135.0004
 -20579502.90549 -16014692.29749  20990078.3904   20990080.4604   20990078.5134
       240.0004        202.0004
 -23090236.12649 -17978214.61149  20548149.5814   20548151.9934   20548148.8104
       242.0004        204.0004
  -3546276.27549  -2449979.60149  23859799.2564                   23859801.1484
       186.0004        120.0004
   7083799.36649   5606655.84249  25492847.1294   25492850.6864   25492849.2304
       200.0004        127.0004
  -9771748.18349  -7327339.39149  23166464.9514   23166463.9224   23166463.0924
       217.0004        154.0004
   9104791.15349    170804.19049  25926051.7304
       180.0004        110.0004
 -11672039.26449  -8282591.78649  22056930.2924   22056934.4244   22056930.3154
       223.0004        170.0004
 11 10 14  0 40  0.0000000  0  9G05G10G28G07G08G13G16G02G26
 -20679878.19849 -15847123.61549  20820142.1564   20820143.6694   20820142.2674
       241.0004        203.0004
 -14636082.73349 -11394580.64849  21655780.5444   21655782.9464   21655779.0534
       234.0004        183.0004
   -642296.92149   -481488.48049  24287878.9414   24287882.1564   24287877.7604
       201.0004        134.0004
 -20531826.47249 -15977541.83149  20999150.2404   20999153.1364   20999151.1154
       238.0004        201.0004
 -23108576.05749 -17992505.45849  20544658.4194   20544661.7754   20544658.4574
       240.0004        204.0004
  -3448626.41549  -2373888.84549  23878376.1234                   23878374.0884
       181.0004        119.0004
   7171384.05349   5674903.66149  25509517.2064   25509517.3924   25509518.1364
       199.0004        125.0004
  -9681296.25149  -7256857.37049  23183675.7354   23183675.8504   23183675.1074
       215.0004        154.0004
 -11763433.08949  -8353807.72649  22039540.1914   22039542.2234   22039540.3144
       227.0004        172.0004
 11 10 14  0 40 30.0000000  0  9G05G10G28G07G08G13G16G02G26
 -20711269.35349 -15871584.25549  20814167.6094   20814170.2374   20814168.2304
       240.0004        203.0004
 -14551919.64849 -11328999.03949  21671796.5884   21671798.3864   21671795.1554
       234.0004        183.0004
   -740451.45849   -557972.54749  24269201.2344   24269206.1674   24269201.2804
       201.0004        134.0004
 -20483696.69749 -15940038.11349  21008309.3814   21008311.9864   21008309.6864
       239.0004        201.0004
 -23126391.86549 -18006387.89249  20541269.1604   20541271.7894   20541268.4854
       242.0004        204.0004
  -3350885.94749  -2297727.47149  23896977.1714
       187.0004        119.0004
   7259306.04549   5743414.30149  25526246.6174   25526248.1374   25526244.8084
       195.0004        126.0004
  -9590572.04149  -7186163.19649  23200939.4354   23200940.5654   23200938.2984
       216.0004        154.0004
 -11854574.54949  -8424827.03449  22022195.6064   22022199.5664   22022196.0584
       227.0004        172.0004
 11 10 14  0 41  0.0000000  0  9G05G10G28G07G08G13G16G02G26
 -20742143.73949 -15895642.21949  20808292.3634   20808295.5864   20808292.9624
       240.0004        204.0004
 -14467399.32249 -11263139.04649  21687878.1594   21687882.6634   21687877.8484
       232.0004        183.0004
   -838511.68749   -634383.11049  24250543.1194   24250544.3244   24250541.4074
       204.0004        136.0004
 -20435114.89849 -15902182.17149  21017554.1374   21017556.5744   21017554.1074
       238.0004        201.0004
 -23143683.33449 -18019861.75449  20537978.1524   20537981.5784   20537977.8964
       240.0004        204.0004
  -3253055.64649      3189.93349  23915600.5584
       195.0004         74.0004
   7347562.98349   5812185.93449  25543040.1524   25543035.2554   25543041.7524
       195.0004        121.0004
  -9499578.38749  -7115259.07749  23218253.0814   23218256.8834   23218253.6454
       212.0004        154.0004
 -11945462.18649  -8495648.54849  22004900.2254   22004903.0944   22004900.9004
       226.0004        171.0004
 11 10 14  0 41 30.0000000  0  9G05G10G28G07G08G13G16G02G26
 -20772499.86249 -15919296.34849  20802516.2614   20802518.5784   20802516.6614
       241.0004        204.0004
 -14382523.53449 -11197002.09949  21704029.8614   21704033.5534   21704028.8584
       231.0004        181.0004
   -936474.98749   -710718.10949  24231900.5984   24231903.2474   24231899.7174
       205.0004        137.0004
 -20386082.87049 -15863975.38749  21026884.8064   21026886.9024   21026885.1224
       238.0004        200.0004
 -23160450.67249 -18032927.20149  20534788.1744   20534790.4994   20534787.6474
       242.0004        204.0004
  -3155136.21749     79476.39849  23934224.6284
       184.0004        101.0004
   7436152.03549   5881216.37949  25559900.3944                   25559896.9054
       198.0004        122.0004
  -9408318.40649  -7044147.44349  23235623.7684   23235622.1204   23235621.3454
       216.0004        154.0004
 -12036094.27749  -8566270.94349  21987654.1194   21987656.5144   21987654.5284
       226.0004        171.0004
 11 10 14  0 42  0.0000000  0  9G05G10G28G07G08G13G16G02G26
 -20802336.58849 -15942545.74849  20796838.1384   20796841.1384   20796838.7684
       240.0004        204.0004
 -14297293.84049 -11130589.38549  21720249.2304   21720252.6674   21720248.6284
       230.0004        180.0004
  -1034339.06649   -786975.83649  24213276.2304   24213279.6754   24213275.6924
       208.0004        139.0004
 -20336602.95749 -15825419.63049  21036300.7354   21036302.5864   21036300.9904
       239.0004        200.0004
 -23176694.02249 -18045584.34149  20531695.8594   20531699.5384   20531696.2684
       241.0004        204.0004
  -3057128.98149    155773.57149  23952880.1234
       190.0004        109.0004
   7525070.44149   5950503.44049  25576821.3264                   25576821.8934
       199.0004        121.0004
  -9316795.63449  -6972831.02649  23253037.4074   23253038.6784   23253037.5364
       214.0004        155.0004
 -12126470.22249  -8636693.72249  21970455.6064   21970459.3954   21970456.4104
       227.0004        174.0004
 11 10 14  0 42 30.0000000  0  8G05G10G28G07G08G16G02G26
 -20831651.67849 -15965388.67349  20791260.6014   20791262.5844   20791260.7234
       241.0004        204.0004
 -14211711.45949 -11063901.81949  21736533.7904   21736538.2194   21736533.6364
       231.0004        181.0004
  -1132100.24249   -863153.39549  24194674.6224   24194676.3154   24194674.8474
       207.0004        138.0004
 -20286676.79749 -15786516.11449  21045800.8644   21045803.4254   21045801.2034
       238.0004        199.0004
 -23192412.82849 -18057832.73749  20528705.7014   20528707.8174   20528704.9124
       241.0004        204.0004
   7614315.78449   6020045.24649  25593803.1424   25593803.7894   25593801.6314
       191.0004        123.0004
  -9225012.64749  -6901311.81949  23270503.6994   23270505.5574   23270502.8464
       215.0004        153.0004
 -12216587.72449  -8706915.13149  21953307.8874   21953310.7764   21953306.6224
       227.0004        172.0004
 11 10 14  0 43  0.0000000  0  9G05G10G28G07G08G13G16G02G26
 -20860444.29149 -15987824.48749  20785780.5044   20785783.4114   20785781.3114
       240.0004        204.0004
 -14125778.81349 -10996941.35649  21752887.4824   21752891.2214   21752886.2104
       231.0004        181.0004
  -1229756.15749   -939248.91749  24176089.9814   24176093.7074   24176089.4924
       208.0004        139.0004
 -20236305.88349 -15747266.06049  21055386.0304   21055388.7424   21055386.4044
       237.0004        199.0004
 -23207607.46649 -18069672.71349  20525813.9864   20525816.6764   20525813.7364
       241.0004        204.0004
  -2860853.64459     73285.99059  23990226.1674
       175.0004         92.0004
   7703884.98049   6089839.39549  25610846.9884                   25610842.9024
       188.0004        121.0004
  -9132972.56749  -6829592.32049  23288016.3364   23288020.4544   23288018.3014
       214.0004        154.0004
 -12306445.82449  -8776934.41249  21936206.9564   21936210.7454   21936207.2804
       226.0004        173.0004
 11 10 14  0 43 30.0000000  0  9G05G10G28G07G08G13G16G02G26
 -20888713.73049 -16009852.62649  20780401.8104   20780404.2974   20780402.1924
       241.0004        205.0004
 -14039498.03549 -10929709.60049  21769307.1734   21769309.5804   21769305.3884
       231.0004        180.0004
  -1327304.64449  -1015260.72549  24157528.6914   24157529.3764   24157526.8874
       208.0004        136.0004
 -20185492.50249 -15707671.21749  21065056.6304   21065058.0144   21065056.3104
       239.0004        199.0004
 -23222278.81549 -18081104.91949  20523021.3594   20523024.7044   20523021.4254
       240.0004        203.0004
  -2762587.87459    149803.18759  24008916.9264
       165.0004        107.0004
   7793775.15949   6159883.66049  25627953.0114                   25627953.0104
       186.0004        121.0004
  -9040679.21749  -6757675.42949  23305585.4114   23305582.0744   23305582.4254
       218.0004        154.0004
 -12396043.55849  -8846750.80849  21919158.1044   21919160.9894   21919158.1894
       226.0004        172.0004
 11 10 14  0 44  0.0000000  0  9G05G10G28G07G08G13G16G02G26
 -20916458.31249 -16031471.78349  20775121.6934   20775124.2794   20775122.2604
       241.0004        204.0004
 -13952870.53149 -10862207.67549  21785789.5464   21785794.2834   21785789.6074
       229.0004        179.0004
  -1424742.64149  -1091186.48149  24138985.8154   24138989.3674   24138986.9184
       208.0004        140.0004
 -20134238.52249 -15667733.05349  21074808.8464   21074811.4604   21074809.2444
       238.0004        199.0004
 -23236426.27549 -18092128.90649  20520329.7374   20520332.6084   20520329.4694
       241.0004        204.0004
  -2664237.38249    226386.45949  24027653.9844
       183.0004        109.0004
   7883983.71849   6230176.05649  25645118.0194                   25645118.1824
       186.0004        119.0004
  -8948135.40149  -6685563.40049  23323190.6474   23323192.3594   23323191.8854
       215.0004        154.0004
 -12485379.15649  -8916362.92549  21902157.5184   21902159.9714   21902157.1964
       227.0004        173.0004
 11 10 14  0 44 30.0000000  0  9G05G10G28G07G08G13G16G02G26
 -20943676.47049 -16052680.75049  20769942.1394   20769944.6964   20769943.0694
       241.0004        204.0004
 -13865898.36949 -10794437.17449  21802340.5644   21802345.0584   21802340.0624
       231.0004        180.0004
  -1522067.80449  -1167024.24849  24120466.0604   24120468.3274   24120464.9774
       208.0004        140.0004
 -20082545.95049 -15627453.13149  21084646.1684   21084648.1954   21084646.5524
       239.0004        199.0004
 -23250050.20649 -18102744.95349  20517736.9084   20517740.3294   20517736.5804
       240.0004        204.0004
  -2565803.77449     68344.60549  24046378.9944
       177.0004         88.0004
   7974507.59549   6300714.13249  25662347.9094   25662352.4674
       190.0004        118.0004
  -8855344.56049  -6613258.84049  23340849.1294   23340851.8444   23340848.3544
       215.0004        153.0004
 -12574451.58449  -8985770.00049  21885207.6664   21885210.8344   21885207.7544
       228.0004        173.0004
 11 10 14  0 45  0.0000000  0  9G05G10G28G07G08G13G16G02G26
 -20970366.21649 -16073477.95649  20764863.7624   20764865.9744   20764864.3134
       242.0004        204.0004
 -13778582.51749 -10726398.88049  21818957.4474   21818960.4314   21818956.6984
       231.0004        180.0004
  -1619276.24949  -1242771.08249  24101965.7354   24101971.2564   24101966.1624
       207.0004        140.0004
 -20030415.90049 -15586832.31149  21094565.8344   21094567.6134   21094566.1334
       237.0004        198.0004
 -23263150.08749 -18112952.65549  20515244.4854   20515246.9734   20515244.6164
       241.0004        203.0004
  -2467287.13849    145121.93149  24065122.1754
       185.0004        111.0004
   8065345.35349   6371496.75949  25679630.9804                   25679631.1734
       187.0004        120.0004
  -8762309.21549  -6540763.81049  23358554.7024   23358554.9914   23358554.2304
       215.0004        155.0004
 -12663258.64549  -9054970.28149  21868306.8734   21868310.9614   21868308.9534
       227.0004        173.0004
 11 10 14  0 45 30.0000000  0  9G05G10G28G07G08G13G16G02G26
 -20996527.70749 -16093863.53149  20759885.4564   20759887.6114   20759885.7814
       241.0004        205.0004
 -13690925.85749 -10658095.01049  21835637.7584   21835641.2064   21835636.9564
       230.0004        180.0004
  -1716366.71049  -1318425.97749  24083490.1434   24083495.1354   24083490.9774
       204.0004        140.0004
 -19977851.44749 -15545872.99649  21104568.5064   21104570.9904   21104568.8494
       238.0004        198.0004
 -23275727.00249 -18122752.83449  20512850.8074   20512854.0294   20512850.7384
       241.0004        204.0004
  -2368689.77049    221962.20849  24083885.5374
       189.0004        110.0004
   8156492.79649   6442520.66149  25696975.2474
       185.0004        117.0004
  -8669033.72349  -6468081.60249  23376303.1194   23376302.6794   23376302.3624
       214.0004        152.0004
 -12751800.01649  -9123963.53549  21851460.3654   21851462.2494   21851460.5134
       228.0004        174.0004
 11 10 14  0 46  0.0000000  0  9G05G10G28G07G08G13G16G02G26
 -21022158.72849 -16113835.76349  20755007.6984   20755010.0754   20755008.4864
       242.0004        205.0004
 -13602929.61949 -10589526.54149  21852380.5044   21852385.1654   21852381.0454
       228.0004        178.0004
  -1813335.58649  -1393986.15049  24065036.8484   24065042.0434   24065038.8174
       206.0004        139.0004
 -19924853.77049 -15504576.11049  21114653.6554   21114655.8574   21114653.9464
       238.0004        198.0004
 -23287780.64549 -18132145.28049  20510557.5614   20510560.2314   20510557.1744
       241.0004        204.0004
  -2270011.31149     62158.57149  24102658.7034
       186.0004         74.0004
   8247947.54149   6513783.99649  25714378.8914
       184.0004        115.0004
  -8575520.36949  -6395214.06549  23394096.5044   23394099.7664   23394097.6984
       214.0004        153.0004
 -12840073.87249  -9192748.33849  21834661.9574   21834664.5024   21834661.6084
       230.0004        175.0004
 11 10 14  0 46 30.0000000  0  9G05G10G28G07G08G13G16G02G26
 -21047257.83749 -16133393.52349  20750231.7004   20750233.9114   20750232.1814
       241.0004        206.0004
 -13514595.34849 -10520694.66849  21869191.5914   21869195.6014   21869191.3014
       230.0004        179.0004
  -1910180.02649  -1469449.35349  24046609.1674   24046610.8704   24046608.8304
       202.0004        140.0004
 -19871424.49749 -15462942.91049  21124821.6104   21124823.4394   21124821.5734
       239.0004        199.0004
 -23299310.93249 -18141129.91949  20508361.9504   20508366.0504   20508362.3094
       239.0004        203.0004
  -2171252.36049    139253.57049  24121456.9664
       190.0004        110.0004
   8339707.74249     57827.46149  25731840.7714
       182.0004         74.0004
  -8481772.11249  -6322163.50349  23411938.7904   23411939.7554   23411937.9924
       217.0004        155.0004
 -12928078.59949  -9261323.42649  21817915.0164   21817917.3364   21817914.4544
       228.0004        175.0004
 11 10 14  0 47  0.0000000  0  9G05G10G28G07G08G13G16G02G26
 -21071824.11549 -16152536.08149  20745556.4974   20745559.2514   20745557.5754
       242.0004        205.0004
 -13425924.86049 -10451600.81349  21886065.5964   21886069.1974   21886065.3154
       230.0004        179.0004
  -2006897.24849  -1544813.40949  24028204.4474   24028207.4074   24028205.7704
       204.0004        137.0004
 -19817565.78549 -15420975.08049  21135070.2504   21135072.2494   21135070.0694
       239.0004        199.0004
 -23310318.45249 -18149707.19449  20506268.9944   20506271.5834   20506268.2424
       241.0004        204.0004
  -2072414.07049    216415.38349  24140267.1334
       180.0004        110.0004
   8431770.71149    129465.10349  25749359.8194
       176.0004        110.0004
  -8387792.29149  -6248932.49549  23429819.3624   23429823.3614   23429819.0614
       213.0004        152.0004
 -13015812.76249  -9329687.69149  21801218.8684   21801222.0154   21801219.4544
       228.0004        176.0004
 11 10 14  0 47 30.0000000  0  9G05G10G28G07G08G13G16G02G26
 -21095856.24749 -16171262.42049  20740984.1574   20740985.7594   20740984.2234
       241.0004        206.0004
 -13336920.18349 -10382246.54249  21903001.6664   21903005.7854   21903001.6754
       230.0004        180.0004
  -2103484.73949  -1620076.37349  24009825.2084   24009829.2094   24009826.1524
       205.0004        137.0004
 -19763279.75549 -15378674.28149  21145400.7384   21145402.5414   21145400.8424
       239.0004        199.0004
 -23320803.46949 -18157877.33349  20504273.2384   20504276.2054   20504273.2294
       241.0004        204.0004
  -1973497.90449     55860.69549  24159089.1264
       184.0004         74.0004
   8524132.77349    201332.30449  25766937.4044
       182.0004        108.0004
  -8293584.21749  -6175523.61549  23447746.7234   23447749.4844   23447747.9944
       213.0004        148.0004
 -13103275.16349  -9397840.19849  21784576.2594   21784578.3134   21784576.4084
       228.0004        175.0004
 11 10 14  0 48  0.0000000  0  9G05G10G28G07G08G13G16G02G26
 -21119352.97349 -16189571.56349  20736512.3464   20736515.3244   20736513.0544
       242.0004        206.0004
 -13247583.48849 -10312633.55749  21920001.1814   21920005.7424   21920001.0584
       230.0004        179.0004
  -2199940.06849  -1695236.33849  23991470.7554   23991473.4644   23991470.4884
       205.0004        139.0004
 -19708568.57749 -15336042.20249  21155811.4314   21155814.0054   21155811.6774
       239.0004        198.0004
 -23330766.19749 -18165640.48849  20502377.0174   20502380.5174   20502376.7274
       240.0004        204.0004
  -1874504.55659    132898.88559  24177921.5244
       173.0004        109.0004
   8616791.63759     52333.41859  25784566.4254
       181.0004         74.0004
  -8199151.35849  -6101939.58449  23465718.2644   23465719.0404   23465719.2134
       214.0004        154.0004
 -13190464.69449  -9465780.06949  21767984.8784   21767987.2434   21767984.3124
       230.0004        176.0004
 11 10 14  0 48 30.0000000  0  9G05G10G28G07G08G13G16G02G26
 -21142313.57149 -16207462.94449  20732143.3834   20732145.2264   20732143.8844
       242.0004        206.0004
 -13157916.71349 -10242763.36449  21937067.3244   21937068.5064   21937065.3114
       232.0004        180.0004
  -2296260.84649  -1770291.44049  23973139.0114   23973143.9504   23973141.0164
       204.0004        139.0004
 -19653433.95149 -15293080.15949  21166302.6474   21166305.6284   21166303.5054
       238.0004        198.0004
 -23340207.36949 -18172997.23849  20500581.3844   20500583.7374   20500580.7714
       241.0004        204.0004
  -1775435.43759    209982.91759  24196775.8754
       159.0004        110.0004
   8709744.13259    124674.80259  25802256.7614
       174.0004        109.0004
  -8104497.00949  -6028182.95449  23483729.0344   23483732.5204   23483728.3164
       211.0004        152.0004
 -13277380.06449  -9533506.31049  21751444.8184   21751447.9144   21751444.9554
       229.0004        176.0004
 11 10 14  0 49  0.0000000  0  8G05G10G28G07G08G13G02G26
 -21164735.87549 -16224934.87149  20727876.5414   20727878.7914   20727876.6794
       242.0004        206.0004
 -13067920.94749 -10172636.81249  21954191.2904   21954194.5954   21954191.1434
       231.0004        180.0004
  -2392443.14049  -1845238.68949  23954838.6614   23954841.1584   23954837.8264
       207.0004        140.0004
 -19597877.29049 -15249789.26349  21176875.2834   21176877.6124   21176875.8634
       238.0004        198.0004
 -23349126.59049 -18179947.27049  20498883.8584   20498886.4484   20498883.1104
       241.0004        203.0004
  -1676289.04759     49618.58659  24215646.3984
       173.0004         74.0004
  -8009623.36249  -5954255.46549  23501782.5954   23501784.1524   23501784.0664
       214.0004        149.0004
 -13364019.19549  -9601017.30849  21734957.7074   21734960.4214   21734957.7244
       228.0004        177.0004
 11 10 14  0 49 30.0000000  0  7G05G10G28G07G08G02G26
 -21186619.61849 -16241987.14549  20723711.8594   20723714.6004   20723712.7494
       241.0004        206.0004
 -12977598.45549 -10102255.67849  21971378.7804   21971382.8994   21971379.0274
       231.0004        180.0004
  -2488485.05749  -1920076.54749  23936562.9234   23936564.7384   23936562.9464
       205.0004        138.0004
 -19541901.12449 -15206171.47449  21187527.5364   21187529.4374   21187527.8014
       239.0004        199.0004
 -23357524.71049 -18186491.25649  20497285.7974   20497288.0544   20497285.4554
       241.0004        203.0004
  -7914534.50749  -5880160.28549  23519878.6014   23519879.8984   23519878.5834
       212.0004        150.0004
 -13450381.22549  -9668312.37749  21718524.2994   21718525.8704   21718523.6544
       229.0004        177.0004
 11 10 14  0 50  0.0000000  0  7G05G10G28G07G08G02G26
 -21207963.05749 -16258618.40449  20719650.7134   20719652.7264   20719651.0274
       241.0004        206.0004
 -12886950.71349 -10031621.09949  21988629.7974   21988632.6084   21988628.7414
       232.0004        180.0004
  -2584383.36249  -1994802.46949  23918314.8304   23918314.4164   23918312.4694
       209.0004        138.0004
 -19485507.12749 -15162228.10649  21198258.5724   21198260.7934   21198259.3254
       239.0004        198.0004
 -23365401.53549 -18192629.02949  20495786.8464   20495789.6374   20495785.7794
       240.0004        203.0004
  -7819233.27849  -5805899.58949  23538014.8094   23538016.0634   23538013.5584
       212.0004        151.0004
 -13536464.48449  -9735390.23349  21702142.1734   21702145.8714   21702142.5554
       229.0004        177.0004
 11 10 14  0 50 30.0000000  0  7G05G10G28G07G08G02G26
 -21228765.22949 -16274827.88749  20715691.4424   20715694.2394   20715692.4204
       242.0004        206.0004
 -12795980.14949  -9960734.95849  22005940.5414   22005943.4164   22005940.2864
       231.0004        178.0004
  -2680135.56449  -2069414.55249  23900094.1984   23900095.5824   23900091.8954
       209.0004        139.0004
 -19428697.47949 -15117960.83749  21209069.4464   21209071.6864   21209069.6024
       239.0004        198.0004
 -23372757.34949 -18198360.82349  20494386.5754   20494389.4864   20494386.6264
       241.0004        204.0004
  -7723722.91849  -5731475.97949  23556188.2874   23556191.1154   23556190.1474
       211.0004        149.0004
 -13622267.74249  -9802249.88649  21685815.3684   21685818.1474   21685814.4214
       230.0004        177.0004
 11 10 14  0 51  0.0000000  0  7G05G10G28G07G08G02G26
 -21249024.87349 -16290614.63649  20711836.8664   20711838.9484   20711837.2614
       242.0004        206.0004
 -12704688.31349  -9889598.48349  22023312.3224   22023315.0524   22023311.4924
       230.0004        177.0004
  -2775739.00149  -2143910.70349  23881898.9334   23881903.3844   23881898.5184
       207.0004        140.0004
 -19371474.23849 -15073371.30649  21219958.3574   21219960.9804   21219959.1994
       240.0004        198.0004
 -23379592.42649 -18203686.84849  20493085.8534   20493089.0624   20493085.5794
       240.0004        203.0004
  -7628006.56849  -5656891.80449  23574403.8304   23574406.6884   23574402.7154
       211.0004        149.0004
 -13707789.78049  -9868890.43249  21669540.0134   21669543.7654   21669539.4844
       229.0004        178.0004
 11 10 14  0 51 30.0000000  0  7G05G10G28G07G08G02G26
 -21268741.07849 -16305977.91349  20708084.1814   20708087.1844   20708085.2874
       241.0004        206.0004
 -12613077.14049  -9818213.16649  22040744.4494   22040748.9424   22040744.5474
       230.0004        178.0004
  -2871190.90349  -2218288.78549  23863732.9574   23863738.4644   23863734.6734
       204.0004        139.0004
 -19313838.93349 -15028460.67749  21230926.4324   21230928.2784   21230926.6594
       240.0004        198.0004
 -23385907.20949 -18208607.44449  20491884.3394   20491887.7304   20491884.2534
       241.0004        204.0004
  -7532087.62449  -5582149.79749  23592654.3424   23592656.7814   23592656.4284
       209.0004        147.0004
 -13793028.84249  -9935310.45949  21653320.1094   21653323.0724   21653319.9114
       230.0004        178.0004
 11 10 14  0 52  0.0000000  0  7G05G10G28G07G08G02G26
 -21287912.48149 -16320916.67349  20704437.4744   20704438.7934   20704437.4024
       242.0004        207.0004
 -12521148.92449  -9746580.81749  22058240.1334   22058241.6464   22058238.0284
       232.0004        177.0004
  -2966488.45549  -2292546.60249  23845600.4824   23845602.9904   23845601.4264
       210.0004        141.0004
 -19255793.47249 -14983230.45149  21241971.4534   21241974.0474   21241972.0154
       239.0004        197.0004
 -23391702.21249 -18213123.01549  20490781.5734   20490784.3884   20490781.2014
       241.0004        204.0004
  -7435968.93349  -5507252.11949  23610946.8874   23610948.8214   23610944.9804
       207.0004        148.0004
 -13877983.78549 -10001509.09349  21637153.1004   21637157.1284   21637153.0554
       229.0004        178.0004
 11 10 14  0 52 30.0000000  0  7G05G10G28G07G08G02G26
 -21306538.02049 -16335430.08849  20700891.8294   20700894.7314   20700892.9394
       242.0004        206.0004
 -12428904.79649  -9674702.29249  22075792.2174   22075795.5024   22075791.7654
       229.0004        176.0004
  -3061628.92749  -2366682.00149  23827495.7204   23827499.0434   23827496.3154
       210.0004        142.0004
 -19197340.02149 -14937682.30249  21253094.8514   21253097.0484   21253095.3784
       239.0004        196.0004
 -23396977.68449 -18217233.76649  20489777.7624   20489781.0344   20489777.3694
       241.0004        204.0004
  -7339653.60549  -5432201.26549  23629273.7274   23629276.6334   23629276.5264
       211.0004        149.0004
 -13962652.88249 -10067485.00249  21621040.2834   21621044.9264   21621040.5514
       228.0004        179.0004
 11 10 14  0 53  0.0000000  0  7G05G10G28G07G08G02G26
 -21324616.96349 -16349517.58649  20697452.1604   20697454.5664   20697452.5174
       242.0004        206.0004
 -12336347.28449  -9602579.58049  22093405.4844   22093409.0154   22093404.1724
       229.0004        176.0004
  -3156609.66349  -2440692.95949  23809423.4864   23809425.3444   23809421.2494
       213.0004        145.0004
 -19138480.90449 -14891818.06049  21264294.8274   21264297.7504   21264295.4734
       238.0004        197.0004
 -23401734.18449 -18220940.12349  20488872.5424   20488875.6274   20488872.6284
       241.0004        204.0004
  -7243145.17449  -5356999.88549  23647640.7494   23647641.5544   23647638.9834
       211.0004        146.0004
 -14047035.29849 -10133237.52049  21604983.5024   21604987.5854   21604984.2674
       229.0004        180.0004
 11 10 14  0 53 30.0000000  0  7G05G10G28G07G08G02G26
 -21342148.11649 -16363178.22249  20694116.0024   20694118.4954   20694116.3814
       242.0004        206.0004
 -12243478.36349  -9530214.20449  22111078.5054   22111080.8024   22111077.4524
       230.0004        175.0004
  -3251427.99849  -2514577.33149  23791378.6294   23791382.2544   23791378.4534
       211.0004        145.0004
 -19079217.89149 -14845639.09249  21275572.8924   21275575.3004   21275573.5554
       240.0004        197.0004
 -23405972.12749 -18224242.40549  20488066.5804   20488069.1374   20488065.6904
       241.0004        203.0004
  -7146446.76449  -5281650.50149  23666042.8104   23666043.5014   23666041.6014
       211.0004        146.0004
 -14131129.32949 -10198765.31749  21588981.4244   21588984.6494   21588981.7584
       229.0004        180.0004
 11 10 14  0 54  0.0000000  0  7G05G10G28G07G08G02G26
 -21359130.52849 -16376411.28149  20690883.8144   20690886.7034   20690884.5094
       241.0004        206.0004
 -12150299.31749  -9457607.16849  22128809.4234   22128811.8424   22128808.2334
       229.0004        174.0004
  -3346081.01749  -2588332.94349  23773365.0884   23773370.4354   23773366.5864
       211.0004        145.0004
 -19019552.66649 -14799146.70549  21286926.9534   21286928.7514   21286927.4314
       239.0004        197.0004
 -23409692.00149 -18227141.00949  20487357.3284   20487361.0964   20487357.7234
       240.0004        204.0004
  -7049561.33749  -5206155.39049  23684478.2614   23684479.5814   23684477.6404
       209.0004        147.0004
 -14214933.58749 -10264067.32549  21573032.8974   21573037.8794   21573034.1234
       230.0004        180.0004
 11 10 14  0 54 30.0000000  0  7G05G10G28G07G08G02G26
 -21375563.06749 -16389215.86549  20687757.0154   20687759.8284   20687757.7744
       241.0004        207.0004
 -12056812.40649  -9384760.24549  22146599.4014   22146602.4814   22146598.6704
       228.0004        173.0004
  -3440565.97349  -2661957.57549  23755386.0354   23755390.8434   23755386.8514
       211.0004        144.0004
 -18959487.77049 -14752342.88749  21298357.4014   21298359.1854   21298357.5324
       239.0004        197.0004
 -23412894.11049 -18229636.15349  20486749.1714   20486752.3854   20486748.6254
       241.0004        204.0004
  -6952492.03649  -5130517.00849  23702949.1964   23702951.3864   23702949.7454
       210.0004        148.0004
 -14298446.86249 -10329142.57749  21557141.1654   21557145.7274   21557141.0344
       230.0004        181.0004
 11 10 14  0 55  0.0000000  0  7G05G10G28G07G08G02G26
 -21391444.75449 -16401591.20949  20684734.7014   20684737.9174   20684735.4214
       240.0004        207.0004
 -11963019.68949  -9311675.03249  22164446.2274   22164451.0264   22164446.2274
       226.0004        173.0004
  -3534880.52349  -2735449.39149  23737441.4764   23737442.7864   23737439.4624
       215.0004        146.0004
 -18899024.96349 -14705229.01049  21309862.4314   21309864.7274   21309862.6574
       237.0004        196.0004
 -23415579.28849 -18231728.49549  20486238.0354   20486240.9124   20486238.2164
       242.0004        204.0004
  -6855242.53849  -5054738.21649  23721456.7634   23721458.0544   23721454.6734
       210.0004        145.0004
 -14381667.69049 -10393989.96049  21541304.7174   21541308.9524   21541306.0024
       230.0004        181.0004
 11 10 14  0 55 30.0000000  0  7G05G10G28G07G08G02G26
 -21406774.47749 -16413536.45549  20681817.9574   20681820.6604   20681818.4424
       241.0004        207.0004
 -11868923.05149  -9238352.99449  22182352.9914   22182356.4024   22182352.1804
       228.0004        173.0004
  -3629021.52049  -2808805.98749  23719527.3934   23719528.2074   23719526.1994
       216.0004        147.0004
 -18838166.17749 -14657806.58649  21321443.9914   21321445.7324   21321443.9514
       237.0004        195.0004
 -23417747.49949 -18233417.99949  20485825.2354   20485828.5734   20485825.2894
       241.0004        204.0004
  -6757815.66049  -4978821.18749  23739994.7914   23739997.1774   23739995.9104
       211.0004        147.0004
 -14464594.46649 -10458608.22349  21525525.0644   21525528.5534   21525525.1184
       232.0004        181.0004
 11 10 14  0 56  0.0000000  0  7G05G10G28G07G08G02G26
 -21421551.12049 -16425050.72849  20679005.8754   20679008.4774   20679006.5204
       240.0004        207.0004
 -11774524.09549  -9164795.40149  22200317.5144   22200320.5014   22200316.2454
       228.0004        172.0004
  -3722985.92149  -2882024.97049  23701645.7974   23701646.6314   23701644.0434
       215.0004        145.0004
 -18776913.02249 -14610076.85449  21333099.6234   21333101.5054   21333099.9874
       237.0004        195.0004
 -23419399.28949 -18234705.10249  20485510.7714   20485513.9054   20485510.8654
       241.0004        204.0004
  -6660214.39849  -4902768.23849  23758570.0654   23758569.9834   23758568.9574
       214.0004        150.0004
 -14547225.74149 -10522996.20849  21509800.4464   21509804.4954   21509801.1774
       231.0004        182.0004
 11 10 14  0 56 30.0000000  0  7G05G10G28G07G08G02G26
 -21435774.49349 -16436133.88049  20676298.7764   20676301.9714   20676299.6664
       241.0004        207.0004
 -11679825.39449  -9091004.22849  22218336.5084   22218340.2294   22218337.0814
       227.0004        172.0004
  -3816771.97149  -2955105.00349  23683796.2004   23683800.4024   23683797.8864
       213.0004        147.0004
 -18715268.41749 -14562042.10149  21344829.8254   21344832.6064   21344830.1094
       236.0004        195.0004
 -23420535.67649 -18235590.59449  20485295.1424   20485297.7704   20485294.4614
       241.0004        204.0004
  -6562442.61249  -4826582.49849  23777173.6944   23777175.3804   23777173.2874
       210.0004        147.0004
 -14629560.63249 -10587153.24649  21494134.3114   21494136.9124   21494133.7764
       234.0004        183.0004
 11 10 14  0 57  0.0000000  0  7G05G10G28G07G08G02G26
 -21449442.87049 -16446784.57749  20673699.3164   20673701.2354   20673699.5564
       242.0004        208.0004
 -11584828.47649  -9016980.68449  22236415.0404   22236418.3214   22236413.9494
       227.0004        172.0004
  -3910376.38449  -3028043.47549  23665984.5184   23665988.2544   23665985.0404
       211.0004        148.0004
 -18653233.71649 -14513703.37449  21356634.0424   21356637.2714   21356635.2464
       235.0004        195.0004
 -23421156.75449 -18236074.54749  20485176.8414   20485179.6174   20485176.4374
       241.0004        204.0004
  -6464502.98649  -4750265.93249  23795811.5514   23795812.6844   23795813.2844
       211.0004        146.0004
 -14711597.51549 -10651078.07749  21478522.3044   21478525.4524   21478522.4994
       232.0004        183.0004
 11 10 14  0 57 30.0000000  0  7G05G10G28G07G08G02G26
 -21462555.61949 -16457002.30749  20671202.3714   20671205.8154   20671203.2764
       240.0004        207.0004
 -11489535.08749  -8942726.12449  22254549.3744   22254551.9984   22254547.5814
       228.0004        173.0004
  -4003796.68949  -3100838.46549  23648207.1844   23648210.0164   23648207.6334
       212.0004        146.0004
 -18590811.20449 -14465062.46149  21368512.8804   21368515.7614   21368513.5664
       235.0004        195.0004
 -23421263.14449 -18236157.44749  20485155.9854   20485159.5694   20485155.9944
       241.0004        204.0004
  -6366398.65349  -4673821.00949  23814481.2844   23814482.3354   23814479.9574
       216.0004        150.0004
 -14793335.05349 -10714769.64949  21462967.8964   21462970.8564   21462968.6384
       233.0004        182.0004
 11 10 14  0 58  0.0000000  0  7G05G10G28G07G08G02G26
 -21475111.79749 -16466786.35449  20668814.1404   20668816.4084   20668814.6004
       242.0004        207.0004
 -11393947.04849  -8868241.95649  22272738.8884   22272741.1104   22272737.3904
       227.0004        172.0004
  -4097029.80849  -3173487.61249  23630467.3734   23630468.6454   23630466.3684
       216.0004        147.0004
 -18528002.49049 -14416120.61549  21380466.1324   21380468.4794   21380466.3254
       237.0004        196.0004
 -23420855.19249 -18235839.55549  20485234.7144   20485236.8234   20485233.9494
       242.0004        204.0004
  -6268132.50249  -4597250.02649  23833181.6344   23833180.5544   23833178.6934
       211.0004        145.0004
 -14874771.48249 -10778226.58849  21447471.0574   21447473.8274   21447471.9744
       233.0004        182.0004
 11 10 14  0 58 30.0000000  0  7G05G10G28G07G08G02G26
 -21487110.55749 -16476136.03949  20666530.6464   20666533.1444   20666531.1114
       240.0004        207.0004
 -11298066.85149  -8793530.12949  22290983.4124   22290987.3094   22290982.7454
       225.0004        172.0004
  -4190073.16449  -3245988.90049  23612760.6594   23612763.8214   23612760.7444
       213.0004        147.0004
 -18464809.95149 -14366879.67949  21392491.2604   21392493.1684   21392491.9424
       237.0004        196.0004
 -23419933.76649 -18235121.55949  20485409.0764   20485412.1494   20485409.1654
       241.0004        203.0004
  -6169708.20949  -4520555.79149  23851906.3844   23851909.9994   23851908.7714
       210.0004        146.0004
 -14955905.69249 -10841448.04249  21432031.8804   21432033.6764   21432032.0354
       233.0004        182.0004
 11 10 14  0 59  0.0000000  0  7G05G10G28G07G08G02G26
 -21498551.23049 -16485050.85349  20664353.1014   20664355.9784   20664353.9454
       241.0004        207.0004
 -11201896.35949  -8718592.11249  22309283.5694   22309287.4364   22309283.3454
       227.0004        173.0004
  -4282924.27349  -3318340.38649  23595091.4524   23595095.1564   23595091.0954
       211.0004        148.0004
 -18401235.66549 -14317341.27449  21404588.8654   21404590.7504   21404589.2094
       237.0004        195.0004
 -23418499.71449 -18234004.11149  20485682.3294   20485684.9444   20485681.8164
       241.0004        204.0004
  -6071128.95649  -4443740.80849  23870667.9634   23870667.8134   23870668.0654
       213.0004        145.0004
 -15036736.32049 -10904432.93249  21416650.2744   21416653.5214   21416649.6474
       233.0004        183.0004
 11 10 14  0 59 30.0000000  0  7G05G10G28G07G08G02G26
 -21509432.74949 -16493529.96949  20662283.6934   20662285.1654   20662283.6744
       242.0004        208.0004
 -11105437.19549  -8643429.15249  22327639.6584   22327642.5744   22327639.3064
       229.0004        172.0004
  -4375579.93949  -3390539.58049  23577459.8264   23577463.5884   23577459.7874
       213.0004        147.0004
 -18337281.47849 -14267506.85249  21416758.6394   21416761.3784   21416759.3774
       237.0004        196.0004
 -23416552.93149 -18232487.13649  20486052.4304   20486055.5764   20486052.5644
       241.0004        204.0004
  -5972397.67849  -4366807.38049  23889454.6484   23889456.6244   23889456.6474
       206.0004        142.0004
 -15117261.80349 -10967180.05849  21401326.3524   21401328.5944   21401327.1134
       232.0004        182.0004
 11 10 14  1  0  0.0000000  0  7G05G10G28G07G08G02G26
 -21519754.52249 -16501572.91749  20660318.4434   20660321.2274   20660318.9334
       240.0004        207.0004
 -11008691.69949  -8568043.07749  22346050.8744   22346053.5564   22346050.0794
       229.0004        173.0004
  -4468037.85749  -3462584.67549  23559865.5704   23559867.6004   23559864.9464
       209.0004        146.0004
 -18272949.38249 -14217377.94149  21429000.9184   21429002.5994   21429001.4914
       237.0004        195.0004
 -23414094.36349 -18230571.36349  20486520.6934   20486523.6204   20486520.4154
       241.0004        204.0004
  -5873517.59649  -4289757.97949  23908274.5774   23908273.6754   23908274.1444
       214.0004        146.0004
 -15197480.91649 -11029688.43149  21386062.2374   21386063.9044   21386061.5354
       233.0004        182.0004
 11 10 14  1  0 30.0000000  0  7G05G10G28G07G08G02G26
 -21529515.43349 -16509178.83449  20658461.5794   20658463.9424   20658461.8244
       241.0004        207.0004
 -10911661.58149  -8492435.21649  22364514.0664   22364518.0624   22364513.8404
       227.0004        173.0004
  -4560294.99949  -3534473.31249  23542309.7924   23542312.0024   23542309.0404
       211.0004        146.0004
 -18208241.52449 -14166956.23749  21441314.3514   21441316.2424   21441314.4204
       238.0004        194.0004
 -23411124.39549 -18228257.10149  20487085.7214   20487088.5134   20487085.0734
       241.0004        203.0004
  -5774491.59449  -4212594.91749  23927114.3304   23927116.9334   23927115.9294
       208.0004        144.0004
 -15277392.11749 -11091956.89849  21370854.1564   21370857.4964   21370855.0994
       231.0004        182.0004
 11 10 14  1  1  0.0000000  0  8G05G10G28G15G07G08G02G26
 -21538714.82949 -16516347.19449  20656710.2874   20656713.3004   20656710.7624
       240.0004        207.0004
 -10814348.97049  -8416607.23449  22383030.5264   22383036.5574   22383031.0384
       226.0004        172.0004
  -4652348.83849  -3606203.51949  23524792.7754   23524796.4024   23524791.1864
       212.0004        145.0004
   -114780.32249    -52058.73849  24813268.0354
       204.0004         74.0004
 -18143160.05249 -14116243.40149  21453699.0644   21453701.2334   21453699.5714
       238.0004        195.0004
 -23407643.82549 -18225544.96149  20487747.7904   20487750.6924   20487747.5784
       241.0004        203.0004
  -5675323.24749  -4135320.88649  23945991.3914   23945988.1364   23945987.6684
       214.0004        143.0004
 -15356994.00549 -11153984.33149  21355707.0264   21355709.8954   21355707.3824
       233.0004        182.0004
 11 10 14  1  1 30.0000000  0  7G05G10G28G07G08G02G26
 -21547351.33849 -16523076.95049  20655067.3334   20655070.0244   20655067.9474
       241.0004        208.0004
 -10716755.12549  -8340560.11449  22401605.0594   22401607.7954   22401603.5244
       230.0004        172.0004
  -4744196.25449  -3677772.92349  23507313.0404   23507315.8064   23507314.0004
       209.0004        146.0004
 -18077706.15449 -14065240.37049  21466153.7494   21466156.5594   21466154.2744
       236.0004        195.0004
 -23403653.08249 -18222435.28449  20488507.6004   20488510.0834   20488506.9624
       242.0004        203.0004
  -5576014.97549  -4057937.83049  23964883.3134   23964885.7124   23964883.6384
       207.0004        141.0004
 -15436284.85249 -11215769.39949  21340618.6464   21340621.3574   21340618.6164
       233.0004        183.0004
 11 10 14  1  2  0.0000000  0  8G05G10G28G15G07G08G02G26
 -21555425.07949 -16529368.19049  20653530.6514   20653533.2134   20653531.3884
       240.0004        207.0004
 -10618883.14849  -8264296.26349  22420230.4524   22420232.0994   22420227.6824
       229.0004        171.0004
  -4835835.24649  -3749179.87449  23489875.2064   23489878.4894   23489875.8494
       212.0004        147.0004
   -312369.81949   -206101.81049  24775666.2154
       205.0004        111.0004
 -18011883.01849 -14013949.64049  21478679.8944   21478682.1744   21478680.2134
       237.0004        195.0004
 -23399153.59049 -18218929.18749  20489363.5604   20489366.5494   20489363.3874
       242.0004        204.0004
  -5476570.85349  -3980448.94849  23983810.5984   23983810.9444   23983810.3904
       214.0004        145.0004
 -15515263.95249 -11277311.55149  21325589.7114   21325591.5844   21325589.7254
       233.0004        183.0004
 11 10 14  1  2 30.0000000  0  8G05G10G28G15G07G08G02G26
 -21562935.23549 -16535220.25749  20652100.8654   20652104.2744   20652101.6394
       240.0004        207.0004
 -10520734.99149  -8187817.20449  22438904.7284   22438907.5934   22438904.5604
       227.0004        171.0004
  -4927262.96249  -3820422.23649  23472478.1564   23472480.2714   23472478.1954
       209.0004        146.0004
   -411097.98349    -46859.26349  24756877.6844
       205.0004         74.0004
 -17945692.35849 -13962372.50549  21491275.4824   21491278.1914   21491275.7674
       238.0004        195.0004
 -23394145.72149 -18215026.95049  20490316.6234   20490319.5704   20490316.1244
       241.0004        203.0004
  -5376993.72349  -3902856.41749  24002759.1574   24002758.8754   24002757.2204
       213.0004        142.0004
 -15593929.74849 -11338609.55749  21310619.4414   21310622.4694   21310618.7424
       232.0004        183.0004
 11 10 14  1  3  0.0000000  0  8G05G10G28G15G07G08G02G26
 -21569880.89549 -16540632.48449  20650780.0264   20650782.2174   20650780.3124
       240.0004        207.0004
 -10422312.13149  -8111124.09549  22457633.3644   22457638.2264   22457633.4464
       228.0004        171.0004
  -5018476.70149  -3891497.81049  23455120.6524   23455123.3984   23455118.9584
       212.0004        149.0004
   -509780.58549   -123767.72149  24738099.1724
       205.0004        109.0004
 -17879136.01149 -13910510.42949  21503940.8354   21503943.2104   21503941.2454
       237.0004        194.0004
 -23388629.97049 -18210728.96749  20491365.8104   20491369.0574   20491366.0174
       241.0004        203.0004
  -5277286.73049  -3825162.67349  24021733.6814   24021731.0024   24021730.6914
       208.0004        139.0004
 -15672280.71149 -11399662.26349  21295710.2654   21295712.9434   21295710.2194
       233.0004        185.0004
 11 10 14  1  3 30.0000000  0  7G05G10G28G07G08G02G26
 -21576261.66349 -16545604.50949  20649564.9454   20649568.1214   20649566.0584
       240.0004        207.0004
 -10323616.73049  -8034218.61549  22476417.0334   22476418.4834   22476415.3714
       229.0004        170.0004
  -5109473.49149  -3962404.37049  23437804.7574   23437806.8414   23437804.0814
       214.0004        150.0004
 -17812216.10949 -13858365.04749  21516675.8754   21516677.1954   21516675.8544
       237.0004        193.0004
 -23382607.35649 -18206036.00849  20492512.7774   20492515.2274   20492512.0364
       242.0004        204.0004
  -5177453.11149  -3747370.23349  24040727.3784   24040731.7694   24040728.0384
       208.0004        142.0004
 -15750315.41949 -11460468.50349  21280858.9044   21280864.2604   21280860.1294
       232.0004        184.0004
 11 10 14  1  4  0.0000000  0  8G05G10G28G15G07G08G02G26
 -21582076.61649 -16550135.64549  20648459.1094   20648461.9054   20648459.5314
       241.0004        207.0004
 -10224650.75449  -7957102.29849  22495249.2084   22495252.4414   22495247.4974
       226.0004        170.0004
  -5200250.82749  -4033139.93849  23420529.4564   23420533.4974   23420529.8264
       214.0004        150.0004
    -47760.44149    -21199.30949  24700567.6964
       207.0004         74.0004
 -17744934.76449 -13805938.02649  21529478.3674   21529481.1134   21529479.1134
       237.0004        193.0004
 -23376078.22449 -18200948.36749  20493754.6274   20493757.1554   20493754.4974
       242.0004        203.0004
  -5077495.68549  -3669481.38949  24059751.1094   24059750.2914   24059751.5494
       205.0004        141.0004
 -15828032.50249 -11521027.26249  21266071.3464   21266074.5994   21266071.1724
       234.0004        185.0004
 11 10 14  1  4 30.0000000  0  7G05G10G28G07G08G02G26
 -21587325.18249 -16554225.45449  20647461.2914   20647463.1624   20647461.5694
       241.0004        207.0004
 -10125416.44149  -7879776.88249  22514132.5734   22514134.8454   22514132.2194
       225.0004        170.0004
  -5290805.68249  -4103702.11249  23403297.2224   23403301.5944   23403297.4264
       215.0004        151.0004
 -17677293.86349 -13753230.84549  21542350.7174   21542352.5884   21542351.0164
       237.0004        193.0004
 -23369043.43749 -18195466.70649  20495093.4114   20495096.2914   20495093.2274
       242.0004        204.0004
  -4977417.80849  -3591498.69349  24078794.5794   24078796.0854   24078794.0664
       201.0004        138.0004
 -15905430.36649 -11581337.28449  21251342.7094   21251346.5474   21251343.4214
       235.0004        185.0004
 11 10 14  1  5  0.0000000  0  7G05G10G28G07G08G02G26
 -21592006.85849 -16557873.51949  20646568.4484   20646572.1944   20646569.4214
       240.0004        207.0004
 -10025915.96049  -7802244.07949  22533065.6384   22533070.5984   22533065.3974
       224.0004        168.0004
  -5381135.96749  -4174089.32149  23386107.0664   23386110.9114   23386106.7814
       210.0004        149.0004
 -17609295.93149 -13700245.44949  21555290.0734   21555292.1674   21555290.3764
       238.0004        192.0004
 -23361503.77749 -18189591.64349  20496528.4344   20496530.8174   20496528.2164
       243.0004        204.0004
  -4877223.12549  -3513424.94349  24097861.0104   24097861.3984   24097860.4754
       208.0004        141.0004
 -15982508.02549 -11641397.78649  21236675.5534   21236678.6684   21236675.7014
       234.0004        186.0004
 11 10 14  1  5 30.0000000  0  8G05G10G28G15G07G08G02G26
 -21596120.83249 -16561079.23049  20645786.5774   20645789.4414   20645787.0314
       240.0004        207.0004
  -9926151.16549  -7724505.30449  22552050.8624   22552054.6124   22552049.7874
       225.0004        168.0004
  -5471239.03049  -4244299.47949  23368962.6544   23368965.2384   23368962.3214
       217.0004        150.0004
   -343234.05249   -251438.55449  24644342.3824   24644343.6194
       203.0004        139.0004
 -17540942.82249 -13646983.29049  21568297.0074   21568299.4044   21568297.4054
       238.0004        193.0004
 -23353460.25249 -18183323.95949  20498059.2574   20498061.2654   20498058.7174
       242.0004        204.0004
  -4776914.24949  -3435262.19049  24116950.3024   24116946.7384   24116951.2944
       208.0004        136.0004
 -16059264.32549 -11701207.87749  21222069.8374   21222072.6504   21222069.3354
       235.0004        187.0004
 11 10 14  1  6  0.0000000  0  8G05G10G28G15G07G08G02G26
 -21599666.75049 -16563842.28249  20645111.7444   20645114.1164   20645112.4094
       240.0004        207.0004
  -9826124.05949  -7646562.13249  22571086.6124   22571089.5664   22571084.9194
       224.0004        167.0004
  -5561112.03549  -4314330.40249  23351861.4144   23351863.6494   23351859.4704
       219.0004        153.0004
   -441624.84049   -328106.64049  24625618.5484   24625619.7314   24625618.5184
       207.0004        142.0004
 -17472236.35349 -13593445.78249  21581371.3444   21581373.0894   21581372.3494
       238.0004        191.0004
 -23344913.81249 -18176664.39049  20499684.9884   20499687.8934   20499684.9804
       242.0004        204.0004
  -4676494.26049  -3357012.85649  24136060.1714   24136060.0174   24136057.3684
       203.0004        138.0004
 -16135697.26849 -11760766.00849  21207524.1594   21207527.6874   21207524.9224
       234.0004        187.0004
 11 10 14  1  6 30.0000000  0  8G05G10G28G15G07G08G02G26
 -21602643.47149 -16566161.81949  20644545.3354   20644548.0314   20644545.8144
       240.0004        207.0004
  -9725836.23249  -7568415.79749  22590170.2354   22590172.7734   22590168.7364
       224.0004        167.0004
  -5650751.81449  -4384179.54549  23334801.3134   23334804.5834   23334801.5364
       214.0004        154.0004
   -539963.42249   -404734.10049  24606906.0134   24606904.1794   24606906.2274
       206.0004        137.0004
 -17403178.51949 -13539634.47949  21594512.5754   21594514.8744   21594512.6684
       236.0004        190.0004
 -23335864.78149 -18169613.18949  20501407.7144   20501409.6374   20501406.8834
       243.0004        204.0004
  -4575966.06249  -3278679.26749  24155190.9614   24155190.5524   24155190.1334
       206.0004        144.0004
 -16211805.39549 -11820071.02649  21193041.3464   21193044.9034   21193041.8394
       234.0004        188.0004
 11 10 14  1  7  0.0000000  0  8G05G10G28G15G07G08G02G26
 -21605050.75349 -16568037.64049  20644087.1494   20644089.6834   20644087.8074
       241.0004        207.0004
  -9625289.96549  -7490068.10449  22609302.5074   22609306.4364   22609303.0074
       223.0004        167.0004
  -5740156.36449  -4453845.41549  23317788.0724   23317791.4674   23317788.4704
       216.0004        152.0004
   -638249.46149   -481320.61149  24588203.7074   24588200.3684   24588204.0804
       206.0004        138.0004
 -17333771.78049 -13485551.32149  21607720.1394   21607722.2344   21607720.4864
       235.0004        191.0004
 -23326314.27649 -18162171.23949  20503224.2294   20503227.3484   20503224.3404
       242.0004        204.0004
  -4475333.25749  -3200264.17849  24174340.0644   24174339.7834   24174338.5724
       210.0004        144.0004
 -16287587.50049 -11879122.01449  21178622.0784   21178623.7304   21178622.0734
       236.0004        187.0004
 11 10 14  1  7 30.0000000  0  8G05G10G28G15G07G08G02G26
 -21606888.61149 -16569469.73849  20643737.4554   20643740.4234   20643738.0174
       241.0004        208.0004
  -9524487.90549  -7411521.06949  22628484.8854   22628489.0464   22628484.7394
       224.0004        166.0004
  -5829322.97949  -4523325.88749  23300822.8174   23300824.1544   23300821.3094
       218.0004        155.0004
   -736482.56449   -557865.79749  24569510.5444   24569510.6094   24569510.0014
       210.0004        144.0004
 -17264018.32249 -13431197.97749  21620994.1604   21620996.6494   21620994.8524
       234.0004        191.0004
 -23316263.55449 -18154339.49749  20505137.2554   20505140.0344   20505136.9404
       243.0004        204.0004
  -4374598.84849  -3121769.83649  24193507.9964   24193505.8054   24193508.2614
       206.0004        134.0004
 -16363042.76449 -11937918.30649  21164262.2634   21164265.3294   21164262.5644
       234.0004        188.0004
 11 10 14  1  8  0.0000000  0  8G05G10G28G15G07G08G02G26
 -21608155.56949 -16570456.99249  20643497.4264   20643499.4504   20643497.6614
       241.0004        207.0004
  -9423431.14649  -7332775.55749  22647716.4714   22647718.5824   22647714.1894
       225.0004        167.0004
  -5918248.49449  -4592618.46949  23283899.6554   23283901.5634   23283897.8344
       218.0004        154.0004
   -834660.53549   -634368.08449  24550825.7614   24550827.8464   24550826.7034
       208.0004        142.0004
 -17193919.34849 -13376575.40449  21634333.7884   21634335.7224   21634334.1894
       236.0004        191.0004
 -23305712.23049 -18146117.67949  20507145.2024   20507147.4584   20507144.8364
       243.0004        204.0004
  -4273765.75449  -3043198.53649  24212695.6024   24212696.5364   24212692.7344
       198.0004        134.0004
 -16438168.90249 -11996458.13649  21149966.1844   21149969.0024   21149966.3304
       234.0004        186.0004
 11 10 14  1  8 30.0000000  0  8G05G10G28G15G07G08G02G26
 -21608851.49349 -16570999.27549  20643363.4764   20643366.7174   20643364.1554
       239.0004        207.0004
  -9322121.81849  -7253833.23049  22666995.0654   22666998.4874   22666994.1374
       224.0004        167.0004
  -6006930.24749  -4661721.09549  23267023.0494   23267026.4044   23267023.7164
       216.0004        155.0004
   -932782.89949   -710827.05849  24532155.1584   24532154.9034   24532154.5894
       207.0004        139.0004
 -17123477.26749 -13321685.47349  21647738.5704   21647740.2154   21647738.4834
       235.0004        190.0004
 -23294661.34349 -18137506.58749  20509248.1594   20509250.6724   20509247.5524
       242.0004        204.0004
  -4172837.18049  -2964553.02149  24231899.9864   24231903.0744   24231902.2684
       209.0004        146.0004
 -16512964.81949 -12054740.65249  21135732.6554   21135735.9074   21135732.9534
       234.0004        187.0004
 11 10 14  1  9  0.0000000  0  8G05G10G28G15G07G08G02G26
 -21608976.13649 -16571096.40949  20643340.7304   20643343.0484   20643340.9904
       241.0004        207.0004
  -9220562.28549  -7174695.97449  22686319.8024   22686324.7864   22686319.5104
       224.0004        168.0004
  -6095365.84749  -4730631.95849  23250194.1964   23250196.5914   23250193.1204
       214.0004        153.0004
  -1030848.93349   -787242.14049  24513492.9554   24513493.2914   24513492.6274
       209.0004        141.0004
 -17052694.41449 -13266529.99549  21661208.0804   21661209.5524   21661208.3214
       235.0004        190.0004
 -23283112.22849 -18128507.28149  20511445.2144   20511448.4004   20511445.4434
       242.0004        204.0004
  -4071816.08449  -2885835.33349  24251125.6354   24251128.5044   24251124.6764
       208.0004        145.0004
 -16587429.23549 -12112764.87149  21121562.9184   21121565.7174   21121562.6714
       234.0004        187.0004
 11 10 14  1  9 30.0000000  0  8G05G10G28G15G07G08G02G26
 -21608528.95449 -16570747.96849  20643426.7284   20643427.8514   20643426.6844
       242.0004        207.0004
  -9118754.75449  -7095365.43749  22705693.6794   22705697.1104   22705692.4104
       224.0004        165.0004
  -6183552.91349  -4799349.11249  23233412.7154   23233416.8534   23233412.4064
       215.0004        154.0004
  -1128857.76049   -863612.62949  24494842.7284   24494843.2254   24494842.4244
       206.0004        144.0004
 -16981572.55849 -13211110.35949  21674742.1774   21674743.9324   21674742.4684
       237.0004        191.0004
 -23271065.97649 -18119120.57949  20513737.7034   20513740.5654   20513737.4204
       241.0004        204.0004
  -3970705.98449  -2807048.34849  24270367.6234   24270361.8564   24270365.2024
       195.0004        121.0004
 -16661560.76349 -12170529.68049  21107456.2524   21107458.4884   21107455.6004
       235.0004        187.0004
 11 10 14  1 10  0.0000000  0  8G05G10G28G15G07G08G02G26
 -21607509.31149 -16569953.44449  20643618.3874   20643622.0614   20643619.4564
       240.0004        207.0004
  -9016701.16049  -7015843.17749  22725113.7574   22725116.2714   22725112.8594
       224.0004        166.0004
  -6271488.40649  -4867870.24349  23216680.4834   23216681.7454   23216679.7144
       218.0004        154.0004
  -1226808.25349   -939937.60849  24476201.5944   24476204.7794   24476203.0534
       204.0004        142.0004
 -16910113.86449 -13155428.26949  21688339.7894   21688342.3244   21688340.3324
       235.0004        191.0004
 -23258523.12949 -18109346.93549  20516125.4394   20516127.5514   20516124.8944
       244.0004        205.0004
  -3869509.34349  -2728193.73249  24289621.5914   24289623.6164   24289623.0854
       205.0004        135.0004
 -16735357.71949 -12228033.78349  21093412.8594   21093416.1714   21093412.8374
       236.0004        188.0004
 11 10 14  1 10 30.0000000  0  8G05G10G28G15G07G08G02G26
 -21605917.08249 -16568712.76249  20643923.2024   20643925.3444   20643923.3944
       241.0004        207.0004
  -8914403.73149  -6936130.92449  22744581.4274   22744583.3954   22744580.0204
       225.0004        167.0004
  -6359169.75949  -4936193.35649  23199994.1054   23199997.0154   23199995.1334
       216.0004        155.0004
  -1324699.55949  -1016216.56549  24457572.4834   24457576.6774   24457575.9254
       202.0004        137.0004
 -16838320.60449 -13099485.49949  21702001.9934   21702004.1234   21702002.2894
       236.0004        191.0004
 -23245484.87449 -18099187.24649  20518606.3124   20518608.5954   20518605.8234
       243.0004        204.0004
  -3768230.07349  -2649274.80549  24308895.7644   24308900.2894   24308897.2874
       212.0004        153.0004
 -16808819.11149 -12285276.42049  21079433.5214   21079437.1794   21079434.0224
       235.0004        189.0004
 11 10 14  1 11  0.0000000  0  8G05G10G28G15G07G08G02G26
 -21603751.89049 -16567025.60449  20644334.4424   20644337.4034   20644335.1604
       241.0004        207.0004
  -8811864.32649  -6856230.09849  22764092.8604   22764095.3344   22764092.8564
       224.0004        165.0004
  -6446594.09549  -5004316.18949  23183358.8744   23183361.1734   23183358.6964
       218.0004        156.0004
  -1422530.82249  -1092448.70149  24438957.8864   24438958.1874   24438958.4934
       206.0004        141.0004
 -16766194.67849 -13043283.48049  21715726.7204   21715728.8474   21715727.0114
       236.0004        191.0004
 -23231952.10849 -18088642.22849  20521181.4994   20521184.1744   20521181.2224
       244.0004        205.0004
  -3666870.92349  -2570293.72849  24328181.8034   24328186.0494   24328181.7304
       195.0004        141.0004
 -16881943.29449 -12342256.29349  21065518.8474   21065521.9534   21065519.6284
       236.0004        190.0004
 11 10 14  1 11 30.0000000  0  8G05G10G28G15G07G08G02G26
 -21601013.16149 -16564891.54449  20644856.0184   20644858.4344   20644856.1244
       240.0004        207.0004
  -8709085.04849  -6776142.36449  22783652.0224   22783654.9274   22783650.4794
       226.0004        166.0004
  -6533759.35549  -5072237.15049  23166773.2224   23166773.7004   23166772.6244
       218.0004        157.0004
  -1520301.04149  -1168633.24949  24420351.7744   24420354.5054   24420353.6304
       208.0004        144.0004
 -16693738.22049 -12986823.90349  21729514.9664   21729516.7564   21729514.7344
       235.0004        190.0004
 -23217925.46049 -18077712.36949  20523849.8834   20523852.9204   20523849.9214
       242.0004        204.0004
  -3565435.64549  -2491253.63349  24347483.1874                   24347484.4404
       200.0004        121.0004
 -16954729.10549 -12398972.50349  21051667.8084   21051671.1714   21051668.6244
       235.0004        190.0004
 11 10 14  1 12  0.0000000  0  8G05G10G28G15G07G08G02G26
 -21597700.71149 -16562310.42249  20645485.5394   20645488.8394   20645486.3864
       239.0004        206.0004
  -8606068.03849  -6695869.37349  22803254.9644   22803257.5454   22803254.3954
       223.0004        165.0004
  -6620662.89049  -5139954.15349  23150233.8474   23150236.6744   23150233.4814
       216.0004        155.0004
  -1618009.64549  -1244769.75449  24401761.3114   24401760.1834   24401760.0884
       209.0004        142.0004
 -16620953.33549 -12930108.41249  21743365.4844   21743367.7604   21743365.8834
       236.0004        191.0004
 -23203405.94149 -18066398.45249  20526613.0774   20526616.0514   20526613.1004
       242.0004        204.0004
  -3463926.25349  -2412155.29149  24366804.6114   24366801.8014   24366805.7274
       214.0004        137.0004
 -17027175.20149 -12455423.99649  21037882.0284   21037884.9984   21037882.4644
       236.0004        190.0004
 11 10 14  1 12 30.0000000  0  8G05G10G28G15G07G08G02G26
 -21593814.22649 -16559282.00349  20646225.6334   20646228.2254   20646226.2594
       240.0004        207.0004
  -8502815.30249  -6615412.73749  22822902.4884   22822908.2554   22822901.3304
       222.0004        164.0004
  -6707301.87149  -5207465.03449  23133746.4484   23133750.2574   23133746.5264
       216.0004        156.0004
  -1715655.24449  -1320857.24049  24383178.8134   24383179.8394   24383178.9784
       207.0004        139.0004
 -16547841.90049 -12873138.46449  21757278.4474   21757280.6224   21757278.2664
       236.0004        191.0004
 -23188394.60649 -18054701.31049  20529469.6914   20529472.4664   20529469.5724
       243.0004        204.0004
  -3362345.82849  -2333001.65049  24386131.8324   24386139.1984   24386131.3054
       200.0004        145.0004
 -17099279.84849 -12511609.42649  21024160.7654   21024163.6644   21024161.3864
       236.0004        190.0004
 11 10 14  1 13  0.0000000  0  8G05G10G28G15G07G08G02G26
 -21589353.35449 -16555806.01649  20647075.5634   20647076.9834   20647075.7244
       241.0004        207.0004
  -8399328.80449  -6534773.93649  22842597.8344   22842600.9494   22842595.9804
       225.0004        165.0004
  -6793673.63449  -5274767.71549  23117310.7214   23117314.1864   23117311.5194
       216.0004        155.0004
  -1813236.99949  -1396894.97249  24364608.8254   24364609.6294   24364610.2194
       208.0004        141.0004
 -16474405.90349 -12815915.62049  21771252.4714   21771254.6774   21771253.0724
       236.0004        191.0004
 -23172892.29349 -18042621.57849  20532419.6914   20532422.5934   20532419.0654
       242.0004        204.0004
  -3260697.57849  -2253795.42349  24405473.0644   24405480.9164   24405476.6714
       191.0004        136.0004
 -17171041.95249 -12567527.93949  21010504.9384   21010507.9684   21010504.9424
       236.0004        189.0004
 11 10 14  1 13 30.0000000  0  8G05G10G28G15G07G08G02G26
 -21584317.66449 -16551882.11449  20648031.7214   20648035.3114   20648032.9134
       239.0004        206.0004
  -8295610.99849  -6453954.86249  22862332.1974   22862336.8254   22862331.2494
       220.0004        162.0004
  -6879775.60549  -5341860.13649  23100927.4294   23100929.1064   23100926.4214
       217.0004        155.0004
  -1910753.79649  -1472882.04949  24346052.3514   24346054.8164   24346051.7134
       209.0004        147.0004
 -16400647.79249 -12758441.74849  21785287.9604   21785290.6534   21785288.7734
       235.0004        191.0004
 -23156900.15949 -18030160.17549  20535463.0184   20535465.7394   20535462.6034
       243.0004        204.0004
  -3158984.90249  -2174538.90149  24424832.6384   24424831.9174   24424832.7324
       209.0004        139.0004
 -17242460.00049 -12623178.35649  20996914.3564   20996916.9554   20996914.4094
       236.0004        189.0004
 11 10 14  1 14  0.0000000  0  8G05G10G28G15G07G08G02G26
 -21578706.75249 -16547509.98749  20649099.8924   20649103.0474   20649100.9474
       239.0004        206.0004
  -8191663.46549  -6372956.79049  22882111.9434   22882116.9774   22882112.2944
       222.0004        162.0004
  -6965605.26349  -5408740.36449  23084594.1874   23084596.4674   23084592.2314
       218.0004        154.0004
  -2008204.60649  -1548817.72449  24327506.9974   24327510.1824   24327508.2854
       207.0004        143.0004
 -16326569.04349 -12700718.05249  21799384.7244   21799387.2254   21799385.4484
       236.0004        190.0004
 -23140419.07649 -18017317.77049  20538599.6304   20538602.0554   20538599.0854
       244.0004        204.0004
  -3057210.57449  -2095234.13449  24444200.7974   24444196.9104   24444199.7114
       204.0004        135.0004
 -17313532.36449 -12678559.40949  20983389.2494   20983392.3854   20983389.8454
       238.0004        189.0004
 11 10 14  1 14 30.0000000  0  8G05G10G28G15G07G08G02G26
 -21572520.38449 -16542689.44549  20650278.3444   20650280.6504   20650278.4614
       241.0004        207.0004
  -8087488.41749  -6291781.45049  22901937.3944   22901940.5854   22901936.3174
       222.0004        163.0004
  -7051159.65549  -5475406.12549  23068313.0844   23068316.3324   23068311.8924
       218.0004        156.0004
  -2105588.46149  -1624701.22449  24308978.2174   24308977.6094   24308978.3754
       211.0004        144.0004
 -16252172.11449 -12642746.41949  21813541.5064   21813544.2014   21813541.4764
       234.0004        188.0004
 -23123450.29249 -18004095.34149  20541828.1884   20541831.0114   20541827.9864
       243.0004        204.0004
  -2955377.56149  -2015883.69449  24463572.5044   24463582.5154   24463576.2984
       190.0004        132.0004
 -17384257.79549 -12733670.12549  20969930.5094   20969934.2044   20969931.3374
       237.0004        190.0004
 11 10 14  1 15  0.0000000  0  8G05G10G28G15G07G08G02G26
 -21565759.06549 -16537420.89749  20651563.8614   20651567.0864   20651564.4614
       239.0004        207.0004
  -7983088.60949  -6210430.93949  22921805.6174   22921806.6564   22921802.3884
       224.0004        161.0004
  -7136436.84849  -5541855.87449  23052084.7054   23052087.5494   23052084.7664
       217.0004        154.0004
  -2202904.88749  -1700532.20549  24290456.4694   24290459.9094   24290456.7594
       208.0004        144.0004
 -16177459.64049 -12584528.92449  21827758.9204   21827762.0414   21827759.1544
       234.0004        188.0004
 -23105995.19149 -17990493.96549  20545149.5334   20545152.6754   20545149.1734
       243.0004        204.0004
  -2853489.75249  -1936490.80949  24482965.2684   24482966.9344   24482963.2534
       200.0004        137.0004
 -17454635.55649 -12788509.93249  20956539.4134   20956542.1564   20956538.9864
       238.0004        191.0004
 11 10 14  1 15 30.0000000  0  8G05G10G28G15G07G08G02G26
 -21558421.87949 -16531703.62249  20652960.2244   20652963.5534   20652961.2164
       240.0004        207.0004
  -7878465.10249  -6128906.15649  22941712.8164   22941715.2844   22941712.5954
       220.0004        159.0004
  -7221433.84849  -5608087.29149  23035910.5794   23035914.2764   23035910.4904
       219.0004        157.0004
  -2300152.44749  -1776309.53449  24271951.8234   24271954.1534   24271952.5444
       210.0004        148.0004
 -16102432.73349 -12526066.41749  21842035.7114   21842038.8774   21842036.4234
       232.0004        186.0004
 -23088053.91149 -17976513.75049  20548564.1214   20548567.0494   20548564.0854
       244.0004        205.0004
  -2751549.67649  -1857056.97149  24502364.2434   24502365.8514   24502364.3854
       205.0004        137.0004
 -17524663.70149 -12843077.31049  20943211.4104   20943216.2784   20943212.2714
       236.0004        190.0004
 11 10 14  1 16  0.0000000  0  8G05G10G28G15G07G08G02G26
 -21550508.79649 -16525537.59949  20654467.7684   20654469.0334   20654467.8314
       241.0004        207.0004
  -7773620.86749  -6047209.36249  22961664.2844   22961669.1144   22961663.2504
       219.0004        160.0004
  -7306148.14649  -5674098.44449  23019790.6874   23019792.9614   23019790.7474
       221.0004        158.0004
  -2397330.68949  -1852032.79049  24253460.8934   24253462.6684   24253460.8874
       212.0004        148.0004
 -16027093.86249 -12467360.80149  21856373.3634   21856375.0694   21856373.6554
       235.0004        187.0004
 -23069627.92549 -17962155.83449  20552070.5924   20552072.9894   20552070.1534
       243.0004        204.0004
  -2649560.24149  -1777584.72449  24521774.3374   24521776.5714   24521774.0584
       200.0004        133.0004
 -17594340.89749 -12897371.21649  20929954.0574   20929956.4834   20929954.1394
       238.0004        190.0004
 11 10 14  1 16 30.0000000  0  8G05G10G28G15G07G08G02G26
 -21542019.16549 -16518922.30949  20656081.6264   20656084.8964   20656082.4244
       240.0004        206.0004
  -7668556.77349  -5965341.23849  22981656.0234   22981661.2194   22981654.7304
       218.0004        160.0004
  -7390576.43749  -5739886.72249  23003724.6764   23003726.5034   23003723.9304
       220.0004        158.0004
  -2494437.58849  -1927700.46449  24234981.9384   24234982.3664   24234982.0404
       211.0004        145.0004
 -15951444.52749 -12408413.26549  21870768.7214   21870770.3864   21870769.0444
       235.0004        187.0004
 -23050717.88649 -17947420.73349  20555669.2294   20555671.1984   20555668.5714
       244.0004        204.0004
  -2547524.02049  -1698076.04349  24541184.9424   24541188.1164   24541184.9204
       195.0004        132.0004
 -17663664.95249 -12951389.95249  20916762.2554   20916764.8854   20916762.2624
       238.0004        191.0004
 11 10 14  1 17  0.0000000  0  8G05G10G28G15G07G08G02G26
 -21532953.91849 -16511858.48249  20657806.1084   20657809.8674   20657806.7414
       240.0004        206.0004
  -7563276.61349  -5883304.76849  23001689.3554   23001694.4944   23001689.4084
       217.0004        158.0004
  -7474717.40549  -5805451.09749  22987712.6884   22987716.5464   22987713.5934
       221.0004        157.0004
  -2591473.38049  -2003312.77449  24216515.7864   24216517.6694   24216516.6434
       213.0004        147.0004
 -15875487.85649 -12349226.25749  21885222.8834   21885225.0164   21885222.9844
       235.0004        187.0004
 -23031325.93249 -17932310.11749  20559358.2804   20559361.4864   20559358.2334
       242.0004        203.0004
  -2445445.10349  -1618534.03749  24560613.3594   24560616.4104   24560612.1304
       200.0004        134.0004
 -17732635.86849 -13005133.51649  20903637.1044   20903640.1074   20903637.2714
       239.0004        191.0004
 11 10 14  1 17 30.0000000  0  8G05G10G28G15G07G08G02G26
 -21523312.05449 -16504345.35849  20659642.2244   20659644.4714   20659642.3494
       241.0004        206.0004
  -7457780.93449  -5801100.37349  23021767.2164   23021770.2074   23021765.3894
       221.0004        159.0004
  -7558567.93249  -5870789.14249  22971757.1844   22971758.6794   22971756.1294
       221.0004        159.0004
  -2688436.31049  -2078868.32049  24198064.2444   24198066.0984   24198065.2034
       208.0004        147.0004
 -15799224.95849 -12289800.63049  21899735.3224   21899737.2364   21899735.8274
       233.0004        187.0004
 -23011452.26249 -17916824.15049  20563140.9284   20563143.6454   20563140.8994
       243.0004        204.0004
  -2343325.65249  -1538960.50849  24580049.6604   24580047.4844   24580050.1044
       202.0004        135.0004
 -17801251.53549 -13058600.27249  20890580.3014   20890582.9074   20890580.4614
       240.0004        192.0004
 11 10 14  1 18  0.0000000  0  8G05G10G28G15G07G08G02G26
 -21513093.74449 -16496383.04749  20661587.4474   20661588.8434   20661587.5044
       242.0004        207.0004
  -7352072.48249  -5718730.19049  23041884.3764   23041886.0724   23041881.0624
       221.0004        159.0004
  -7642125.21849  -5935898.71249  22955856.7454   22955858.4164   22955856.9014
       221.0004        158.0004
  -2785325.66149  -2154366.41849  24179627.4414   24179629.8754   24179626.5854
       209.0004        147.0004
 -15722658.31849 -12230138.30849  21914305.3534   21914307.4574   21914305.8114
       233.0004        187.0004
 -22991098.00549 -17900963.67849  20567014.1044   20567016.4764   20567013.3614
       243.0004        203.0004
  -2241168.75149  -1459357.78049  24599484.6984   24599485.0394   24599486.4164
       193.0004        131.0004
 -17869510.57249 -13111789.13649  20877590.4334   20877593.8484   20877591.2134
       239.0004        192.0004
 11 10 14  1 18 30.0000000  0  8G05G10G28G15G07G08G02G26
 -21502299.15849 -16487971.69049  20663640.2814   20663643.3514   20663641.0684
       241.0004        207.0004
  -7246153.76449  -5636196.16349  23062038.9224   23062041.8574   23062037.6194
       221.0004        158.0004
  -7725387.29249  -6000778.22549  22940012.1974   22940014.6164   22940010.9964
       221.0004        159.0004
  -2882140.59149  -2229806.60249  24161204.1294   24161205.0774   24161203.2374
       211.0004        146.0004
 -15645790.13349 -12170241.03949  21928932.5894   21928934.8204   21928933.4464
       232.0004        186.0004
 -22970264.48249 -17884729.76949  20570978.8584   20570981.4254   20570978.7434
       244.0004        204.0004
  -2138978.06249  -1379728.69949  24618929.5774   24618936.4764   24618933.2234
       196.0004        130.0004
 -17937411.83949 -13164699.20649  20864669.7414   20864672.4544   20864669.8444
       239.0004        193.0004
 11 10 14  1 19  0.0000000  0  8G05G10G28G15G07G08G02G26
 -21490928.05349 -16479111.10149  20665804.6234   20665807.0734   20665805.1674
       241.0004        207.0004
  -7140026.37749  -5553499.50449  23082232.8094   23082235.9794   23082231.9374
       218.0004        157.0004
  -7808351.11249  -6065425.35349  22924224.2584   22924226.5844   22924222.5804
       220.0004        160.0004
  -2978879.70949  -2305187.77849  24142794.0074   24142796.3794   24142794.7284
       206.0004        144.0004
 -15568621.92949 -12110109.98649  21943617.6374   21943619.9394   21943618.1894
       233.0004        186.0004
 -22948952.44449 -17868122.98049  20575033.9614   20575037.1734   20575033.6174
       243.0004        204.0004
  -2036756.24549  -1300075.37549  24638388.5934   24638386.7434   24638383.6834
       205.0004        132.0004
 -18004953.92649 -13217329.40249  20851816.2834   20851819.5444   20851816.7654
       239.0004        192.0004
 11 10 14  1 19 30.0000000  0  8G05G10G28G15G07G08G02G26
 -21478979.96849 -16469800.91449  20668077.6694   20668080.4284   20668078.2974
       239.0004        206.0004
  -7033692.53449  -5470641.97949  23102467.0654   23102471.3044   23102467.6284
       219.0004        158.0004
  -7891014.10549  -6129838.06549  22908493.9724   22908496.0084   22908494.4594
       222.0004        160.0004
  -3075541.80649  -2380508.84149  24124399.9994   24124400.8824   24124399.7664
       207.0004        143.0004
 -15491155.84149 -12049746.80149  21958358.5924   21958360.9754   21958359.2214
       231.0004        184.0004
 -22927163.42549 -17851144.52949  20579180.4274   20579183.0704   20579180.4404
       243.0004        204.0004
  -1934506.17849  -1220400.07349  24657846.3484   24657844.2544   24657845.8964
       203.0004        133.0004
 -18072135.25149 -13269678.47449  20839031.9794   20839035.7274   20839032.6494
       239.0004        192.0004
 11 10 14  1 20  0.0000000  0  8G05G10G28G15G07G08G02G26
 -21466455.02249 -16460041.22449  20670460.1984   20670464.0694   20670461.1094
       239.0004        205.0004
  -6927154.25849  -5387625.16149  23122741.1864   23122745.4874   23122739.8914
       218.0004        158.0004
  -7973373.73849  -6194014.38149  22892822.2274   22892824.1844   22892820.4334
       221.0004        159.0004
  -3172125.93649  -2455769.20049  24106022.4844   24106024.2004   24106022.2184
       210.0004        148.0004
 -15413394.04549 -11989153.20549  21973155.6814   21973158.4444   21973156.6234
       232.0004        184.0004
 -22904898.12049 -17833794.93349  20583417.2254   20583420.0144   20583416.8174
       243.0004        204.0004
  -1832230.79249  -1140705.00549  24677296.1234   24677307.2964   24677300.1614
       193.0004        132.0004
 -18138954.37149 -13321745.31949  20826317.2304   20826320.3804   20826317.2774
       240.0004        193.0004
 11 10 14  1 20 30.0000000  0  8G05G10G28G15G07G08G02G26
 -21453353.80549 -16449832.49349  20672954.2014   20672956.8474   20672954.8454
       240.0004        205.0004
  -6820413.85049  -5304450.85349  23143052.7904   23143058.3184   23143053.6474
       219.0004        158.0004
  -8055427.99449  -6257952.74549  22877205.7754   22877210.7774   22877207.6384
       221.0004        163.0004
  -3268632.11949  -2530968.78649  24087656.4714   24087658.2364   24087655.8744
       210.0004        146.0004
 -15335338.98949 -11928331.09549  21988010.4634   21988011.8074   21988009.9404
       232.0004        184.0004
 -22882158.06449 -17816075.40849  20587745.2634   20587747.2454   20587744.9374
       244.0004        204.0004
  -1729933.52949  -1060992.88649  24696775.2514   24696772.6204   24696771.9584
       207.0004        131.0004
 -18205410.47649 -13373529.29649  20813670.7494   20813673.7784   20813671.3104
       240.0004        193.0004
 11 10 14  1 21  0.0000000  0  8G05G10G28G15G07G08G02G26
 -21439676.18749 -16439174.61649  20675557.7404   20675560.1634   20675557.9854
       241.0004        206.0004
  -6713473.58449  -5221120.80349  23163403.5034   23163406.8144   23163402.7274
       219.0004        158.0004
  -8137174.25849  -6321651.11049  22861651.7354   22861654.8024   22861651.0054
       220.0004        163.0004
  -3365058.58749  -2606106.31849  24069304.7754   24069309.2864   24069306.2934
       205.0004        145.0004
 -15256992.65249 -11867282.01149  22002918.0924   22002920.4014   22002918.8084
       232.0004        185.0004
 -22858944.60249 -17797986.99549  20592162.3914   20592165.0074   20592161.7974
       244.0004        204.0004
  -1627617.08149   -981265.79849  24716243.3544   24716244.1454   24716243.5684
       198.0004        132.0004
 -18271501.88049 -13425029.11049  20801094.4834   20801097.0354   20801095.3584
       240.0004        193.0004
 11 10 14  1 21 30.0000000  0  8G05G10G28G15G07G08G02G26
 -21425421.97949 -16428067.46849  20678271.0304   20678271.7864   20678271.1004
       241.0004        205.0004
  -6606335.33149  -5137636.44949  23183790.9394   23183795.2124   23183789.7344
       219.0004        157.0004
  -8218609.67349  -6385107.25449  22846154.6954   22846157.2154   22846154.5074
       220.0004        161.0004
  -3461404.35249  -2681180.87849  24050972.8984   24050975.2234   24050972.8304
       212.0004        149.0004
 -15178356.82649 -11806007.34349  22017883.1634   22017885.0684   22017883.4884
       234.0004        186.0004
 -22835258.68349 -17779530.44349  20596669.3454   20596672.0154   20596669.3604
       244.0004        204.0004
  -1525284.25949   -901526.04349  24735712.4484   24735717.0044   24735715.4094
       196.0004        134.0004
 -18337227.08649 -13476243.55549  20788587.5744   20788589.7354   20788587.3514
       240.0004        193.0004
 11 10 14  1 22  0.0000000  0  8G05G10G28G15G07G08G02G26
 -21410590.73549 -16416510.65649  20681091.8984   20681094.5384   20681092.5824
       240.0004        205.0004
  -6499001.09349  -5053999.39149  23204214.5984   23204220.9034   23204214.5344
       217.0004        158.0004
  -8299731.09049  -6448318.72649  22830717.7104   22830720.7134   22830717.2714
       223.0004        162.0004
  -3557667.76649  -2756191.33449  24032654.0094   24032656.1234   24032654.3984
       209.0004        148.0004
 -15099433.06649 -11744508.30149  22032900.6874   22032903.6794   22032901.5974
       232.0004        186.0004
 -22811101.15149 -17760706.39349  20601266.3264   20601269.2454   20601265.8284
       243.0004        204.0004
  -1422937.96749   -821775.75149  24755190.5314   24755193.4824   24755190.6954
       204.0004        134.0004
 -18402584.63349 -13527171.50549  20776149.5714   20776153.5044   20776149.8864
       240.0004        193.0004
 11 10 14  1 22 30.0000000  0  8G05G10G28G15G07G08G02G26
 -21395182.95349 -16404504.60249  20684023.3434   20684026.8664   20684024.0604
       239.0004        205.0004
  -6391473.24849  -4970211.49749  23224676.8554   23224683.4404   23224677.5734
       218.0004        160.0004
  -8380536.85249  -6511284.24049  22815341.3274   22815343.7664   22815340.7154
       222.0004        163.0004
  -3653848.50649  -2831137.34349  24014351.4604   24014353.5294   24014351.0084
       208.0004        147.0004
 -15020223.68149 -11682786.70749  22047974.1624   22047976.5284   22047974.2924
       233.0004        185.0004
 -22786473.19949 -17741515.78549  20605952.5434   20605955.6964   20605952.4564
       243.0004        203.0004
  -1320581.31949   -742017.37749  24774675.9604   24774669.0734   24774671.9734
       205.0004        130.0004
 -18467573.07749 -13577811.85449  20763781.9974   20763786.3084   20763782.7984
       238.0004        192.0004
 11 10 14  1 23  0.0000000  0  8G05G10G28G15G07G08G02G26
 -21379199.60149 -16392050.05849  20687066.2384   20687068.3344   20687066.1594
       241.0004        206.0004
  -6283754.33749  -4886274.70749  23245176.4504   23245179.9044   23245175.1674
       221.0004        158.0004
  -8461025.07149  -6574002.31349  22800024.8634   22800026.6414   22800024.3254
       222.0004        162.0004
  -3749945.84349  -2906018.38249  23996064.3904   23996066.4784   23996064.6654
       210.0004        145.0004
 -14940731.37849 -11620844.66449  22063100.4384   22063103.5814   22063101.1034
       233.0004        186.0004
 -22761376.81449 -17721960.16749  20610727.5494   20610731.4444   20610728.1004
       242.0004        203.0004
  -1218217.77749   -662253.64049  24794146.5224   24794147.4034   24794146.5594
       202.0004        131.0004
 -18532191.92349 -13628164.20649  20751486.3354   20751489.7144   20751486.6174
       239.0004        193.0004
 11 10 14  1 23 30.0000000  0  8G05G10G28G15G07G08G02G26
 -21362640.21649 -16379146.64549  20690215.7754   20690219.3824   20690216.3904
       239.0004        205.0004
  -6175846.15449  -4802190.42849  23265711.8584   23265713.5744   23265712.0224
       222.0004        156.0004
  -8541192.92949  -6636470.73749  22784769.1744   22784772.2854   22784769.3374
       222.0004        164.0004
  -3845958.45849  -2980833.40749  23977792.9024   23977797.8024   23977794.3724
       210.0004        149.0004
 -14860958.16049 -11558683.72249  22078281.5924   22078282.7864   22078281.4944
       233.0004        184.0004
 -22735813.00749 -17702040.31349  20615593.6304   20615595.8554   20615593.0864
       244.0004        204.0004
  -1115850.23349   -582486.68749  24813624.3924   24813627.1294   24813629.2164
       198.0004        128.0004
 -18596439.38049 -13678227.14849  20739260.5884   20739263.6274   20739260.9174
       239.0004        194.0004
 11 10 14  1 24  0.0000000  0  8G05G10G28G15G07G08G02G26
 -21345504.41549 -16365794.09149  20693477.5794   20693480.4554   20693478.0324
       241.0004        205.0004
  -6067750.63049  -4717960.15649  23286281.7254   23286283.4734   23286279.7454
       220.0004        157.0004
  -8621037.59549  -6698687.34649  22769575.2134   22769578.4984   22769574.7204
       224.0004        164.0004
  -3941885.13349  -3055581.40649  23959536.4714   23959542.7984   23959537.4454
       208.0004        146.0004
 -14780905.26449 -11496304.83849  22093514.9824   22093517.2514   22093515.2814
       233.0004        185.0004
 -22709782.37249 -17681756.70649  20620545.9814   20620549.6704   20620546.2954
       242.0004        203.0004
  -1013480.94249   -502718.54049  24833108.4164   24833109.8254   24833106.7064
       201.0004        129.0004
 -18660313.87649 -13727999.48649  20727105.7524   20727108.8624   20727106.6994
       239.0004        194.0004
 11 10 14  1 24 30.0000000  0  8G05G10G28G15G07G08G02G26
 -21327791.96349 -16351992.19349  20696848.5644   20696850.9384   20696849.3384
       241.0004        206.0004
  -5959469.17849  -4633585.02149  23306886.8404   23306890.4274   23306885.6484
       219.0004        156.0004
  -8700555.99649  -6760649.70549  22754442.9084   22754445.1924   22754442.1734
       222.0004        163.0004
  -4037723.94449  -3130260.98449  23941302.0084   23941305.4854   23941302.6884
       212.0004        147.0004
 -14700574.97449 -11433709.81849  22108802.0354   22108803.5164   22108801.9704
       233.0004        185.0004
 -22683285.85949 -17661110.06449  20625588.9864   20625591.7324   20625588.5284
       243.0004        203.0004
   -911112.55249   -422951.08749  24852590.5984   24852589.1364   24852590.7474
       203.0004        132.0004
 -18723813.34949 -13777479.58149  20715022.3434   20715024.9254   20715022.4294
       239.0004        193.0004
 11 10 14  1 25  0.0000000  0  8G05G10G28G15G07G08G02G26
 -21309504.49849 -16337742.24849  20700329.1634   20700330.9694   20700329.6344
       240.0004        206.0004
  -5851005.00549  -4549067.52449  23327526.9024   23327530.4364   23327528.0094
       220.0004        154.0004
  -8779746.63649  -6822356.69249  22739371.6694   22739375.9524   22739373.1224
       221.0004        164.0004
  -4133475.20949  -3204872.43749  23923078.7504   23923083.1584   23923081.0014
       206.0004        145.0004
 -14619969.45749 -11370900.33749  22124140.3414   22124142.0154   22124140.3894
       233.0004        183.0004
 -22656325.78249 -17640102.22649  20630718.4454   20630722.1554   20630718.3474
       242.0004        203.0004
   -808748.98449   -343187.31449  24872065.5974   24872067.7394   24872066.5014
       201.0004        133.0004
 -18786937.38049 -13826667.14449  20703009.1104   20703013.0584   20703009.8314
       238.0004        193.0004
 11 10 14  1 25 30.0000000  0  8G05G10G28G15G07G08G02G26
 -21290641.41249 -16323043.74149  20703916.5444   20703920.6874   20703917.4754
       239.0004        205.0004
  -5742360.03649  -4464409.11149  23348201.0484   23348202.2284   23348199.8424
       218.0004        153.0004
  -8858606.59349  -6883805.99349  22724368.0304   22724369.0244   22724366.9954
       224.0004        164.0004
  -4229137.12949  -3279414.11249  23904876.0084   23904881.6894   23904876.7094
       208.0004        150.0004
 -14539090.51749 -11307877.79449  22139530.6224   22139532.3074   22139530.9324
       232.0004        181.0004
 -22628902.97749 -17618733.79649  20635937.9164   20635939.9604   20635937.4384
       244.0004        203.0004
   -706392.68049   -263429.23749  24891544.5354   24891546.7804   24891544.2104
       207.0004        131.0004
 -18849684.45449 -13875560.95349  20691069.0924   20691072.6644   20691069.6634
       238.0004        193.0004
 11 10 14  1 26  0.0000000  0  8G05G10G28G15G07G08G02G26
 -21271203.48749 -16307897.31849  20707616.6094   20707619.2814   20707617.0384
       241.0004        205.0004
  -5633536.62649  -4379611.66849  23368906.5854   23368912.5134   23368906.8904
       215.0004        152.0004
  -8937134.14749  -6944996.26649  22709423.5554   22709425.9084   22709423.2524
       223.0004        166.0004
  -4324709.37749  -3353886.00049  23886689.4814   23886693.9234   23886690.6474
       209.0004        150.0004
 -14457940.63649 -11244644.12749  22154972.9834   22154975.2484   22154973.3314
       232.0004        183.0004
 -22601018.87949 -17597005.92849  20641243.4074   20641246.3664   20641242.9124
       243.0004        203.0004
   -604046.85149   -183679.32349  24911023.6614   24911021.5594   24911023.6554
       206.0004        131.0004
 -18912053.67549 -13924160.33849  20679200.9354   20679204.3104   20679201.3434
       238.0004        193.0004
 11 10 14  1 26 30.0000000  0  8G05G10G28G15G07G08G02G26
 -21251190.61449 -16292302.89849  20711425.6604   20711427.6664   20711426.1634
       241.0004        205.0004
  -5524536.49449  -4294676.54049  23389649.4674   23389655.5344   23389648.8694
       213.0004        154.0004
  -9015326.29649  -7005925.22449  22694544.8604   22694547.9044   22694545.1204
       224.0004        167.0004
  -4420190.32349  -3428286.69949  23868520.1414   23868524.6764   23868520.1654
       210.0004        148.0004
 -14376521.64649 -11181200.77149  22170467.0394   22170468.7074   22170466.8184
       232.0004        181.0004
 -22572674.39949 -17574919.33049  20646637.5984   20646640.3524   20646637.3244
       244.0004        203.0004
   -501714.13949   -103939.58549  24930494.9074   24930496.5024   24930495.7594
       198.0004        130.0004
 -18974043.20649 -13972463.86949  20667405.3884   20667407.5024   20667405.6664
       240.0004        194.0004
 11 10 14  1 27  0.0000000  0  8G05G10G28G15G07G08G02G26
 -21230603.19049 -16276260.75849  20715342.1864   20715345.3834   20715343.1844
       240.0004        205.0004
  -5415361.96349  -4209605.51549  23410427.5144   23410429.0224   23410425.6664
       217.0004        154.0004
  -9093180.77449  -7066591.03249  22679729.4714   22679732.1364   22679728.8054
       224.0004        167.0004
  -4515579.06449  -3502615.58449  23850368.2644   23850371.5224   23850369.2754
       212.0004        149.0004
 -14294835.44549 -11117549.19349  22186011.3054   22186013.1414   22186010.9584
       231.0004        182.0004
 -22543870.87349 -17552475.02049  20652117.4994   20652121.2664   20652117.9014
       242.0004        202.0004
   -399397.42349    -24212.35649  24949961.2814   24949967.9064   24949961.5554
       196.0004        129.0004
 -19035651.72049 -14020470.50049  20655681.8294   20655684.5524   20655681.5544
       241.0004        196.0004
 11 10 14  1 27 30.0000000  0  8G05G10G28G15G07G08G02G26
 -21209441.09549 -16259770.82749  20719368.6494   20719372.6544   20719370.1284
       240.0004        205.0004
  -5306014.61549  -4124399.80549  23431233.5804   23431237.9724   23431233.0354
       213.0004        151.0004
  -9170694.74449  -7126991.51849  22664978.8674   22664981.8174   22664979.0084
       224.0004        168.0004
  -4610874.12249  -3576871.47249  23832236.3614   23832237.5364   23832235.7814
       214.0004        151.0004
 -14212883.96949 -11053690.91649  22201605.8304   22201608.1844   22201605.6594
       230.0004        182.0004
 -22514609.31649 -17529673.81649  20657687.5604   20657689.7954   20657687.0714
       245.0004        203.0004
   -297099.79249     55499.99549  24969430.4454   24969435.2284   24969430.3184
       194.0004        127.0004
 -19096877.78449 -14068179.11649  20644030.5044   20644033.7094   20644030.8984
       240.0004        196.0004
 11 10 14  1 28  0.0000000  0  8G05G10G28G15G07G08G02G26
 -21187704.63849 -16242833.34049  20723507.3804   20723508.7314   20723507.5414
       242.0004        206.0004
  -5196496.89649  -4039061.33949  23452074.4294   23452079.6434   23452073.2104
       212.0004        151.0004
  -9247865.88049  -7187124.84249  22650294.2454   22650295.8164   22650292.8234
       224.0004        166.0004
  -4706074.63349  -3651053.65749  23814120.7764   23814122.4084   23814119.8434
       214.0004        153.0004
 -14130669.19149 -10989627.45349  22217250.3884   22217253.1314   22217250.4934
       230.0004        181.0004
 -22484891.37349 -17506516.97449  20663341.7914   20663344.5464   20663341.4044
       243.0004        203.0004
   -194823.60149    135195.61949  24988894.9474   24988895.1794   24988894.4194
       195.0004        126.0004
 -19157719.78249 -14115588.44849  20632452.4704   20632455.8734   20632452.9054
       240.0004        197.0004
 11 10 14  1 28 30.0000000  0  8G05G10G28G15G07G08G02G26
 -21165394.53449 -16225448.86749  20727752.5104   20727754.2824   20727752.3344
       240.0004        205.0004
  -5086810.98949  -3953591.82449  23472947.4834   23472952.2214   23472946.4934
       214.0004        153.0004
  -9324692.03349  -7246989.34349  22635673.9604   22635676.3164   22635673.7584
       225.0004        166.0004
  -4801179.51149  -3725161.31349  23796020.6914   23796024.8194   23796022.0714
       211.0004        151.0004
 -14048193.25249 -10925360.50949  22232945.7114   22232947.6164   22232946.0094
       231.0004        181.0004
 -22454718.38149 -17483005.55349  20669084.3284   20669086.4524   20669083.5014
       244.0004        203.0004
    -92572.10549    214872.03049  25008350.5464   25008350.9844   25008351.1544
       193.0004        123.0004
 -19218176.84349 -14162697.84349  20620948.1914   20620951.6124   20620947.9704
       240.0004        197.0004
 11 10 14  1 29  0.0000000  0  8G05G10G28G15G07G08G02G26
 -21142511.55949 -16207617.98749  20732105.3514   20732108.4294   20732106.3024
       239.0004        204.0004
  -4976959.56849  -3867993.33449  23493850.6924   23493855.8614   23493850.2134
       215.0004        153.0004
  -9401171.16549  -7306583.44849  22621120.9314   22621123.0704   22621120.1094
       225.0004        166.0004
  -4896188.19849  -3799194.06349  23777942.8484   23777943.8254   23777941.0714
       215.0004        150.0004
 -13965458.92849 -10860892.20049  22248690.0934   22248691.6734   22248690.6534
       231.0004        182.0004
 -22424092.03549 -17459140.87349  20674910.5994   20674914.6364   20674911.1474
       243.0004        203.0004
      9651.28649    294526.60749  25027806.0634   25027804.8114   25027804.4164
       190.0004        121.0004
 -19278248.00749 -14209506.53049  20609515.9414   20609519.9534   20609516.8204
       240.0004        196.0004
 11 10 14  1 29 30.0000000  0  8G05G10G28G15G07G08G02G26
 -21119055.36749 -16189340.44649  20736568.7764   20736572.2824   20736569.6304
       239.0004        204.0004
  -4866944.22849  -3782267.12549  23514785.3664   23514790.2684   23514786.5714
       214.0004        153.0004
  -9477300.67749  -7365905.11149  22606633.0674   22606636.0104   22606632.7104
       223.0004        169.0004
  -4991099.07349  -3873150.57949  23759879.9144   23759883.2604   23759880.4114
       212.0004        149.0004
 -13882467.24049 -10796223.34749  22264483.3344   22264484.1994   22264483.3954
       232.0004        182.0004
 -22393013.06549 -17434923.48849  20680826.5034   20680828.5214   20680825.9264
       245.0004        204.0004
    111844.64249    374157.61749  25047252.8184   25047255.3894   25047256.0624
       194.0004        120.0004
 -19337931.17549 -14256012.88549  20598159.8804   20598162.4084   20598159.7224
       241.0004        197.0004
 11 10 14  1 30  0.0000000  0  8G05G10G28G15G07G08G02G26
 -21095026.58049 -16170616.73649  20741141.8574   20741144.8474   20741142.9894
       240.0004        204.0004
  -4756767.08549  -3696414.83249  23535750.0044   23535755.7674   23535752.2004
       215.0004        153.0004
  -9553077.78649  -7424952.16549  22592213.2424   22592215.9444   22592213.1524
       225.0004        167.0004
  -5085910.77949  -3947029.79749  23741836.7584   23741841.9894   23741838.1224
       208.0004        153.0004
 -13799220.05349 -10731355.42749  22280323.8284   22280325.4664   22280323.9904
       231.0004        180.0004
 -22361482.52949 -17410354.24549  20686825.6974   20686828.9104   20686825.5664
       244.0004        203.0004
    214004.79749    453762.83549  25066691.7724                   25066691.5304
       188.0004        122.0004
 -19397225.34649 -14302216.13949  20586876.7054   20586878.5754   20586877.0024
       241.0004        196.0004
 11 10 14  1 30 30.0000000  0  8G05G10G28G15G07G08G02G26
 -21070425.34049 -16151446.95349  20745822.6394   20745825.9574   20745823.5254
       238.0004        203.0004
  -4646430.52949  -3610438.32149  23556749.7174   23556753.5334   23556749.1104
       219.0004        156.0004
  -9628500.59249  -7483723.18049  22577861.1734   22577862.6414   22577861.7314
       224.0004        167.0004
  -5180622.70749  -4020831.25949  23723814.4394   23723819.0254   23723815.2014
       211.0004        151.0004
 -13715719.78549 -10666290.28949  22296213.9274   22296214.5814   22296214.2144
       231.0004        180.0004
 -22329502.32449 -17385434.60649  20692911.9764   20692914.3034   20692911.5674
       245.0004        203.0004
    316128.77849    533339.89349  25086124.0264
       187.0004        120.0004
 -19456129.14249 -14348115.19249  20575668.3824   20575669.7794   20575667.9834
       242.0004        197.0004
 11 10 14  1 31  0.0000000  0  8G05G10G28G15G07G08G02G26
 -21045252.55949 -16131831.81249  20750613.0084   20750616.0064   20750613.4484
       238.0004        202.0004
  -4535936.55949  -3524339.16549  23577774.8054   23577779.1294   23577775.7224
       217.0004        152.0004
  -9703566.49049  -7542216.04649  22563575.5134   22563579.9834   22563575.4114
       224.0004        168.0004
  -5275233.36949  -4094553.86549  23705811.8364   23705813.7474   23705811.7304
       214.0004        151.0004
 -13631968.25349 -10601029.36249  22312151.0214   22312152.3964   22312151.0474
       231.0004        179.0004
 -22297073.33749 -17360165.26049  20699082.6764   20699085.4294   20699082.2354
       245.0004        203.0004
    418214.01249    612886.70249  25105554.3274
       188.0004        118.0004
 -19514640.95049 -14393708.81049  20564532.8744   20564535.2164   20564533.0034
       241.0004        197.0004
 11 10 14  1 31 30.0000000  0  8G05G10G28G15G07G08G02G26
 -21019508.88549 -16111771.82649  20755513.2074   20755515.0604   20755513.4194
       240.0004        203.0004
  -4425287.88849  -3438119.43449  23598831.6884   23598834.1554   23598830.6844
       218.0004        152.0004
  -9778273.48849  -7600429.26149  22549361.1964   22549361.8574   22549360.9954
       226.0004        168.0004
  -5369742.31049  -4168197.15849  23687825.5804   23687831.7014   23687827.0904
       209.0004        153.0004
 -13547967.99149 -10535574.61049  22328135.4124   22328136.5984   22328135.8584
       231.0004        179.0004
 -22264197.66949 -17334547.86149  20705338.6214   20705341.3574   20705338.5774
       245.0004        203.0004
    520257.15349    692400.76049  25124968.2394
       181.0004        115.0004
 -19572760.39249 -14438996.67249  20553472.0554   20553475.9334   20553472.7084
       239.0004        196.0004
 11 10 14  1 32  0.0000000  0  8G05G10G28G15G07G08G02G26
 -20993193.97049 -16091266.71449  20760521.1864   20760522.9654   20760521.2644
       240.0004        203.0004
  -4314485.95049  -3351780.27349  23619917.3934   23619920.7454   23619915.6104
       218.0004        154.0004
  -9852618.36249  -7658360.28449  22535211.5744   22535215.3874   22535212.0354
       224.0004        168.0004
  -5464147.49649  -4241759.61249  23669861.1734   23669865.9694   23669862.7614
       211.0004        153.0004
 -13463720.17149 -10469926.96049  22344166.7784   22344169.2884   22344167.0734
       231.0004        179.0004
 -22230876.03449 -17308582.95449  20711679.4554   20711682.1344   20711679.4004
       245.0004        203.0004
    622256.40059    771880.55659  25144377.8554
       170.0004        115.0004
 -19630485.03549 -14483976.90549  20542488.0044   20542491.6184   20542488.3964
       239.0004        197.0004
 11 10 14  1 32 30.0000000  0  8G05G10G28G15G07G08G02G26
 -20966308.89649 -16070317.31449  20765635.1994   20765638.8684   20765636.2684
       238.0004        203.0004
  -4203533.00449  -3265323.45449  23641029.6474   23641033.4854   23641029.1174
       216.0004        152.0004
  -9926599.52649  -7716007.92149  22521135.4714   22521136.6114   22521135.1254
       225.0004        167.0004
  -5558448.08549  -4315240.57349  23651917.8684   23651922.0384   23651917.8154
       213.0004        157.0004
 -13379226.95849 -10404088.10549  22360246.2174   22360247.6534   22360245.7424
       230.0004        178.0004
 -22197110.11649 -17282271.84849  20718105.3784   20718107.6084   20718104.7774
       245.0004        202.0004
    724208.22949     72194.83349  25163779.2524
       167.0004         88.0004
 -19687813.76149 -14528648.63249  20531578.6064   20531581.9904   20531579.0544
       240.0004        197.0004
 11 10 14  1 33  0.0000000  0  8G05G10G28G15G07G08G02G26
 -20938854.49949 -16048924.29449  20770860.3714   20770863.5704   20770860.7534
       239.0004        203.0004
  -4092431.60049  -3178750.97549  23662170.5794   23662175.9054   23662171.0014
       214.0004        152.0004
 -10000215.29849  -7773370.83349  22507124.9764   22507128.7554   22507125.4884
       223.0004        168.0004
  -5652643.71849  -4388639.73349  23633991.1614   23633996.2514   23633992.6434
       211.0004        156.0004
 -13294491.13249 -10338060.20049  22376370.9344   22376371.9504   22376370.2684
       230.0004        179.0004
 -22162901.77449 -17255616.00549  20724614.6894   20724617.4974   20724614.8774
       245.0004        203.0004
    826109.53359    151541.89659  25183164.2814
       156.0004        106.0004
 -19744746.07549 -14573011.46449  20520745.1694   20520748.4264   20520745.4454
       240.0004        198.0004
 11 10 14  1 33 30.0000000  0  7G05G10G28G15G07G08G26
 -20910830.84249 -16027087.69549  20776193.6924   20776196.2334   20776194.4804
       240.0004        204.0004
  -3981183.36849  -3092064.05149  23683341.9044   23683345.4414   23683341.1244
       216.0004        149.0004
 -10073462.31849  -7830446.42549  22493185.8384   22493190.2594   22493186.8094
       223.0004        167.0004
  -5746732.65949  -4461955.75049  23616086.6714   23616091.6034   23616087.8004
       211.0004        154.0004
 -13209513.58449 -10271843.94549  22392541.9514   22392543.4624   22392542.4124
       232.0004        178.0004
 -22128251.64649 -17228615.90049  20731208.3754   20731210.8814   20731207.8284
       244.0004        202.0004
 -19801279.90449 -14617063.78549  20509986.9284   20509990.2564   20509987.5314
       240.0004        198.0004
 11 10 14  1 34  0.0000000  0  7G05G10G28G15G07G08G26
 -20882238.27849 -16004807.78549  20781634.7824   20781637.5154   20781635.1434
       240.0004        204.0004
  -3869790.37149  -3005264.34649  23704539.5714   23704542.7814   23704537.9964
       215.0004        149.0004
 -10146338.36949  -7887232.93449  22479319.9424   22479322.3564   22479319.4424
       226.0004        167.0004
  -5840713.06249  -4535187.24349  23598204.4484   23598208.2244   23598206.0164
       214.0004        155.0004
 -13124296.46749 -10205440.98849  22408757.7504   22408759.8744   22408758.0004
       231.0004        178.0004
 -22093160.97749 -17201272.51949  20737885.3284   20737888.7154   20737885.5104
       245.0004        202.0004
 -19857413.81949 -14660804.48649  20499305.7714   20499307.8804   20499305.4504
       241.0004        197.0004
 11 10 14  1 34 30.0000000  0  7G05G10G28G15G07G08G26
 -20853078.05249 -15982085.53949  20787183.3444   20787186.4994   20787183.8544
       240.0004        204.0004
  -3758255.74749  -2918354.28149  23725763.3204   23725767.2614   23725762.8604
       214.0004        149.0004
 -10218841.86649  -7943729.13049  22465522.2714   22465525.0604   22465521.6044
       226.0004        168.0004
  -5934584.98049  -4608334.15349  23580342.8954   23580344.0254   23580342.0084
       214.0004        155.0004
 -13038842.44849 -10138853.45149  22425019.3334   22425021.1724   22425019.1894
       230.0004        178.0004
 -22057632.01349 -17173587.60949  20744646.6794   20744649.6274   20744646.2694
       245.0004        202.0004
 -19913147.27249 -14704233.14049  20488699.1004   20488701.7864   20488699.6224
       240.0004        197.0004
 11 10 14  1 35  0.0000000  0  7G05G10G28G15G07G08G26
 -20823350.60449 -15958921.31249  20792840.4594   20792843.2534   20792840.9434
       241.0004        204.0004
  -3646581.08049  -2831335.09749  23747013.5424   23747017.8554   23747013.6774
       213.0004        147.0004
 -10290970.05449  -7999932.91549  22451796.1424   22451800.5794   22451796.4994
       225.0004        168.0004
  -6028346.65649  -4681395.13349  23562498.8164   23562502.6264   23562498.3354
       213.0004        156.0004
 -12953153.03149 -10072082.48849  22441325.2944   22441326.6994   22441325.9584
       231.0004        178.0004
 -22021665.50049 -17145561.76049  20751490.1614   20751493.8544   20751490.5114
       244.0004        202.0004
 -19968478.57449 -14747348.43749  20478170.5914   20478172.8524   20478170.7714
       241.0004        198.0004
 11 10 14  1 35 30.0000000  0  7G05G10G28G15G07G08G26
 -20793056.08349 -15935315.20549  20798605.5024   20798607.8224   20798606.3784
       240.0004        203.0004
  -3534768.44449  -2744208.38449  23768289.9884   23768296.3224   23768290.5214
       209.0004        145.0004
 -10362720.61249  -8055842.41949  22438143.8164   22438146.5274   22438142.6144
       226.0004        169.0004
  -6121997.13049  -4754369.51849  23544676.8154   23544681.7064   23544679.6404
       213.0004        157.0004
 -12867230.09249 -10005129.55349  22457676.2264   22457677.7784   22457675.4774
       232.0004        179.0004
 -21985262.93549 -17117196.12249  20758419.0164   20758420.7874   20758418.2884
       245.0004        202.0004
 -20023406.14549 -14790149.13349  20467717.4074   20467720.7534   20467717.7474
       240.0004        197.0004
 11 10 14  1 36  0.0000000  0  7G05G10G28G15G07G08G26
 -20762195.98749 -15911268.38949  20804478.0374   20804480.5944   20804478.4874
       240.0004        203.0004
  -3422820.45349  -2656976.20149  23789592.2664   23789599.0154   23789593.9994
       209.0004        146.0004
 -10434092.20349  -8111456.62249  22424561.1944   22424565.0244   22424561.5634
       227.0004        170.0004
  -6215535.55149  -4827256.58749  23526879.6564   23526880.8924   23526878.3354
       215.0004        156.0004
 -12781076.75149  -9937997.10449  22474071.0034   22474071.9954   22474070.6644
       233.0004        178.0004
 -21948426.52449 -17088492.42649  20765427.3944   20765430.4364   20765427.5594
       244.0004        201.0004
 -20077929.72249 -14832635.03649  20457341.9724   20457345.5684   20457341.9474
       240.0004        198.0004
 11 10 14  1 36 30.0000000  0  7G05G10G28G15G07G08G26
 -20730769.68449 -15886780.38049  20810457.8584   20810460.7874   20810458.1994
       239.0004        203.0004
  -3310737.88749  -2569639.14549  23810922.8134   23810926.7114   23810922.5804
       211.0004        146.0004
 -10505081.03049  -8166772.56049  22411054.1624   22411055.3154   22411053.0584
       228.0004        171.0004
  -6308959.70649  -4900054.60249  23509099.4464   23509103.3554   23509101.0004
       215.0004        158.0004
 -12694692.76349  -9870684.89049  22490507.9644   22490510.3074   22490507.7294
       228.0004        178.0004
 -21911156.22449 -17059450.63449  20772520.4464   20772522.8904   20772520.2184
       245.0004        202.0004
 -20132046.38949 -14874803.85449  20447044.1034   20447047.4554   20447043.9504
       240.0004        198.0004
 11 10 14  1 37  0.0000000  0  7G05G10G28G15G07G08G26
 -20698779.18049 -15861852.72649  20816545.5494   20816548.2384   20816545.9434
       240.0004        202.0004
  -3198524.24949  -2482199.97649  23832274.7424   23832281.2004   23832275.7884
       208.0004        144.0004
 -10575685.86749  -8221789.27749  22397617.6144   22397620.2954   22397617.0114
       229.0004        172.0004
  -6402269.40349  -4972763.43449  23491343.8214   23491347.1994   23491344.6534
       219.0004        158.0004
 -12608081.50749  -9803195.60649  22506988.8554   22506991.5204   22506989.8544
       227.0004        177.0004
 -21873454.84349 -17030072.92849  20779693.8424   20779696.8904   20779693.6344
       243.0004        201.0004
 -20185756.28949 -14916655.71749  20436823.3734   20436826.5164   20436823.3984
       240.0004        199.0004
 11 10 14  1 37 30.0000000  0  7G05G10G28G15G07G08G26
 -20666224.37449 -15836485.36249  20822740.9214   20822743.0434   20822741.2884
       240.0004        203.0004
  -3086181.01549  -2394659.81749  23853654.7774   23853659.2064   23853654.1974
       212.0004        144.0004
 -10645903.87049  -8276504.57849  22384255.7634   22384257.0954   22384254.8744
       229.0004        171.0004
  -6495462.90949  -5045381.72449  23473610.5864   23473613.1964   23473611.1004
       215.0004        158.0004
 -12521244.41849  -9735530.34549  22523513.6924   22523516.4554   22523514.0754
       228.0004        175.0004
 -21835323.03649 -17000359.83549  20786951.2544   20786953.4524   20786951.0154
       244.0004        201.0004
 -20239057.25549 -14958188.93349  20426681.5214   20426683.6984   20426681.8324
       242.0004        200.0004
 11 10 14  1 38  0.0000000  0  7G05G10G28G15G07G08G26
 -20633106.81749 -15810679.49249  20829042.8954   20829045.7034   20829043.1854
       239.0004        203.0004
  -2973710.94049  -2307020.81849  23875056.9684   23875060.4554   23875057.8174
       210.0004        145.0004
 -10715733.80349  -8330917.47449  22370966.5584   22370969.8814   22370966.5624
       227.0004        172.0004
  -6588539.70849  -5117909.07249  23455898.5934   23455900.9604   23455899.3554
       218.0004        156.0004
 -12434183.86949  -9667690.98649  22540080.8594   22540083.5184   22540081.7994
       227.0004        177.0004
 -21796762.95349 -16970313.01949  20794288.4734   20794291.3234   20794288.0284
       243.0004        200.0004
 -20291948.56849 -14999402.93949  20416616.8424   20416619.3644   20416616.4804
       242.0004        200.0004
 11 10 14  1 38 30.0000000  0  7G05G10G28G15G07G08G26
 -20599426.51049 -15784435.10549  20835451.9134   20835454.9064   20835452.3744
       239.0004        203.0004
  -2861115.74549  -2219284.34049  23896483.3184   23896486.7064   23896481.9494
       209.0004        144.0004
 -10785172.95649  -8385025.88149  22357753.5924   22357755.8164   22357753.6164
       228.0004        172.0004
  -6681497.91549  -5190344.02149  23438209.8544   23438211.5894   23438209.1574
       218.0004        158.0004
 -12346901.61549  -9599678.83649  22556690.0844   22556693.3384   22556691.5134
       227.0004        177.0004
 -21757775.52749 -16939933.20949  20801706.9774   20801710.2394   20801707.3444
       244.0004        200.0004
 -20344428.72649 -15040296.56449  20406629.7904   20406632.1794   20406630.1544
       242.0004        200.0004
 11 10 14  1 39  0.0000000  0  7G05G10G28G15G07G08G26
 -20565184.49849 -15757753.03349  20841967.9234   20841970.7114   20841968.6084
       240.0004        203.0004
  -2748397.73949  -2131452.16349  23917934.0384   23917937.8174   23917931.8194
       213.0004        146.0004
 -10854219.11249  -8438828.04349  22344615.2364   22344617.4474   22344614.4424
       230.0004        174.0004
  -6774336.77549  -5262685.97549  23420541.6154   23420544.7764   23420542.3704
       216.0004        157.0004
 -12259399.41549  -9531495.33149  22573342.1584   22573344.1624   22573342.7514
       227.0004        175.0004
 -21718362.38849 -16909221.67149  20809207.9224   20809210.1224   20809207.2354
       243.0004        200.0004
 -20396496.19749 -15080868.60749  20396721.0364   20396723.7784   20396721.5094
       242.0004        201.0004
 11 10 14  1 39 30.0000000  0  7G05G10G28G15G07G08G26
 -20530381.62049 -15730633.92349  20848591.3584   20848593.4074   20848591.9004
       241.0004        203.0004
  -2635558.84149  -2043525.76849  23939405.3304   23939410.2704   23939403.7454
       211.0004        146.0004
 -10922870.00249  -8492322.20949  22331550.0664   22331553.3104   22331550.7024
       229.0004        175.0004
  -6867055.10649  -5334933.98749  23402896.8274   23402901.2524   23402898.0054
       216.0004        158.0004
 -12171679.13549  -9463141.87049  22590033.7984   22590036.6184   22590034.2514
       225.0004        174.0004
 -21678524.79649 -16878179.39949  20816788.3074   20816791.2064   20816788.3044
       244.0004        201.0004
 -20448150.02149 -15121118.33849  20386892.0884   20386894.4344   20386891.8774
       243.0004        201.0004
 11 10 14  1 40  0.0000000  0  7G05G10G28G15G07G08G26
 -20495018.76749 -15703078.46049  20855319.9684   20855322.7374   20855320.4174
       240.0004        203.0004
  -2522601.54349  -1955507.11049  23960900.0944   23960905.0124   23960900.4664
       212.0004        146.0004
 -10991123.56649  -8545506.77249  22318562.2084   22318564.8584   22318562.9804
       229.0004        174.0004
  -6959651.40849  -5407086.93649  23385279.8644   23385280.0904   23385279.4454
       221.0004        160.0004
 -12083742.91749  -9394620.15149  22606767.9234   22606770.4704   22606769.1494
       226.0004        172.0004
 -21638264.29549 -16846807.58049  20824450.6404   20824452.7144   20824449.3394
       244.0004        200.0004
 -20499389.02849 -15161044.83949  20377141.8554   20377144.0994   20377141.3504
       244.0004        200.0004
 11 10 14  1 40 30.0000000  0  8G21G05G10G28G15G07G08G26
   -153780.40749    -12132.18649  24955723.8354
       206.0004         74.0004
 -20459096.93049 -15675087.43449  20862155.9424   20862158.7684   20862156.0264
       241.0004        203.0004
  -2409528.54649  -1867398.30749  23982416.9594   23982422.7314   23982417.4124
       213.0004        148.0004
 -11058977.87749  -8598380.22349  22305649.4724   22305651.9224   22305649.3694
       229.0004        175.0004
  -7052125.09549  -5479144.35749  23367681.4354   23367682.6584   23367681.7274
       219.0004        159.0004
 -11995593.10649  -9325931.98849  22623542.0944   22623545.3114   22623542.0354
       226.0004        174.0004
 -21597582.67749 -16815107.61949  20832190.1324   20832193.8514   20832190.2794
       243.0004        200.0004
 -20550211.91249 -15200647.08149  20367469.5564   20367472.8424   20367469.9564
       242.0004        201.0004
 11 10 14  1 41  0.0000000  0  8G21G05G10G28G15G07G08G26
   -191512.49949    -41533.83449  24948543.3084
       205.0004        131.0004
 -20422616.84049 -15646661.40449  20869097.1464   20869100.8384   20869098.3464
       240.0004        203.0004
  -2296341.13249  -1779200.35049  24003954.9724   24003962.1824   24003955.7194
       210.0004        146.0004
 -11126430.97849  -8650941.04949  22292814.1454   22292816.8324   22292813.8294
       231.0004        176.0004
  -7144474.24849  -5551104.70349  23350106.4804   23350110.0774   23350107.6824
       217.0004        160.0004
 -11907231.08749  -9257078.48149  22640357.2694   22640359.3714   22640357.5214
       227.0004        174.0004
 -21556481.29949 -16783080.57249  20840012.5444   20840015.5084   20840012.0624
       244.0004        200.0004
 -20600617.33249 -15239924.02549  20357878.3314   20357881.2544   20357878.3754
       243.0004        201.0004
 11 10 14  1 41 30.0000000  0  8G21G05G10G28G15G07G08G26
   -228765.18949    -70561.99349  24941454.5514
       204.0004        135.0004
 -20385578.80449 -15617800.61149  20876145.8254   20876148.5104   20876146.6454
       241.0004        203.0004
  -2183041.18049  -1690914.69749  24025515.3064   24025521.4764   24025515.8304
       209.0004        147.0004
 -11193479.92349  -8703186.95149  22280056.5154   22280058.1374   22280055.2954
       232.0004        176.0004
  -7236697.44349  -5622966.90649  23332557.2734   23332560.5464   23332558.9484
       219.0004        162.0004
 -11818658.33249  -9188060.77449  22657212.1964   22657214.4204   22657212.5404
       227.0004        174.0004
 -21514961.17949 -16750727.23949  20847913.6544   20847916.4464   20847913.2954
       243.0004        199.0004
 -20650603.50449 -15278874.27649  20348366.3944   20348369.1214   20348366.1994
       243.0004        201.0004
 11 10 14  1 42  0.0000000  0  8G21G05G10G28G15G07G08G26
   -265537.96249    -99216.14549  24934459.0694   24934459.0324
       208.0004        136.0004
 -20347984.41349 -15588506.29149  20883300.4284   20883302.7214   20883300.6304
       241.0004        203.0004
  -2069631.65249  -1602543.67649  24047096.3174   24047102.4764   24047097.8744
       209.0004        146.0004
 -11260123.35949  -8755116.86249  22267372.7294   22267375.4914   22267372.2804
       230.0004        175.0004
  -7328794.18949  -5694730.58449  23315032.9154   23315033.2324   23315032.3774
       218.0004        159.0004
 -11729877.28949  -9118880.72449  22674106.6864   22674108.4144   22674106.9444
       229.0004        175.0004
 -21473024.39949 -16718049.22949  20855893.9224   20855896.4944   20855893.5744
       243.0004        199.0004
 -20700170.21049 -15317497.68049  20338934.1834   20338936.7104   20338934.6734
       243.0004        201.0004
 11 10 14  1 42 30.0000000  0  8G21G05G10G28G15G07G08G26
   -301828.91249   -127494.82549  24927553.6864   24927554.3204   24927550.5844
       212.0004        136.0004
 -20309833.95449 -15558778.67349  20890559.3184   20890561.8534   20890560.0074
       241.0004        202.0004
  -1956114.04849  -1514088.40449  24068698.4854   24068703.6614   24068697.3634
       209.0004        144.0004
 -11326358.51149  -8806728.65249  22254770.0004   22254770.7034   22254769.5724
       232.0004        175.0004
  -7420762.72649  -5766394.37049  23297530.8884   23297532.4764   23297531.3804
       219.0004        159.0004
 -11640889.41249  -9049539.52549  22691040.7874   22691042.4824   22691041.6004
       229.0004        175.0004
 -21430672.01749 -16685047.37449  20863953.0284   20863955.8134   20863952.7694
       243.0004        199.0004
 -20749315.16349 -15355792.44249  20329581.8514   20329584.7474   20329582.2594
       242.0004        201.0004
 11 10 14  1 43  0.0000000  0  8G21G05G10G28G15G07G08G26
   -337638.16549   -155398.18449  24920741.5994   24920739.5274   24920739.8684
       209.0004        137.0004
 -20271129.30549 -15528619.22349  20897925.5704   20897927.4314   20897925.8184
       241.0004        202.0004
  -1842491.06449  -1425551.05249  24090322.6634   24090324.7194   24090321.0764
       213.0004        144.0004
 -11392184.17549  -8858021.35049  22242243.1074   22242244.8664   22242242.7244
       230.0004        176.0004
  -7512602.72449  -5837957.98749  23280053.7964   23280057.3854   23280054.5874
       218.0004        162.0004
 -11551697.69949  -8980039.47549  22708014.4404   22708015.5414   22708014.3334
       230.0004        176.0004
 -21387906.51249 -16651723.59849  20872091.1364   20872094.1264   20872090.9994
       243.0004        200.0004
 -20798038.24349 -15393758.47649  20320310.6974   20320313.0324   20320310.6914
       243.0004        201.0004
 11 10 14  1 43 30.0000000  0  8G21G05G10G28G15G07G08G26
   -372963.89349   -182924.71449  24914015.0694   24914016.6104   24914015.1484
       206.0004        137.0004
 -20231870.60549 -15498028.04349  20905395.3774   20905398.2644   20905396.2504
       240.0004        202.0004
  -1728764.33049  -1336932.84149  24111965.2004   24111966.4714   24111962.9474
       213.0004        144.0004
 -11457597.43349  -8908992.69849  22229794.0964   22229797.5004   22229794.2944
       230.0004        175.0004
  -7604311.76749  -5909419.55549  23262604.4214   23262605.2284   23262603.4614
       221.0004        162.0004
 -11462302.78449  -8910381.12949  22725024.9304   22725026.1954   22725025.1644
       230.0004        175.0004
 -21344728.46349 -16618078.37549  20880307.6304   20880310.6124   20880307.5654
       243.0004        199.0004
 -20846337.25149 -15431394.06549  20311119.0494   20311122.4134   20311119.2864
       243.0004        201.0004
 11 10 14  1 44  0.0000000  0  8G21G05G10G28G15G07G08G26
   -407805.56149   -210074.08249  24907384.1664   24907388.5944   24907385.4034
       207.0004        138.0004
 -20192059.24749 -15467006.22049  20912972.4214   20912973.8414   20912972.4104
       242.0004        202.0004
  -1614936.26649  -1248235.66049  24133624.9984   24133629.7064   24133623.5954
       210.0004        144.0004
 -11522596.78749  -8959641.52949  22217426.6084   22217428.4644   22217426.1184
       231.0004        176.0004
  -7695889.38849  -5980778.71649  23245176.4184   23245177.2114   23245176.7634
       218.0004        159.0004
 -11372707.04549  -8840566.27049  22742073.8934   22742076.1224   22742073.8134
       228.0004        175.0004
 -21301139.79549 -16584113.17749  20888602.3674   20888605.0884   20888601.9344
       244.0004        200.0004
 -20894211.48549 -15468698.65649  20302008.8404   20302011.7634   20302009.1454
       242.0004        201.0004
 11 10 14  1 44 30.0000000  0  8G21G05G10G28G15G07G08G26
   -442162.27449   -236845.54249  24900847.2614   24900848.8714   24900847.1914
       209.0004        139.0004
 -20151696.75249 -15435554.93949  20920651.9014   20920654.8834   20920652.9024
       241.0004        202.0004
  -1501009.38449  -1159461.49449  24155305.6294   24155307.2394   24155303.1004
       213.0004        144.0004
 -11587180.33249  -9009966.34749  22205134.9154   22205138.7934   22205134.7294
       230.0004        176.0004
  -7787334.56549  -6052034.70849  23227773.1584   23227776.6354   23227775.5314
       218.0004        161.0004
 -11282912.85449  -8770596.77349  22759160.7824   22759163.0424   22759161.0114
       227.0004        172.0004
 -21257142.05249 -16549829.22349  20896975.0354   20896978.0924   20896975.1014
       244.0004        200.0004
 -20941659.92149 -15505671.45849  20292979.6824   20292982.7344   20292979.9264
       242.0004        201.0004
 11 10 14  1 45  0.0000000  0  8G21G05G10G28G15G07G08G26
   -476032.41449   -263237.85349  24894400.0454   24894403.8194   24894400.2794
       207.0004        139.0004
 -20110783.17149 -15403674.24449  20928437.6394   20928440.2914   20928438.1914
       241.0004        202.0004
  -1386985.39749  -1070611.66249  24177003.6264   24177004.7384   24177001.7094
       209.0004        142.0004
 -11651345.39849  -9059965.09349  22192925.6904   22192928.2614   22192925.4954
       230.0004        177.0004
  -7878645.23649  -6123185.85349  23210398.4324   23210401.7574   23210399.0674
       219.0004        162.0004
 -11192921.05049  -8700473.30349  22776286.2524   22776288.2474   22776285.7054
       227.0004        173.0004
 -21212736.35649 -16515227.38249  20905424.8444   20905427.7994   20905424.5304
       244.0004        200.0004
 -20988680.46449 -15542310.83449  20284031.9984   20284034.9224   20284032.0994
       242.0004        201.0004
 11 10 14  1 45 30.0000000  0  8G21G05G10G28G15G07G08G26
   -509415.48349   -289250.64249  24888052.2264   24888050.5184   24888050.0744
       208.0004        138.0004
 -20069320.02849 -15371365.31849  20936328.5544   20936330.9904   20936328.9544
       241.0004        202.0004
  -1272866.67249   -981688.02349  24198720.3124   24198722.0374   24198717.7714
       213.0004        143.0004
 -11715090.56549  -9109636.63249  22180795.8674   22180797.8864   22180794.4004
       231.0004        176.0004
  -7969820.63349  -6194231.57549  23193048.8424   23193051.5664   23193047.4264
       219.0004        162.0004
 -11102734.14149  -8630197.79149  22793447.9684   22793450.4164   22793448.4364
       225.0004        170.0004
 -21167924.91849 -16480309.38249  20913951.8904   20913955.2174   20913952.3634
       244.0004        200.0004
 -21035272.61949 -15578616.39949  20275165.4184   20275168.9114   20275165.9264
       241.0004        201.0004
 11 10 14  1 46  0.0000000  0  8G21G05G10G28G15G07G08G26
   -542310.15949   -314882.87849  24881790.4884   24881792.3714   24881789.3354
       208.0004        139.0004
 -20027308.31649 -15338628.93349  20944322.6424   20944325.3284   20944323.1954
       241.0004        202.0004
  -1158655.38249   -892692.21149  24220453.9474   24220456.3084   24220450.9014
       213.0004        142.0004
 -11778413.47249  -9158979.13049  22168745.2334   22168748.0104   22168745.1624
       230.0004        176.0004
  -8060859.50249  -6265170.94749  23175723.9154   23175726.6974   23175724.4474
       218.0004        159.0004
 -11012353.78049  -8559771.53749  22810646.3784   22810648.6504   22810646.6284
       223.0004        169.0004
 -21122708.84849 -16445076.08049  20922557.2684   20922559.6324   20922556.7614
       245.0004        201.0004
 -21081435.17049 -15614587.21649  20266381.7184   20266384.5094   20266382.0354
       243.0004        201.0004
 11 10 14  1 46 30.0000000  0  8G21G05G10G28G15G07G08G26
   -574716.02949   -340134.22449  24875625.6294   24875625.4254   24875624.6144
       210.0004        139.0004
 -19984749.06949 -15305465.89249  20952421.3454   20952424.3814   20952422.2304
       240.0004        202.0004
  -1044353.67249   -803625.94449  24242203.1074   24242205.9504   24242202.2944
       210.0004        140.0004
 -11841312.39849  -9207991.25849  22156776.5984   22156778.7284   22156775.3404
       229.0004        175.0004
  -8151760.63049  -6336003.00149  23158425.6504   23158429.2254   23158426.4944
       219.0004        162.0004
 -10921782.03849  -8489196.16049  22827880.9234   22827884.2864   22827881.5914
       222.0004        167.0004
 -21077089.73549 -16409528.71649  20931237.4224   20931240.9374   20931237.1664
       244.0004        200.0004
 -21127166.69949 -15650222.16449  20257678.8984   20257682.2074   20257679.0864
       242.0004        201.0004
 11 10 14  1 47  0.0000000  0  8G21G05G10G28G15G07G08G26
   -606631.95349   -365003.74449  24869550.4864   24869550.5194   24869550.5064
       209.0004        139.0004
 -19941643.37149 -15271877.05649  20960623.7334   20960627.0574   20960624.8734
       242.0004        202.0004
   -929963.63049   -714490.87949  24263970.4714   24263975.2204   24263969.3724
       209.0004        141.0004
 -11903785.32149  -9256671.41649  22144886.3704   22144890.6714   22144886.8694
       229.0004        176.0004
  -8242522.72249  -6406726.67449  23141153.3244   23141157.9804   23141154.2184
       216.0004        163.0004
 -10831020.78349  -8418473.11249  22845153.7104   22845156.3944   22845152.5884
       224.0004        168.0004
 -21031069.34649 -16373668.68549  20939995.0864   20939997.9004   20939995.2964
       245.0004        201.0004
 -21172466.27449 -15685520.53249  20249058.5054   20249062.0804   20249058.9554
       242.0004        201.0004
 11 10 14  1 47 30.0000000  0  8G21G05G10G28G15G07G08G26
   -638056.28449   -389490.20849  24863570.4084   24863572.6684   24863569.3744
       206.0004        139.0004
 -19897992.31849 -15237863.26449  20968931.5894   20968933.3674   20968931.6544
       241.0004        201.0004
   -815486.81349   -625288.16849  24285753.1574   24285757.3244   24285752.2064
       205.0004        138.0004
 -11965829.38249  -9305017.41049  22133082.1384   22133084.2944   22133081.3574
       232.0004        177.0004
  -8333143.92349  -6477340.56149  23123910.3154   23123913.0604   23123909.4564
       219.0004        161.0004
 -10740071.14449  -8347603.25349  22862460.4434   22862462.3904   22862460.1284
       225.0004        170.0004
 -20984648.78949 -16337496.82249  20948829.0714   20948831.7144   20948828.4664
       245.0004        201.0004
 -21217331.96749 -15720480.80749  20240521.2304   20240523.9154   20240521.5034
       243.0004        202.0004
 11 10 14  1 48  0.0000000  0  8G21G05G10G28G15G07G08G26
   -668988.60649   -413593.37649  24857683.9964   24857686.8634   24857683.7404
       204.0004        136.0004
 -19853796.75649 -15203425.17549  20977340.5074   20977343.4774   20977341.3794
       241.0004        201.0004
   -700925.95649   -536019.98049  24307553.1164   24307558.2014   24307553.3684
       204.0004        136.0004
 -12027443.49949  -9353028.36749  22121356.2554   22121359.3434   22121355.8284
       230.0004        176.0004
  -8423623.06249  -6547843.79349  23106692.5824   23106694.9314   23106692.1784
       218.0004        161.0004
 -10648935.59749  -8276588.56049  22879802.8914   22879804.7934   22879803.1134
       224.0004        170.0004
 -20937830.09949 -16301014.72849  20957738.3144   20957740.7994   20957738.0324
       246.0004        201.0004
 -21261762.97249 -15755102.35749  20232066.6144   20232068.9564   20232066.3234
       243.0004        202.0004
 11 10 14  1 48 30.0000000  0  8G21G05G10G28G15G07G08G26
   -699428.70049   -437312.96549  24851890.8314   24851890.9414   24851891.2974
       207.0004        136.0004
 -19809058.26649 -15168564.03149  20985854.1924   20985857.2724   20985854.6584
       241.0004        200.0004
   -586283.38549   -446688.12649  24329367.5944   24329371.4714   24329368.2064
       202.0004        135.0004
 -12088625.75549  -9400702.83649  22109714.1194   22109716.2074   22109713.9434
       229.0004        175.0004
  -8513959.87849  -6618236.12249  23089500.1804   23089504.5104   23089501.3274
       216.0004        162.0004
 -10557615.89449  -8205430.36149  22897180.9104   22897184.2784   22897181.0204
       225.0004        171.0004
 -20890614.96049 -16264223.70649  20966722.8174   20966725.7294   20966722.8224
       245.0004        200.0004
 -21305758.34049 -15789384.46149  20223694.6524   20223697.2454   20223694.4844
       243.0004        202.0004
 11 10 14  1 49  0.0000000  0  8G21G05G10G28G15G07G08G26
   -729375.30349   -460647.99949  24846194.6174   24846193.9264   24846193.4854
       210.0004        137.0004
 -19763778.38049 -15133281.01749  20994470.4594   20994473.6844   20994471.1094
       237.0004        200.0004
   -471561.33949   -357294.34549  24351200.2904   24351204.6334   24351200.4984
       204.0004        137.0004
 -12149374.39549  -9448039.39349  22098153.0614   22098156.7714   22098153.2724
       229.0004        175.0004
  -8604152.40449  -6688515.97049  23072338.0554   23072342.4634   23072339.8464
       220.0004        165.0004
 -10466114.14549  -8134130.32049  22914593.3434   22914594.4424   22914593.5844
       225.0004        172.0004
 -20843004.81549 -16227124.88249  20975782.5884   20975785.4944   20975782.3494
       245.0004        200.0004
 -21349317.04049 -15823326.30049  20215405.2554   20215408.0454   20215405.0874
       242.0004        202.0004
 11 10 14  1 49 30.0000000  0  8G21G05G10G28G15G07G08G26
   -758827.73749   -483597.94749  24840589.0584   24840590.3694   24840588.1964
       206.0004        135.0004
 -19717957.89549 -15097576.76649  21003190.8084   21003192.6364   21003191.0884
       238.0004        200.0004
   -356761.61449   -267839.99349  24373045.1954   24373049.1114   24373045.7564
       204.0004        135.0004
 -12209687.32949  -9495036.45249  22086677.4884   22086679.0104   22086677.1444
       231.0004        177.0004
  -8694199.35049  -6758682.40249  23055206.1444   23055206.9784   23055203.4944
       223.0004        165.0004
 -10374431.87449  -8062689.60649  22932038.9834   22932040.8144   22932039.1484
       224.0004        168.0004
 -20795001.12849 -16189719.41449  20984917.5214   20984920.7764   20984917.3124
       245.0004        200.0004
 -21392437.67149 -15856926.79549  20207199.9464   20207202.5254   20207200.5974
       243.0004        202.0004
 11 10 14  1 50  0.0000000  0  8G21G05G10G28G15G07G08G26
   -787785.21049   -506162.24249  24835077.9624   24835080.2194   24835077.8304
       207.0004        133.0004
 -19671597.97649 -15061452.16749  21012011.7074   21012014.9764   21012012.5784
       236.0004        199.0004
   -241886.17549   -178326.69249  24394905.3954   24394910.0554   24394905.3774
       208.0004        140.0004
 -12269562.69749  -9541692.54449  22075283.3194   22075284.9594   22075282.5954
       232.0004        178.0004
  -8784099.66349  -6828734.58249  23038094.0874   23038098.1964   23038095.5714
       219.0004        162.0004
 -10282570.75149  -7991109.51949  22949520.6714   22949521.7194   22949520.9704
       225.0004        168.0004
 -20746605.26549 -16152008.34549  20994127.4634   20994129.9574   20994126.9734
       242.0004        200.0004
 -21435118.89149 -15890184.88549  20199078.4104   20199080.4304   20199078.2874
       243.0004        202.0004
 11 10 14  1 50 30.0000000  0  8G21G05G10G28G15G07G08G26
   -816246.60449   -528339.98749  24829661.9514   24829663.8184   24829661.2024
       208.0004        134.0004
 -19624699.86149 -15024908.20349  21020936.0914   21020939.4704   21020937.0754
       236.0004        199.0004
   -126937.46349    -88756.24649  24416781.4754   24416784.8214   24416779.8514
       209.0004        140.0004
 -12328998.16049  -9588005.86449  22063971.7564   22063974.9694   22063971.6764
       230.0004        177.0004
  -8873851.46249  -6898671.04249  23021015.6614   23021018.0704   23021018.0484
       218.0004        164.0004
 -10190532.38349  -7919391.30849  22967033.8754   22967036.8004   22967034.1964
       224.0004        170.0004
 -20697818.71849 -16113992.86849  21003409.9044   21003413.1364   21003410.1054
       240.0004        198.0004
 -21477359.53649 -15923099.67149  20191039.3194   20191042.2324   20191039.6284
       242.0004        202.0004
 11 10 14  1 51  0.0000000  0  8G21G05G10G28G15G07G08G26
   -844210.93549   -550130.38849  24824339.2214   24824342.0334   24824341.3344
       204.0004        132.0004
 -19577264.92849 -14987945.93149  21029963.2894   21029965.8224   21029963.5154
       238.0004        199.0004
    -11917.73749       869.50749  24438666.6514   24438673.6504   24438665.1854
       207.0004        137.0004
 -12387992.21449  -9633975.23449  22052746.7034   22052749.0714   22052745.8694
       231.0004        178.0004
  -8963454.07549  -6968491.23449  23003966.9954   23003969.6144   23003967.1754
       222.0004        168.0004
 -10098319.01949  -7847536.73749  22984581.4614   22984584.7694   22984581.4964
       225.0004        170.0004
 -20648643.58949 -16075674.58049  21012768.6954   21012771.1424   21012768.2354
       242.0004        199.0004
 -21519158.66549 -15955670.40349  20183085.5724   20183088.4334   20183085.4254
       242.0004        202.0004
 11 10 14  1 51 30.0000000  0  8G21G05G10G28G15G07G08G26
   -871678.10749   -571533.37649  24819112.9964   24819113.7024   24819114.5334
       201.0004        130.0004
 -19529294.40649 -14950566.32049  21039091.7034   21039094.8064   21039092.2434
       237.0004        198.0004
    103170.98949     90549.02749  24460570.6174   24460572.7694   24460570.3284
       211.0004        140.0004
 -12446542.88549  -9679599.10549  22041604.3924   22041606.6754   22041604.5944
       230.0004        178.0004
  -9052905.83849  -7038193.87549  22986944.8184   22986946.9134   22986943.8904
       221.0004        166.0004
 -10005932.39549  -7775547.17249  23002161.5464   23002165.2084   23002162.7154
       224.0004        170.0004
 -20599081.68849 -16037054.92449  21022199.6404   21022202.1054   21022199.4384
       241.0004        198.0004
 -21560514.99549 -15987896.11249  20175215.4874   20175218.5644   20175215.8494
       242.0004        203.0004
 11 10 14  1 52  0.0000000  0  8G21G05G10G28G15G07G08G26
   -898647.44649   -592548.44349  24813981.7494   24813981.7224   24813980.1574
       205.0004        131.0004
 -19480789.93949 -14912770.65449  21048321.1814   21048324.8234   21048322.1834
       237.0004        199.0004
    218326.16049    180280.32549  24482482.0474   24482486.2574   24482481.2364
       208.0004        139.0004
 -12504648.82349  -9724876.42049  22030547.3904   22030550.0194   22030547.0504
       231.0004        179.0004
  -9142205.85349  -7107778.28449  22969950.0994   22969953.2444   22969950.9814
       220.0004        164.0004
  -9913374.54749  -7703424.20249  23019775.0984   23019777.7584   23019776.0134
       224.0004        168.0004
 -20549134.55349 -15998135.07949  21031704.2384   21031706.9964   21031704.1114
       241.0004        198.0004
 -21601427.79149 -16019776.21549  20167430.3114   20167433.1274   20167430.6074
       243.0004        202.0004
 11 10 14  1 52 30.0000000  0  8G21G05G10G28G15G07G08G26
   -925117.63749   -613174.57249  24808945.6694   24808947.8284   24808945.1314
       203.0004        130.0004
 -19431752.19749 -14874559.44249  21057653.7954   21057656.2024   21057654.2364
       238.0004        199.0004
    333546.21549    270062.14949  24504408.0784   24504412.3454   24504405.8574
       205.0004        138.0004
 -12562307.61749  -9769805.32949  22019575.9744   22019577.8794   22019575.2844
       231.0004        178.0004
  -9231352.30249  -7177243.05849  22952986.6114   22952989.7504   22952988.2324
       223.0004        167.0004
  -9820646.76349  -7631168.78149  23037420.3884   23037424.5354   23037421.8664
       221.0004        166.0004
 -20498803.25549 -15958915.88649  21041282.0024   21041285.1744   21041281.7074
       241.0004        198.0004
 -21641895.32549 -16051309.35349  20159729.5694   20159732.4904   20159729.9984
       243.0004        203.0004
 11 10 14  1 53  0.0000000  0  8G21G05G10G28G15G07G08G26
   -951088.46549   -633411.59249  24804003.4054   24804001.9024   24804003.3354
       205.0004        133.0004
 -19382182.64349 -14835933.82749  21067085.4834   21067088.9394   21067086.2174
       236.0004        198.0004
    448828.76849    359892.66749  24526346.6774   24526348.7144   24526345.7934
       207.0004        139.0004
 -12619517.73149  -9814384.60149  22008688.0314   22008690.6724   22008688.3884
       232.0004        178.0004
  -9320343.90149  -7246587.13549  22936052.7434   22936055.5544   22936053.4004
       222.0004        169.0004
  -9727750.91649  -7558782.42749  23055098.5224   23055101.3034   23055098.8914
       222.0004        167.0004
 -20448089.86649 -15919398.97049  21050932.5164   21050935.1474   21050932.5204
       241.0004        198.0004
 -21681916.58349 -16082494.75349  20152114.1134   20152116.6684   20152114.2674
       244.0004        204.0004
 11 10 14  1 53 30.0000000  0  8G21G05G10G28G15G07G08G26
   -976558.65349   -653258.51449  24799154.9234   24799158.1084   24799154.3804
       204.0004        134.0004
 -19332082.93449 -14796895.11249  21076620.1284   21076622.4924   21076620.4464
       238.0004        198.0004
    564171.87649    449770.45949  24548294.2654   24548296.3344   24548292.3844
       207.0004        137.0004
 -12676277.39349  -9858612.88749  21997887.4314   21997889.3764   21997887.0344
       231.0004        179.0004
  -9409179.74649  -7315809.82349  22919146.9294   22919150.2324   22919148.5654
       222.0004        169.0004
  -9634688.94449  -7486266.62749  23072807.5864   23072809.9314   23072808.0064
       222.0004        167.0004
 -20396995.91249 -15879585.49349  21060655.3434   21060657.9764   21060655.2954
       241.0004        198.0004
 -21721490.81449 -16113331.81549  20144583.2844   20144585.7574   20144583.5104
       243.0004        203.0004
 11 10 14  1 54  0.0000000  0  8G21G05G10G28G15G07G08G26
  -1001528.11749   -672715.24249  24794403.9174   24794406.7564   24794403.7414
       210.0004        136.0004
 -19281454.19249 -14757444.15949  21086253.7464   21086257.1494   21086254.7654
       236.0004        198.0004
    679573.66549    539693.92749  24570254.9894   24570259.7254   24570254.5334
       210.0004        139.0004
 -12732584.47749  -9902488.52349  21987172.9704   21987174.8844   21987172.7414
       233.0004        180.0004
  -9497858.12049  -7384909.85549  22902273.4524   22902274.6794   22902272.7924
       223.0004        168.0004
  -9541462.24449  -7413622.45649  23090547.3054   23090550.4864   23090548.9744
       220.0004        167.0004
 -20345522.62949 -15839476.44649  21070450.5964   21070453.5764   21070450.0394
       241.0004        198.0004
 -21760616.35949 -16143819.25649  20137137.7514   20137140.9704   20137137.7714
       243.0004        204.0004
 11 10 14  1 54 30.0000000  0  8G21G05G10G28G15G07G08G26
  -1025996.24849   -691781.33649  24789748.1734   24789748.7584   24789747.1604
       208.0004        136.0004
 -19230298.37849 -14717582.50449  21095989.2824   21095991.6134   21095989.8044
       238.0004        198.0004
    795031.48049    629661.06949  24592223.9324   24592229.4674   24592225.1204
       204.0004        138.0004
 -12788437.68149  -9946010.48749  21976544.6544   21976546.2014   21976544.3394
       234.0004        181.0004
  -9586377.86449  -7453886.27249  22885428.0394   22885431.8604   22885428.7314
       222.0004        168.0004
  -9448073.00449  -7340851.64349  23108319.0824   23108322.0154   23108319.3044
       221.0004        162.0004
 -20293671.71449 -15799073.13949  21080317.3454   21080319.9884   21080316.9714
       241.0004        196.0004
 -21799292.35149 -16173956.39149  20129778.0684   20129780.9674   20129778.1044
       243.0004        204.0004
 11 10 14  1 55  0.0000000  0  8G21G05G10G28G15G07G08G26
  -1049962.25149   -710456.17149  24785188.5704   24785188.0304   24785188.0544
       210.0004        136.0004
 -19178616.01949 -14677310.54949  21105822.8474   21105826.1154   21105823.7684
       236.0004        197.0004
    910543.27749    719670.22249  24614207.9824   24614210.0654   24614207.0004
       209.0004        138.0004
 -12843834.82149  -9989177.06749  21966002.2024   21966004.3264   21966002.0724
       233.0004        181.0004
  -9674737.43249  -7522737.84749  22868612.2844   22868616.6914   22868613.6684
       222.0004        170.0004
  -9354522.85949  -7267955.44649  23126122.0474   23126124.1084   23126122.1414
       223.0004        164.0004
 -20241444.90349 -15758376.92649  21090255.1464   21090258.5144   21090255.0914
       240.0004        196.0004
 -21837517.90749 -16203742.53949  20122503.9004   20122506.6754   20122503.8064
       242.0004        203.0004
 11 10 14  1 55 30.0000000  0  8G21G05G10G28G15G07G08G26
  -1073425.42049   -728739.17349  24780722.3344   24780724.0184   24780722.6744
       207.0004        138.0004
 -19126408.75749 -14636629.58649  21115758.6714   21115760.8114   21115758.9684
       238.0004        198.0004
   1026107.20449    809720.07049  24636198.7034   24636202.3014   24636195.9354
       210.0004        136.0004
 -12898774.48649 -10031987.18649  21955548.4734   21955549.5434   21955547.4974
       233.0004        180.0004
  -9762935.48949  -7591463.58449  22851830.7864   22851832.6174   22851830.6964
       225.0004        171.0004
  -9260813.23449  -7194934.95149  23143954.3554   23143956.4994   23143954.6024
       222.0004        164.0004
 -20188843.61849 -15717388.91849  21100264.7784   21100268.5694   21100264.6734
       239.0004        196.0004
 -21875291.46049 -16233176.46749  20115315.7134   20115318.4354   20115315.4734
       242.0004        203.0004
 11 10 14  1 56  0.0000000  0  8G21G05G10G28G15G07G08G26
  -1096385.19949   -746629.89149  24776353.5084   24776354.7114   24776352.9164
       209.0004        138.0004
 -19073678.46049 -14595541.05649  21125792.7324   21125795.1574   21125792.8094
       236.0004        198.0004
   1141720.89849    899808.69049  24658198.8144   24658201.6974   24658196.2144
       206.0004        136.0004
 -12953254.65349 -10074439.24149  21945180.4344   21945182.1324   21945180.4564
       233.0004        181.0004
  -9850970.61049  -7660062.37149  22835077.4354   22835079.4624   22835077.4234
       222.0004        169.0004
  -9166946.15049  -7121791.76749  23161816.0224   23161818.8154   23161816.0894
       222.0004        164.0004
 -20135869.94649 -15676110.74049  21110345.5274   21110348.8794   21110345.4694
       239.0004        196.0004
 -21912611.82949 -16262257.26849  20108213.6844   20108216.8864   20108214.1154
       242.0004        204.0004
 11 10 14  1 56 30.0000000  0  8G21G05G10G28G15G07G08G26
  -1118841.29049   -764128.13549  24772080.1604   24772082.0514   24772079.7454
       207.0004        137.0004
 -19020426.36349 -14554045.93249  21135926.0464   21135928.7774   21135926.1774
       237.0004        197.0004
   1257381.92049    989934.13449  24680209.3754   24680211.0614   24680210.0004
       205.0004        135.0004
 -13007274.27449 -10116532.43149  21934900.3404   21934903.3284   21934900.1214
       233.0004        182.0004
  -9938842.13249  -7728533.67049  22818356.2554   22818358.6664   22818356.2984
       223.0004        168.0004
  -9072923.84949  -7048527.65349  23179708.6494   23179710.6614   23179707.6824
       223.0004        164.0004
 -20082525.31949 -15634543.51049  21120496.9474   21120500.0174   21120496.4444
       240.0004        195.0004
 -21949478.78049 -16290984.75949  20101198.8394   20101201.2214   20101198.5764
       243.0004        203.0004
 11 10 14  1 57  0.0000000  0  8G21G05G10G28G15G07G08G26
  -1140792.92049   -781233.34549  24767902.9644   24767907.0974   24767902.7434
       207.0004        134.0004
 -18966653.66149 -14512145.13849  21146158.4794   21146161.5614   21146158.8794
       237.0004        198.0004
   1373088.55849   1080095.14049  24702224.1234   24702228.7524   24702223.0304
       197.0004        130.0004
 -13060831.05349 -10158264.96449  21924708.9284   21924711.4264   21924709.0114
       233.0004        183.0004
 -10026547.95549  -7796875.85949  22801666.4234   22801669.4314   22801666.7034
       223.0004        172.0004
  -8978747.31749  -6975143.34749  23197629.3584   23197631.6084   23197630.1524
       222.0004        164.0004
 -20028811.20149 -15592688.35949  21130718.2154   21130721.1124   21130718.0014
       240.0004        195.0004
 -21985890.64849 -16319357.63749  20094268.9754   20094271.9234   20094269.4594
       242.0004        203.0004
 11 10 14  1 57 30.0000000  0  8G21G05G10G28G15G07G08G26
  -1162240.10349   -797945.44849  24763822.1084   24763823.5944   24763820.1114
       202.0004        135.0004
 -18912362.35949 -14469840.24849  21156489.8194   21156493.0284   21156490.4524
       239.0004        198.0004
   1488838.32549   1170289.75049  24724254.0674   24724253.6684   24724251.6284
       202.0004        132.0004
 -13113923.67049 -10199635.82449  21914605.7114   21914608.5874   21914606.0144
       233.0004        184.0004
 -10114087.17049  -7865088.20149  22785007.8674   22785009.8854   22785008.3264
       225.0004        171.0004
  -8884418.50449  -6901640.39149  23215579.3554   23215581.6404   23215580.3814
       221.0004        162.0004
 -19974729.65449 -15550546.89549  21141009.7634   21141012.5714   21141009.4514
       241.0004        195.0004
 -22021846.57849 -16347375.24249  20087427.3174   20087430.2974   20087427.3754
       244.0004        204.0004
 11 10 14  1 58  0.0000000  0  8G21G05G10G28G15G07G08G26
  -1183181.71349   -814263.54549  24759838.5874   24759837.8204   24759837.3454
       211.0004        137.0004
 -18857554.11249 -14427132.54449  21166920.4514   21166922.6364   21166920.4994
       240.0004        198.0004
   1604629.33049   1260516.53449  24746283.1444   24746291.5794   24746285.2984
       200.0004        134.0004
 -13166550.28549 -10240643.55649  21904591.1634   21904593.5734   21904590.5654
       232.0004        182.0004
 -10201458.15849  -7933169.47849  22768381.4454   22768383.8964   22768381.8104
       223.0004        170.0004
  -8789939.16449  -6828020.15849  23233558.2374   23233560.9144   23233558.5184
       221.0004        164.0004
 -19920282.00949 -15508120.15949  21151370.6914   21151373.9924   21151370.4864
       240.0004        195.0004
 -22057345.18449 -16375036.49349  20080671.8284   20080675.0364   20080672.5264
       244.0004        203.0004
 11 10 14  1 58 30.0000000  0  8G21G05G10G28G15G07G08G26
  -1203616.96449   -830187.11149  24755947.8394   24755949.7514   24755948.2804
       207.0004        137.0004
 -18802229.85549 -14384022.74849  21177448.5064   21177450.4094   21177448.4234
       239.0004        199.0004
   1720459.53149   1350773.82349  24768328.5684   24768334.3914   24768328.1984
       200.0004        131.0004
 -13218709.27649 -10281286.89949  21894665.9134   21894668.1044   21894665.5194
       233.0004        183.0004
 -10288659.46249  -8001118.52749  22751788.0454   22751790.5144   22751788.5124
       225.0004        170.0004
  -8695310.95949  -6754283.88649  23251564.7114   23251567.2614   23251565.4584
       220.0004        163.0004
 -19865469.93649 -15465409.45749  21161801.5144   21161804.3264   21161801.0514
       241.0004        196.0004
 -22092385.58949 -16402340.69649  20074004.3054   20074006.6484   20074004.1934
       244.0004        203.0004
 11 10 14  1 59  0.0000000  0  8G21G05G10G28G15G07G08G26
  -1223546.44649   -845716.56049  24752153.5054   24752157.6604   24752155.2914
       205.0004        138.0004
 -18746391.66349 -14340512.48549  21188073.6374   21188076.1074   21188073.8324
       239.0004        198.0004
   1836326.57849   1441059.79549  24790376.1504   24790382.7744   24790374.7504
       203.0004        132.0004
 -13270399.31449 -10321564.84349  21884829.3704   21884832.3204   21884829.5664
       234.0004        184.0004
 -10375690.24049  -8068934.69849  22735227.4054   22735230.2284   22735226.9844
       226.0004        172.0004
  -8600535.87949  -6680433.16749  23269599.6554   23269602.9754   23269600.4494
       220.0004        163.0004
 -19810295.27549 -15422416.22649  21172300.7824   21172303.5034   21172300.5624
       240.0004        196.0004
 -22126966.83749 -16429287.12649  20067422.9244   20067426.3154   20067423.3744
       243.0004        204.0004
 11 10 14  1 59 30.0000000  0  8G21G05G10G28G15G07G08G26
  -1242968.93749   -860850.98749  24748458.2634   24748460.3634   24748459.5544
       203.0004        135.0004
 -18690040.16049 -14296602.24349  21198796.4404   21198799.9734   21198797.2074
       239.0004        198.0004
   1952229.17749   1531373.51649  24812435.6684   24812435.0494   24812434.9694
       206.0004        132.0004
 -13321617.86349 -10361475.37449  21875083.0934   21875085.6294   21875083.2174
       234.0004        184.0004
 -10462548.12849  -8136616.14149  22718697.6614   22718700.2424   22718698.9684
       225.0004        171.0004
  -8505614.66749  -6606468.59549  23287662.4514   23287667.3624   23287663.3844
       220.0004        165.0004
 -19754759.09549 -15379141.27949  21182868.5874   21182871.4584   21182868.8804
       240.0004        196.0004
 -22161087.19349 -16455874.41149  20060930.3034   20060933.5784   20060930.8654
       244.0004        204.0004
 11 10 14  2  0  0.0000000  0  8G21G05G10G28G15G07G08G26
  -1261884.69749   -875590.58149  24744858.6904   24744862.6494   24744859.0824
       202.0004        135.0004
 -18633177.92349 -14252294.02249  21209617.3464   21209620.3544   21209617.9774
       239.0004        198.0004
   2068164.15349   1621712.49749  24834494.2464   24834496.2464   24834491.6594
       206.0004        133.0004
 -13372364.36449 -10401018.07749  21865426.4514   21865428.2924   21865426.6184
       235.0004        184.0004
 -10549232.84749  -8204162.66949  22702202.4694   22702203.8794   22702202.9504
       224.0004        169.0004
  -8410550.34649  -6532392.53249  23305754.7314   23305755.8994   23305755.0464
       221.0004        164.0004
 -19698864.04749 -15335586.69749  21193505.6104   21193508.3034   21193505.3934
       241.0004        196.0004
 -22194746.66949 -16482102.56849  20054525.9884   20054528.2774   20054525.6414
       245.0004        204.0004
 11 10 14  2  0 30.0000000  0  8G21G05G10G28G15G07G08G26
  -1280292.93649   -889934.66149  24741356.3024   24741358.0994   24741355.4784
       206.0004        137.0004
 -18575806.22549 -14207588.82149  21220535.0754   21220537.4474   21220535.1024
       238.0004        197.0004
   2184129.86149   1712075.35749  24856563.6004   24856566.4464   24856560.8614
       204.0004        133.0004
 -13422636.74049 -10440191.31949  21855860.7024   21855862.2914   21855860.3184
       235.0004        184.0004
 -10635742.24049  -8271572.56149  22685740.8404   22685744.1664   22685740.6604
       226.0004        172.0004
  -8315343.74549  -6458205.58249  23323871.7644   23323873.3334   23323872.3484
       219.0004        161.0004
 -19642611.03249 -15291753.17349  21204210.1614   21204212.7884   21204209.8164
       241.0004        195.0004
 -22227943.50149 -16507970.23249  20048209.0284   20048211.2474   20048209.0444
       245.0004        204.0004
 11 10 14  2  1  0.0000000  0  8G21G05G10G28G15G07G08G26
  -1298193.21849   -903882.92949  24737951.4084   24737953.2104   24737949.0864
       208.0004        139.0004
 -18517926.66149 -14162487.87749  21231548.1064   21231551.5574   21231548.9404
       238.0004        197.0004
   2300123.76449   1802460.20749  24878633.3004   24878638.7414   24878634.1024
       204.0004        132.0004
 -13472433.81149 -10478994.21749  21846382.9874   21846386.0654   21846383.2384
       233.0004        183.0004
 -10722074.90949  -8338844.74949  22669310.8484   22669313.0494   22669312.0674
       224.0004        172.0004
  -8219996.84049  -6383909.30049  23342014.3114   23342016.7324   23342015.7894
       218.0004        162.0004
 -19586001.83749 -15247642.11949  21214982.3414   21214985.3714   21214981.9974
       242.0004        195.0004
 -22260677.15749 -16533476.97249  20041979.0074   20041982.1574   20041979.1234
       244.0004        204.0004
 11 10 14  2  1 30.0000000  0  8G21G05G10G28G15G07G08G26
  -1315585.19349   -917435.12449  24734640.6254   24734643.0044   24734641.1604
       207.0004        138.0004
 -18459540.91449 -14116992.51349  21242658.5464   21242661.9084   21242659.6064
       237.0004        197.0004
   2416143.92549   1892865.52349  24900712.0014   24900716.9504   24900712.3294
       206.0004        133.0004
 -13521753.99549 -10517425.50949  21836998.7794   21837000.0394   21836997.4494
       233.0004        183.0004
 -10808230.09049  -8405978.64249  22652916.0524   22652918.9344   22652917.8944
       226.0004        172.0004
  -8124511.28449  -6309504.98449  23360185.1124   23360188.1234   23360185.4034
       218.0004        161.0004
 -19529038.50749 -15203255.10749  21225822.1754   21225824.7274   21225821.7134
       241.0004        195.0004
 -22292946.30949 -16558621.76549  20035838.3664   20035841.4444   20035838.7594
       244.0004        204.0004
 11 10 14  2  2  0.0000000  0  8G21G05G10G28G15G07G08G26
  -1332468.40449   -930590.86649  24731428.9384   24731429.3874   24731427.7364
       210.0004        140.0004
 -18400650.63749 -14071104.00349  21253865.6454   21253868.2944   21253866.2084
       238.0004        197.0004
   2532188.23549   1983289.68549  24922797.2984   24922798.2074   24922793.9214
       204.0004        135.0004
 -13570595.37049 -10555483.69149  21827703.2334   21827705.6334   21827703.3944
       233.0004        182.0004
 -10894205.64649  -8472972.56149  22636556.9064   22636557.3754   22636556.8244
       227.0004        171.0004
  -8028888.63049  -6234993.84449  23378381.6874   23378384.0014   23378382.2204
       219.0004        162.0004
 -19471722.08449 -15158592.96749  21236729.1714   21236731.5834   21236728.5454
       241.0004        194.0004
 -22324749.97349 -16583403.84649  20029786.2454   20029789.2504   20029786.3704
       244.0004        204.0004
 11 10 14  2  2 30.0000000  0  8G21G05G10G28G15G07G08G26
  -1348843.26049   -943350.51449  24728313.5234   24728314.6364   24728313.4034
       211.0004        141.0004
 -18341257.83849 -14024823.90949  21265167.7574   21265170.3444   21265168.0774
       238.0004        197.0004
   2648254.64149   2073731.02749  24944880.8424   24944887.6164   24944881.5524
       201.0004        132.0004
 -13618957.07349 -10593168.10249  21818501.2794   21818503.7814   21818501.2734
       234.0004        183.0004
 -10980000.83049  -8539825.94249  22620230.5024   22620231.8794   22620230.5254
       225.0004        172.0004
  -7933130.99949  -6160377.54749  23396605.0034   23396605.5074   23396604.9684
       218.0004        162.0004
 -19414054.93549 -15113657.52949  21247702.9674   21247705.8834   21247702.9314
       242.0004        195.0004
 -22356087.51549 -16607822.71449  20023823.0724   20023825.9144   20023823.4094
       245.0004        204.0004
 11 10 14  2  3  0.0000000  0  8G21G05G10G28G15G07G08G26
  -1364708.76449   -955713.27849  24725292.1554   24725294.5244   24725291.8414
       208.0004        139.0004
 -18281363.50049 -13978153.01249  21276565.2224   21276568.1314   21276565.7644
       238.0004        196.0004
   2764341.32449   2164188.15849  24966973.8924   24966976.7734   24966972.2704
       205.0004        136.0004
 -13666837.06349 -10630477.15049  21809389.8984   21809392.0254   21809389.6724
       233.0004        184.0004
 -11065613.73349  -8606537.27149  22603938.3584   22603940.8224   22603938.6034
       226.0004        171.0004
  -7837239.49549  -6085656.90249  23414852.1394   23414852.8054   23414851.7704
       220.0004        160.0004
 -19356038.00149 -15068449.53349  21258743.3984   21258746.0554   21258742.9694
       241.0004        194.0004
 -22386957.23749 -16631877.04249  20017949.5314   20017951.3394   20017948.9684
       246.0004        205.0004
 11 10 14  2  3 30.0000000  0  8G21G05G10G28G15G07G08G26
  -1380064.70749   -967678.96049  24722370.8054   24722372.1614   24722371.6004
       206.0004        138.0004
 -18220969.81349 -13931093.01549  21288057.5844   21288060.3824   21288058.3804
       236.0004        197.0004
   2880446.12049   2254659.42749  24989064.6894   24989071.4254   24989064.8724
       205.0004        134.0004
 -13714233.79749 -10667409.64349  21800370.2144   21800372.7434   21800370.4564
       233.0004        184.0004
 -11151042.97549  -8673105.48549  22587682.7664   22587683.0384   22587682.2644
       227.0004        173.0004
  -7741215.87149  -6010833.29949  23433122.6204   23433126.3614   23433123.9194
       218.0004        158.0004
 -19297672.95349 -15022970.27849  21269849.8324   21269852.0484   21269849.2944
       241.0004        193.0004
 -22417358.44449 -16655566.29549  20012163.8874   20012166.6024   20012164.1344
       245.0004        205.0004
 11 10 14  2  4  0.0000000  0  8G21G05G10G28G15G07G08G26
  -1394910.90649   -979247.42949  24719547.3344   24719546.1834   24719545.7174
       209.0004        139.0004
 -18160078.27149 -13883645.07649  21299645.2574   21299648.0534   21299645.4184
       237.0004        196.0004
   2996566.76149   2345143.09749  25011162.8454   25011166.2044   25011162.3544
       205.0004        136.0004
 -13761146.16549 -10703964.71849  21791443.2174   21791445.7974   21791442.8554
       234.0004        183.0004
 -11236287.16749  -8739529.51549  22571460.0604   22571462.8574   22571461.2234
       226.0004        174.0004
  -7645061.71649  -5935908.00949  23451422.3154   23451423.4544   23451423.3604
       219.0004        157.0004
 -19238961.93849 -14977221.43449  21281022.3934   21281024.8864   21281022.2144
       242.0004        194.0004
 -22447290.35449 -16678889.85649  20006468.0724   20006470.7984   20006468.2434
       245.0004        205.0004
 11 10 14  2  4 30.0000000  0  8G21G05G10G28G15G07G08G26
  -1409247.45049   -990418.77849  24716818.5034   24716819.6724   24716817.3124
       208.0004        138.0004
 -18098690.92049 -13835810.79949  21311327.4984   21311329.6674   21311327.5344
       236.0004        196.0004
   3112701.00749   2435637.31749  25033262.7574   25033269.3444   25033261.7814
       204.0004        137.0004
 -13807572.99749 -10740141.45349  21782608.6204   21782611.2734   21782608.6264
       234.0004        184.0004
 -11321345.43149  -8805808.65849  22555273.7424   22555275.8544   22555274.9784
       226.0004        175.0004
  -7548779.40649  -5860882.82249  23469744.0514   23469745.5994   23469744.2074
       219.0004        158.0004
 -19179906.83249 -14931204.46949  21292260.4024   21292262.8454   21292259.4384
       240.0004        193.0004
 -22476751.99349 -16701846.98249  20000861.5084   20000864.2774   20000861.9414
       245.0004        205.0004
 11 10 14  2  5  0.0000000  0  8G21G05G10G28G15G07G08G26
  -1423073.42849  -1001192.27549  24714186.5824   24714188.1424   24714187.1884
       207.0004        137.0004
 -18036809.12349 -13787591.23349  21323103.1224   21323105.7284   21323103.2514
       237.0004        196.0004
   3228847.17149   2526140.81649  25055365.7904   25055369.3104   25055366.4964
       207.0004        136.0004
 -13853511.87949 -10775937.96649  21773866.6514   21773868.6874   21773866.6384
       233.0004        185.0004
 -11406215.34349  -8871941.03949  22539124.1494   22539125.3554   22539123.9874
       226.0004        175.0004
  -7452369.29249  -5785758.08549  23488090.1144   23488091.8404   23488089.6004
       218.0004        158.0004
 -19120508.44249 -14884920.02249  21303562.6834   21303565.8374   21303562.5984
       239.0004        193.0004
 -22505741.92349 -16724436.54249  19995345.1184   19995347.5974   19995345.3874
       245.0004        206.0004
 11 10 14  2  5 30.0000000  0  8G21G05G10G28G15G07G08G26
  -1436389.20549  -1011568.19749  24711653.3404   24711654.7934   24711653.2334
       209.0004        140.0004
 -17974434.69149 -13738987.80249  21334971.5564   21334974.8544   21334972.2014
       235.0004        195.0004
   3345003.04349   2616651.92849  25077470.9504   25077474.8784   25077467.4874
       206.0004        134.0004
 -13898961.90649 -10811353.54849  21765218.0554   21765220.5874   21765218.1794
       234.0004        185.0004
 -11490895.62549  -8937925.65949  22523009.0104   22523012.0774   22523010.1774
       226.0004        175.0004
  -7355833.54849  -5710535.44049  23506458.5584   23506462.1944   23506459.5304
       215.0004        157.0004
 -19060768.61649 -14838369.50849  21314931.7724   21314933.8024   21314930.9724
       239.0004        194.0004
 -22534259.21849 -16746657.82049  19989919.0304   19989921.0484   19989919.0564
       246.0004        206.0004
 11 10 14  2  6  0.0000000  0  8G21G05G10G28G15G07G08G26
  -1449194.91649  -1021546.66849  24709215.0594   24709218.3724   24709216.3724
       203.0004        138.0004
 -17911569.87649 -13690002.24849  21346934.4364   21346938.0474   21346935.2044
       235.0004        195.0004
   3461165.41149   2707168.07449  25099573.4914   25099578.8934   25099572.4474
       205.0004        132.0004
 -13943922.61349 -10846387.83549  21756661.8804   21756664.8984   21756661.6714
       234.0004        184.0004
 -11575386.20449  -9003762.44549  22506930.5214   22506934.4554   22506931.9354
       226.0004        175.0004
  -7259174.74449  -5635216.90549  23524852.6984   23524854.5714   23524853.9924
       219.0004        158.0004
 -19000690.05449 -14791555.04749  21326363.6204   21326366.4554   21326363.1934
       238.0004        193.0004
 -22562303.95449 -16768510.85349  19984581.3284   19984584.1554   19984581.7964
       245.0004        205.0004
 11 10 14  2  6 30.0000000  0  9G21G05G10G28G15G07G08G27G26
  -1461489.66149  -1031126.99549  24706875.3244   24706878.0244   24706874.3904
       202.0004        137.0004
 -17848215.76049 -13640635.42449  21358990.3014   21358993.3144   21358990.7234
       235.0004        195.0004
   3577333.62649   2797688.75449  25121683.9774   25121684.6454   25121682.2144
       203.0004        131.0004
 -13988391.28749 -10881038.73649  21748200.2224   21748201.6164   21748199.6614
       234.0004        184.0004
 -11659684.12149  -9069449.13649  22490890.4384   22490892.3034   22490890.7254
       227.0004        175.0004
  -7162393.10649  -5559802.64749  23543269.0644   23543272.5244   23543270.1924
       217.0004        157.0004
 -18940273.26949 -14744477.05549  21337860.2544   21337863.8414   21337860.3494
       237.0004        193.0004
   -247692.82449   -170653.20349  23675828.6354   23675831.4984
       208.0004        142.0004
 -22589874.07749 -16789994.07349  19979335.1044   19979338.0324   19979335.2334
       245.0004        206.0004
 11 10 14  2  7  0.0000000  0  9G21G05G10G28G15G07G08G27G26
  -1473273.74249  -1040309.38549  24704633.7884   24704636.5284   24704634.4024
       202.0004        137.0004
 -17784374.41249 -13590888.94249  21371140.0824   21371142.1984   21371139.6564
       236.0004        195.0004
   3693505.35949   2888212.21449  25143781.8564   25143792.6284   25143780.4404
       192.0004        125.0004
 -14032367.10649 -10915305.56849  21739831.0654   21739833.6094   21739830.9314
       233.0004        183.0004
 -11743788.32249  -9134984.84549  22474886.4224   22474889.0684   22474886.8064
       229.0004        176.0004
  -7065490.40949  -5484294.08049  23561710.5734   23561711.8664   23561710.3804
       219.0004        158.0004
 -18879520.10949 -14697136.93249  21349421.4004   21349424.3694   21349421.5824
       238.0004        193.0004
   -335811.22549   -239316.85849  23659058.2124   23659062.1704   23659058.4534
       207.0004        141.0004
 -22616968.86449 -16811106.89649  19974179.2174   19974182.1964   19974179.2914
       246.0004        206.0004
 11 10 14  2  7 30.0000000  0  9G21G05G10G28G15G07G08G27G26
  -1484546.94249  -1049093.73349  24702489.2174   24702490.1354   24702490.0304
       204.0004        138.0004
 -17720047.82549 -13540764.34949  21383380.5414   21383382.6324   21383380.9744
       237.0004        194.0004
   3809678.18849   2978736.43749  25165896.5214   25165894.3984   25165895.5524
       204.0004        129.0004
 -14075848.93949 -10949187.49049  21731557.4994   21731559.1614   21731556.7284
       234.0004        184.0004
 -11827697.42849  -9200368.54149  22458919.2084   22458921.4434   22458919.2764
       230.0004        178.0004
  -6968468.77449  -5408692.82949  23580173.7904   23580175.5364   23580174.4724
       219.0004        158.0004
 -18818432.60949 -14649536.28549  21361046.5044   21361048.4104   21361045.7484
       237.0004        192.0004
   -423733.80949   -307827.92549  23642328.4134   23642330.4224   23642328.9024
       210.0004        142.0004
 -22643587.48149 -16831848.68549  19969114.5214   19969116.7324   19969114.6614
       246.0004        206.0004
 11 10 14  2  8  0.0000000  0  9G21G05G10G28G15G07G08G27G26
  -1495309.32549  -1057480.00749  24700439.7594   24700442.8144   24700439.7674
       207.0004        140.0004
 -17655238.00049 -13490263.21049  21395713.8744   21395715.4034   21395713.8844
       236.0004        194.0004
   3925849.91749   3069259.89049  25187998.5454   25188007.0984   25187998.5764
       188.0004        123.0004
 -14118835.46849 -10982683.47049  21723377.4164   21723378.8004   21723376.9804
       234.0004        184.0004
 -11911410.19749  -9265599.24949  22442989.2144   22442991.5654   22442988.8514
       229.0004        178.0004
  -6871329.74049  -5333000.09249  23598658.2314   23598659.6584   23598658.8144
       217.0004        157.0004
 -18757012.58549 -14601676.53049  21372734.2434   21372736.1704   21372733.5574
       238.0004        192.0004
   -511459.73849   -376185.75749  23625634.3514   23625637.9754   23625633.8364
       208.0004        145.0004
 -22669729.35949 -16852218.98449  19964139.1334   19964142.1514   19964139.3984
       245.0004        207.0004
 11 10 14  2  8 30.0000000  0  9G21G05G10G28G15G07G08G27G26
  -1505560.64849  -1065468.02949  24698489.5264   24698492.4954   24698490.1544
       205.0004        139.0004
 -17589946.75649 -13439386.93149  21408137.3334   21408140.6864   21408137.5594
       235.0004        194.0004
   4042018.45249   3159780.77749  25210103.6354   25210115.2404   25210105.8984
       193.0004        124.0004
 -14161324.91049 -11015792.10449  21715291.4324   21715294.2224   21715291.2964
       235.0004        185.0004
 -11994924.93649  -9330675.65049  22427095.0664   22427099.3554   22427097.0164
       228.0004        178.0004
  -6774074.74649  -5257217.00149  23617164.3394   23617166.3524   23617164.6254
       217.0004        156.0004
 -18695261.66649 -14553558.92949  21384484.3564   21384487.3304   21384484.3294
       238.0004        192.0004
   -598988.13149   -444389.67849  23608979.0874   23608981.8864   23608977.8384
       213.0004        146.0004
 -22695393.27849 -16872216.84449  19959255.8544   19959258.4774   19959255.9744
       245.0004        207.0004
 11 10 14  2  9  0.0000000  0  9G21G05G10G28G15G07G08G27G26
  -1515300.26449  -1073057.36149  24696636.7664   24696638.6034   24696635.3174
       206.0004        138.0004
 -17524175.45449 -13388136.57849  21420652.6434   21420656.5414   21420653.5724
       236.0004        194.0004
   4158181.88949   3250297.73549  25232213.8324   25232216.2024   25232216.6724
       193.0004        123.0004
 -14203316.26249 -11048512.61549  21707300.2714   21707303.4954   21707300.0564
       233.0004        185.0004
 -12078240.14149  -9395596.57449  22411241.9334   22411244.3314   22411242.6344
       230.0004        178.0004
  -6676705.25949  -5181344.66349  23635694.5614   23635694.5534   23635693.4344
       218.0004        155.0004
 -18633180.64349 -14505184.11149  21396298.0444   21396301.0344   21396297.7364
       237.0004        193.0004
   -686317.88449   -512438.81749  23592360.1734   23592365.1484   23592361.0964
       207.0004        145.0004
 -22720578.13149 -16891841.40249  19954462.8344   19954465.5624   19954463.2254
       245.0004        206.0004
 11 10 14  2  9 30.0000000  0  9G21G05G10G28G15G07G08G27G26
  -1524529.59749  -1080249.08449  24694880.8394   24694883.1544   24694879.3014
       205.0004        138.0004
 -17457926.85349 -13336514.30649  21433259.3904   21433263.0254   21433260.2764
       235.0004        193.0004
   4274337.68649   3340808.76649  25254314.6234                   25254307.9384
       186.0004        116.0004
 -14244808.76249 -11080844.41649  21699405.5324   21699407.0534   21699405.6514
       235.0004        185.0004
 -12161354.55149  -9460361.03049  22395425.5634   22395427.5554   22395425.6554
       228.0004        177.0004
  -6579223.50449  -5105384.87349  23654243.8954   23654246.0234   23654244.0154
       218.0004        158.0004
 -18570772.39849 -14456554.31349  21408174.2294   21408177.1314   21408173.8504
       237.0004        192.0004
   -773448.78249   -580332.95549  23575780.9724   23575783.4164   23575779.7884
       208.0004        142.0004
 -22745283.65649 -16911092.46149  19949761.9264   19949764.6974   19949762.2304
       245.0004        207.0004
 11 10 14  2 10  0.0000000  0  9G21G05G10G28G15G07G08G27G26
  -1533247.62649  -1087042.36249  24693220.8734   24693222.4014   24693219.9594
       205.0004        136.0004
 -17391202.12549 -13284521.03149  21445957.3294   21445959.9984   21445957.4054
       235.0004        193.0004
   4390484.89049   3431313.12549  25276413.1704
       178.0004        119.0004
 -14285800.54549 -11112786.03449  21691604.7774   21691606.5814   21691604.2404
       234.0004        185.0004
 -12244266.48749  -9524967.70749  22379648.4884   22379650.3964   22379648.0864
       230.0004        178.0004
  -6481630.17049  -5029338.14649  23672814.6774   23672816.0354   23672815.4964
       216.0004        155.0004
 -18508037.70449 -14407670.14449  21420112.0914   21420115.5094   21420112.0324
       239.0004        193.0004
   -860379.29449   -648070.98349  23559236.5614   23559242.3244   23559236.0354
       208.0004        143.0004
 -22769508.29949 -16929968.80249  19945152.4654   19945155.0734   19945152.0554
       246.0004        207.0004
 11 10 14  2 10 30.0000000  0  9G21G05G10G28G15G07G08G27G26
  -1541454.92149  -1093437.67349  24691658.7754   24691662.7064   24691659.0254
       204.0004        136.0004
 -17324003.59549 -13232158.56649  21458745.6754   21458747.4924   21458746.1454
       237.0004        193.0004
   4506620.33149   3521808.24449  25298524.9704                   25298520.7474
       187.0004        118.0004
 -14326290.75249 -11144336.82449  21683900.1684   21683901.7344   21683899.9204
       235.0004        185.0004
 -12326974.51649  -9589415.51549  22363908.5224   22363911.2224   22363909.7504
       230.0004        178.0004
  -6383927.41449  -4953206.15749  23691407.6164   23691410.2104   23691407.4754
       216.0004        157.0004
 -18444978.51249 -14358533.11149  21432112.2724   21432115.0374   21432111.7964
       239.0004        192.0004
   -947109.12849   -715652.66549  23542732.5654   23542737.0854   23542732.9474
       210.0004        144.0004
 -22793251.61749 -16948470.10049  19940633.9094   19940636.6324   19940634.3904
       245.0004        207.0004
 11 10 14  2 11  0.0000000  0  9G21G05G10G28G15G07G08G27G26
  -1549150.58449  -1099434.32049  24690196.6474   24690196.5214   24690196.1684
       207.0004        138.0004
 -17256332.32349 -13179427.72449  21471622.8164   21471625.5234   21471623.0374
       236.0004        193.0004
   4622742.79259     26345.30359  25320612.5964
       169.0004         74.0004
 -14366277.53549 -11175495.33349  21676290.3944   21676292.7294   21676289.9934
       234.0004        186.0004
 -12409476.74149  -9653702.97049  22348209.5904   22348211.5324   22348209.6854
       229.0004        177.0004
  -6286116.02849  -4876989.52749  23710020.2954   23710022.6444   23710021.1554
       217.0004        159.0004
 -18381595.90049 -14309144.08049  21444172.9914   21444176.1774   21444173.1264
       238.0004        191.0004
  -1033636.81849   -783076.82049  23526267.6244   23526271.5904   23526267.4394
       211.0004        148.0004
 -22816512.24249 -16966595.26149  19936207.6754   19936210.3654   19936208.0504
       245.0004        206.0004
 11 10 14  2 11 30.0000000  0  8G21G05G28G15G07G08G27G26
  -1556335.72849  -1105033.14649  24688829.2404   24688829.7134   24688827.0444
       207.0004        139.0004
 -17188191.54349 -13126331.03049  21484589.2594   21484592.1844   21484590.0294
       237.0004        193.0004
 -14405760.75049 -11206261.45349  21668776.7904   21668779.3714   21668777.1294
       235.0004        187.0004
 -12491772.70949  -9717829.67649  22332548.5084   22332551.5874   22332549.0244
       230.0004        177.0004
  -6188198.53149  -4800690.20549  23728653.9084   23728655.8654   23728654.0484
       222.0004        159.0004
 -18317893.02349 -14259505.46949  21456296.0314   21456298.5354   21456295.5564
       239.0004        192.0004
  -1119962.50149   -850343.55749  23509841.1454   23509844.4574   23509840.2004
       210.0004        147.0004
 -22839289.95549 -16984344.13349  19931872.9344   19931875.7764   19931873.3464
       244.0004        207.0004
 11 10 14  2 12  0.0000000  0  8G21G05G28G15G07G08G27G26
  -1563010.37449  -1110234.20249  24687558.7174   24687559.5284   24687557.9144
       202.0004        138.0004
 -17119583.05049 -13072869.88549  21497644.7274   21497648.0904   21497645.4044
       236.0004        193.0004
 -14444739.03249 -11236634.10649  21661359.8924   21661362.4374   21661359.3934
       236.0004        187.0004
 -12573860.65449  -9781794.29849  22316928.1344   22316930.9704   22316929.0544
       231.0004        179.0004
  -6090176.33849  -4724309.31449  23747306.6104   23747309.6094   23747307.2634
       218.0004        160.0004
 -18253870.81749 -14209618.03949  21468479.0944   21468481.8614   21468478.5434
       239.0004        191.0004
  -1206085.28649   -917452.17749  23493452.0994   23493455.4384   23493450.7014
       208.0004        146.0004
 -22861583.97549 -17001716.09649  19927630.1434   19927633.1664   19927630.8174
       244.0004        206.0004
 11 10 14  2 12 30.0000000  0  8G21G05G28G15G07G08G27G26
  -1569173.41149  -1115036.55649  24686383.4044   24686385.2164   24686384.9714
       202.0004        138.0004
 -17050507.40649 -13019044.71849  21510790.5964   21510792.6534   21510790.3324
       237.0004        194.0004
 -14483209.75549 -11266611.28349  21654038.5454   21654040.7864   21654038.7674
       235.0004        187.0004
 -12655737.77049  -9845594.63049  22301347.3024   22301349.6804   22301347.7744
       229.0004        178.0004
  -5992049.76449  -4647847.06549  23765979.8614   23765982.5524   23765980.2154
       219.0004        160.0004
 -18189529.98549 -14159482.33049  21480722.4744   21480724.9104   21480721.9244
       239.0004        191.0004
  -1292003.03849   -984401.04149  23477100.4334   23477104.7074   23477100.9674
       209.0004        147.0004
 -22883392.25649 -17018709.55549  19923481.0984   19923483.0144   19923480.7794
       245.0004        206.0004
 11 10 14  2 13  0.0000000  0  8G21G05G28G15G07G08G27G26
  -1574826.10449  -1119441.27649  24685310.1564   24685312.2334   24685308.6174
       205.0004        138.0004
 -16980968.00649 -12964858.18649  21524022.8384   21524025.5244   21524023.5144
       238.0004        193.0004
 -14521173.24949 -11296193.19749  21646814.9194   21646816.8924   21646814.5034
       235.0004        186.0004
 -12737403.74849  -9909230.45949  22285806.6014   22285808.9784   22285806.9854
       230.0004        178.0004
  -5893821.70449  -4571305.75249  23784671.4924   23784673.2664   23784671.8534
       219.0004        160.0004
 -18124873.71249 -14109100.82649  21493026.5134   21493028.9414   21493025.9794
       240.0004        191.0004
  -1377716.21649  -1051190.51049  23460789.4204   23460794.5694   23460791.6184
       209.0004        148.0004
 -22904715.11349 -17035324.76549  19919422.3254   19919425.7144   19919422.7294
       243.0004        206.0004
 11 10 14  2 13 30.0000000  0  8G21G05G28G15G07G08G27G26
  -1579968.46149  -1123448.34949  24684330.9504   24684332.5924   24684331.2034
       202.0004        137.0004
 -16910966.71649 -12910311.74849  21537343.2194   21537346.5014   21537344.2904
       236.0004        193.0004
 -14558628.34649 -11325378.96949  21639687.0294   21639689.0544   21639686.6334
       235.0004        187.0004
 -12818857.04349  -9972700.55649  22270306.9754   22270308.9794   22270307.6234
       230.0004        179.0004
  -5795493.43649  -4494686.36449  23803382.4234   23803384.1424   23803382.5184
       217.0004        158.0004
 -18059903.34049 -14058474.56349  21505389.4374   21505392.2294   21505388.8834
       238.0004        190.0004
  -1463224.10849  -1117820.00049  23444518.4664   23444523.8634   23444518.8774
       210.0004        147.0004
 -22925551.59249 -17051560.98649  19915458.2374   19915460.6024   19915458.4024
       244.0004        206.0004
 11 10 14  2 14  0.0000000  0  8G21G05G28G15G07G08G27G26
  -1584600.40949  -1127057.67949  24683451.4074   24683451.2864   24683450.3764
       206.0004        137.0004
 -16840505.29749 -12855406.76849  21550751.8824   21550754.6204   21550752.7084
       238.0004        194.0004
 -14595573.62349 -11354167.47249  21632657.0744   21632658.7444   21632656.1064
       235.0004        187.0004
 -12900096.12549 -10036003.73749  22254847.4574   22254849.8064   22254848.4504
       230.0004        179.0004
  -5697066.02349  -4417989.73549  23822113.5634   23822115.8034   23822113.8264
       217.0004        158.0004
 -17994620.01849 -14007604.45249  21517812.2114   21517815.3574   21517812.2484
       238.0004        190.0004
  -1548525.52549  -1184288.63249  23428286.5424   23428290.6464   23428286.8484
       211.0004        148.0004
 -22945900.55549 -17067417.31849  19911585.5924   19911588.2674   19911585.7824
       244.0004        206.0004
 11 10 14  2 14 30.0000000  0  8G21G05G28G15G07G08G27G26
  -1588722.02849  -1130269.32349  24682663.6934   24682664.6274   24682663.9384
       204.0004        135.0004
 -16769585.35849 -12800144.48649  21564248.7944   21564250.4074   21564248.3034
       238.0004        193.0004
 -14632007.69049 -11382557.63449  21625723.7294   21625725.6144   21625723.1024
       235.0004        187.0004
 -12981118.92049 -10099138.37049  22239429.3324   22239431.5824   22239429.5494
       229.0004        179.0004
  -5598540.70149  -4341216.77449  23840862.0174   23840864.7734   23840862.0254
       217.0004        157.0004
 -17929025.26049 -13956491.66549  21530294.8344   21530297.5684   21530294.3034
       237.0004        188.0004
  -1633619.53649  -1250595.63549  23412093.2024   23412097.9384   23412094.9354
       207.0004        150.0004
 -22965761.12949 -17082893.09749  19907806.3834   19907809.0884   19907806.7664
       244.0004        207.0004
 11 10 14  2 15  0.0000000  0  8G21G05G28G15G07G08G27G26
  -1592334.10049  -1133083.93949  24681978.9044   24681979.0494   24681977.8564
       205.0004        134.0004
 -16698209.88949 -12744527.25149  21577829.2314   21577832.9334   21577830.4284
       236.0004        193.0004
 -14667930.54249 -11410549.44649  21618888.1174   21618889.8614   21618887.9294
       236.0004        188.0004
 -13061924.61349 -10162103.83949  22224052.6504   22224054.8274   22224052.7084
       231.0004        180.0004
  -5499920.02249  -4264369.53849  23859627.8094   23859631.3174   23859628.0534
       215.0004        154.0004
 -17863121.49849 -13905138.08449  21542835.7464   21542838.3574   21542835.7154
       238.0004        189.0004
  -1718506.17049  -1316741.01749  23395940.4334   23395944.7764   23395941.1334
       211.0004        151.0004
 -22985132.96249 -17097988.03049  19904120.0244   19904122.8044   19904120.2384
       244.0004        207.0004
 11 10 14  2 15 30.0000000  0  8G21G05G28G15G07G08G27G26
  -1595436.25749  -1135501.23849  24681388.6724   24681387.8214   24681387.5074
       205.0004        135.0004
 -16626380.24349 -12688556.11449  21591498.6794   21591501.6664   21591498.9154
       235.0004        193.0004
 -14703340.29449 -11438141.44349  21612149.3274   21612151.5724   21612149.3024
       235.0004        188.0004
 -13142511.31949 -10224898.67649  22208717.4394   22208719.4034   22208718.0634
       230.0004        180.0004
  -5401204.78049  -4187448.59349  23878412.4984   23878416.3264   23878413.3904
       213.0004        155.0004
 -17796909.95349 -13853544.67849  21555434.8914   21555438.3244   21555434.8684
       237.0004        188.0004
  -1803183.95149  -1382723.66249  23379828.1614   23379831.3454   23379828.9464
       215.0004        154.0004
 -23004015.08849 -17112701.37949  19900526.0734   19900529.6934   19900526.7664
       243.0004        207.0004
 11 10 14  2 16  0.0000000  0  8G21G05G28G15G07G08G27G26
  -1598028.75149  -1137521.37549  24680891.9814   24680897.0044   24680891.0504
       204.0004        135.0004
 -16554098.77549 -12632232.91449  21605252.8894   21605256.5684   21605253.5634
       235.0004        193.0004
 -14738235.89649 -11465332.79949  21605509.2424   21605511.2294   21605508.7034
       236.0004        189.0004
 -13222877.08849 -10287521.34949  22193424.2584   22193427.2444   22193425.1284
       230.0004        181.0004
  -5302396.19549  -4110454.94549  23897215.8444   23897218.7574   23897217.1224
       215.0004        156.0004
 -17730392.16749 -13801712.64349  21568093.2404   21568096.0014   21568092.9144
       237.0004        186.0004
  -1887652.12249  -1448543.00249  23363754.5064   23363757.9934   23363753.8444
       216.0004        153.0004
 -23022406.33349 -17127032.22849  19897027.1614   19897029.7594   19897027.3284
       244.0004        207.0004
 11 10 14  2 16 30.0000000  0  8G21G05G28G15G07G08G27G26
  -1600112.37749  -1139145.00649  24680499.9164   24680499.1164   24680499.5784
       205.0004        134.0004
 -16481367.40149 -12575559.13349  21619093.9734   21619096.9834   21619094.0154
       235.0004        193.0004
 -14772616.52049 -11492122.88249  21598965.7414   21598968.0414   21598966.4524
       235.0004        189.0004
 -13303021.22049 -10349971.30749  22178173.4844   22178176.2354   22178173.3294
       232.0004        181.0004
  -5203496.40149  -4033390.21049  23916037.1634   23916040.0824   23916037.1714
       217.0004        154.0004
 -17663570.45149 -13749643.77449  21580808.9154   21580811.8714   21580808.6094
       236.0004        186.0004
  -1971910.45949  -1514198.85549  23347718.8004   23347723.4734   23347719.8844
       214.0004        151.0004
 -23040306.48849 -17140980.40449  19893620.7944   19893623.5434   19893621.0024
       244.0004        206.0004
 11 10 14  2 17  0.0000000  0  8G21G05G28G15G07G08G27G26
  -1601686.87449  -1140371.92449  24680197.1404   24680200.4114   24680198.1264
       203.0004        133.0004
 -16408188.43749 -12518536.58349  21633019.7194   21633022.1004   21633019.8744
       236.0004        192.0004
 -14806481.09249 -11518510.83649  21592523.1104   21592524.5484   21592521.6154
       235.0004        188.0004
 -13382941.87849 -10412247.13849  22162964.3254   22162967.0454   22162965.2134
       229.0004        181.0004
  -5104506.59749  -3956255.32949  23934873.7364   23934875.4934   23934873.4084
       217.0004        154.0004
 -17596445.91849 -13697338.95149  21593582.3754   21593585.3764   21593582.0324
       235.0004        187.0004
  -2055957.81149  -1579690.27349  23331725.7114   23331729.2494   23331726.8244
       213.0004        152.0004
 -23057714.43549 -17154545.04049  19890308.0984   19890311.1194   19890308.4654
       244.0004        207.0004
 11 10 14  2 17 30.0000000  0  8G21G05G28G15G07G08G27G26
  -1602753.01849  -1141202.68449  24679995.3654   24679997.6174   24679995.1084
       206.0004        136.0004
 -16334563.76549 -12461166.72449  21647029.6634   21647032.4394   21647030.2874
       235.0004        192.0004
 -14839829.20849 -11544496.35149  21586175.6664   21586178.1104   21586176.0924
       237.0004        188.0004
 -13462637.50349 -10474347.62149  22147798.2904   22147801.9084   22147799.8754
       231.0004        182.0004
  -5005428.43149  -3879051.59849  23953727.1904   23953730.1264   23953726.9224
       214.0004        148.0004
 -17529020.04549 -13644799.31149  21606412.8144   21606416.1764   21606413.0364
       235.0004        187.0004
  -2139793.74749  -1645016.94049  23315773.7454   23315776.7994   23315773.3594
       216.0004        155.0004
 -23074629.72349 -17167725.78949  19887089.6484   19887091.9984   19887089.3894
       244.0004        207.0004
 11 10 14  2 18  0.0000000  0  8G21G05G28G15G07G08G27G26
  -1603310.85549  -1141637.39949  24679886.8704   24679889.9414   24679887.0084
       202.0004        136.0004
 -16260495.47549 -12403451.19549  21661123.9474   21661126.7494   21661124.9084
       235.0004        192.0004
 -14872659.53749 -11570078.41349  21579929.0794   21579930.8664   21579928.6704
       237.0004        188.0004
 -13542106.47449 -10536271.49549  22132677.2054   22132679.6674   22132676.6244
       231.0004        183.0004
  -4906263.01049  -3801779.88049  23972599.0124   23972600.1694   23972598.5974
       215.0004        148.0004
 -17461294.96749 -13592026.52449  21619300.7884   21619304.0184   21619300.0604
       234.0004        187.0004
  -2223417.23749  -1710178.07649  23299860.3774   23299863.4904   23299860.0694
       216.0004        156.0004
 -23091051.40149 -17180521.89949  19883963.5984   19883967.1404   19883964.0664
       243.0004        206.0004
 11 10 14  2 18 30.0000000  0  8G21G05G28G15G07G08G27G26
  -1603361.30849  -1141676.71949  24679878.9414   24679880.1024   24679878.9184
       202.0004        136.0004
 -16185986.12949 -12345391.98549  21675303.7514   21675305.7444   21675303.9464
       236.0004        192.0004
 -14904971.25649 -11595256.36149  21573779.9074   21573782.2204   21573780.0574
       236.0004        188.0004
 -13621347.51449 -10598017.74649  22117598.0354   22117600.5574   22117598.2324
       232.0004        183.0004
  -4807012.29849  -3724441.65949  23991484.6294   23991487.0874   23991486.3374
       212.0004        146.0004
 -17393272.30549 -13539021.87449  21632244.9524   21632248.4174   21632244.6254
       235.0004        188.0004
  -2306827.93849  -1775173.40349  23283988.9534   23283990.8314   23283987.2974
       218.0004        155.0004
 -23106978.98149 -17192933.00049  19880933.6364   19880936.2284   19880933.5264
       244.0004        206.0004
 11 10 14  2 19  0.0000000  0  8G21G05G28G15G07G08G27G26
  -1602904.00249  -1141320.37549  24679964.6794   24679968.0854   24679966.7074
       205.0004        135.0004
 -16111037.62349 -12286990.56649  21689565.1104   21689568.1124   21689565.3554
       234.0004        191.0004
 -14936763.24749 -11620029.31349  21567730.5914   21567732.5384   21567729.8144
       237.0004        188.0004
 -13700358.80949 -10659584.98849  22102563.1424   22102565.2704   22102563.1874
       232.0004        183.0004
  -4707677.19049  -3647037.69849  24010388.2374   24010389.8514   24010387.9754
       212.0004        149.0004
 -17324953.71149 -13485786.60749  21645246.3884   21645249.0614   21645245.9214
       236.0004        188.0004
  -2390024.71849  -1840002.03849  23268153.1934   23268158.6624   23268154.5824
       212.0004        154.0004
 -23122411.49849 -17204958.34049  19877996.8014   19877999.7034   19877997.2024
       244.0004        207.0004
 11 10 14  2 19 30.0000000  0  8G21G05G28G15G07G08G27G26
  -1601939.40649  -1140568.80349  24680151.2124   24680152.7344   24680152.1864
       206.0004        134.0004
 -16035651.97949 -12228248.52949  21703910.3464   21703913.5764   21703910.6714
       234.0004        190.0004
 -14968034.71349 -11644396.67149  21561778.8764   21561781.2834   21561779.0894
       237.0004        189.0004
 -13779138.84049 -10720972.01349  22087571.4874   22087572.9344   22087572.1684
       233.0004        184.0004
  -4608259.00349  -3569568.99349  24029304.9484   24029309.8584   24029306.4424
       208.0004        146.0004
 -17256340.68249 -13432321.91749  21658301.0634   21658305.3044   21658301.3674
       234.0004        186.0004
  -2473006.98949  -1904663.51449  23252365.3274   23252368.1974   23252364.1234
       215.0004        154.0004
 -23137348.46949 -17216597.53549  19875154.3474   19875157.1934   19875154.3204
       244.0004        207.0004
 11 10 14  2 20  0.0000000  0  8G21G05G28G15G07G08G27G26
  -1600468.03949  -1139422.32849  24680431.1844   24680431.4374   24680431.1124
       208.0004        135.0004
 -15959831.37249 -12169167.55549  21718338.8884   21718341.6114   21718339.1834
       233.0004        190.0004
 -14998784.57849 -11668357.57449  21555927.8174   21555930.3324   21555927.8244
       237.0004        189.0004
 -13857685.87649 -10782177.48749  22072623.6604   22072626.7464   22072624.8624
       231.0004        184.0004
  -4508759.78649  -3492037.18249  24048239.5344   24048244.2054   24048240.3074
       208.0004        147.0004
 -17187434.59149 -13378628.86449  21671414.6134   21671417.8394   21671414.3244
       235.0004        186.0004
  -2555773.91649  -1969157.20049  23236614.2034   23236618.1464   23236614.2444
       216.0004        155.0004
 -23151788.80549 -17227849.74249  19872405.9794   19872409.1984   19872406.3574
       243.0004        207.0004
 11 10 14  2 20 30.0000000  0  8G21G05G28G15G07G08G27G26
  -1598490.59749  -1137881.42649  24680806.5374   24680808.2184   24680806.2024
       208.0004        136.0004
 -15883578.50849 -12109749.74449  21732847.5784   21732852.3244   21732848.9014
       232.0004        189.0004
 -15029012.68849 -11691911.93149  21550175.8604   21550177.7724   21550175.5814
       238.0004        189.0004
 -13935998.65149 -10843200.41649  22057721.0334   22057725.1454   22057721.9504
       231.0004        184.0004
  -4409180.87749  -3414443.28149  24067188.8464   24067191.6524   24067190.9144
       207.0004        143.0004
 -17118237.65649 -13324709.17249  21684582.5784   21684584.7864   21684582.5634
       237.0004        188.0004
  -2638325.10349  -2033482.78849  23220904.2684   23220908.8494   23220904.6924
       213.0004        155.0004
 -23165732.17849 -17238714.70349  19869753.2634   19869755.7114   19869753.3874
       244.0004        207.0004
 11 10 14  2 21  0.0000000  0  8G21G05G28G15G07G08G27G26
  -1596007.39349  -1135946.48149  24681278.1434   24681280.2224   24681277.2484
       206.0004        136.0004
 -15806895.08249 -12049996.45249  21747440.8244   21747444.8144   21747441.7514
       232.0004        189.0004
 -15058717.78349 -11715058.73749  21544523.1114   21544525.0954   21544522.6554
       237.0004        189.0004
 -14014075.59449 -10904039.58449  22042864.2564   22042867.0494   22042865.1754
       232.0004        186.0004
  -4309523.36649  -3336788.11649  24086153.3184   24086157.1654   24086153.5754
       208.0004        144.0004
 -17048751.46749 -13270564.08949  21697805.8554   21697808.6664   21697805.3144
       237.0004        189.0004
  -2720659.76349  -2097639.62849  23205238.2114   23205241.9784   23205236.9154
       216.0004        156.0004
 -23179177.89349 -17249191.89049  19867194.3484   19867197.2544   19867194.7314
       243.0004        207.0004
 11 10 14  2 21 30.0000000  0  8G21G05G28G15G07G08G27G26
  -1593018.98949  -1133617.85349  24681847.0364   24681849.2814   24681847.4734
       207.0004        137.0004
 -15729783.80849 -11989909.77149  21762114.9694   21762118.3004   21762115.4454
       233.0004        189.0004
 -15087899.36949 -11737797.62349  21538969.8074   21538972.5804   21538970.1224
       238.0004        189.0004
 -14091915.50449 -10964694.05049  22028052.4854   22028054.3654   22028052.6344
       234.0004        186.0004
  -4209789.01149  -3259073.05949  24105132.1044   24105137.0574   24105132.5074
       207.0004        145.0004
 -16978977.83249 -13216195.04449  21711083.0174   21711085.9574   21711082.7454
       236.0004        188.0004
  -2802777.61049  -2161627.52149  23189609.4564   23189613.5474   23189610.8434
       214.0004        154.0004
 -23192125.53749 -17259280.95749  19864730.4984   19864733.3614   19864730.6154
       244.0004        207.0004
 11 10 14  2 22  0.0000000  0  8G21G05G28G15G07G08G27G26
  -1589525.43549  -1130895.61549  24682512.5324   24682515.0184   24682512.3674
       207.0004        139.0004
 -15652246.55349 -11929491.13949  21776870.6174   21776872.9964   21776871.0864
       235.0004        189.0004
 -15116556.05149 -11760127.47549  21533516.9734   21533518.6294   21533516.6144
       238.0004        189.0004
 -14169515.98849 -11025161.94749  22013285.0714   22013287.5484   22013285.5624
       232.0004        185.0004
  -4109978.90049  -3181298.98249  24124126.7254   24124130.1744   24124126.0324
       207.0004        144.0004
 -16908917.73349 -13161602.76749  21724414.8594   21724417.2534   21724414.3944
       236.0004        186.0004
  -2884677.27149  -2225445.41149  23174024.8534   23174030.1044   23174024.5894
       214.0004        155.0004
 -23204573.76349 -17268980.87749  19862361.6274   19862364.7944   19862362.1104
       244.0004        207.0004
 11 10 14  2 22 30.0000000  0  8G21G05G28G15G07G08G27G26
  -1585527.26049  -1127780.17949  24683273.2454   24683276.0654   24683273.6444
       209.0004        141.0004
 -15574284.80049 -11868741.74049  21791705.8334   21791708.7644   21791706.2884
       234.0004        189.0004
 -15144686.91649 -11782047.61749  21528163.5334   21528166.2844   21528163.5834
       237.0004        190.0004
 -14246875.90249 -11085442.39849  21998562.8104   21998566.0994   21998563.8384
       232.0004        185.0004
  -4010094.04949  -3103466.68349  24143133.0704   24143136.9954   24143133.8254
       206.0004        142.0004
 -16838572.64749 -13106788.42149  21737800.8684   21737803.9784   21737800.9194
       236.0004        185.0004
  -2966357.92249  -2289092.66849  23158481.3114   23158485.2424   23158481.4704
       214.0004        153.0004
 -23216521.96849 -17278291.16849  19860088.2774   19860091.0494   19860088.0834
       244.0004        207.0004
 11 10 14  2 23  0.0000000  0  8G21G05G28G15G07G08G27G26
  -1581025.67749  -1124272.50249  24684130.3054   24684132.6024   24684130.7634
       207.0004        138.0004
 -15495901.84449 -11807664.13049  21806621.9664   21806624.8774   21806621.5414
       234.0004        189.0004
 -15172291.95749 -11803558.01549  21522910.5814   21522912.8644   21522910.5284
       238.0004        190.0004
 -14323993.70149 -11145534.18549  21983889.1204   21983890.9194   21983889.5794
       232.0004        185.0004
  -3910136.54349  -3025577.77849  24162156.1984   24162157.2314   24162156.1844
       207.0004        141.0004
 -16767945.04149 -13051753.92049  21751241.0834   21751243.4874   21751240.8624
       236.0004        186.0004
  -3047819.51549  -2352569.20649  23142978.2674   23142982.9764   23142979.2594
       210.0004        154.0004
 -23227969.89549 -17287211.63049  19857909.8134   19857912.1954   19857909.8004
       244.0004        207.0004
 11 10 14  2 23 30.0000000  0  8G21G05G28G15G07G08G27G26
  -1576020.96149  -1120372.72449  24685081.7314   24685083.9874   24685081.6624
       204.0004        136.0004
 -15417099.97049 -11746260.10349  21821617.4704   21821620.8524   21821617.8344
       236.0004        189.0004
 -15199370.10549 -11824657.85549  21517757.4194   21517759.9044   21517757.6174
       238.0004        190.0004
 -14400867.54949 -11205435.87749  21969259.4184   21969262.3354   21969260.4114
       231.0004        184.0004
  -3810107.56749  -2947633.14449  24181191.4744   24181190.1074   24181189.7784
       208.0004        138.0004
 -16697036.59449 -12996500.60149  21764734.6614   21764737.8694   21764734.4684
       235.0004        186.0004
  -3129061.10649  -2415874.31549  23127519.3134   23127524.7304   23127520.5934
       214.0004        155.0004
 -23238917.01249 -17295741.84749  19855826.2304   19855829.4734   19855826.6754
       245.0004        207.0004
 11 10 14  2 24  0.0000000  0  8G21G05G28G15G07G08G27G26
  -1570513.28949  -1116081.01149  24686127.7684   24686130.5634   24686126.5704
       197.0004        133.0004
 -15337880.26749 -11684530.47949  21836692.6514   21836695.0254   21836692.8014
       234.0004        188.0004
 -15225920.34749 -11845346.33249  21512705.1304   21512707.7164   21512704.9464
       237.0004        190.0004
 -14477495.64649 -11265146.07749  21954678.0354   21954681.2564   21954679.0354
       232.0004        185.0004
  -3710008.19249  -2869633.66749  24200238.0154   24200240.2084   24200238.8404
       203.0004        136.0004
 -16625848.36949 -12941029.26749  21778281.0364   21778283.6094   21778281.1294
       235.0004        184.0004
  -3210081.55949  -2479007.09949  23112104.2314   23112106.3784   23112103.2344
       213.0004        156.0004
 -23249361.91549 -17303880.73849  19853839.0824   19853841.7964   19853839.3584
       243.0004        207.0004
 11 10 14  2 24 30.0000000  0  8G21G05G28G15G07G08G27G26
  -1564503.83349  -1111398.33149  24687272.7674   24687277.5854   24687273.4724
       198.0004        133.0004
 -15258246.21749 -11622477.99249  21851844.9924   21851849.3144   21851846.0714
       233.0004        187.0004
 -15251942.81649 -11865623.55749  21507753.7844   21507755.4044   21507753.4144
       238.0004        190.0004
 -14553877.18949 -11324664.14649  21940144.3444   21940146.5334   21940144.1264
       233.0004        187.0004
  -3609840.31149  -2791580.78749  24219298.9364   24219304.9814   24219300.0534
       204.0004        136.0004
 -16554382.31749 -12885341.43449  21791880.6624   21791883.5834   21791880.2504
       235.0004        183.0004
  -3290880.99549  -2541967.67549  23096727.2054   23096731.0024   23096727.4914
       214.0004        153.0004
 -23259304.92549 -17311628.53849  19851946.7684   19851949.6754   19851947.0004
       244.0004        207.0004
 11 10 14  2 25  0.0000000  0  8G21G05G28G15G07G08G27G26
  -1557992.79249  -1106324.80549  24688511.7944   24688515.2764   24688512.0804
       199.0004        131.0004
 -15178199.43149 -11560103.89149  21867077.4404   21867082.2044   21867078.0724
       233.0004        188.0004
 -15277436.11449 -11885488.44649  21502901.8654   21502904.6234   21502901.9254
       236.0004        190.0004
 -14630010.03949 -11383988.43849  21925655.9414   21925658.6724   21925656.3674
       232.0004        186.0004
  -3509604.83249  -2713475.28749  24238372.7804   24238377.8694   24238374.6194
       203.0004        135.0004
 -16482639.50249 -12829437.95249  21805532.8794   21805535.2314   21805532.9524
       234.0004        184.0004
  -3371458.34149  -2604755.17549  23081393.3984   23081397.9874   23081392.2854
       215.0004        154.0004
 -23268744.99149 -17318984.44349  19850150.8824   19850153.1614   19850150.6434
       244.0004        207.0004
 11 10 14  2 25 30.0000000  0  8G21G05G28G15G07G08G27G26
  -1550980.77649  -1100860.91849  24689848.2304   24689847.3164   24689847.3154
       202.0004        132.0004
 -15097742.90649 -11497410.50649  21882388.9234   21882391.8884   21882389.0884
       234.0004        188.0004
 -15302400.21049 -11904940.96249  21498151.9244   21498153.8744   21498151.9344
       238.0004        190.0004
 -14705892.97349 -11443117.99049  21911215.5324   21911217.2634   21911216.2644
       232.0004        185.0004
  -3409303.67549  -2635318.61349  24257458.8424   24257464.6314   24257460.5434
       201.0004        133.0004
 -16410622.62249 -12773320.90249  21819237.5344   21819239.5134   21819237.1404
       234.0004        183.0004
  -3451813.37749  -2667369.46849  23066102.5954   23066106.3994   23066102.7324
       217.0004        155.0004
 -23277681.90549 -17325948.26749  19848449.4524   19848452.4744   19848449.7894
       243.0004        207.0004
 11 10 14  2 26  0.0000000  0  8G21G05G28G15G07G08G27G26
  -1543468.27849  -1095007.02649  24691276.4364   24691280.1244   24691275.3504
       204.0004        130.0004
 -15016878.24149 -11434399.10349  21897776.8934   21897779.6684   21897777.6004
       232.0004        188.0004
 -15326833.45649 -11923979.83549  21493502.3174   21493504.1244   21493501.9114
       238.0004        191.0004
 -14781523.49849 -11502050.85949  21896824.0884   21896825.9004   21896823.9604
       233.0004        185.0004
  -3308937.27149  -2557111.03449  24276559.4704   24276558.9124   24276555.7544
       199.0004        131.0004
 -16338332.36449 -12716990.83949  21832993.3864   21832996.0774   21832993.3774
       235.0004        182.0004
  -3531944.54949  -2729809.32449  23050855.6534   23050858.1264   23050855.1954
       218.0004        157.0004
 -23286113.95149 -17332518.69249  19846844.9684   19846848.1404   19846845.4434
       244.0004        207.0004
 11 10 14  2 26 30.0000000  0  8G21G05G28G15G07G08G27G26
  -1535457.30849  -1088764.72549  24692804.0744   24692801.4874   24692801.1024
       205.0004        134.0004
 -14935608.31949 -11371071.89149  21913242.7614   21913245.1134   21913242.5564
       234.0004        188.0004
 -15350736.68549 -11942605.70949  21488953.5164   21488955.1344   21488953.5634
       238.0004        190.0004
 -14856901.61049 -11560787.04149  21882480.6564   21882482.1394   21882480.2964
       236.0004        187.0004
  -3208507.80649  -2478854.35949  24295671.7384   24295672.9664   24295669.7284
       202.0004        132.0004
 -16265771.50349 -12660449.91249  21846801.4464   21846804.0044   21846800.7294
       234.0004        182.0004
  -3611852.67549  -2792075.35149  23035647.8104   23035652.7514   23035648.0264
       217.0004        156.0004
 -23294042.25049 -17338696.59049  19845336.3714   19845339.5624   19845336.6874
       244.0004        208.0004
 11 10 14  2 27  0.0000000  0  8G21G05G28G15G07G08G27G26
  -1526947.31049  -1082133.58149  24694421.5334   24694422.5694   24694421.2064
       207.0004        136.0004
 -14853935.06849 -11307430.42049  21928783.2694   21928786.3414   21928783.8254
       232.0004        187.0004
 -15374108.17449 -11960817.24449  21484506.0464   21484508.2784   21484506.0364
       238.0004        191.0004
 -14932024.41449 -11619324.29349  21868184.7004   21868186.6774   21868184.9724
       235.0004        187.0004
  -3108016.15049  -2400549.19049  24314793.7174   24314794.0934   24314793.6204
       200.0004        132.0004
 -16192940.62149 -12603698.58349  21860659.7944   21860664.0234   21860660.0994
       232.0004        181.0004
  -3691535.84749  -2854166.12149  23020484.1104   23020489.3194   23020484.7124
       217.0004        158.0004
 -23301465.03849 -17344480.59649  19843923.8744   19843926.8754   19843923.9014
       243.0004        207.0004
 11 10 14  2 27 30.0000000  0  8G21G05G28G15G07G08G27G26
  -1517939.15049  -1075114.23549  24696135.8394   24696136.6454   24696136.3004
       205.0004        136.0004
 -14771860.91049 -11243476.54249  21944402.3224   21944405.0504   21944402.4884
       233.0004        187.0004
 -15396947.51349 -11978614.10449  21480159.9624   21480161.9374   21480159.7634
       237.0004        191.0004
 -15006890.37049 -11677661.38749  21853937.3884   21853940.4054   21853938.1114
       234.0004        186.0004
  -3007463.71549  -2322196.62949  24333926.0104   24333932.9284   24333925.1494
       196.0004        134.0004
 -16119841.36149 -12546738.13049  21874572.3184   21874574.3064   21874571.3554
       234.0004        180.0004
  -3770993.67749  -2916081.29549  23005366.1744   23005369.4714   23005365.7374
       221.0004        160.0004
 -23308382.22749 -17349870.61849  19842607.9774   19842610.6834   19842607.9654
       244.0004        208.0004
 11 10 14  2 28  0.0000000  0  8G21G05G28G15G07G08G27G26
  -1508434.30749  -1067707.82149  24697941.2374   24697946.0184   24697942.9704
       201.0004        136.0004
 -14689389.03349 -11179212.75149  21960096.6094   21960099.2554   21960096.5814
       233.0004        186.0004
 -15419255.15249 -11995996.66649  21475914.7984   21475917.5934   21475914.4254
       237.0004        191.0004
 -15081498.67149 -11735797.71249  21839739.6354   21839742.4114   21839740.1884
       234.0004        186.0004
  -2906852.49149  -2243798.33349  24353073.1084   24353077.5724   24353071.4924
       199.0004        133.0004
 -16046476.23949 -12489570.49749  21888531.6494   21888534.2934   21888531.9264
       231.0004        180.0004
  -3850226.26449  -2977820.94249  22990290.3324   22990292.3924   22990288.4434
       223.0004        160.0004
 -23314793.69249 -17354866.56849  19841387.6234   19841390.5014   19841387.8024
       243.0004        207.0004
 11 10 14  2 28 30.0000000  0  8G21G05G28G15G07G08G27G26
  -1498432.44449  -1059914.15649  24699848.9214   24699848.3244   24699846.1174
       206.0004        136.0004
 -14606520.71449 -11114640.04149  21975865.1664   21975867.9394   21975865.5344
       232.0004        186.0004
 -15441029.65949 -12012963.80349  21471771.5474   21471773.1904   21471771.6604
       238.0004        191.0004
 -15155846.98249 -11793731.46249  21825592.3314   21825594.6754   21825592.5214
       234.0004        187.0004
  -2806182.85349  -2165354.52249  24372232.0624   24372233.8724   24372230.6584
       199.0004        132.0004
 -15972846.33949 -12432196.56149  21902543.3384   21902545.4824   21902542.9104
       231.0004        181.0004
  -3929232.29049  -3039384.05749  22975253.6914   22975256.9354   22975253.0984
       220.0004        159.0004
 -23320698.34149 -17359467.59949  19840264.0294   19840266.9404   19840264.3644
       244.0004        208.0004
 11 10 14  2 29  0.0000000  0  8G21G05G28G15G07G08G27G26
  -1487934.93449  -1051734.27049  24701841.8204   24701846.6434   24701843.0444
       202.0004        134.0004
 -14523258.33149 -11049760.28049  21991709.6114   21991712.6894   21991710.0794
       233.0004        186.0004
 -15462270.29249 -12029514.92049  21467729.4604   21467731.2704   21467728.6964
       237.0004        191.0004
 -15229933.91249 -11851461.53549  21811494.5884   21811496.5504   21811495.0214
       235.0004        189.0004
  -2705456.29249  -2086866.33449  24391399.2254   24391398.8364   24391397.4294
       201.0004        132.0004
 -15898952.83549 -12374617.21449  21916604.4644   21916607.8214   21916604.4524
       231.0004        181.0004
  -4008010.95949  -3100770.02649  22960261.6214   22960265.8064   22960262.6044
       220.0004        161.0004
 -23326095.34449 -17363673.05949  19839236.9154   19839239.8374   19839236.7244
       243.0004        207.0004
 11 10 14  2 29 30.0000000  0  8G21G05G28G15G07G08G27G26
  -1476942.89049  -1043169.04349  24703935.3594   24703938.2794   24703934.7554
       204.0004        135.0004
 -14439605.05249 -10984575.92049  22007628.1094   22007630.9864   22007628.5684
       231.0004        185.0004
 -15482977.05849 -12045650.05249  21463788.9264   21463791.2974   21463789.3594
       238.0004        191.0004
 -15303758.32249 -11908987.04049  21797445.8544   21797447.9814   21797445.9574
       234.0004        188.0004
  -2604674.82449  -2008335.34649  24410576.6864   24410579.3944   24410576.0984
       202.0004        134.0004
 -15824798.08849 -12316834.29749  21930716.2674   21930718.3264   21930715.4824
       232.0004        181.0004
  -4086562.55149  -3161979.03749  22945315.2784   22945318.0134   22945315.1534
       221.0004        161.0004
 -23330985.09749 -17367483.26249  19838306.5894   19838309.2034   19838307.1044
       244.0004        208.0004
 11 10 14  2 30  0.0000000  0  8G21G05G28G15G07G08G27G26
  -1465456.67249  -1034218.78249  24706123.6394   24706122.6614   24706124.0274
       205.0004        134.0004
 -14355562.75749 -10919088.44149  22023620.8394   22023624.3334   22023621.6114
       231.0004        185.0004
 -15503149.48349 -12061368.80549  21459950.4984   21459952.1634   21459949.7144
       238.0004        191.0004
 -15377317.84649 -11966306.13449  21783446.9544   21783450.3874   21783448.1914
       234.0004        189.0004
  -2503839.08249  -1929762.11949  24429765.9934   24429767.6184   24429765.7274
       202.0004        136.0004
 -15750383.14849 -12258848.63749  21944876.4434   21944879.6254   21944876.0354
       231.0004        181.0004
  -4164885.92149  -3223010.20449  22930410.6984   22930414.0134   22930410.8794
       221.0004        162.0004
 -23335366.56349 -17370897.38949  19837473.0784   19837475.5234   19837473.0384
       243.0004        208.0004
 11 10 14  2 30 30.0000000  0  8G21G05G28G15G07G08G27G26
  -1453477.70549  -1024884.52449  24708401.3144   24708404.9214   24708401.1594
       206.0004        135.0004
 -14271134.15649 -10853299.93149  22039687.8564   22039690.2884   22039687.9984
       233.0004        185.0004
 -15522787.27749 -12076670.97249  21456213.4724   21456215.4974   21456213.6344
       237.0004        191.0004
 -15450611.41849 -12023418.00449  21769501.0204   21769503.1974   21769502.0044
       236.0004        191.0004
  -2402950.84249  -1851147.95749  24448964.6124   24448965.3914   24448963.7564
       198.0004        132.0004
 -15675710.46849 -12200662.13549  21959086.0644   21959089.3264   21959086.0874
       232.0004        181.0004
  -4242980.74749  -3283863.29649  22915549.0784   22915552.7164   22915549.7714
       221.0004        162.0004
 -23339239.73049 -17373915.44549  19836735.3184   19836738.4854   19836736.0094
       243.0004        208.0004
 11 10 14  2 31  0.0000000  0  8G21G05G28G15G07G08G27G26
  -1441005.87849  -1015166.23849  24710774.6544   24710776.1864   24710773.6584
       204.0004        134.0004
 -14186320.84049 -10787211.64549  22055826.4734   22055829.6394   22055827.5024
       230.0004        184.0004
 -15541889.39149 -12091555.71049  21452578.1304   21452580.6074   21452577.5124
       237.0004        191.0004
 -15523636.72349 -12080320.82949  21755605.3654   21755606.8214   21755605.1384
       236.0004        190.0004
  -2302010.40349  -1772493.08749  24468172.6264   24468176.6204   24468170.2894
       194.0004        130.0004
 -15600780.39549 -12142275.07149  21973345.7904   21973348.0174   21973345.2694
       232.0004        181.0004
  -4320845.62949  -3344537.21449  22900732.6804   22900735.3124   22900732.1084
       222.0004        164.0004
 -23342603.13249 -17376536.27449  19836095.3674   19836098.5554   19836095.5984
       243.0004        207.0004
 11 10 14  2 31 30.0000000  0  8G21G05G28G15G07G08G27G26
  -1428042.88149  -1005065.20049  24713241.5644   24713244.0844   24713241.6714
       203.0004        132.0004
 -14101126.61149 -10720826.54649  22072038.2994   22072041.8564   22072038.4384
       232.0004        185.0004
 -15560456.13449 -12106023.29449  21449045.2264   21449047.7244   21449045.3054
       238.0004        191.0004
 -15596392.99649 -12137014.01249  21741757.8974   21741761.4654   21741759.5134
       233.0004        189.0004
  -2201020.09349  -1693799.34049  24487387.8974   24487391.2444   24487389.4854
       194.0004        129.0004
 -15525595.59549 -12083689.51949  21987652.1954   21987655.2244   21987651.7744
       232.0004        179.0004
  -4398481.05549  -3405032.34949  22885958.6564   22885962.2964   22885959.2964
       222.0004        164.0004
 -23345457.49749 -17378760.46749  19835553.1844   19835555.1844   19835553.3064
       244.0004        207.0004
 11 10 14  2 32  0.0000000  0  8G21G05G28G15G07G08G27G26
  -1414588.78649   -994581.49749  24715799.9864   24715803.3014   24715801.1004
       205.0004        136.0004
 -14015552.22849 -10654145.22749  22088322.6564   22088326.3344   22088323.0514
       231.0004        185.0004
 -15578486.25349 -12120072.72349  21445614.6934   21445616.2384   21445613.8454
       237.0004        191.0004
 -15668877.54749 -12193495.47349  21727965.4814   21727967.8724   21727966.1184
       235.0004        189.0004
  -2099980.20449  -1615066.98249  24506616.1354   24506620.1134   24506616.1654
       190.0004        130.0004
 -15450157.13349 -12024906.30149  22002008.9994   22002009.8574   22002007.6424
       233.0004        180.0004
  -4475885.43949  -3465347.40549  22871227.1504   22871232.6164   22871227.9924
       221.0004        164.0004
 -23347801.16149 -17380586.70049  19835105.7444   19835109.3544   19835106.2494
       242.0004        207.0004
 11 10 14  2 32 30.0000000  0  8G21G05G28G15G07G08G27G26
  -1400645.27149   -983716.43249  24718456.1284   24718455.4234   24718456.2214
       205.0004        135.0004
 -13929601.34749 -10587170.52049  22104677.8904   22104681.5544   22104679.3654
       230.0004        183.0004
 -15595980.34249 -12133704.45849  21442285.1224   21442287.3764   21442285.2784
       238.0004        191.0004
 -15741089.62749 -12249764.62049  21714225.3064   21714227.1834   21714225.4514
       236.0004        190.0004
  -1998892.95849  -1536297.76949  24525849.3754   24525854.9234   24525852.9474
       193.0004        131.0004
 -15374467.10549 -11965927.05249  22016411.2534   22016414.0684   22016411.3224
       233.0004        180.0004
  -4553058.98149  -3525482.62549  22856543.1394   22856546.6114   22856543.3414
       221.0004        164.0004
 -23349634.79649 -17382015.50649  19834757.2384   19834760.9374   19834757.6744
       243.0004        208.0004
