     2.11           OBSERVATION DATA    G (GPS)             RINEX VERSION / TYPE
Linux 2.4.21-27.ELsmp|Opteron|gcc -static|Linux x86_64|=+   COMMENT
HEADER CHANGED BY EPN CB ON 2011-10-12                      COMMENT
TO BE CONFORM WITH THE INFORMATION IN                       COMMENT
ftp://epncb.oma.be/pub/station/log/brus.log                 COMMENT
                                                            COMMENT
teqc  2010Oct21                         20111012 00:01:18UTCPGM / RUN BY / DATE
teqc  2010Oct21                         20111012 00:01:03UTCCOMMENT
teqc  2010Oct21                         20111011 01:01:02UTCCOMMENT
BIT 2 OF LLI FLAGS DATA COLLECTED UNDER A/S CONDITION       COMMENT
BRUS                                                        MARKER NAME
13101M004                                                   MARKER NUMBER
Carine Bruyninx     ROB                                     OBSERVER / AGENCY
RT919994505         ASHTECH Z-XII3T     1L01-1D04           REC # / TYPE / VERS
CR519994604         ASH701945B_M    NONE                    ANT # / TYPE
  4027894.0130   307045.5980  4919474.9120                  APPROX POSITION XYZ
        3.9702        0.0000        0.0000                  ANTENNA: DELTA H/E/N
     1     1                                                WAVELENGTH FACT L1/2
     7    L1    L2    C1    P2    P1    S1    S2            # / TYPES OF OBSERV
    30.0000                                                 INTERVAL
 SNR is mapped to RINEX snr flag value [0-9]                COMMENT
  L1 & L2: min(max(int(snr_dBHz/6), 0), 9)                  COMMENT
pseudorange smoothing corrections not applied               COMMENT
COORDINATES IN ETRF2000                                     COMMENT
Forced Modulo Decimation to 30 seconds                      COMMENT
  2011    10    11     0     0    0.0000000     GPS         TIME OF FIRST OBS
                                                            END OF HEADER
 11 10 11  0  0  0.0000000  0  9G05G26G07G08G13G10G04G02G16
 -14030717.00049 -10918762.15149  21912891.7914   21912894.6374   21912892.4164
       235.0004        188.0004
  -1867855.83449   -625614.59649  24070529.2684   24070532.7244   24070528.2874
       210.0004        141.0004
 -22065583.18249 -16896940.27949  20572566.2154   20572568.7094   20572566.8474
       240.0004        204.0004
 -19502464.49049 -15183978.90949  21427539.4264   21427543.6004   21427539.3994
       237.0004        191.0004
 -14261515.37549 -10512351.09349  22076412.0544   22076415.3324   22076412.5734
       230.0004        170.0004
 -21221606.21749 -16524667.21349  20410767.3264   20410770.7014   20410766.6044
       240.0004        200.0004
  -1467548.53149   -865426.65149  23789134.3264   23789137.7224   23789136.1964
       216.0004        146.0004
 -16602184.03749 -12918908.44749  21771466.3234   21771467.5064   21771466.7434
       231.0004        181.0004
    332046.55449    485392.28349  24196953.3974   24196954.4584   24196951.5244
       209.0004        139.0004
 11 10 11  0  0 30.0000000  0  9G05G26G07G08G13G10G04G02G16
 -14106098.02449 -10977500.59049  21898547.5084   21898550.2354   21898548.2334
       236.0004        190.0004
  -1978255.12649   -711640.08849  24049518.4614   24049524.3634   24049517.9504
       202.0004        132.0004
 -22072588.05949 -16902398.59949  20571233.2804   20571235.4474   20571233.6084
       239.0004        204.0004
 -19571761.11849 -15237976.26349  21414353.7454   21414356.5724   21414353.2084
       237.0004        191.0004
 -14178707.83249 -10447825.76449  22092171.7204   22092173.3614   22092170.7294
       230.0004        170.0004
 -21182647.51449 -16494309.79949  20418180.8304   20418183.9354   20418180.4704
       241.0004        200.0004
  -1360078.85549   -781684.01149  23809585.3014   23809586.4994   23809584.4214
       214.0004        145.0004
 -16555810.54849 -12882773.26549  21780292.0284   21780293.1524   21780291.8814
       232.0004        181.0004
    371375.36349    516038.10749  24204437.9254   24204438.0134   24204437.2384
       210.0004        138.0004
 11 10 11  0  1  0.0000000  0  9G05G26G07G08G13G10G04G02G16
 -14181158.72049 -11035989.45049  21884264.2584   21884265.9314   21884265.1404
       234.0004        188.0004
  -2088536.27649   -797573.44749  24028533.9434   24028537.8574   24028532.7094
       210.0004        138.0004
 -22079020.75149 -16907411.07749  20570009.5914   20570011.3304   20570009.6254
       240.0004        204.0004
 -19640620.92449 -15291633.24249  21401249.4584   21401252.6284   21401249.2364
       237.0004        191.0004
 -14095695.87949 -10383141.13449  22107967.6864   22107969.1434   22107967.7014
       229.0004        169.0004
 -21143204.72849 -16463575.17249  20425686.6224   20425689.5944   20425686.0064
       239.0004        200.0004
  -1252493.70649   -697851.41449  23830055.0004   23830062.0034   23830054.9234
       210.0004        147.0004
 -16508885.93449 -12846208.63949  21789221.1984   21789222.0284   21789221.4484
       232.0004        181.0004
    411267.54549    547122.93149  24212028.0544   24212029.9024   24212026.3294
       212.0004        140.0004
 11 10 11  0  1 30.0000000  0  9G05G26G07G08G13G10G04G02G16
 -14255897.58549 -11094227.51149  21870040.5384   21870043.7934   21870040.8344
       230.0004        187.0004
  -2198698.39749   -883414.02049  24007570.9794   24007575.2324   24007571.4804
       212.0004        143.0004
 -22084881.80349 -16911978.12349  20568893.1974   20568895.8654   20568894.2784
       239.0004        203.0004
 -19709042.83349 -15344949.00649  21388229.4794   21388232.7924   21388229.4404
       238.0004        192.0004
 -14012481.48549 -10318298.75249  22123802.0084   22123804.9504   22123802.7724
       230.0004        170.0004
 -21103279.12849 -16432464.31949  20433283.6994   20433287.1104   20433283.2174
       241.0004        199.0004
  -1144796.24749   -613931.38049  23850549.9124   23850556.8414   23850551.0604
       210.0004        146.0004
 -16461412.50249 -12809216.35849  21798254.1444   21798256.3464   21798255.2894
       230.0004        181.0004
    451721.13849    578645.23149  24219727.1434   24219727.8074   24219726.1444
       210.0004        141.0004
 11 10 11  0  2  0.0000000  0  9G05G26G07G08G13G10G04G02G16
 -14330311.34649 -11152212.23949  21855880.6634   21855884.3564   21855881.1864
       233.0004        190.0004
  -2308739.50349   -969160.28449  23986628.8884   23986632.6494   23986629.6614
       201.0004        136.0004
 -22090170.93849 -16916099.51449  20567887.8134   20567889.3174   20567887.5604
       240.0004        204.0004
 -19777024.59149 -15397921.78649  21375292.8944   21375296.0364   21375292.2524
       238.0004        191.0004
 -13929065.52649 -10253299.31549  22139676.2174   22139678.2404   22139676.0524
       229.0004        171.0004
 -21062870.38249 -16400976.98749  20440974.2214   20440976.3554   20440973.0854
       241.0004        199.0004
  -1036988.48149   -529925.34249  23871065.0754   23871069.5664   23871068.0194
       214.0004        143.0004
 -16413391.38849 -12771797.32449  21807393.5394   21807394.6624   21807393.3304
       231.0004        181.0004
    492735.79649    610604.70949  24227530.8544   24227533.0654   24227531.0574
       211.0004        140.0004
 11 10 11  0  2 30.0000000  0  9G05G26G07G08G13G10G04G02G16
 -14404398.23049 -11209942.27649  21841782.3164   21841785.4844   21841783.1444
       234.0004        190.0004
  -2418658.28749  -1054811.20449  23965714.9624   23965717.7554   23965713.1794
       211.0004        138.0004
 -22094888.47449 -16919775.50049  20566989.6314   20566991.8534   20566989.8574
       240.0004        204.0004
 -19844564.23849 -15450550.06049  21362439.3544   21362443.3884   21362440.1384
       238.0004        191.0004
 -13845449.37749 -10188143.88749  22155588.1464   22155590.7094   22155587.1714
       228.0004        170.0004
 -21021979.09949 -16369113.66549  20448754.7704   20448757.7884   20448754.3024
       240.0004        199.0004
   -929073.22149   -445835.48149  23891601.2254   23891604.8754   23891601.1414
       209.0004        141.0004
 -16364824.85949 -12733953.28849  21816635.2164   21816635.9274   21816635.7144
       231.0004        180.0004
    534310.04449    643000.20949  24235443.1264   24235444.0974   24235443.8694
       211.0004        141.0004
 11 10 11  0  3  0.0000000  0  9G05G26G07G08G13G10G04G02G16
 -14478156.99849 -11267416.64049  21827745.8594   21827749.2274   21827747.3144
       231.0004        187.0004
  -2528454.40949  -1140366.73749  23944819.5734   23944822.1554   23944822.1224
       211.0004        137.0004
 -22099035.55949 -16923006.99249  20566200.1034   20566202.4484   20566200.6274
       239.0004        204.0004
 -19911661.30249 -15502833.48649  21349672.5624   21349675.3844   21349672.3674
       240.0004        193.0004
 -13761635.22149 -10122834.18949  22171536.8104   22171539.3914   22171536.9254
       228.0004        170.0004
 -20980606.78749 -16336875.51449  20456627.7124   20456631.0284   20456627.3684
       241.0004        199.0004
   -821053.91449   -361664.65849  23912155.3904   23912162.5844   23912156.6894
       207.0004        143.0004
 -16315715.25249 -12695686.06149  21825980.6804   21825981.1414   21825980.4304
       232.0004        180.0004
    576441.67849    675830.03049  24243458.5834   24243460.8734   24243458.1854
       207.0004        139.0004
 11 10 11  0  3 30.0000000  0  9G05G26G07G08G13G10G04G02G16
 -14551584.57149 -11324632.90849  21813773.8734   21813776.4134   21813774.6134
       234.0004        189.0004
  -2638126.00249  -1225825.05749  23923948.7164   23923954.8344   23923946.9654
       200.0004        141.0004
 -22102611.89949 -16925793.75449  20565519.7744   20565522.4924   20565520.3654
       240.0004        204.0004
 -19978313.33249 -15554770.12549  21336987.9234   21336992.3164   21336988.5974
       239.0004        193.0004
 -13677623.04749 -10057370.15349  22187524.9404   22187526.2654   22187525.2854
       233.0004        171.0004
 -20938753.21849 -16304262.35449  20464593.1844   20464595.3344   20464592.1164
       241.0004        199.0004
   -712932.91449   -277414.53849  23932733.0974   23932737.5044   23932732.9524
       217.0004        146.0004
 -16266064.08449 -12656996.84949  21835429.4494   21835430.2974   21835429.0594
       231.0004        180.0004
    619130.09549    709093.72949  24251583.8874   24251585.3584   24251584.2584
       209.0004        140.0004
 11 10 11  0  4  0.0000000  0  9G05G26G07G08G13G10G04G02G16
 -14624679.47649 -11381589.96449  21799864.7554   21799867.3104   21799865.4074
       234.0004        190.0004
  -2747672.08749  -1311185.49149  23903102.3994   23903109.0444   23903102.4514
       204.0004        139.0004
 -22105617.84349 -16928136.06049  20564948.0324   20564950.5174   20564948.4254
       240.0004        205.0004
 -20044519.04849 -15606358.98549  21324390.8184   21324393.3214   21324390.1964
       239.0004        193.0004
 -13593414.76649  -9991753.32349  22203548.4494   22203551.3044   22203547.9574
       232.0004        171.0004
 -20896419.57549 -16271275.09749  20472648.2894   20472651.2234   20472647.4494
       240.0004        199.0004
   -604713.15649   -193087.47449  23953327.4664   23953328.6714   23953324.4724
       210.0004        139.0004
 -16215873.65449 -12617887.44349  21844979.6234   21844980.5274   21844979.5354
       230.0004        180.0004
    662373.42949    742789.86149  24259811.1934   24259812.8464   24259812.8004
       208.0004        140.0004
 11 10 11  0  4 30.0000000  0  9G05G26G07G08G13G10G04G02G16
 -14697439.19049 -11438285.84449  21786019.5834   21786021.3254   21786019.7184
       235.0004        189.0004
  -2857090.95849  -1396446.99349  23882282.2934   23882286.4774   23882283.3154
       212.0004        140.0004
 -22108053.73349 -16930034.16849  20564484.4824   20564486.7334   20564484.8474
       240.0004        204.0004
 -20110276.74349 -15657598.73149  21311876.8964   21311880.1354   21311876.7424
       239.0004        193.0004
 -13509011.49049  -9925984.57249  22219610.1724   22219612.2694   22219611.1774
       230.0004        169.0004
 -20853606.25149 -16237914.07049  20480795.2254   20480798.4794   20480794.4944
       241.0004        199.0004
   -496397.12649   -108685.38349  23973938.2764   23973941.8494   23973938.9044
       210.0004        140.0004
 -16165145.53949 -12578359.07949  21854633.1214   21854633.9724   21854632.5964
       229.0004        179.0004
    706170.45849    776917.39349  24268145.6684   24268148.1974   24268146.1294
       208.0004        138.0004
 11 10 11  0  5  0.0000000  0  9G05G26G07G08G13G10G04G02G16
 -14769862.00249 -11494719.20449  21772236.7314   21772239.5964   21772237.3324
       234.0004        189.0004
  -2966381.76449  -1481608.75749  23861484.5994   23861487.9584   23861483.4124
       202.0004        137.0004
 -22109920.31149 -16931488.63449  20564129.6084   20564131.4234   20564129.2214
       240.0004        204.0004
 -20175585.21249 -15708488.43449  21299449.6614   21299452.7094   21299449.1384
       240.0004        194.0004
 -13424414.84549  -9860065.11249  22235707.2554   22235710.7164   22235707.9004
       227.0004        168.0004
 -20810314.34649 -16204180.13149  20489033.4454   20489036.3894   20489032.8414
       240.0004        199.0004
   -387987.86249    -24210.60749  23994569.7704   23994571.0304   23994569.8124
       215.0004        145.0004
 -16113882.40849 -12538413.82849  21864388.2444   21864389.0244   21864387.8534
       231.0004        179.0004
    750519.49949    811475.10149  24276586.5314   24276586.2314   24276585.4274
       209.0004        139.0004
 11 10 11  0  5 30.0000000  0  9G05G26G07G08G13G10G04G02G16
 -14841945.86649 -11550888.43449  21758520.1404   21758522.7194   21758520.5354
       234.0004        190.0004
  -3075543.61949  -1566669.80449  23840711.2404   23840716.9154   23840712.7214
       208.0004        141.0004
 -22111217.95249 -16932499.77849  20563881.8994   20563884.3784   20563882.4074
       239.0004        204.0004
 -20240443.03449 -15759026.97549  21287107.1014   21287110.4564   21287106.2634
       240.0004        194.0004
 -13339625.74749  -9793995.69849  22251842.7544   22251844.7284   22251843.2524
       229.0004        166.0004
 -20766544.44049 -16170073.73049  20497362.5494   20497365.5214   20497362.1374
       241.0004        199.0004
   -279488.08549     60334.60749  24015215.0424   24015218.8624   24015214.3074
       211.0004        144.0004
 -16062086.12149 -12498053.15949  21874244.3414   21874245.9264   21874244.4434
       229.0004        180.0004
    795418.92849    846461.66149  24285130.5034   24285132.1744   24285129.3384
       211.0004        139.0004
 11 10 11  0  6  0.0000000  0  9G05G26G07G08G13G10G04G02G16
 -14913688.06449 -11606791.44549  21744868.5824   21744869.6934   21744869.0374
       237.0004        190.0004
  -3184574.40049  -1651628.82149  23819965.8074   23819969.3424   23819964.5844
       210.0004        147.0004
 -22111946.65449 -16933067.59349  20563743.2694   20563745.8514   20563743.6294
       239.0004        204.0004
 -20304848.03549 -15809212.67949  21274850.8414   21274854.7674   21274851.2104
       238.0004        194.0004
 -13254645.27349  -9727777.17049  22268014.0804   22268017.7924   22268015.2334
       229.0004        166.0004
 -20722296.59449 -16135594.91249  20505783.4074   20505785.6584   20505782.3864
       241.0004        199.0004
   -170900.39249    144948.35349  24035879.0554   24035877.2664   24035878.6134
       212.0004        137.0004
 -16009758.30649 -12457278.30049  21884202.1544   21884203.1184   21884202.1914
       230.0004        179.0004
    840867.90749    881876.42549  24293778.8784   24293781.1504   24293778.2964
       211.0004        141.0004
 11 10 11  0  6 30.0000000  0  9G05G26G07G08G13G10G04G02G16
 -14985087.35749 -11662427.26649  21731281.8204   21731283.5504   21731281.7394
       235.0004        189.0004
  -3293474.01149  -1736485.59349  23799239.5894   23799245.8404   23799238.5884
       204.0004        138.0004
 -22112107.78449 -16933193.14749  20563713.2324   20563715.3374   20563713.5114
       240.0004        204.0004
 -20368799.81749 -15859045.20649  21262682.3434   21262685.3504   21262681.4404
       239.0004        195.0004
 -13169475.64549  -9661411.23449  22284221.7984   22284223.5584   22284221.1434
       228.0004        167.0004
 -20677572.63449 -16100745.09949  20514293.0454   20514296.3044   20514292.6614
       240.0004        198.0004
    -62228.19049    229628.05049  24056557.7094   24056560.8474   24056558.5544
       213.0004        143.0004
 -15956902.04649 -12416091.66449  21894261.6654   21894261.7784   21894260.7254
       232.0004        179.0004
    886863.77849    917717.37149  24302530.6864   24302533.0064   24302531.0614
       208.0004        138.0004
 11 10 11  0  7  0.0000000  0  9G05G26G07G08G13G10G04G02G16
 -15056140.60749 -11717793.42149  21717759.5604   21717762.8224   21717760.3544
       234.0004        191.0004
  -3402239.99149  -1821238.33749  23778542.4904   23778547.6304   23778542.8594
       204.0004        135.0004
 -22111700.41049 -16932875.71149  20563789.9574   20563792.9974   20563790.8244
       239.0004        205.0004
 -20432295.64549 -15908522.46949  21250597.9964   21250601.9824   21250598.9394
       239.0004        195.0004
 -13084116.80949  -9594897.86049  22300464.2534   22300467.5834   22300464.5244
       229.0004        167.0004
 -20632371.92649 -16065523.79649  20522895.5304   20522898.2064   20522894.7574
       241.0004        199.0004
     46526.81849    314372.18149  24077250.3954   24077259.0214   24077252.9924
       206.0004        147.0004
 -15903518.17249 -12374493.87149  21904419.5284   21904419.9304   21904419.4494
       232.0004        179.0004
    933406.25449    953984.22449  24311387.7334   24311388.6014   24311386.4344
       211.0004        140.0004
 11 10 11  0  7 30.0000000  0  9G05G26G07G08G13G10G04G02G16
 -15126847.42949 -11772889.63749  21704306.0014   21704307.5504   21704306.1024
       238.0004        192.0004
  -3510872.42649  -1905886.96149  23757872.7984   23757877.8774   23757873.1144
       211.0004        147.0004
 -22110726.72149 -16932116.99349  20563975.9224   20563977.5254   20563976.2624
       240.0004        204.0004
 -20495335.54849 -15957644.44549  21238603.9964   21238605.9704   21238602.8564
       241.0004        195.0004
 -12998571.74549  -9528239.41649  22316743.4134   22316746.2414   22316743.5724
       229.0004        167.0004
 -20586696.83449 -16029932.83549  20531586.4984   20531590.1214   20531586.0404
       241.0004        199.0004
    155360.37549    399177.49249  24097958.4784   24097967.1154   24097960.4334
       205.0004        141.0004
 -15849610.33249 -12332487.79949  21914677.9104   21914678.6174   21914678.2764
       231.0004        179.0004
    980492.03449    990674.45249  24320346.4884   24320349.5074   24320346.5424
       206.0004        139.0004
 11 10 11  0  8  0.0000000  0  9G05G26G07G08G13G10G04G02G16
 -15197204.32949 -11827713.21049  21690916.9324   21690918.5784   21690917.7314
       237.0004        191.0004
  -3619369.28749  -1990429.88149  23737226.3594   23737230.2704   23737225.4804
       209.0004        143.0004
 -22109186.09549 -16930916.50749  20564268.3714   20564271.1934   20564269.3114
       239.0004        204.0004
 -20557916.90549 -16006409.11449  21226693.3914   21226697.2824   21226693.3664
       240.0004        195.0004
 -12912840.52249  -9461435.86049  22333056.6894   22333060.3774   22333057.7884
       229.0004        167.0004
 -20540546.79549 -15993971.79249  20540368.8864   20540371.8004   20540368.3254
       241.0004        199.0004
    264270.83349    484042.76649  24118688.2134   24118688.3794   24118688.3034
       215.0004        138.0004
 -15795179.64449 -12290074.29549  21925034.8114   21925035.8064   21925035.1994
       230.0004        178.0004
   1028120.97449   1027787.88849  24329410.2274   24329412.2834   24329410.7724
       207.0004        138.0004
 11 10 11  0  8 30.0000000  0  9G05G26G07G08G13G10G04G02G16
 -15267209.92349 -11882263.02049  21677594.8944   21677597.4434   21677595.0394
       236.0004        190.0004
  -3727729.37149  -2074866.29049  23716604.4264   23716609.7284   23716605.1454
       209.0004        143.0004
 -22107079.73949 -16929275.18649  20564670.1564   20564671.8794   20564670.0674
       240.0004        204.0004
 -20620038.93849 -16054815.88749  21214872.7944   21214875.4574   21214872.3014
       241.0004        195.0004
 -12826924.58049  -9394488.37849  22349407.1624   22349409.3604   22349406.4954
       229.0004        167.0004
 -20493923.17049 -15957641.71049  20549241.3504   20549243.7924   20549240.5344
       240.0004        198.0004
    373255.02949    568965.56849  24139428.5354   24139430.7354   24139428.4854
       212.0004        141.0004
 -15740228.58849 -12247255.32649  21935492.9484   21935492.6694   21935492.7034
       231.0004        177.0004
   1076290.90249   1065322.88249  24338578.2204   24338580.1534   24338578.4344
       210.0004        140.0004
 11 10 11  0  9  0.0000000  0  9G05G26G07G08G13G10G04G02G16
 -15336861.21249 -11936536.74449  21664341.1654   21664343.5324   21664341.5734
       237.0004        192.0004
  -3835951.18249  -2159194.95249  23696011.5944   23696016.2074   23696010.8334
       209.0004        142.0004
 -22104407.47049 -16927192.90649  20565177.7284   20565180.5094   20565178.5324
       239.0004        204.0004
 -20681699.40149 -16102862.97449  21203138.8954   21203142.2254   21203138.3384
       240.0004        195.0004
 -12740824.97549  -9327397.78949  22365791.2974   22365793.3614   22365792.0674
       228.0004        165.0004
 -20446826.31949 -15920942.87949  20558202.6154   20558206.2404   20558202.4474
       239.0004        199.0004
    482311.04649    653944.21649  24160179.7994   24160186.0874   24160180.3634
       212.0004        143.0004
 -15684759.08349 -12204032.38349  21946048.2434   21946048.3754   21946048.3284
       231.0004        177.0004
   1125000.53149   1103278.42649  24347846.1564   24347849.5004   24347845.7634
       211.0004        141.0004
 11 10 11  0  9 30.0000000  0  9G05G26G07G08G13G10G04G02G16
 -15406156.50249 -11990533.05549  21651154.3564   21651156.9434   21651154.8674
       237.0004        192.0004
  -3944033.59349  -2243414.98149  23675446.4224   23675447.8214   23675445.5044
       214.0004        144.0004
 -22101169.70949 -16924670.00149  20565794.8744   20565796.2484   20565794.6144
       240.0004        204.0004
 -20742897.14749 -16150549.51449  21191493.2304   21191496.3504   21191493.1534
       240.0004        195.0004
 -12654542.74149  -9260164.88449  22382209.2594   22382213.1054   22382209.7824
       229.0004        166.0004
 -20399257.24949 -15883876.09449  20567255.8864   20567257.9434   20567254.9594
       241.0004        198.0004
    591435.50049    738976.21749  24180949.4544   24180949.5474   24180946.7754
       214.0004        145.0004
 -15628773.29749 -12160407.13249  21956701.8704   21956702.0044   21956701.7914
       230.0004        178.0004
   1174248.08349   1141653.13249  24357217.9494   24357220.4774   24357218.4564
       210.0004        141.0004
 11 10 11  0 10  0.0000000  0  9G05G26G07G08G13G10G04G02G16
 -15475093.61349 -12044250.29149  21638036.7594   21638038.0784   21638037.0774
       237.0004        191.0004
  -4051975.34849  -2327525.45749  23654904.1104   23654907.3334   23654905.2094
       208.0004        143.0004
 -22097367.39549 -16921707.16549  20566517.5724   20566520.2344   20566518.5274
       239.0004        204.0004
 -20803630.85149 -16197874.45049  21179935.9814   21179939.0274   21179935.4684
       240.0004        196.0004
 -12568079.12549  -9192790.66449  22398664.0004   22398666.4594   22398664.0024
       229.0004        165.0004
 -20351216.45349 -15846441.71349  20576396.5224   20576400.1624   20576396.5224
       239.0004        198.0004
    700626.11449    824059.84549  24201724.9464   24201725.4954   24201722.6924
       206.0004        134.0004
 -15572273.36149 -12116381.20549  21967453.0134   21967454.4994   21967452.7804
       230.0004        177.0004
   1224032.30249   1180446.05549  24366690.4984   24366694.7734   24366692.5224
       209.0004        142.0004
 11 10 11  0 10 30.0000000  0  9G05G26G07G08G13G10G04G02G16
 -15543671.24449 -12097687.40149  21624985.6724   21624988.7924   21624986.3364
       235.0004        191.0004
  -4159775.77849  -2411525.70549  23634390.6614   23634394.1864   23634388.7014
       211.0004        144.0004
 -22093001.81849 -16918305.41249  20567349.1244   20567351.1584   20567349.2634
       240.0004        204.0004
 -20863899.86649 -16244837.30849  21168466.6504   21168470.8784   21168467.0804
       239.0004        195.0004
 -12481436.17249  -9125276.68449  22415151.7204   22415152.8644   22415152.0954
       226.0004        163.0004
 -20302705.52149 -15808641.00549  20585628.5404   20585631.6654   20585627.7024
       239.0004        198.0004
    809879.22549    909192.14749  24222515.2354   24222520.1704   24222516.5064
       207.0004        138.0004
 -15515262.45549 -12071957.14449  21978301.1294   21978302.8574   21978301.8814
       228.0004        177.0004
   1274350.39349   1219654.94649  24376268.2054   24376267.6954   24376268.6314
       212.0004        144.0004
 11 10 11  0 11  0.0000000  0  9G05G26G07G08G13G10G04G02G16
 -15611887.11749 -12150842.60249  21612004.7134   21612007.7774   21612005.3474
       237.0004        192.0004
  -4267433.35949  -2495414.68149  23613903.5364   23613906.1614   23613904.4844
       212.0004        145.0004
 -22088073.25449 -16914464.97449  20568286.5714   20568288.5194   20568287.2904
       240.0004        204.0004
 -20923702.43249 -16291436.67749  21157087.7304   21157090.0724   21157086.8214
       241.0004        196.0004
 -12394615.25349  -9057624.02049  22431671.6334   22431675.1334   22431672.8824
       224.0004        162.0004
 -20253725.25149 -15770474.58049  20594949.5864   20594952.2344   20594949.0334
       240.0004        198.0004
    919192.14149    994370.97249  24243317.0304   24243320.4894   24243316.6164
       210.0004        144.0004
 -15457742.72749 -12027136.59549  21989247.4974   21989249.0234   21989246.8094
       230.0004        176.0004
   1325200.88849   1259278.70749  24385944.3964   24385944.7334   24385944.6624
       211.0004        142.0004
 11 10 11  0 11 30.0000000  0  9G05G26G07G08G13G10G04G02G16
 -15679738.83249 -12203714.06249  21599093.3854   21599095.6324   21599094.0364
       236.0004        193.0004
  -4374946.75249  -2579191.31749  23593445.2844   23593448.0824   23593445.1874
       214.0004        147.0004
 -22082581.93249 -16910186.01049  20569331.5054   20569334.0394   20569331.7114
       239.0004        204.0004
 -20983036.85549 -16337671.28049  21145795.7864   21145799.3494   21145795.7244
       239.0004        196.0004
 -12307616.76149  -8989833.00849  22448227.8524   22448230.3454   22448228.9034
       225.0004        162.0004
 -20204275.79549 -15731942.55649  20604359.0404   20604362.1514   20604358.4084
       240.0004        197.0004
   1028562.88549   1079594.89249  24264130.6734   24264133.5534   24264129.8804
       210.0004        137.0004
 -15399715.90549 -11981920.92149  22000289.7204   22000290.4034   22000289.6974
       230.0004        175.0004
   1376582.62749   1299316.40749  24395721.6354   24395722.6514   24395719.3414
       209.0004        140.0004
 11 10 11  0 12  0.0000000  0  9G05G26G07G08G13G10G04G02G16
 -15747224.09549 -12256299.97349  21586251.1284   21586253.3444   21586251.8164
       235.0004        191.0004
  -4482314.41749  -2662854.41149  23573012.4364   23573015.2934   23573013.0094
       211.0004        144.0004
 -22076528.77949 -16905469.24449  20570483.2984   20570485.1974   20570484.1864
       240.0004        204.0004
 -21041901.65249 -16383539.92749  21134595.4144   21134597.7724   21134594.7364
       241.0004        196.0004
 -12220441.96549  -8921904.61149  22464816.1634   22464819.7194   22464817.1104
       225.0004        162.0004
 -20154358.20949 -15693045.74649  20613858.7974   20613860.7904   20613857.9374
       240.0004        198.0004
   1137988.61749   1164861.71249  24284949.7344   24284953.0054   24284951.8884
       204.0004        133.0004
 -15341184.27549 -11936311.89549  22011428.3994   22011428.5074   22011428.3874
       229.0004        176.0004
   1428493.69249   1339766.56549  24405600.2974   24405601.7394   24405599.0934
       210.0004        141.0004
 11 10 11  0 12 30.0000000  0  9G05G26G07G08G13G10G04G02G16
 -15814341.12449 -12308598.93949  21573479.2044   21573481.4604   21573479.6064
       235.0004        192.0004
  -4589535.30749  -2746403.08049  23552610.1024   23552613.2034   23552609.0014
       213.0004        147.0004
 -22069914.68349 -16900315.40049  20571742.3764   20571744.6324   20571742.0394
       239.0004        204.0004
 -21100295.79149 -16429041.83649  21123481.7354   21123485.5974   21123482.3414
       240.0004        196.0004
 -12133092.39449  -8853840.02749  22481437.7694   22481442.6164   22481438.4204
       223.0004        162.0004
 -20103973.62849 -15653785.04449  20623445.5214   20623449.0454   20623445.0634
       239.0004        198.0004
   1247466.43349   1250169.11449  24305783.5204   24305789.9214   24305783.8604
       207.0004        143.0004
 -15282150.45249 -11890311.55049  22022662.6324   22022662.4214   22022662.1654
       230.0004        176.0004
   1480932.09149   1380627.65449  24415578.4134   24415580.3334   24415579.4614
       213.0004        143.0004
 11 10 11  0 13  0.0000000  0  9G05G26G07G08G13G10G04G02G16
 -15881088.00749 -12360609.49449  21560777.6874   21560780.2494   21560778.2954
       235.0004        193.0004
  -4696608.33449  -2829836.57049  23532234.0214   23532236.8774   23532234.6354
       215.0004        146.0004
 -22062740.03849 -16894724.76849  20573107.1384   20573109.1844   20573107.8244
       241.0004        204.0004
 -21158218.29649 -16474176.23549  21112460.7184   21112463.0444   21112459.8304
       241.0004        196.0004
 -12045569.20949  -8785640.15249  22498094.5784   22498097.6704   22498095.0254
       226.0004        162.0004
 -20053123.20849 -15614161.35049  20633122.8394   20633125.5154   20633121.6934
       240.0004        197.0004
   1356993.37149   1335514.72449  24326624.9644   24326630.4164   24326624.9814
       202.0004        140.0004
 -15222616.82549 -11843921.73749  22033990.8514   22033991.2104   22033990.8324
       228.0004        175.0004
   1533896.09849   1421898.30949  24425657.0954   24425659.5124   24425657.1394
       209.0004        144.0004
 11 10 11  0 13 30.0000000  0  9G05G26G07G08G13G10G04G02G16
 -15947462.65449 -12412329.98649  21548146.7594   21548150.0974   21548147.8164
       235.0004        194.0004
  -4803532.24949  -2913153.91549  23511886.5824   23511890.1564   23511887.3794
       210.0004        145.0004
 -22055005.72449 -16888698.01749  20574578.3704   20574580.8884   20574578.8224
       239.0004        203.0004
 -21215667.65949 -16518941.95249  21101527.4794   21101531.0284   21101527.2864
       240.0004        196.0004
 -11957873.80849  -8717306.08649  22514782.4994   22514784.2124   22514782.4884
       226.0004        161.0004
 -20001807.56149 -15574175.14849  20642887.3094   20642890.6354   20642886.6504
       239.0004        197.0004
   1466566.78249   1420896.53349  24347476.3184   24347478.9864   24347478.4734
       205.0004        134.0004
 -15162585.58949 -11797144.14349  22045414.5224   22045415.6154   22045413.7644
       230.0004        175.0004
   1587383.62749   1463576.89249  24435835.4314   24435837.5014   24435835.0824
       212.0004        142.0004
 11 10 11  0 14  0.0000000  0  9G05G26G07G08G13G10G04G02G16
 -16013462.46649 -12463758.39349  21535587.6764   21535590.2964   21535588.3914
       236.0004        193.0004
  -4910305.32849  -2996353.59249  23491568.8434   23491572.4664   23491568.6964
       214.0004        147.0004
 -22046712.27649 -16882235.58049  20576157.7974   20576159.5904   20576157.8804
       241.0004        204.0004
 -21272642.27749 -16563337.73749  21090685.4004   21090688.8704   21090685.3974
       239.0004        196.0004
 -11870006.87149  -8648838.34349  22531501.5814   22531504.7164   22531502.4374
       225.0004        162.0004
 -19950026.91949 -15533826.62549  20652740.7724   20652743.6094   20652740.3784
       238.0004        197.0004
   1576184.43849   1506312.97349  24368335.6674   24368342.3664   24368336.9104
       205.0004        137.0004
 -15102058.91549 -11749980.48949  22056932.1074   22056933.8544   22056932.2574
       229.0004        173.0004
   1641393.65649   1505662.59949  24446113.9984   24446114.0354   24446113.7414
       212.0004        141.0004
 11 10 11  0 14 30.0000000  0  9G05G26G07G08G13G10G04G02G16
 -16079085.39049 -12514893.12849  21523100.2244   21523102.4904   21523100.7984
       237.0004        193.0004
  -5016926.66749  -3079435.11449  23471278.4834   23471283.1394   23471280.0434
       210.0004        148.0004
 -22037860.25549 -16875337.88549  20577841.2904   20577843.6914   20577842.0814
       240.0004        204.0004
 -21329141.01949 -16607362.70449  21079934.4504   21079937.6554   21079934.7134
       240.0004        196.0004
 -11781969.78449  -8580238.03749  22548255.3934   22548256.6604   22548254.7174
       226.0004        161.0004
 -19897782.75749 -15493116.89549  20662682.4774   20662686.0004   20662682.0844
       239.0004        196.0004
   1685843.60749   1591761.65649  24389205.0164   24389209.6654   24389206.1814
       200.0004        137.0004
 -15041039.47849 -11702432.88749  22068544.2834   22068544.4854   22068543.7384
       229.0004        176.0004
   1695924.03949   1548153.79449  24456490.8334   24456491.5624   24456490.3054
       214.0004        142.0004
 11 10 11  0 15  0.0000000  0  9G05G26G07G08G13G10G04G02G16
 -16144330.01049 -12565733.08249  21510684.9754   21510686.8444   21510684.9294
       237.0004        193.0004
  -5123394.86349  -3162397.28449  23451017.8974   23451021.6384   23451018.8014
       208.0004        143.0004
 -22028451.12749 -16868006.08649  20579632.5324   20579634.6174   20579632.7794
       240.0004        204.0004
 -21385162.73249 -16651015.95949  21069274.2744   21069276.9544   21069273.5744
       241.0004        197.0004
 -11693763.79749  -8511506.09949  22565040.9224   22565043.1524   22565040.3924
       226.0004        164.0004
 -19845075.86949 -15452046.62149  20672712.4774   20672715.5894   20672711.6194
       239.0004        196.0004
   1795541.38949   1677240.35349  24410078.3984   24410084.0374   24410079.0664
       205.0004        139.0004
 -14979529.52249 -11654503.08049  22080249.4414   22080249.8634   22080248.9064
       228.0004        174.0004
   1750972.66949   1591048.82149  24466964.7824   24466967.2484   24466965.6514
       209.0004        141.0004
 11 10 11  0 15 30.0000000  0  9G05G26G07G08G13G10G04G02G16
 -16209194.27949 -12616276.64949  21498340.4474   21498344.2334   21498340.9504
       235.0004        194.0004
  -5229708.97849  -3245239.42349  23430789.3634   23430790.4214   23430789.6194
       213.0004        147.0004
 -22018485.51149 -16860240.66449  20581528.2134   20581530.7194   20581528.5824
       239.0004        203.0004
 -21440706.53249 -16694296.81849  21058704.3894   21058707.0724   21058703.7154
       241.0004        197.0004
 -11605390.38549  -8442643.70349  22581857.1134   22581860.2994   22581857.3084
       226.0004        162.0004
 -19791907.52549 -15410616.77949  20682830.1694   20682832.9084   20682829.4234
       238.0004        196.0004
   1905274.64849   1762746.80949  24430962.8794   24430964.9114   24430961.1214
       209.0004        138.0004
 -14917531.97849 -11606193.32949  22092046.3134   22092047.6404   22092046.5094
       229.0004        175.0004
   1806537.33549   1634345.96449  24477539.3884   24477540.3484   24477538.3624
       211.0004        142.0004
 11 10 11  0 16  0.0000000  0  9G05G26G07G08G13G10G04G02G16
 -16273675.39349 -12666521.66649  21486071.3844   21486073.3224   21486071.6914
       238.0004        195.0004
  -5335867.38449  -3327960.20349  23410587.7634   23410590.7794   23410586.7634
       214.0004        148.0004
 -22007963.61849 -16852041.78049  20583530.9354   20583533.0134   20583531.0374
       239.0004        204.0004
 -21495770.41649 -16737203.71549  21048225.1164   21048229.2384   21048225.4954
       241.0004        197.0004
 -11516850.37249  -8373651.48849  22598705.6004   22598708.8034   22598705.8794
       225.0004        161.0004
 -19738278.22549 -15368827.73849  20693035.7404   20693038.6194   20693034.4164
       241.0004        195.0004
   2015041.38949   1848279.37849  24451850.4134   24451853.5614   24451847.8214
       202.0004        133.0004
 -14855048.54249 -11557504.97649  22103937.2884   22103937.6304   22103937.5844
       228.0004        174.0004
   1862616.81849   1678044.28749  24488210.5184   24488212.1494   24488210.0644
       210.0004        140.0004
 11 10 11  0 16 30.0000000  0  9G05G26G07G08G13G10G04G02G16
 -16337772.02149 -12716467.10149  21473874.1974   21473876.3144   21473874.6734
       238.0004        195.0004
  -5441869.03349  -3410558.81449  23390415.3504   23390419.7134   23390414.4664
       212.0004        148.0004
 -21996887.35249 -16843410.92349  20585638.4754   20585640.7394   20585638.8764
       240.0004        204.0004
 -21550353.82149 -16779736.22349  21037838.7954   21037842.3554   21037838.9364
       241.0004        197.0004
 -11428145.12449  -8304530.53349  22615586.6624   22615589.1584   22615586.8594
       225.0004        161.0004
 -19684189.32049 -15326680.58649  20703328.1434   20703331.3654   20703327.7164
       241.0004        196.0004
   2124838.58349   1933835.53649  24472743.0474   24472746.1184   24472743.0004
       208.0004        138.0004
 -14792081.87249 -11508440.05749  22115918.0434   22115919.3854   22115918.3964
       226.0004        172.0004
   1919208.92149   1722142.01649  24498979.2254   24498981.4054   24498979.9794
       211.0004        141.0004
 11 10 11  0 17  0.0000000  0  9G05G26G07G08G13G10G04G02G16
 -16401481.44449 -12766110.80349  21461750.0724   21461752.5364   21461750.6434
       236.0004        194.0004
  -5547712.28249  -3493034.02349  23370273.7224   23370276.6724   23370274.7884
       212.0004        146.0004
 -21985256.42249 -16834347.84649  20587851.3394   20587854.2064   20587852.2504
       239.0004        204.0004
 -21604455.36849 -16821893.24049  21027544.3824   21027546.9324   21027543.5104
       242.0004        197.0004
 -11339275.59649  -8235281.57249  22632497.8284   22632498.9724   22632498.7904
       224.0004        160.0004
 -19629641.53949 -15284175.85649  20713708.8154   20713711.5934   20713708.3284
       241.0004        195.0004
   2234663.75749   2019413.59149  24493642.3194   24493645.4134   24493641.2794
       207.0004        138.0004
 -14728634.49949 -11459000.59049  22127993.8374   22127993.1644   22127993.0084
       230.0004        174.0004
   1976311.88649   1766637.82349  24509846.2984   24509847.6044   24509847.2594
       211.0004        138.0004
 11 10 11  0 17 30.0000000  0  9G05G26G07G08G13G10G04G02G16
 -16464802.18249 -12815451.64349  21449701.2794   21449703.0464   21449701.8444
       239.0004        196.0004
  -5653396.48749  -3575385.37849  23350162.6174   23350163.9114   23350162.3154
       212.0004        144.0004
 -21973072.53449 -16824853.89949  20590170.4004   20590172.4234   20590170.6834
       240.0004        203.0004
 -21658074.19949 -16863674.12149  21017339.6944   21017343.5684   21017339.8504
       240.0004        197.0004
 -11250243.36549  -8165905.82349  22649439.3864   22649442.0124   22649440.3524
       226.0004        161.0004
 -19574636.06449 -15241314.47349  20724175.8204   20724178.8794   20724175.1024
       241.0004        195.0004
   2344513.87549   2105011.08549  24514546.6554   24514550.0204   24514547.3034
       202.0004        133.0004
 -14664709.52449 -11409188.97949  22140156.7634   22140157.3554   22140157.1664
       226.0004        174.0004
   2033923.17749   1811529.73349  24520809.5214   24520811.2514   24520809.8354
       209.0004        137.0004
 11 10 11  0 18  0.0000000  0  9G05G26G07G08G13G10G04G02G16
 -16527732.46849 -12864488.21649  21437726.1354   21437728.0014   21437726.1184
       238.0004        196.0004
  -5758920.37549  -3657611.71649  23330082.9914   23330085.7224   23330082.8574
       213.0004        150.0004
 -21960336.63449 -16814929.79849  20592593.8934   20592595.7914   20592594.2554
       240.0004        204.0004
 -21711209.08649 -16905077.90449  21007228.9694   21007232.8954   21007228.9394
       241.0004        198.0004
 -11161049.60949  -8096404.21549  22666413.2344   22666414.0174   22666412.9604
       224.0004        160.0004
 -19519174.38349 -15198097.59249  20734730.0894   20734732.6054   20734728.9684
       241.0004        195.0004
   2454386.23149   2190625.88449  24535453.0174   24535457.5074   24535453.9104
       203.0004        135.0004
 -14600309.24349 -11359006.99549  22152412.4704   22152413.2754   22152410.9494
       229.0004        173.0004
   2092040.79249   1856816.19249  24531868.2704   24531868.6154   24531867.9714
       206.0004        136.0004
 11 10 11  0 18 30.0000000  0  9G05G26G07G08G13G10G04G02G16
 -16590269.53149 -12913218.39349  21425825.1914   21425827.0894   21425825.5484
       238.0004        194.0004
  -5864281.93349  -3739711.49249  23310031.8954   23310036.6254   23310032.7734
       211.0004        150.0004
 -21947048.98749 -16804575.76949  20595122.1104   20595125.0914   20595123.0094
       239.0004        204.0004
 -21763858.21149 -16946103.18149  20997210.3554   20997213.9374   20997210.0324
       241.0004        198.0004
 -11071694.86349  -8026777.17349  22683415.7274   22683419.0054   22683415.6554
       223.0004        161.0004
 -19463256.45749 -15154525.17749  20745370.6614   20745373.5254   20745370.0324
       240.0004        195.0004
   2564278.56549   2276256.27349  24556365.7594   24556371.5344   24556367.8304
       208.0004        141.0004
 -14535435.43149 -11308456.07849  22164757.6544   22164758.9184   22164756.7674
       227.0004        174.0004
   2150663.93749   1902496.57549  24543023.8034   24543024.5104   24543025.4724
       208.0004        135.0004
 11 10 11  0 19  0.0000000  0  9G05G26G07G08G13G10G04G02G16
 -16652411.69049 -12961640.84849  21413999.6464   21414001.8834   21414000.6224
       239.0004        195.0004
  -5969480.50549  -3821684.38249  23290013.4704   23290017.1204   23290012.9934
       213.0004        146.0004
 -21933210.83049 -16793792.75249  20597756.0314   20597757.9854   20597756.3354
       240.0004        204.0004
 -21816020.96349 -16986749.46649  20987284.1654   20987287.5444   20987284.2754
       242.0004        198.0004
 -10982180.84349  -7957025.99749  22700449.9744   22700452.2984   22700448.6134
       223.0004        158.0004
 -19406883.89749 -15110598.51849  20756097.5164   20756100.7214   20756096.9184
       240.0004        194.0004
   2674187.90949   2361899.90149  24577279.8384   24577284.4154   24577281.5724
       198.0004        136.0004
 -14470091.27949 -11257538.63749  22177190.9704   22177193.1504   22177190.5034
       226.0004        172.0004
   2209789.39249   1948568.32949  24554274.7794   24554276.1064   24554274.0674
       203.0004        136.0004
 11 10 11  0 19 30.0000000  0  9G05G26G07G08G13G10G04G02G16
 -16714157.27749 -13009754.28849  21402250.2494   21402252.4844   21402250.9204
       239.0004        196.0004
  -6074514.94049  -3903529.38949  23270027.8234   23270028.8124   23270028.1984
       215.0004        149.0004
 -21918823.37349 -16782581.73949  20600493.5254   20600495.9384   20600493.9834
       240.0004        204.0004
 -21867696.64149 -17027016.20349  20977450.6214   20977453.9244   20977450.3254
       242.0004        198.0004
 -10892508.85749  -7887151.76549  22717514.5894   22717517.4894   22717514.1344
       222.0004        158.0004
 -19350058.18749 -15066318.75649  20766912.2664   20766914.5914   20766910.9174
       241.0004        194.0004
   2784111.44849   2447554.51649  24598198.4384   24598200.1204   24598200.6664
       207.0004        130.0004
 -14404279.47749 -11206256.82249  22189716.1284   22189716.0324   22189716.6344
       230.0004        172.0004
   2269415.23549   1995030.04649  24565621.8294   24565624.3864   24565623.6234
       208.0004        136.0004
 11 10 11  0 20  0.0000000  0  9G05G26G07G08G13G10G04G02G16
 -16775503.41549 -13057556.48049  21390576.8854   21390578.8964   21390577.4024
       239.0004        196.0004
  -6179383.29549  -3985244.92549  23250070.8744   23250074.9204   23250070.8784
       212.0004        148.0004
 -21903886.92849 -16770942.94949  20603335.8134   20603338.3884   20603336.4694
       240.0004        204.0004
 -21918883.39149 -17066901.96249  20967710.3854   20967713.2854   20967710.0644
       242.0004        198.0004
 -10802679.62249  -7817154.96549  22734607.3764   22734610.0344   22734608.5054
       221.0004        157.0004
 -19292779.81949 -15021686.28949  20777811.1274   20777814.7654   20777810.6754
       240.0004        195.0004
   2894047.17049   2533218.80249  24619119.5694   24619120.4684   24619119.1094
       211.0004        137.0004
 -14338001.77349 -11154611.91649  22202329.1214   22202329.8664   22202327.6754
       231.0004        172.0004
   2329539.92749   2041880.43349  24577064.3534   24577065.3504   24577061.8214
       208.0004        137.0004
 11 10 11  0 20 30.0000000  0  9G05G26G07G08G13G10G04G02G16
 -16836448.38549 -13105046.06549  21378978.7904   21378981.0604   21378979.5044
       238.0004        196.0004
  -6284084.53349  -4066830.18749  23230146.7664   23230150.4174   23230147.8964
       218.0004        153.0004
 -21888402.65549 -16758877.27949  20606282.8534   20606284.5444   20606282.8924
       240.0004        204.0004
 -21969580.36949 -17106406.06749  20958063.9484   20958065.8814   20958062.5064
       242.0004        199.0004
 -10712694.28549  -7747036.53949  22751731.5774   22751734.2664   22751731.8624
       222.0004        157.0004
 -19235049.79149 -14976701.88949  20788797.4024   20788800.0734   20788796.6574
       240.0004        195.0004
   3003992.31849   2618890.34649  24640038.5334   24640043.6374   24640040.6854
       201.0004        136.0004
 -14271261.01049 -11102606.17149  22215028.0134   22215030.0994   22215028.4424
       228.0004        173.0004
   2390161.60349   2089118.06949  24588600.0774   24588601.3324   24588601.1684
       205.0004        134.0004
 11 10 11  0 21  0.0000000  0  9G05G26G07G08G13G10G04G02G16
 -16896990.35249 -13152221.62349  21367457.5024   21367459.6554   21367458.7324
       238.0004        195.0004
  -6388617.25549  -4148284.19349  23210254.7194   23210258.5414   23210254.6714
       215.0004        152.0004
 -21872371.91049 -16746385.78749  20609332.9134   20609335.1864   20609333.4274
       240.0004        204.0004
 -22019786.35949 -17145527.58749  20948508.0434   20948511.9534   20948508.4114
       242.0004        198.0004
 -10622554.02249  -7676797.39249  22768885.0144   22768888.8244   22768884.9494
       221.0004        156.0004
 -19176869.10249 -14931366.32249  20799868.0194   20799871.4654   20799867.6324
       241.0004        195.0004
   3113944.15049   2704566.96849  24660962.9674   24660968.0404   24660962.6684
       202.0004        132.0004
 -14204060.20049 -11050241.95649  22227815.1054   22227817.4704   22227815.7184
       226.0004        173.0004
   2451278.07649   2136741.30349  24600228.4104   24600229.9424   24600232.5074
       205.0004        134.0004
 11 10 11  0 21 30.0000000  0  9G05G26G07G08G13G10G04G02G16
 -16957127.88249 -13199082.04649  21356014.8794   21356016.1304   21356015.0824
       239.0004        195.0004
  -6492981.31249  -4229606.81149  23190394.2744   23190395.9444   23190393.3964
       212.0004        145.0004
 -21855796.28149 -16733469.71649  20612487.0914   20612489.5214   20612487.9254
       240.0004        204.0004
 -22069501.07449 -17184266.30449  20939049.4054   20939051.6844   20939048.6144
       243.0004        199.0004
 -10532260.72249  -7606439.00449  22786066.3044   22786070.4834   22786067.4384
       221.0004        155.0004
 -19118239.81949 -14885681.22149  20811025.3654   20811028.4854   20811024.7134
       241.0004        195.0004
   3223899.11749   2790246.13449  24681887.7754   24681886.7784   24681890.4084
       210.0004        132.0004
 -14136402.22449 -10997521.53349  22240691.7544   22240692.0224   22240691.9514
       229.0004        173.0004
   2512886.22749   2184747.65449  24611952.6714   24611954.6244   24611954.1234
       203.0004        132.0004
 11 10 11  0 22  0.0000000  0  9G05G26G07G08G13G10G04G02G16
 -17016857.77949 -13245624.81549  21344647.4764   21344650.5984   21344648.0984
       237.0004        195.0004
  -6597173.94649  -4310795.80749  23170568.7924   23170570.0234   23170568.0254
       217.0004        150.0004
 -21838675.63249 -16720128.94249  20615745.2804   20615747.3604   20615745.5484
       240.0004        204.0004
 -22118722.52549 -17222620.65449  20929681.5974   20929684.7804   20929681.8424
       242.0004        199.0004
 -10441814.54449  -7535961.46749  22803278.2754   22803281.4294   22803279.6054
       223.0004        156.0004
 -19059161.98349 -14839646.56249  20822266.7184   20822270.3284   20822266.2114
       240.0004        194.0004
   3333855.78749   2875926.82449  24702810.2414   24702813.1054   24702810.1944
       194.0004        131.0004
 -14068288.94749 -10944446.26349  22253652.2794   22253653.6444   22253652.1724
       227.0004        172.0004
   2574985.14049   2233136.37649  24623770.3454   24623771.4084   24623769.0354
       200.0004        130.0004
 11 10 11  0 22 30.0000000  0  9G05G26G07G08G13G10G04G02G16
 -17076178.31049 -13291848.60449  21333360.2154   21333362.5444   21333360.4074
       240.0004        196.0004
  -6701194.18249  -4391850.45849  23150770.9054   23150776.3814   23150772.9314
       212.0004        151.0004
 -21821010.87549 -16706364.19349  20619106.6424   20619108.8174   20619106.8924
       240.0004        204.0004
 -22167449.63249 -17260589.81049  20920410.0804   20920412.5434   20920408.9654
       243.0004        199.0004
 -10351216.59749  -7465365.68949  22820518.7044   22820521.6584   22820520.5384
       222.0004        157.0004
 -18999636.69549 -14793263.24149  20833595.0264   20833597.7064   20833594.3274
       242.0004        195.0004
   3443811.70549   2961606.61749  24723732.6374   24723743.7704   24723734.0404
       200.0004        134.0004
 -13999722.81449 -10891018.12549  22266700.8984   22266700.5784   22266701.5964
       228.0004        170.0004
   2637572.75449   2281905.94049  24635679.0754   24635678.7564   24635678.9904
       201.0004        130.0004
 11 10 11  0 23  0.0000000  0  9G05G26G07G08G13G10G04G02G16
 -17135087.75049 -13337752.07149  21322150.0084   21322151.9234   21322150.3304
       239.0004        195.0004
  -6805040.86349  -4472769.86549  23131010.4144   23131015.0414   23131011.5424
       215.0004        151.0004
 -21802803.59149 -16692176.69149  20622571.2894   20622573.7984   20622571.6584
       240.0004        204.0004
 -22215681.59149 -17298173.15049  20911230.6974   20911234.5634   20911230.9204
       242.0004        199.0004
 -10260468.59949  -7394652.96649  22837787.7314   22837789.5154   22837787.9764
       222.0004        158.0004
 -18939665.25049 -14746532.24949  20845006.8284   20845010.0904   20845006.0554
       241.0004        195.0004
   3553763.41149   3047283.17249  24744659.0884   24744662.3114   24744659.9574
       209.0004        138.0004
 -13930706.96749 -10837239.55749  22279833.7564   22279834.2264   22279834.0154
       226.0004        170.0004
   2700646.65349   2331054.45349  24647682.2554   24647683.3354   24647681.6514
       201.0004        130.0004
 11 10 11  0 23 30.0000000  0  9G05G26G07G08G13G10G04G02G16
 -17193584.43249 -13383333.90449  21311018.6144   21311019.8944   21311018.3274
       239.0004        196.0004
  -6908713.24649  -4553553.50549  23111282.9384   23111285.8094   23111283.4894
       215.0004        149.0004
 -21784055.58149 -16677567.84449  20626139.1214   20626141.1924   20626139.4854
       240.0004        204.0004
 -22263417.94649 -17335370.28949  20902148.1414   20902150.5134   20902147.3464
       244.0004        199.0004
 -10169571.41849  -7323824.03349  22855085.5374   22855085.6614   22855084.0844
       222.0004        156.0004
 -18879249.44849 -14699455.00649  20856503.3784   20856506.7564   20856502.8534
       242.0004        195.0004
   3663708.29849   3132954.58349  24765581.0574   24765582.6454   24765582.1744
       202.0004        127.0004
 -13861244.38249 -10783112.89749  22293052.5384   22293054.1674   22293052.7344
       227.0004        171.0004
   2764204.28549   2380579.84649  24659776.3264   24659776.3504   24659775.6404
       198.0004        131.0004
 11 10 11  0 24  0.0000000  0  9G05G26G07G08G13G10G04G02G16
 -17251666.28649 -13428592.48549  21299964.9374   21299968.1034   21299965.3324
       237.0004        196.0004
  -7012209.70249  -4634200.05749  23091588.2574   23091590.9454   23091589.0644
       216.0004        151.0004
 -21764767.20449 -16662537.93449  20629809.3284   20629811.6174   20629809.8174
       240.0004        204.0004
 -22310657.83949 -17372180.57349  20893157.7364   20893160.9974   20893157.1594
       243.0004        200.0004
 -10078526.54949  -7252879.98649  22872410.4104   22872411.4894   22872410.8864
       224.0004        159.0004
 -18818390.26149 -14652032.29049  20868085.8844   20868087.9144   20868084.4274
       241.0004        195.0004
   3773644.27949   3218619.07149  24786497.9114   24786509.2614   24786499.6524
       196.0004        129.0004
 -13791337.62749 -10728640.12049  22306354.4114   22306356.7284   22306355.2454
       227.0004        172.0004
   2828243.79149   2430480.76349  24671964.0244   24671966.3624   24671962.4204
       200.0004        131.0004
 11 10 11  0 24 30.0000000  0  9G05G26G07G08G13G10G04G02G16
 -17309330.90549 -13473525.95649  21288992.0994   21288994.9774   21288993.0024
       238.0004        197.0004
  -7115528.75849  -4714708.33649  23071927.4564   23071931.1624   23071927.0474
       215.0004        154.0004
 -21744939.60149 -16647087.84049  20633582.7704   20633584.4054   20633582.9714
       240.0004        204.0004
 -22357399.82049 -17408602.86749  20884263.2954   20884266.6534   20884262.9544
       243.0004        200.0004
  -9987334.68649  -7181821.41949  22889762.8544   22889766.1844   22889763.6944
       222.0004        160.0004
 -18757088.37949 -14604264.59749  20879749.7554   20879753.3974   20879748.7874
       240.0004        194.0004
   3883568.20449   3304273.90949  24807416.3384   24807423.7564   24807418.8624
       205.0004        142.0004
 -13720989.01949 -10673823.04649  22319741.7904   22319742.8144   22319741.3864
       228.0004        171.0004
   2892762.90449   2480755.40349  24684242.1634   24684242.9254   24684239.9584
       202.0004        132.0004
 11 10 11  0 25  0.0000000  0  9G05G26G07G08G13G10G04G02G16
 -17366576.22349 -13518132.70649  21278099.0434   21278101.3644   21278099.3294
       236.0004        197.0004
  -7218669.21849  -4795077.46049  23052299.3404   23052302.5794   23052300.1794
       215.0004        151.0004
 -21724573.46649 -16631218.12249  20637457.4994   20637460.5144   20637458.5694
       239.0004        204.0004
 -22403642.95049 -17444636.45449  20875463.4594   20875466.4244   20875462.7464
       243.0004        200.0004
  -9895996.66149  -7110648.94349  22907145.2514   22907146.0074   22907145.4434
       222.0004        157.0004
 -18695344.82449 -14556152.74949  20891499.9774   20891502.7974   20891499.1524
       241.0004        195.0004
   3993478.10549   3389917.98349  24828331.5734   24828336.0104   24828330.4324
       193.0004        132.0004
 -13650201.39849 -10618663.88349  22333210.2304   22333213.9964   22333210.9134
       222.0004        168.0004
   2957759.58249   2531402.17149  24696609.1104   24696611.7434   24696609.8874
       205.0004        132.0004
 11 10 11  0 25 30.0000000  0  9G05G26G07G08G13G10G04G02G16
 -17423401.05449 -13562411.78449  21267284.8524   21267287.3144   21267285.5404
       236.0004        196.0004
  -7321630.25549  -4875306.80349  23032708.2874   23032709.9304   23032707.8414
       216.0004        152.0004
 -21703670.76349 -16614930.29449  20641435.8484   20641437.9324   20641436.0214
       240.0004        204.0004
 -22449386.96949 -17480281.12249  20866759.3164   20866761.4874   20866758.7774
       244.0004        201.0004
  -9804514.43749  -7039364.11349  22924552.1024   22924555.9204   22924552.6624
       220.0004        157.0004
 -18633161.80049 -14507698.43749  20903332.0744   20903335.8994   20903332.0234
       240.0004        195.0004
   4103370.82649   3475548.62049  24849238.9694   24849245.6094   24849244.6224
       192.0004        122.0004
 -13578977.72449 -10563164.94949  22346765.0724   22346767.5694   22346764.9804
       224.0004        166.0004
   3023231.37649   2582419.10149  24709069.0024   24709070.7894   24709068.7394
       206.0004        134.0004
 11 10 11  0 26  0.0000000  0  9G05G26G07G08G13G10G04G02G16
 -17479802.69249 -13606361.11649  21256552.6194   21256554.9814   21256553.2224
       239.0004        197.0004
  -7424409.90649  -4955394.76149  23013148.9964   23013151.0624   23013148.2274
       214.0004        151.0004
 -21682232.06149 -16598224.80149  20645515.1244   20645517.7794   20645515.8244
       240.0004        204.0004
 -22494630.01449 -17515535.41849  20858148.7624   20858152.2874   20858148.4564
       243.0004        200.0004
  -9712888.44749  -6967967.25049  22941988.6234   22941991.6804   22941988.1224
       222.0004        155.0004
 -18570539.56749 -14458901.90749  20915249.3464   20915252.3134   20915248.7904
       240.0004        194.0004
   4213244.11349   3561164.22949  24870153.8844   24870157.6894   24870154.2954
       204.0004        137.0004
 -13507320.56249 -10507328.22249  22360402.5504   22360402.1884   22360401.7734
       226.0004        169.0004
   3089176.36249   2633804.75349  24721616.6574   24721619.1774   24721616.7564
       205.0004        134.0004
 11 10 11  0 26 30.0000000  0  9G05G26G07G08G13G10G04G02G16
 -17535779.45649 -13649979.38149  21245901.0794   21245903.4394   21245901.4184
       238.0004        198.0004
  -7527007.21549  -5035340.68349  22993625.5954   22993627.5694   22993626.4074
       216.0004        153.0004
 -21660258.86349 -16581102.80949  20649696.6704   20649699.1364   20649696.8634
       240.0004        204.0004
 -22539371.63249 -17550398.99849  20849635.3004   20849638.4044   20849634.9564
       244.0004        200.0004
  -9621120.03049  -6896459.41049  22959451.4174   22959453.6474   22959451.3074
       221.0004        156.0004
 -18507479.68249 -14409764.34249  20927249.2804   20927252.3014   20927247.8664
       240.0004        194.0004
   4323095.08249   3646762.33349  24891057.7584   24891061.9794   24891055.8804
       199.0004        137.0004
 -13435232.65249 -10451155.85249  22374119.0174   22374120.6824   22374118.5314
       226.0004        170.0004
   3155592.29149   2685557.42149  24734254.9614   24734258.6414   24734255.1324
       204.0004        133.0004
 11 10 11  0 27  0.0000000  0  9G05G26G07G08G13G10G04G02G16
 -17591329.45649 -13693265.09049  21235329.9764   21235332.4644   21235329.9484
       237.0004        197.0004
  -7629420.88649  -5115143.49649  22974135.5384   22974140.0014   22974136.0554
       214.0004        153.0004
 -21637752.44349 -16563565.33249  20653979.8424   20653981.8334   20653980.0684
       240.0004        203.0004
 -22583611.27949 -17584871.42549  20841216.0674   20841219.6894   20841216.0004
       242.0004        200.0004
  -9529210.77049  -6824841.84049  22976940.7724   22976942.4104   22976940.2634
       220.0004        155.0004
 -18443983.42549 -14360286.74249  20939331.8224   20939335.2824   20939331.6294
       239.0004        194.0004
   4432921.40749   3732341.15449  24911954.7274   24911961.2974   24911953.5474
       195.0004        127.0004
 -13362716.64749 -10394649.91849  22387919.7784   22387920.5304   22387919.9594
       226.0004        168.0004
   3222476.69649   2737675.15849  24746983.5984   24746984.7704   24746984.4154
       204.0004        133.0004
 11 10 11  0 27 30.0000000  0  9G05G26G07G08G13G10G04G02G16
 -17646450.27249 -13736216.38449  21224840.7764   21224842.0974   21224841.4234
       238.0004        197.0004
  -7731649.32449  -5194801.96649  22954684.5394   22954687.1804   22954683.6644
       219.0004        156.0004
 -21614713.59449 -16545612.97149  20658363.7474   20658365.7574   20658363.8644
       240.0004        204.0004
 -22627347.33149 -17618951.45149  20832893.6604   20832896.6944   20832893.5124
       244.0004        201.0004
  -9437160.81449  -6753114.63349  22994456.9894   22994461.1974   22994457.7424
       220.0004        156.0004
 -18380051.59249 -14310469.74449  20951497.1644   20951501.3874   20951496.5084
       238.0004        194.0004
   4542720.49949   3817898.88749  24932849.8454   24932848.8524   24932853.2594
       208.0004        125.0004
 -13289775.05849 -10337812.34849  22401798.9074   22401799.2254   22401797.6104
       224.0004        166.0004
   3289827.88549   2790156.58749  24759799.4574   24759802.8234   24759800.3714
       204.0004        132.0004
 11 10 11  0 28  0.0000000  0  9G05G26G07G08G13G10G04G02G16
 -17701140.72349 -13778832.31849  21214433.3594   21214435.4684   21214434.4164
       239.0004        198.0004
  -7833691.67749  -5274315.42949  22935264.5874   22935267.0734   22935264.3224
       217.0004        155.0004
 -21591144.39649 -16527247.34749  20662848.6474   20662850.6784   20662849.3544
       240.0004        203.0004
 -22670579.73849 -17652639.01649  20824666.4344   20824669.5314   20824666.5534
       243.0004        200.0004
  -9344971.93349  -6681279.18449  23012000.9384   23012001.8074   23012001.5764
       223.0004        155.0004
 -18315686.73649 -14260315.33149  20963746.5254   20963749.0874   20963745.5844
       239.0004        193.0004
   4652489.23349   3903433.12249  24953739.3084   24953745.4794   24953736.6974
       203.0004        134.0004
 -13216411.66249 -10280646.09149  22415759.1464   22415759.1974   22415760.5554
       226.0004        164.0004
   3357642.63749   2842999.23949  24772704.4834   24772705.5604   24772705.0284
       203.0004        131.0004
 11 10 11  0 28 30.0000000  0  9G05G26G07G08G13G10G04G02G16
 -17755398.14349 -13821110.83249  21204108.9594   21204111.0974   21204109.3644
       238.0004        198.0004
  -7935546.12849  -5353682.47549  22915882.8954   22915885.2434   22915883.6404
       217.0004        154.0004
 -21567044.57049 -16508468.25449  20667435.1834   20667437.0514   20667435.1554
       240.0004        204.0004
 -22713306.98549 -17685932.95549  20816536.2424   20816538.8664   20816535.8394
       243.0004        200.0004
  -9252644.60149  -6609335.81849  23029570.7684   23029572.6914   23029570.5934
       222.0004        157.0004
 -18250888.46649 -14209823.20149  20976077.2944   20976080.0734   20976076.2674
       239.0004        193.0004
   4762226.15649   3988942.26749  24974619.2514   24974628.5034   24974620.9724
       199.0004        131.0004
 -13142628.02549 -10223152.36549  22429799.3104   22429800.9894   22429800.8214
       224.0004        168.0004
   3425919.68149   2896202.13649  24785697.7344   24785698.3084   24785697.6314
       203.0004        130.0004
 11 10 11  0 29  0.0000000  0  9G05G26G07G08G13G10G04G02G16
 -17809221.33549 -13863050.97549  21193865.9874   21193869.0514   21193866.5114
       239.0004        198.0004
  -8037212.06349  -5432902.62849  22896537.0914   22896539.1054   22896537.0014
       218.0004        154.0004
 -21542416.72749 -16489277.73249  20672121.5214   20672123.2284   20672121.8624
       240.0004        203.0004
 -22755529.30749 -17718833.45149  20808501.6434   20808504.6354   20808501.0594
       243.0004        200.0004
  -9160180.68549  -6537286.04049  23047164.7634   23047168.2144   23047164.3994
       221.0004        156.0004
 -18185658.76649 -14158994.85249  20988489.7184   20988492.6564   20988488.9184
       240.0004        193.0004
   4871927.69349   4074423.80849  24995497.9794   24995499.1324   24995499.1624
       212.0004        131.0004
 -13068427.92549 -10165334.12549  22443921.0064   22443922.0804   22443921.0774
       226.0004        168.0004
   3494655.50249   2949762.54349  24798776.9854   24798780.7924   24798775.5974
       205.0004        130.0004
 11 10 11  0 29 30.0000000  0  9G05G26G07G08G13G10G04G02G16
 -17862607.75349 -13904650.79649  21183707.7864   21183709.2674   21183708.3324
       240.0004        199.0004
  -8138687.45049  -5511974.28849  22877227.4834   22877229.7484   22877226.4654
       221.0004        155.0004
 -21517261.70649 -16469676.40949  20676908.9504   20676910.4244   20676908.7414
       240.0004        204.0004
 -22797245.06049 -17751339.22249  20800562.4244   20800566.4834   20800562.6404
       242.0004        201.0004
  -9067580.70949  -6465130.24349  23064787.0194   23064788.5084   23064786.2014
       220.0004        152.0004
 -18119998.77149 -14107831.24549  21000984.5774   21000987.2754   21000983.9094
       238.0004        192.0004
   4981591.91149   4159876.65949  25016368.6554   25016365.0934   25016367.6324
       207.0004        127.0004
 -12993813.43049 -10107193.00449  22458118.4904   22458120.1224   22458118.0114
       223.0004        169.0004
   3563849.16449   3003679.62849  24811943.8854   24811946.7734   24811942.5914
       207.0004        132.0004
 11 10 11  0 30  0.0000000  0  9G05G26G07G08G13G10G04G02G16
 -17915556.00249 -13945909.17549  21173630.5674   21173633.7784   21173631.6424
       237.0004        197.0004
  -8239971.67349  -5590896.99949  22857952.9064   22857955.6144   22857952.8854
       218.0004        157.0004
 -21491581.01649 -16449665.47249  20681794.5754   20681797.2344   20681795.3684
       239.0004        204.0004
 -22838453.77549 -17783449.89649  20792721.5894   20792724.3404   20792721.2304
       243.0004        201.0004
  -8974846.14949  -6392869.56449  23082433.6954   23082435.9974   23082433.1884
       219.0004        151.0004
 -18053910.02149 -14056333.53849  21013559.6594   21013564.1334   21013559.8004
       238.0004        192.0004
   5091215.95649   4245298.01649  25037228.0154                   25037221.5134
       192.0004        121.0004
 -12918788.05749 -10048731.71349  22472396.0484   22472397.8484   22472395.5504
       225.0004        167.0004
   3633497.66649   3057951.16949  24825198.2504   24825200.1474   24825199.0154
       205.0004        133.0004
 11 10 11  0 30 30.0000000  0  9G05G26G07G08G13G10G04G02G16
 -17968063.72049 -13986824.27749  21163639.3854   21163642.2014   21163640.1694
       239.0004        198.0004
  -8341062.75549  -5669669.21249  22838715.1084   22838718.4114   22838715.8594
       217.0004        154.0004
 -21465375.67649 -16429245.71149  20686782.1374   20686783.5724   20686781.9544
       239.0004        203.0004
 -22879154.38649 -17815164.64949  20784976.5664   20784979.4304   20784976.4334
       244.0004        201.0004
  -8881977.73349  -6320504.60849  23100106.6494   23100108.0324   23100106.9384
       221.0004        151.0004
 -17987393.61849 -14004502.59149  21026218.3224   21026221.0004   21026217.5204
       238.0004        191.0004
   5200797.43849   4330685.90949  25058079.3174   25058082.0824   25058081.9904
       210.0004        141.0004
 -12843354.26949  -9989952.15249  22486750.7144   22486751.0624   22486751.8484
       226.0004        166.0004
   3703598.74449   3112575.41649  24838539.2324   24838540.1234   24838538.2584
       207.0004        133.0004
 11 10 11  0 31  0.0000000  0  9G05G26G07G08G13G10G04G02G16
 -18020129.44249 -14027394.97549  21153732.2184   21153734.2274   21153732.9924
       240.0004        199.0004
  -8441959.98249  -5748290.35949  22819515.4264   22819519.5574   22819515.7394
       221.0004        157.0004
 -21438647.16949 -16408418.29449  20691867.4894   20691870.2864   20691868.3494
       242.0004        203.0004
 -22919346.47049 -17846483.14049  20777328.1664   20777331.4414   20777328.2444
       244.0004        202.0004
  -8788976.52049  -6248036.14749  23117803.8284   23117807.0254   23117803.0264
       219.0004        150.0004
 -17920450.89149 -13952339.42549  21038956.5594   21038960.0154   21038955.7984
       237.0004        191.0004
   5310333.61849   4416038.80849  25078923.9774   25078922.4854   25078927.1814
       205.0004        129.0004
 -12767514.94049  -9930856.57449  22501181.9964   22501183.1614   22501182.0304
       225.0004        166.0004
   3774149.83549   3167550.33049  24851964.4934   24851964.8434   24851964.9524
       207.0004        134.0004
 11 10 11  0 31 30.0000000  0  9G05G26G07G08G13G10G04G02G16
 -18071750.55149 -14067619.22549  21143908.7514   21143910.3194   21143909.0754
       240.0004        198.0004
  -8542661.39849  -5826758.96449  22800351.0774   22800355.4264   22800351.9024
       217.0004        157.0004
 -21411396.01349 -16387183.61449  20697054.2794   20697055.6224   20697053.9214
       243.0004        203.0004
 -22959028.69549 -17877404.34249  20769776.7764   20769779.8084   20769776.7394
       244.0004        202.0004
  -8695843.23049  -6175464.79349  23135525.1714   23135528.0984   23135526.9184
       219.0004        149.0004
 -17853083.01049 -13899845.00349  21051776.4234   21051780.1574   21051775.8704
       237.0004        191.0004
   5419822.76449   4501355.15249  25099756.6254                   25099757.5384
       188.0004        118.0004
 -12691272.55849  -9871446.97049  22515689.2164   22515691.8704   22515690.1794
       220.0004        167.0004
   3845149.02449   3222874.36049  24865473.6274   24865476.7484   24865472.9244
       205.0004        134.0004
 11 10 11  0 32  0.0000000  0  9G05G26G07G08G13G10G04G02G16
 -18122925.92649 -14107496.14549  21134169.6704   21134172.2414   21134170.6654
       239.0004        198.0004
  -8643166.36249  -5905074.48049  22781226.8204   22781229.5724   22781226.9264
       217.0004        156.0004
 -21383624.62549 -16365543.56549  20702337.9554   20702340.7574   20702338.2644
       242.0004        203.0004
 -22998201.10549 -17907928.28649  20762322.3094   20762325.8694   20762322.2794
       243.0004        202.0004
  -8602579.73549  -6102791.97649  23153272.7414   23153275.5394   23153272.3034
       215.0004        148.0004
 -17785292.00549 -13847020.88549  21064677.5274   21064680.0724   21064676.2624
       238.0004        191.0004
   5529261.32049   4586631.84149  25120583.4394   25120588.9724   25120585.1304
       206.0004        137.0004
 -12614630.61449  -9811726.01949  22530273.3804   22530276.6964   22530273.7824
       222.0004        168.0004
   3916593.31049   3278545.21049  24879070.7474   24879070.8534   24879068.1134
       209.0004        135.0004
 11 10 11  0 32 30.0000000  0  9G05G26G07G08G13G10G04G02G16
 -18173653.16449 -14147023.85749  21124517.7804   21124519.6554   21124518.0404
       240.0004        200.0004
  -8743473.13449  -5983235.58549  22762139.7954   22762140.5234   22762138.7744
       218.0004        155.0004
 -21355333.78649 -16343498.75349  20707722.1234   20707723.8614   20707722.3974
       243.0004        203.0004
 -23036862.47649 -17938053.99949  20754965.6274   20754968.6984   20754965.0044
       244.0004        202.0004
  -8509186.70849  -6030018.21949  23171045.2854   23171047.4994   23171047.2714
       218.0004        150.0004
 -17717078.71449 -13793867.69749  21077657.0854   21077660.9494   21077656.3844
       236.0004        190.0004
   5638647.17749   4671867.54949  25141399.6614   25141402.4134   25141399.6634
       202.0004        137.0004
 -12537591.67249  -9751695.69949  22544935.0824   22544936.8044   22544935.2104
       225.0004        167.0004
   3988481.32049   3334561.83549  24892750.1514   24892749.3784   24892748.4474
       208.0004        133.0004
 11 10 11  0 33  0.0000000  0  9G05G26G07G08G13G10G04G02G16
 -18223930.59849 -14186201.07749  21114949.7894   21114951.9934   21114950.3234
       239.0004        198.0004
  -8843580.69649  -6061241.44349  22743089.5734   22743091.5604   22743090.0434
       220.0004        158.0004
 -21326525.13149 -16321050.44249  20713203.9514   20713206.3434   20713204.7544
       243.0004        204.0004
 -23075012.53049 -17967781.29849  20747705.5974   20747708.9174   20747705.1834
       243.0004        202.0004
  -8415665.09449  -5957144.27749  23188841.0944   23188846.3064   23188843.0474
       215.0004        146.0004
 -17648444.44549 -13740386.46449  21090718.8724   21090721.5524   21090717.8704
       238.0004        191.0004
   5747977.97949   4757060.31349  25162200.1284   25162208.3914   25162197.8444
       183.0004        119.0004
 -12460158.91049  -9691358.49349  22559669.6114   22559671.0504   22559670.8794
       222.0004        165.0004
   4060809.96949   3390921.82549  24906513.2184   24906516.4934   24906513.1084
       206.0004        132.0004
 11 10 11  0 33 30.0000000  0  9G05G26G07G08G13G10G04G02G16
 -18273756.30749 -14225026.30349  21105468.4434   21105470.3954   21105468.9344
       240.0004        198.0004
  -8943487.60049  -6139090.96449  22724077.1384   22724080.5064   22724077.7974
       217.0004        157.0004
 -21297199.99349 -16298199.69849  20718784.8274   20718786.4994   20718784.8354
       243.0004        203.0004
 -23112650.40649 -17997109.48749  20740542.9804   20740546.3674   20740543.1494
       243.0004        201.0004
  -8322016.13849  -5884171.09849  23206662.5404   23206666.7964   23206662.0354
       213.0004        146.0004
 -17579390.55649 -13686578.25149  21103858.7444   21103861.8444   21103858.0294
       238.0004        190.0004
   5857251.01649   4842208.14949  25182998.0404   25182994.6644   25182998.1134
       201.0004        125.0004
 -12382335.00949  -9630716.50149  22574480.7064   22574480.0664   22574479.9164
       224.0004        165.0004
   4133576.53049   3447623.01949  24920359.6884   24920362.2204   24920360.6364
       201.0004        131.0004
 11 10 11  0 34  0.0000000  0  9G05G26G07G08G13G10G04G02G16
 -18323128.57149 -14263498.20649  21096073.3414   21096074.8524   21096073.7224
       240.0004        198.0004
  -9043192.23449  -6216782.82249  22705103.6904   22705107.6254   22705104.1354
       218.0004        157.0004
 -21267359.40949 -16274947.29649  20724462.7524   20724464.9084   20724463.3104
       242.0004        203.0004
 -23149775.42649 -18026038.04849  20733478.9114   20733481.6184   20733478.3094
       243.0004        201.0004
  -8228240.52749  -5811099.23749  23224508.7514   23224512.2874   23224508.9744
       215.0004        143.0004
 -17509918.36449 -13632444.09549  21117079.3704   21117082.2554   21117078.6884
       238.0004        191.0004
   5966464.09049   4927309.31649  25203781.4844   25203786.6164   25203780.8624
       207.0004        135.0004
 -12304122.39749  -9569771.62549  22589361.7894   22589364.4324   22589363.0674
       222.0004        166.0004
   4206779.48549   3504664.29649  24934289.4434   24934292.4334   24934290.3034
       202.0004        134.0004
 11 10 11  0 34 30.0000000  0  9G05G26G07G08G13G10G04G02G16
 -18372045.54249 -14301615.32049  21086764.3054   21086766.7854   21086764.9874
       239.0004        198.0004
  -9142693.73849  -6294316.41549  22686171.2984   22686174.0014   22686170.8394
       223.0004        159.0004
 -21237005.51749 -16251294.90249  20730239.6524   20730241.4874   20730239.6134
       243.0004        202.0004
 -23186386.97749 -18054566.50449  20726512.3304   20726514.7864   20726511.4654
       244.0004        201.0004
  -8134339.67549  -5737929.79249  23242375.2624   23242379.5004   23242375.6494
       210.0004        137.0004
 -17440029.27749 -13577985.08249  21130378.3204   21130381.4534   21130377.8354
       238.0004        191.0004
   6075614.56849   5012361.58049  25224551.7264   25224557.8254   25224546.4004
       192.0004        130.0004
 -12225524.51049  -9508526.54049  22604319.4104   22604321.0894   22604319.7344
       223.0004        166.0004
   4280415.69549   3562043.16449  24948302.6194   24948304.4194   24948304.7864
       203.0004        130.0004
 11 10 11  0 35  0.0000000  0  9G05G26G07G08G13G10G04G02G16
 -18420504.79249 -14339375.77049  21077542.9034   21077545.6814   21077542.8824
       238.0004        199.0004
  -9241989.93949  -6371690.05249  22667274.1914   22667277.1214   22667274.2684
       218.0004        156.0004
 -21206138.77849 -16227242.89549  20736112.3864   20736115.0984   20736112.9714
       242.0004        202.0004
 -23222484.43449 -18082694.37449  20719642.3194   20719645.7404   20719641.7974
       242.0004        201.0004
  -8040313.88649  -5664662.98049  23260270.5334   23260269.6264   23260267.2594
       210.0004        136.0004
 -17369724.38949 -13523202.07249  21143757.4104   21143759.9584   21143756.4354
       237.0004        190.0004
   6184700.40149   5097363.34649  25245306.6484   25245313.6654   25245311.3694
       196.0004        125.0004
 -12146543.92449  -9446983.24049  22619348.9434   22619349.7674   22619348.6194
       224.0004        164.0004
   4354483.56349   3619758.40049  24962397.9834   24962399.1294   24962397.8654
       206.0004        133.0004
 11 10 11  0 35 30.0000000  0  9G05G26G07G08G13G10G04G02G16
 -18468505.73749 -14376779.09049  21068408.1764   21068410.9534   21068408.9044
       239.0004        198.0004
  -9341080.92149  -6448903.73449  22648416.0424   22648421.0034   22648416.9444
       218.0004        159.0004
 -21174761.74149 -16202793.24749  20742083.8504   20742085.4424   20742084.1164
       242.0004        202.0004
 -23258067.84749 -18110421.70049  20712871.0774   20712874.3784   20712871.1854
       243.0004        201.0004
  -7946165.38549  -5591300.57649  23278186.6684   23278184.7474   23278182.3204
       210.0004        131.0004
 -17299006.10549 -13468096.91649  21157213.7574   21157217.2704   21157213.7894
       238.0004        190.0004
   6293717.91149   5182312.04049  25266055.4434   25266051.6004   25266057.1114
       206.0004        127.0004
 -12067184.40049  -9385144.67449  22634451.6204   22634451.6464   22634451.3584
       224.0004        165.0004
   4428979.33949   3677807.08349  24976575.3754   24976576.9514   24976573.1124
       209.0004        134.0004
 11 10 11  0 36  0.0000000  0  9G05G26G07G08G13G10G04G02G16
 -18516045.50849 -14413823.07649  21059362.3514   21059364.2274   21059362.6364
       239.0004        198.0004
  -9439964.21249  -6525955.61449  22629600.3944   22629605.3874   22629600.0474
       218.0004        159.0004
 -21142874.81549 -16177946.29849  20748151.5754   20748154.0364   20748151.8934
       242.0004        202.0004
 -23293135.76149 -18137747.33749  20706198.7194   20706200.9764   20706197.8594
       244.0004        201.0004
  -7851894.37949  -5517842.66649  23296124.7174   23296126.1714   23296124.6214
       208.0004        130.0004
 -17227875.33449 -13412670.38049  21170750.4724   21170753.1124   21170749.9314
       238.0004        190.0004
   6402665.61549   5267206.50949  25286783.5334   25286796.7684   25286786.3284
       196.0004        127.0004
 -11987448.14349  -9323012.52649  22649624.1934   22649624.8044   22649624.7124
       223.0004        163.0004
   4503901.84549   3736188.23949  24990830.1854   24990833.0224   24990828.7954
       204.0004        131.0004
 11 10 11  0 36 30.0000000  0  9G05G26G07G08G13G10G04G02G16
 -18563122.86449 -14450506.72049  21050403.1794   21050406.0124   21050403.3894
       239.0004        199.0004
  -9538639.22949  -6602845.18549  22610822.2974   22610826.6204   22610822.6544
       218.0004        157.0004
 -21110480.48649 -16152703.95849  20754316.0264   20754318.0804   20754316.3254
       241.0004        201.0004
 -23327688.08549 -18164671.21349  20699623.5764   20699626.0124   20699623.0214
       244.0004        202.0004
  -7757502.98549  -5444290.96649  23314087.4974   23314086.6474   23314088.1174
       209.0004        131.0004
 -17156333.71749 -13356923.69549  21184363.7634   21184366.7514   21184363.4084
       237.0004        190.0004
   6511540.72449   5352044.17149  25307504.9704   25307511.9414   25307506.3174
       193.0004        124.0004
 -11907338.60949  -9260589.53449  22664868.1074   22664869.1024   22664867.7494
       223.0004        164.0004
   4579247.69349   3794899.26349  25005168.0724   25005168.8354   25005169.3804
       203.0004        131.0004
 11 10 11  0 37  0.0000000  0  9G05G26G07G08G13G10G04G02G16
 -18609735.31849 -14486828.11249  21041533.2954   21041535.9114   21041533.8064
       239.0004        199.0004
  -9637104.18949  -6679571.13649  22592084.2484   22592089.5994   22592086.2034
       217.0004        159.0004
 -21077579.45849 -16127066.79449  20760576.4304   20760579.0474   20760577.1874
       241.0004        201.0004
 -23361724.18549 -18191192.84249  20693145.9014   20693149.3424   20693146.1084
       244.0004        202.0004
  -7662990.77649  -5370645.08049  23332072.9074   23332079.3424   23332073.4114
       208.0004        132.0004
 -17084381.99449 -13300857.45449  21198056.0974   21198058.5114   21198055.2894
       238.0004        190.0004
   6620341.08449   5436823.51349  25328208.0194   25328210.2414   25328209.3714
       201.0004        130.0004
 -11826858.19949  -9197877.51849  22680182.5574   22680185.0674   22680182.6114
       222.0004        163.0004
   4655014.95049   3853938.65549  25019587.3694   25019587.4584   25019587.8584
       203.0004        131.0004
 11 10 11  0 37 30.0000000  0  9G05G26G07G08G13G10G04G02G16
 -18655881.84849 -14522786.44149  21032752.0314   21032754.1204   21032752.7104
       239.0004        199.0004
  -9735358.08649  -6756132.60049  22573389.4184   22573393.4574   22573389.1874
       221.0004        162.0004
 -21044173.74749 -16101036.37849  20766933.5944   20766936.0454   20766933.5934
       241.0004        201.0004
 -23395243.66949 -18217311.89749  20686768.6674   20686770.7304   20686767.2304
       241.0004        202.0004
  -7568359.12449  -5296906.19149  23350079.5514   23350084.8104   23350079.3514
       204.0004        131.0004
 -17012022.26849 -13244473.31149  21211826.0394   21211828.5494   21211825.2874
       238.0004        190.0004
   6729063.70649   5521542.44549  25348899.9424   25348899.0254   25348897.6544
       197.0004        126.0004
 -11746010.34049  -9134879.21049  22695568.4744   22695569.0504   22695567.9204
       220.0004        162.0004
   4731200.78249   3913304.24749  25034084.7794   25034084.1334   25034084.6074
       204.0004        130.0004
 11 10 11  0 38  0.0000000  0  9G05G26G07G08G13G10G04G02G16
 -18701560.42649 -14558380.14149  21024059.7614   21024062.0074   21024060.4194
       240.0004        199.0004
  -9833399.36349  -6832528.35449  22554733.3034   22554736.8754   22554733.0674
       222.0004        162.0004
 -21010264.57949 -16074613.63949  20773386.8104   20773388.3744   20773386.9564
       243.0004        201.0004
 -23428245.86349 -18243027.87749  20680486.4794   20680490.5034   20680487.1144
       240.0004        202.0004
  -7473609.40949  -5223075.29149  23368110.2724   23368113.4604   23368110.2004
       204.0004        132.0004
 -16939256.02349 -13187772.35649  21225671.9824   21225676.0354   21225671.4474
       237.0004        191.0004
   6837706.52049   5606199.24149  25369569.5014   25369572.7034   25369574.0034
       197.0004        122.0004
 -11664797.98249  -9071596.87949  22711020.7414   22711023.4504   22711021.5214
       218.0004        163.0004
   4807802.85449   3972994.17849  25048660.4964   25048662.5404   25048661.6544
       204.0004        131.0004
 11 10 11  0 38 30.0000000  0  9G05G26G07G08G13G10G04G02G16
 -18746769.14449 -14593607.69849  21015456.4264   21015459.8824   21015457.1234
       240.0004        200.0004
  -9931226.70349  -6908757.42149  22536116.5624   22536121.2314   22536115.9184
       220.0004        162.0004
 -20975853.22949 -16047799.59249  20779934.6004   20779936.9074   20779935.0494
       241.0004        201.0004
 -23460730.06849 -18268340.22249  20674306.0694   20674308.9124   20674305.8524
       242.0004        202.0004
  -7378742.51449  -5149153.09049  23386161.8744   23386164.4034   23386163.0674
       203.0004        130.0004
 -16866084.09549 -13130755.29649  21239596.6954   21239600.1064   21239596.3294
       237.0004        190.0004
   6946267.17049   5690791.94649  25390229.7894   25390236.0484   25390230.2634
       195.0004        131.0004
 -11583223.67849  -9008032.49749  22726546.2644   22726547.3324   22726545.8344
       222.0004        162.0004
   4884818.67549   4033006.48049  25063319.0804   25063320.7104   25063316.6884
       208.0004        134.0004
 11 10 11  0 39  0.0000000  0  9G05G26G07G08G13G10G04G02G16
 -18791506.22049 -14628467.75649  21006944.2314   21006946.2814   21006944.4124
       240.0004        201.0004
 -10028838.80349  -6984818.81349  22517541.0694   22517545.0834   22517541.8094
       221.0004        161.0004
 -20940941.28949 -16020595.47949  20786578.6384   20786580.2544   20786578.3854
       241.0004        201.0004
 -23492695.96249 -18293248.69649  20668222.1284   20668225.9054   20668222.3574
       238.0004        201.0004
  -7283759.37649  -5075140.25449  23404235.9154   23404238.8244   23404236.8954
       201.0004        127.0004
 -16792508.31549 -13073423.54449  21253598.5924   21253600.9854   21253598.0514
       236.0004        189.0004
   7054743.28049   5775318.66749  25410870.6874   25410877.3554   25410872.3444
       195.0004        129.0004
 -11501290.43949  -8944188.43449  22742137.4244   22742137.6214   22742136.1494
       222.0004        161.0004
   4962245.88549   4093339.37949  25078051.3104   25078050.8784   25078049.9444
       207.0004        135.0004
 11 10 11  0 39 30.0000000  0  9G05G26G07G08G13G10G04G02G16
 -18835769.94049 -14662958.96549  20998519.9224   20998522.5814   20998520.5624
       239.0004        199.0004
 -10126234.31249  -7060711.40549  22499007.1794   22499012.4824   22499008.0944
       221.0004        163.0004
 -20905530.69449 -15993002.80449  20793315.8724   20793318.9754   20793316.7244
       240.0004        200.0004
 -23524142.96949 -18317752.83849  20662239.9414   20662242.0884   20662239.0034
       243.0004        202.0004
  -7188661.15949  -5001037.78149  23422334.3294   23422338.1424   23422335.6964
       198.0004        127.0004
 -16718530.38249 -13015778.41349  21267674.2204   21267678.1704   21267674.3174
       235.0004        189.0004
   7163132.09849   5859777.43449  25431499.8804   25431500.7344   25431501.5764
       198.0004        126.0004
 -11419001.75349  -8880067.40249  22757795.0834   22757796.8694   22757795.4074
       217.0004        162.0004
   5040081.66349   4153990.62249  25092861.4784   25092860.8114   25092859.9534
       199.0004        129.0004
 11 10 11  0 40  0.0000000  0  9G05G26G07G08G13G10G04G02G16
 -18879558.76149 -14697080.11549  20990187.8614   20990190.0754   20990188.2374
       240.0004        200.0004
 -10223412.12949  -7136434.36449  22480515.7814   22480520.3964   22480515.5424
       223.0004        163.0004
 -20869623.08649 -15965022.84849  20800149.6274   20800151.5444   20800149.5174
       241.0004        200.0004
 -23555071.38249 -18341852.88049  20656352.0614   20656356.3964   20656352.7304
       239.0004        202.0004
  -7093449.05249  -4926846.64349  23440454.3804   23440453.8794   23440451.9064
       199.0004        125.0004
 -16644151.99249 -12957821.25649  21281830.1694   21281832.2064   21281829.2224
       237.0004        188.0004
   7271431.08749   5944166.35349  25452106.5974   25452109.0304   25452109.3094
       196.0004        126.0004
 -11336360.68149  -8815671.76049  22773522.1394   22773522.9224   22773521.8084
       219.0004        162.0004
   5118323.27249   4214958.11249  25107749.7424   25107751.9264   25107751.0594
       199.0004        127.0004
 11 10 11  0 40 30.0000000  0  9G05G26G07G08G13G10G04G02G16
 -18922871.02349 -14730829.92149  20981946.0984   20981948.2234   20981946.1594
       241.0004        201.0004
 -10320370.63149  -7211986.41449  22462063.4484   22462068.9264   22462064.0614
       220.0004        161.0004
 -20833219.61549 -15936656.50049  20807077.0354   20807078.4744   20807077.0784
       241.0004        200.0004
 -23585480.53949 -18365548.30749  20650566.9714   20650569.9714   20650566.4394
       241.0004        202.0004
  -6998123.87849  -4852567.26849  23458589.5734   23458593.0474   23458591.8214
       193.0004        125.0004
 -16569374.16449 -12899552.84849  21296059.1984   21296061.5564   21296058.6034
       238.0004        188.0004
   7379638.17649   6028483.52249  25472698.0464   25472702.0454   25472700.6194
       201.0004        127.0004
 -11253370.05649  -8751003.76049  22789313.8944   22789315.7764   22789313.4864
       220.0004        161.0004
   5196968.52449   4276240.16049  25122717.4384   25122720.0104   25122716.2354
       203.0004        128.0004
 11 10 11  0 41  0.0000000  0  9G05G26G07G08G13G10G04G02G16
 -18965703.49149 -14764205.87349  20973795.0364   20973797.7374   20973795.4694
       241.0004        202.0004
 -10417107.90649  -7287366.08649  22443655.2284   22443659.9494   22443655.3234
       219.0004        161.0004
 -20796321.40349 -15907904.64449  20814098.0794   20814100.5234   20814098.6824
       241.0004        200.0004
 -23615369.30549 -18388838.23849  20644878.4414   20644882.3134   20644878.6194
       241.0004        202.0004
  -6902685.51149  -4778199.69749  23476753.4364   23476759.3924   23476754.4744
       196.0004        124.0004
 -16494197.72049 -12840973.82349  21310363.9004   21310367.7344   21310363.7384
       236.0004        187.0004
   7487752.01549   6112728.03249  25493268.9904   25493278.2764   25493273.4814
       193.0004        125.0004
 -11170031.92049  -8686064.97849  22805172.7474   22805174.7694   22805173.2974
       221.0004        161.0004
   5276015.74049   4337835.37749  25137758.7874   25137760.8394   25137761.7624
       194.0004        129.0004
 11 10 11  0 41 30.0000000  0  9G05G26G07G08G13G10G04G02G16
 -19008056.48749 -14797208.20749  20965735.2224   20965737.9074   20965735.8514
       241.0004        201.0004
 -10513624.08749  -7362573.49249  22425288.3044   22425294.0674   22425289.0094
       222.0004        163.0004
 -20758931.35349 -15878769.51949  20821213.6544   20821215.4804   20821213.5034
       241.0004        200.0004
 -23644738.31649 -18411723.15749  20639290.2424   20639293.2864   20639289.8684
       241.0004        202.0004
  -6807136.72249  -4703746.18949  23494937.1454   23494937.8134   23494938.1754
       192.0004        123.0004
 -16418625.97949 -12782086.78449  21324746.1724   21324748.4134   21324745.0894
       238.0004        187.0004
   7595768.12349   6196896.38249  25513824.5614   25513826.6484   25513825.1374
       185.0004        123.0004
 -11086350.93449  -8620859.00849  22821099.1014   22821098.1104   22821096.2984
       223.0004        161.0004
   5355460.60049   4399740.44749  25152876.6054   25152879.8094   25152875.6564
       201.0004        131.0004
 11 10 11  0 42  0.0000000  0  9G05G26G07G08G13G10G04G02G16
 -19049927.08249 -14829834.64449  20957767.8484   20957769.8354   20957768.7094
       242.0004        202.0004
 -10609916.55449  -7437606.58949  22406965.4024   22406970.0784   22406965.3034
       221.0004        162.0004
 -20721049.88049 -15849251.48849  20828421.9844   20828424.3944   20828422.7424
       242.0004        201.0004
 -23673586.17449 -18434201.99149  20633800.0864   20633803.7764   20633800.2744
       240.0004        202.0004
  -6711477.14149  -4629206.35649  23513136.2454   23513142.7234   23513137.7554
       195.0004        125.0004
 -16342659.11549 -12722891.85749  21339201.7594   21339204.4144   21339201.5734
       237.0004        187.0004
   7703685.50349   6280987.83149  25534363.8144   25534368.6994   25534362.4424
       201.0004        125.0004
 -11002328.99049  -8555387.37649  22837085.9294   22837087.5064   22837087.7384
       221.0004        161.0004
   5435301.87149   4461954.43549  25168070.1954   25168070.2154   25168067.9104
       198.0004        129.0004
 11 10 11  0 42 30.0000000  0  9G05G26G07G08G13G10G04G02G16
 -19091314.27849 -14862084.40149  20949892.5384   20949894.6574   20949892.7204
       241.0004        202.0004
 -10705984.43849  -7512464.65649  22388685.8024   22388687.7544   22388685.5044
       225.0004        164.0004
 -20682679.17049 -15819352.21749  20835724.5694   20835726.1034   20835723.9984
       242.0004        200.0004
 -23701912.70849 -18456274.59549  20628411.0104   20628413.5354   20628410.2464
       241.0004        202.0004
  -6615708.26549  -4554581.28649  23531363.1044   23531366.3404   23531362.8744
       197.0004        127.0004
 -16266298.93249 -12663390.43949  21353730.7844   21353735.0514   21353731.5164
       235.0004        186.0004
   7811501.57849   6365000.33749  25554878.7234   25554883.5054   25554880.7364
       194.0004        124.0004
 -10917969.45949  -8489652.70849  22853138.7174   22853140.4294   22853138.9524
       221.0004        160.0004
   5515536.61249   4524474.96949  25183340.0204   25183338.0644   25183339.8194
       199.0004        128.0004
 11 10 11  0 43  0.0000000  0  9G05G26G07G08G13G10G04G02G16
 -19132216.30849 -14893956.10949  20942109.2454   20942110.9564   20942109.3024
       242.0004        203.0004
 -10801826.41949  -7587146.69749  22370445.6804   22370449.2254   22370446.2084
       222.0004        163.0004
 -20643820.65449 -15789072.86049  20843117.6794   20843120.5834   20843118.5834
       241.0004        201.0004
 -23729718.13549 -18477941.14349  20623118.9974   20623121.9334   20623118.9214
       241.0004        202.0004
  -6519831.27649  -4479871.95849  23549607.2874   23549610.9094   23549609.6324
       198.0004        129.0004
 -16189547.19649 -12603583.91649  21368338.4854   21368341.0374   21368336.9744
       236.0004        186.0004
   7919213.80149   6448931.89849  25575375.0894   25575378.3544   25575374.9554
       198.0004        124.0004
 -10833275.72849  -8423657.58249  22869255.4494   22869256.5574   22869254.1334
       220.0004        159.0004
   5596162.05349   4587300.00049  25198681.3074   25198684.9164   25198683.3864
       199.0004        130.0004
 11 10 11  0 43 30.0000000  0  9G05G26G07G08G13G10G04G02G16
 -19172631.73849 -14925448.64949  20934417.6554   20934420.0794   20934418.3154
       242.0004        202.0004
 -10897441.51649  -7661651.92549  22352251.9464   22352253.9344   22352251.9444
       221.0004        163.0004
 -20604476.23849 -15758414.86349  20850605.3854   20850607.7624   20850605.4634
       241.0004        201.0004
 -23757002.19949 -18499201.43649  20617926.9594   20617930.0674   20617926.7404
       240.0004        202.0004
  -6423847.43649  -4405079.45149  23567872.5664   23567872.7404   23567876.1924
       199.0004        128.0004
 -16112405.78149 -12543473.73349  21383017.1354   21383020.2274   21383016.3964
       234.0004        186.0004
   8026819.77549   6532780.66049  25595853.4694   25595854.0244   25595850.9174
       195.0004        123.0004
 -10748250.87949  -8357404.46949  22885437.3054   22885436.3494   22885435.5414
       221.0004        159.0004
   5677175.24649   4650427.12049  25214096.0414   25214102.0714   25214097.2954
       205.0004        131.0004
 11 10 11  0 44  0.0000000  0  9G05G26G07G08G13G10G04G02G16
 -19212557.74749 -14956559.83849  20926820.6374   20926822.4874   20926821.1864
       242.0004        202.0004
 -10992827.77849  -7735978.85749  22334100.6204   22334102.9064   22334101.0124
       223.0004        164.0004
 -20564647.22749 -15727379.28349  20858185.0584   20858186.8034   20858185.4934
       242.0004        201.0004
 -23783763.93949 -18520054.72449  20612834.5484   20612837.5014   20612834.4134
       241.0004        202.0004
  -6327757.05849  -4330203.86649  23586161.1394   23586163.2954   23586156.8004
       201.0004        128.0004
 -16034875.63849 -12483060.65149  21397769.5094   21397773.6354   21397769.0464
       233.0004        186.0004
   8134317.38749   6616544.99349  25616308.1174   25616315.0744   25616313.3194
       196.0004        125.0004
 -10662897.45549  -8290895.31349  22901677.2264   22901679.5374   22901677.5684
       218.0004        158.0004
   5758574.17049   4713854.82249  25229586.3294   25229591.0714   25229585.3944
       200.0004        129.0004
 11 10 11  0 44 30.0000000  0  9G05G26G07G08G13G10G04G02G16
 -19251994.05949 -14987289.42649  20919316.3104   20919318.2534   20919316.3284
       242.0004        203.0004
 -11087984.29649  -7810126.77349  22315993.9454   22315995.1004   22315993.5374
       226.0004        165.0004
 -20524335.73749 -15695967.72649  20865855.9784   20865857.7964   20865855.8594
       242.0004        201.0004
 -23810003.52849 -18540501.13349  20607841.6834   20607844.2874   20607841.1164
       242.0004        202.0004
  -6231561.33949  -4255246.19949  23604465.7114   23604467.6664   23604463.2484
       200.0004        128.0004
 -15956958.88149 -12422346.31249  21412598.3684   21412601.2074   21412596.8794
       236.0004        186.0004
   8241704.02049   6700222.81449  25636744.8714   25636746.8684   25636743.6144
       192.0004        122.0004
 -10577218.83649  -8224132.77749  22917981.1794   22917982.5394   22917980.5054
       219.0004        157.0004
   5840356.00749   4777580.94049  25245150.6764   25245149.6804   25245151.6164
       200.0004        128.0004
 11 10 11  0 45  0.0000000  0  9G05G26G07G08G13G10G04G02G16
 -19290938.50649 -15017635.74349  20911905.1024   20911907.1144   20911905.4514
       242.0004        203.0004
 -11182909.70749  -7884094.62349  22297929.2714   22297931.6954   22297928.5554
       225.0004        163.0004
 -20483542.97349 -15664181.15949  20873618.0004   20873620.4704   20873618.4134
       241.0004        201.0004
 -23835720.95049 -18560540.66649  20602946.8224   20602950.3574   20602946.9974
       241.0004        203.0004
  -6135261.45749  -4180207.39249  23622788.8164   23622790.9664   23622789.8154
       200.0004        127.0004
 -15878656.86949 -12361331.78149  21427498.3514   21427501.6294   21427497.3284
       234.0004        185.0004
   8348977.58249   6783812.53649  25657156.0054   25657161.2314   25657156.7614
       195.0004        124.0004
 -10491218.28049  -8157119.37149  22934349.0634   22934347.9624   22934345.7694
       221.0004        157.0004
   5922518.50549   4841603.67049  25260785.5144   25260784.7244   25260786.1024
       201.0004        130.0004
 11 10 11  0 45 30.0000000  0  9G05G26G07G08G13G10G04G02G16
 -19329388.80549 -15047597.01449  20904588.2384   20904590.1124   20904588.3544
       241.0004        202.0004
 -11277602.10549  -7957880.89749  22279909.9014   22279912.6534   22279910.8754
       225.0004        166.0004
 -20442270.28949 -15632020.63449  20881472.2524   20881474.1924   20881472.7884
       242.0004        201.0004
 -23860915.05549 -18580172.41049  20598152.3864   20598155.8574   20598152.4874
       240.0004        202.0004
  -6038857.56649  -4105087.54549  23641134.8834   23641134.8774   23641132.3234
       200.0004        127.0004
 -15799970.79549 -12300017.99249  21442470.7934   21442474.5404   21442470.9774
       234.0004        185.0004
   8456136.02749   6867312.55449  25677550.5814                   25677553.1794
       193.0004        122.0004
 -10404897.99449  -8089856.81149  22950772.2504   22950774.1694   22950771.9724
       217.0004        157.0004
   6005059.21149   4905921.08949  25276490.8234   25276495.0314   25276490.2164
       198.0004        128.0004
 11 10 11  0 46  0.0000000  0  9G05G26G07G08G13G10G04G02G16
 -19367344.06549 -15077172.54149  20897365.4904   20897367.7524   20897365.9884
       242.0004        203.0004
 -11372060.46249  -8031484.78649  22261935.7594   22261937.6774   22261936.1184
       225.0004        166.0004
 -20400520.12949 -15599488.05749  20889416.9784   20889418.8124   20889417.3724
       242.0004        201.0004
 -23885586.41249 -18599396.82949  20593457.8544   20593461.3024   20593457.8434
       241.0004        202.0004
  -5942351.52149  -4029888.08849  23659498.2434   23659502.5364   23659499.1634
       195.0004        125.0004
 -15720902.87649 -12238406.64949  21457518.5334   21457521.3134   21457516.8854
       235.0004        185.0004
   8563176.76649   6950720.85649  25697917.7704                   25697915.1204
       189.0004        119.0004
 -10318261.84049  -8022348.13049  22967258.6794   22967260.1064   22967258.3674
       218.0004        158.0004
   6087974.59149   4970530.43549  25292267.2974   25292272.2184   25292268.1884
       199.0004        128.0004
 11 10 11  0 46 30.0000000  0  9G05G26G07G08G13G10G04G02G16
 -19404802.40749 -15106360.85849  20890236.7554   20890239.5924   20890237.4464
       242.0004        202.0004
 -11466283.38049  -8104905.15449  22244004.6074   22244007.6784   22244005.1554
       225.0004        165.0004
 -20358294.12749 -15566584.64749  20897452.2014   20897454.8224   20897452.4734
       243.0004        202.0004
 -23909734.22149 -18618213.27649  20588863.1334   20588865.8704   20588862.7274
       241.0004        202.0004
  -5845743.97049  -3954609.51549  23677883.8694   23677884.6164   23677881.1064
       196.0004        124.0004
 -15641454.10949 -12176498.54349  21472636.4674   21472639.4044   21472635.9564
       234.0004        184.0004
   8670097.37949   7034035.56249  25718265.2814
       191.0004        122.0004
 -10231312.72749  -7954595.59849  22983804.8524   22983806.7554   22983804.0924
       217.0004        157.0004
   6171262.26149   5035429.89049  25308119.7514   25308120.8664   25308119.3314
       200.0004        132.0004
 11 10 11  0 47  0.0000000  0  9G05G26G07G08G13G10G04G02G16
 -19441762.39149 -15135160.85149  20883204.3644   20883206.5974   20883204.6274
       242.0004        203.0004
 -11560269.73549  -8178141.22949  22226120.6604   22226122.5184   22226120.0524
       227.0004        167.0004
 -20315593.67449 -15533311.59549  20905578.2184   20905579.8714   20905578.2884
       242.0004        201.0004
 -23933358.63749 -18636621.88149  20584367.8004   20584370.3154   20584366.9954
       242.0004        202.0004
  -5749035.79249  -3879252.54049  23696287.8914   23696288.1824   23696287.7234
       203.0004        129.0004
 -15561626.54249 -12114295.27349  21487825.3104   21487830.2484   21487825.9424
       233.0004        186.0004
   8776895.70659   7117255.02759  25738588.9984                   25738590.9024
       179.0004        117.0004
 -10144054.08749  -7886601.86049  23000409.5574   23000411.7784   23000407.9414
       218.0004        157.0004
   6254919.78749   5100617.50949  25324039.5844   25324039.9784   25324041.7004
       202.0004        130.0004
 11 10 11  0 47 30.0000000  0  9G05G26G07G08G13G10G04G02G16
 -19478223.10049 -15163571.79749  20876265.6934   20876267.9354   20876265.9874
       241.0004        202.0004
 -11654018.72049  -8251192.38749  22208280.2334   22208282.3344   22208280.6934
       227.0004        166.0004
 -20272421.01349 -15499670.54749  20913794.2014   20913795.4344   20913794.5064
       243.0004        202.0004
 -23956460.25549 -18654623.12849  20579970.2804   20579974.1994   20579970.8084
       240.0004        202.0004
  -5652228.26849  -3803818.15849  23714708.1124   23714708.2434   23714708.5114
       202.0004        131.0004
 -15481422.42249 -12051798.59149  21503089.2494   21503092.2424   21503089.0064
       234.0004        185.0004
   8883569.13149     42255.01149  25758887.6474
       184.0004         74.0004
 -10056489.12449  -7818369.43549  23017074.3714   23017074.6454   23017073.5084
       220.0004        159.0004
   6338944.26449   5166091.12949  25340027.3724   25340029.1274   25340024.2874
       203.0004        130.0004
 11 10 11  0 48  0.0000000  0  9G05G26G07G08G13G10G04G02G16
 -19514181.27349 -15191591.16349  20869423.4334   20869425.2944   20869423.9514
       242.0004        202.0004
 -11747527.37049  -8324056.26449  22190485.6634   22190489.1334   22190485.4074
       226.0004        167.0004
 -20228776.73349 -15465662.02049  20922098.5724   20922100.8324   20922098.9374
       242.0004        201.0004
 -23979037.25249 -18672215.57549  20575675.6634   20575678.1244   20575674.7104
       241.0004        202.0004
  -5555321.35649  -3728306.30649  23733147.8284   23733148.9244   23733145.1014
       203.0004        128.0004
 -15400842.06949 -11989008.72949  21518424.4844   21518426.4924   21518423.2764
       236.0004        185.0004
   8990116.73649    125313.61849  25779164.0394
       184.0004        108.0004
  -9968619.85349  -7749899.89149  23033794.6454   23033795.1194   23033794.2824
       219.0004        158.0004
   6423334.05749   5231849.41949  25356087.5244   25356088.9724   25356085.5914
       201.0004        133.0004
 11 10 11  0 48 30.0000000  0  9G05G26G07G08G13G10G04G02G16
 -19549636.80549 -15219218.84449  20862676.0494   20862678.6204   20862676.6544
       241.0004        203.0004
 -11840795.81149  -8396732.94549  22172737.9114   22172740.7164   22172737.2664
       224.0004        168.0004
 -20184663.51549 -15431288.07949  20930493.4874   20930494.8764   20930493.6604
       242.0004        201.0004
 -24001090.60849 -18689399.99849  20571478.3844   20571481.3744   20571478.1014
       241.0004        202.0004
  -5458317.03649  -3652718.55249  23751608.1574   23751611.6274   23751612.9044
       198.0004        125.0004
 -15319888.18949 -11925927.81249  21533827.8024   21533831.5694   21533827.2884
       234.0004        185.0004
   9096534.90949    208288.73349  25799413.2924
       183.0004        109.0004
  -9880450.39349  -7681196.40449  23050572.2164   23050573.9334   23050572.4834
       219.0004        157.0004
   6508085.35449   5297889.35949  25372214.0934   25372217.7314   25372214.0174
       204.0004        134.0004
 11 10 11  0 49  0.0000000  0  9G05G26G07G08G13G10G04G02G16
 -19584587.92949 -15246453.49449  20856025.3894   20856027.4464   20856025.8714
       242.0004        202.0004
 -11933822.13149  -8469220.96449  22155034.3374   22155038.2114   22155035.2174
       223.0004        166.0004
 -20140083.20449 -15396550.17549  20938976.2874   20938979.0384   20938976.7194
       241.0004        200.0004
 -24022620.39949 -18706176.44049  20567381.5774   20567384.3414   20567381.3914
       242.0004        203.0004
  -5361216.15249  -3577055.58449  23770080.8234   23770086.8524   23770084.4654
       191.0004        121.0004
 -15238562.37849 -11862557.07949  21549304.2024   21549307.3374   21549304.1634
       234.0004        185.0004
   9202822.22559     35144.88759  25819638.0984
       179.0004         74.0004
  -9791983.88649  -7612261.49549  23067408.4424   23067408.8584   23067408.2444
       220.0004        158.0004
   6593195.53349   5364208.93549  25388410.6274   25388411.0964   25388412.1604
       207.0004        131.0004
 11 10 11  0 49 30.0000000  0  9G05G26G07G08G13G10G04G02G16
 -19619032.05549 -15273293.07149  20849470.5484   20849472.9434   20849471.0134
       240.0004        202.0004
 -12026604.26149  -8541518.69549  22137378.4574   22137382.9024   22137379.1084
       225.0004        168.0004
 -20095036.26949 -15361448.66649  20947549.1794   20947550.6324   20947549.3744
       242.0004        201.0004
 -24043625.17049 -18722543.77649  20563384.2484   20563387.3304   20563384.2304
       241.0004        202.0004
  -5264018.45749  -3501317.23349  23788583.2724                   23788582.7724
       194.0004        121.0004
 -15156864.97349 -11798896.77149  21564851.4864   21564853.5124   21564850.2854
       235.0004        185.0004
   9308977.05359    117864.78559  25839838.7204
       167.0004        106.0004
  -9703222.21649  -7543096.55949  23084299.2054   23084298.6354   23084297.0504
       219.0004        157.0004
   6678663.30249   5430807.16549  25404673.8584   25404675.8544   25404673.7124
       205.0004        132.0004
 11 10 11  0 50  0.0000000  0  8G05G26G07G08G13G10G02G16
 -19652969.59749 -15299737.91749  20843012.3194   20843015.1594   20843012.7964
       240.0004        202.0004
 -12119142.66649  -8613626.49449  22119769.4754   22119773.9194   22119769.1744
       225.0004        168.0004
 -20049526.70449 -15325986.66249  20956208.3474   20956210.9804   20956208.6484
       241.0004        201.0004
 -24064106.72449 -18738503.39149  20559486.5804   20559489.6214   20559486.3334
       241.0004        202.0004
  -5166726.94149  -3425505.75349  23807094.2154   23807100.3844
       194.0004        122.0004
 -15074799.81949 -11734949.91549  21580467.0664   21580470.9344   21580466.9734
       234.0004        184.0004
  -9614170.27449  -7473705.45449  23101244.7264   23101244.9514   23101244.6044
       221.0004        157.0004
   6764483.65549   5497680.13749  25421005.6294   25421006.5034   25421005.8724
       200.0004        128.0004
 11 10 11  0 50 30.0000000  0  8G05G26G07G08G13G10G02G16
 -19686397.33449 -15325785.51749  20836651.4864   20836653.8784   20836652.0574
       241.0004        202.0004
 -12211434.38649  -8685542.09849  22102206.3574   22102210.1544   22102207.6224
       224.0004        168.0004
 -20003554.59049 -15290164.22949  20964957.4714   20964959.0174   20964957.5984
       243.0004        201.0004
 -24084063.42149 -18754054.01849  20555688.9624   20555692.0274   20555688.8634
       242.0004        202.0004
  -5069340.84249  -3349620.55549  23825628.5524   23825631.4874   23825623.0034
       190.0004        122.0004
 -14992366.90149 -11670716.49849  21596152.9584   21596157.3994   21596152.7924
       234.0004        183.0004
  -9524830.07649  -7404089.73549  23118244.3694   23118245.3574   23118245.2194
       218.0004        155.0004
   6850655.81849   5564827.24449  25437402.7114   25437406.7734   25437403.3684
       197.0004        126.0004
 11 10 11  0 51  0.0000000  0  8G05G26G07G08G13G10G02G16
 -19719314.52849 -15351435.29049  20830387.8014   20830390.1034   20830388.2934
       241.0004        202.0004
 -12303478.72149  -8757264.94749  22084692.2124   22084694.1394   22084692.5484
       225.0004        168.0004
 -19957122.04449 -15253983.02249  20973793.0814   20973794.5854   20973793.4194
       242.0004        200.0004
 -24103496.10249 -18769196.31749  20551991.1464   20551994.1484   20551990.9214
       241.0004        202.0004
  -4971861.60649  -3273662.76049  23844179.3604                   23844177.3714
       194.0004        119.0004
 -14909568.53149 -11606198.33349  21611911.3104   21611913.3584   21611910.4174
       238.0004        185.0004
  -9435205.08549  -7334252.07949  23135299.9774   23135300.2154   23135299.6094
       219.0004        155.0004
   6937176.83649   5632246.17149  25453868.6024   25453870.8474   25453869.0644
       199.0004        127.0004
 11 10 11  0 51 30.0000000  0  8G05G26G07G08G13G10G02G16
 -19751719.05949 -15376685.56949  20824220.8304   20824223.4384   20824221.5554
       241.0004        201.0004
 -12395273.55149  -8828793.37649  22067223.0284   22067225.5834   22067223.4394
       225.0004        168.0004
 -19910230.48749 -15217444.13549  20982716.8654   20982718.4944   20982716.9484
       243.0004        202.0004
 -24122403.93949 -18783929.65849  20548393.6604   20548395.8214   20548393.0874
       242.0004        202.0004
  -4874289.64849  -3197632.66549  23862746.8084                   23862748.8634
       189.0004        122.0004
 -14826405.99549 -11541396.37949  21627734.7434   21627738.8544   21627734.6684
       235.0004        184.0004
  -9345297.83049  -7264194.49449  23152408.9344   23152408.5324   23152407.7084
       216.0004        154.0004
   7024044.11549   5699934.98849  25470398.7354   25470398.8384   25470399.3614
       202.0004        129.0004
 11 10 11  0 52  0.0000000  0  8G05G26G07G08G13G10G02G16
 -19783610.31049 -15401535.90249  20818152.6404   20818154.3144   20818153.1504
       241.0004        202.0004
 -12486818.54749  -8900127.12549  22049802.6904   22049806.0264   22049804.0364
       225.0004        170.0004
 -19862882.60849 -15180549.68149  20991726.3194   20991727.8744   20991726.2944
       241.0004        200.0004
 -24140787.36049 -18798254.38849  20544894.1464   20544897.8864   20544894.1174
       240.0004        202.0004
  -4776626.76549  -3121531.80249  23881327.8454                   23881331.1384
       183.0004        118.0004
 -14742881.59949 -11476312.45549  21643628.5794   21643633.2964   21643628.7324
       235.0004        183.0004
  -9255112.28549  -7193920.06349  23169571.4084   23169571.0364   23169570.0424
       216.0004        152.0004
   7111253.94349   5767890.66249  25486992.6754   25486994.2064   25486994.0174
       199.0004        127.0004
 11 10 11  0 52 30.0000000  0  8G05G26G07G08G13G10G02G16
 -19814986.60049 -15425984.96549  20812181.6594   20812183.7064   20812181.9374
       242.0004        202.0004
 -12578111.95049  -8971264.81749  22032431.0424   22032434.8094   22032430.6234
       228.0004        172.0004
 -19815080.24049 -15143301.07649  21000821.9984   21000824.6694   21000822.8414
       240.0004        200.0004
 -24158646.38749 -18812170.49549  20541496.3934   20541499.4944   20541496.2594
       242.0004        203.0004
  -4678873.70049  -3045360.62049  23899927.5674                   23899931.1584
       189.0004        118.0004
 -14658996.90249 -11410947.78949  21659593.1434   21659595.0454   21659591.2914
       236.0004        182.0004
  -9164651.49649  -7123431.14049  23186784.4134   23186784.8464   23186784.7864
       216.0004        153.0004
   7198804.14349   5836111.53649  25503653.8734   25503657.0764   25503654.7024
       200.0004        127.0004
 11 10 11  0 53  0.0000000  0  9G05G26G07G28G08G13G10G02G16
 -19845845.57149 -15450030.92349  20806309.5734   20806311.7554   20806309.9784
       242.0004        203.0004
 -12669151.62649  -9042204.80149  22015107.0474   22015108.9104   22015106.6494
       226.0004        169.0004
 -19766824.00449 -15105698.81049  21010005.2934   21010007.7554   21010005.5904
       240.0004        200.0004
    -33188.65649     -5768.11449  24258481.3564
       206.0004         74.0004
 -24175980.53549 -18825677.60349  20538197.7324   20538200.8324   20538197.5834
       241.0004        203.0004
  -4581030.41449  -2969119.21249  23918556.0764
       188.0004        117.0004
 -14574752.82649 -11345303.07249  21675623.6004   21675626.2014   21675622.2614
       234.0004        182.0004
  -9073917.79349  -7052729.55849  23204048.5844   23204052.5514   23204049.0994
       214.0004        153.0004
   7286692.86149   5904596.26449  25520379.6114   25520378.4464   25520376.0764
       197.0004        122.0004
 11 10 11  0 53 30.0000000  0  9G05G26G07G28G08G13G10G02G16
 -19876187.02749 -15473673.61449  20800535.7944   20800537.6284   20800535.8214
       241.0004        203.0004
 -12759937.58949  -9112947.09849  21997830.0944   21997832.7534   21997830.9724
       227.0004        170.0004
 -19718116.62349 -15067745.00349  21019274.2344   21019276.2844   21019274.4424
       240.0004        200.0004
   -131167.87949    -82116.09649  24239835.5114
       206.0004        115.0004
 -24192790.47849 -18838776.23549  20534999.3234   20535001.6314   20534998.7554
       242.0004        203.0004
  -4483098.66149     46468.14349  23937181.8424
       179.0004         74.0004
 -14490152.32549 -11279380.60649  21691721.1784   21691725.3294   21691720.7844
       233.0004        181.0004
  -8982915.20449  -6981818.49049  23221365.3954   23221369.5924   23221365.4654
       212.0004        152.0004
   7374916.30249   5973341.79449  25537166.1304   25537174.2104   25537163.0964
       193.0004        123.0004
 11 10 11  0 54  0.0000000  0  9G05G26G07G28G08G13G10G02G16
 -19906009.98749 -15496912.28049  20794860.6194   20794862.9834   20794860.9414
       241.0004        203.0004
 -12850468.43949  -9183490.59649  21980602.7994   21980605.9844   21980603.1684
       228.0004        171.0004
 -19668960.44349 -15029441.50149  21028627.8784   21028630.0474   21028628.1084
       239.0004        199.0004
   -229049.43249   -158387.87349  24221209.2404
       205.0004        112.0004
 -24209076.86249 -18851466.89449  20531899.1894   20531902.9294   20531898.9754
       241.0004        203.0004
  -4385080.11149    122822.48249  23955837.2694
       186.0004        107.0004
 -14405197.48649 -11213182.06549  21707889.3274   21707891.5094   21707887.7074
       235.0004        181.0004
  -8891647.18749  -6910700.55249  23238734.8994   23238737.0594   23238735.7704
       214.0004        152.0004
   7463471.22849   6042345.58549  25554018.2374   25554022.0554   25554014.8414
       195.0004        121.0004
 11 10 11  0 54 30.0000000  0  8G05G26G07G08G13G10G02G16
 -19935311.21249 -15519744.39349  20789284.9474   20789287.0014   20789285.1614
       243.0004        203.0004
 -12940741.44849  -9253833.17449  21963424.9974   21963427.1724   21963424.2484
       228.0004        171.0004
 -19619355.91549 -14990788.61349  21038067.2474   21038069.5284   21038067.6044
       239.0004        199.0004
 -24224838.05349 -18863748.31449  20528900.6144   20528902.8624   20528899.7994
       241.0004        202.0004
  -4286974.08449    199237.71249  23974512.2534
       188.0004        107.0004
 -14319888.46749 -11146707.51749  21724121.7824   21724125.5314   21724121.4004
       231.0004        179.0004
  -8800115.59949  -6839377.24149  23256153.6294   23256155.9504   23256152.8354
       213.0004        154.0004
   7552356.89049   6111607.04949  25570933.7284   25570933.9524   25570933.1084
       198.0004        123.0004
 11 10 11  0 55  0.0000000  0  9G05G26G07G28G08G13G10G02G16
 -19964091.08149 -15542170.26849  20783807.7674   20783810.2664   20783808.5824
       241.0004        203.0004
 -13030756.60049  -9323974.85149  21946295.4034   21946297.7524   21946295.3994
       226.0004        171.0004
 -19569306.32249 -14951788.93449  21047591.4174   21047593.4014   21047592.0274
       239.0004        198.0004
   -424505.22549    -75451.69649  24184013.0674
       206.0004        117.0004
 -24240075.82849 -18875621.88549  20526000.5044   20526003.5094   20526000.8644
       242.0004        203.0004
  -4188783.01559     40151.57959  23993192.8164
       175.0004         74.0004
 -14234228.66249 -11079959.63549  21740422.1254   21740426.1904   21740421.8744
       232.0004        180.0004
  -8708325.19149  -6767852.26849  23273619.8794   23273622.0454   23273620.8234
       213.0004        153.0004
   7641568.81449   6181122.79749  25587910.2064   25587909.6704   25587910.4344
       195.0004        125.0004
 11 10 11  0 55 30.0000000  0  8G05G26G07G28G08G10G02G16
 -19992346.52149 -15564187.48649  20778431.7104   20778433.7594   20778431.8344
       242.0004        203.0004
 -13120510.99749  -9393913.33949  21929214.8764   21929217.7604   21929215.1884
       227.0004        172.0004
 -19518811.95749 -14912442.66449  21057200.0034   21057202.4914   21057200.3804
       239.0004        198.0004
   -522073.97349   -151479.24349  24165449.9474   24165449.9764
       209.0004        137.0004
 -24254788.61449 -18887086.36449  20523201.0674   20523203.8584   20523200.3864
       242.0004        203.0004
 -14148217.87849 -11012938.27849  21756790.6194   21756793.7674   21756789.1214
       232.0004        180.0004
  -8616276.98349  -6696126.41549  23291135.1964   23291137.3944   23291136.0314
       213.0004        152.0004
   7731105.88149   6250891.90949  25604947.6194                   25604939.3734
       184.0004        121.0004
 11 10 11  0 56  0.0000000  0  8G05G26G07G28G08G10G02G16
 -20020077.32949 -15585795.90949  20773154.5174   20773156.5254   20773154.8854
       243.0004        203.0004
 -13210004.40449  -9463648.44149  21912185.3114   21912188.6654   21912184.0744
       226.0004        170.0004
 -19467875.87749 -14872752.20849  21066893.7164   21066895.3644   21066893.2754
       239.0004        197.0004
   -619533.74349   -227421.89349  24146902.5684   24146904.3044   24146901.4944
       212.0004        138.0004
 -24268977.47949 -18898142.59349  20520500.4924   20520503.4184   20520500.7564
       241.0004        202.0004
 -14061859.28749 -10945645.88649  21773224.0454   21773227.0154   21773222.8654
       231.0004        179.0004
  -8523975.69349  -6624203.34449  23308701.0374   23308704.0854   23308700.5144
       216.0004        153.0004
   7820963.89249   6320911.11349  25622045.9374
       181.0004        119.0004
 11 10 11  0 56 30.0000000  0  8G05G26G07G28G08G10G02G16
 -20047282.32049 -15606994.60049  20767977.5274   20767979.4674   20767977.9474
       242.0004        204.0004
 -13299235.58849  -9533179.20149  21895205.0814   21895208.0724   21895205.7364
       227.0004        172.0004
 -19416500.23349 -14832719.25149  21076669.4684   21076671.7124   21076669.9874
       239.0004        197.0004
   -716881.64449   -303277.40349  24128377.9364   24128380.0774   24128377.1554
       211.0004        139.0004
 -24282642.92449 -18908790.96549  20517900.5334   20517903.8494   20517899.9474
       241.0004        202.0004
 -13975154.61749 -10878083.82849  21789722.0964   21789726.6344   21789722.1094
       230.0004        178.0004
  -8431424.89549  -6552085.85349  23326314.2534   23326313.5544   23326313.7964
       217.0004        152.0004
   7911140.81549   6391178.82249  25639207.7034                   25639206.7754
       191.0004        120.0004
 11 10 11  0 57  0.0000000  0  8G05G26G07G28G08G10G02G16
 -20073959.39949 -15627781.93149  20762900.9544   20762903.0204   20762901.5714
       243.0004        203.0004
 -13388202.62749  -9602504.13949  21878275.5484   21878277.5674   21878274.4014
       226.0004        172.0004
 -19364685.91949 -14792344.46049  21086529.6994   21086531.4794   21086530.1654
       240.0004        197.0004
   -814114.24149   -379043.06649  24109875.1624   24109877.8784   24109873.7464
       211.0004        141.0004
 -24295784.49949 -18919031.14649  20515399.5364   20515402.2104   20515399.8994
       242.0004        203.0004
 -13888104.94549 -10810252.91949  21806287.6934   21806291.3584   21806286.9994
       231.0004        178.0004
  -8338626.84949  -6479775.68649  23343971.5304   23343973.2824   23343971.8634
       215.0004        152.0004
   8001633.90549     42971.87849  25656427.1594
       190.0004         74.0004
 11 10 11  0 57 30.0000000  0  8G05G26G07G28G08G10G02G16
 -20100107.57949 -15648157.13349  20757925.4034   20757927.2324   20757925.4174
       242.0004        203.0004
 -13476904.17849  -9671622.20149  21861395.9774   21861398.5424   21861395.9094
       228.0004        173.0004
 -19312434.97349 -14751629.43049  21096472.1484   21096474.6204   21096472.3994
       238.0004        196.0004
   -911229.24549   -454717.08149  24091394.2804   24091395.3174   24091392.1834
       207.0004        140.0004
 -24308402.29749 -18928863.16949  20512998.2944   20513001.1894   20512998.1354
       242.0004        203.0004
 -13800712.36049 -10742154.83049  21822918.7634   21822921.1634   21822917.7944
       231.0004        179.0004
  -8245584.59049  -6407275.25049  23361678.6064   23361677.7494   23361677.7994
       216.0004        154.0004
   8092440.77449    113733.58849  25673709.6984
       188.0004        105.0004
 11 10 11  0 58  0.0000000  0  8G05G26G07G28G08G10G02G16
 -20125725.56649 -15668119.19749  20753050.2134   20753052.1844   20753051.0864
       243.0004        203.0004
 -13565338.71249  -9740532.21849  21844567.3964   21844569.8414   21844567.2454
       227.0004        173.0004
 -19259749.39749 -14710575.73849  21106498.0244   21106500.5164   21106498.3984
       239.0004        197.0004
  -1008223.98549   -530297.38249  24072935.1364   24072939.7064   24072937.4284
       206.0004        139.0004
 -24320496.36049 -18938287.09949  20510697.3964   20510699.8054   20510696.8004
       242.0004        202.0004
 -13712978.92349 -10673791.11149  21839613.1054   21839616.8234   21839612.2944
       229.0004        178.0004
  -8152301.40649  -6334587.05849  23379431.1654   23379429.3334   23379429.7234
       217.0004        153.0004
   8183558.58849    184738.62149  25691045.2474
       183.0004        111.0004
 11 10 11  0 58 30.0000000  0  8G05G26G07G28G08G10G02G16
 -20150812.21649 -15687667.22949  20748276.6424   20748278.5324   20748276.6334
       242.0004        204.0004
 -13653505.35249  -9809233.49549  21827791.1764   21827792.5734   21827790.9234
       229.0004        174.0004
 -19206631.28649 -14669184.99949  21116606.1904   21116608.4184   21116606.7784
       238.0004        197.0004
  -1105095.67249   -605781.82849  24054502.4244   24054504.5044   24054502.1024
       209.0004        138.0004
 -24332067.03249 -18947303.19949  20508494.6454   20508498.3494   20508494.9114
       241.0004        203.0004
 -13624906.43749 -10605163.24249  21856372.1114   21856376.2294   21856371.7444
       229.0004        178.0004
  -8058780.75549  -6261713.82549  23397223.4204   23397226.0674   23397224.1404
       215.0004        152.0004
   8274984.65849     37418.68449  25708442.7994
       183.0004         74.0004
 11 10 11  0 59  0.0000000  0  8G05G26G07G28G08G10G02G16
 -20175366.71949 -15706800.60649  20743603.4474   20743605.8704   20743604.5424
       243.0004        204.0004
 -13741402.89649  -9877725.07549  21811063.3724   21811066.7104   21811063.5984
       228.0004        175.0004
 -19153083.10249 -14627459.15349  21126796.5714   21126798.5864   21126796.8814
       239.0004        197.0004
  -1201841.99449   -681168.54949  24036092.3834   24036095.3834   24036092.3804
       205.0004        138.0004
 -24343115.20549 -18955912.15149  20506393.2254   20506396.0614   20506392.6074
       242.0004        202.0004
 -13536497.19749 -10536272.95749  21873196.7024   21873200.0834   21873196.2764
       230.0004        178.0004
  -7965026.09949  -6188658.26749  23415067.5894   23415067.5344   23415067.6144
       219.0004        153.0004
   8366715.08749    108832.90149  25725899.6804
       178.0004        109.0004
 11 10 11  0 59 30.0000000  0  8G05G26G07G28G08G10G02G16
 -20199386.60349 -15725517.40249  20739033.5574   20739034.9344   20739033.4174
       243.0004        204.0004
 -13829028.94149  -9946005.09749  21794388.0284   21794391.6224   21794388.9374
       227.0004        174.0004
 -19099105.21349 -14585398.45749  21137068.1374   21137070.1944   21137067.8664
       239.0004        197.0004
  -1298459.10749   -756454.59149  24017706.7524   24017709.6004   24017707.8334
       206.0004        138.0004
 -24353639.88249 -18964113.18249  20504389.8244   20504392.7464   20504389.8974
       242.0004        203.0004
 -13447751.56549 -10467120.53449  21890084.4134   21890087.6464   21890083.6614
       232.0004        178.0004
  -7871039.81449  -6115422.22049  23432951.8184   23432951.8884   23432951.1414
       216.0004        151.0004
   8458748.92549    180453.69749  25743412.9254
       178.0004        110.0004
 11 10 11  1  0  0.0000000  0  8G05G26G07G28G08G10G02G16
 -20222871.51949 -15743817.33849  20734564.0374   20734566.2074   20734564.2614
       243.0004        205.0004
 -13916382.90149 -10014073.09449  21777766.4344   21777768.4934   21777766.4494
       229.0004        174.0004
 -19044700.71549 -14543005.31449  21147420.6364   21147422.7994   21147421.0864
       239.0004        197.0004
  -1394945.24249   -831638.59649  23999345.3224   23999348.9334   23999344.6174
       207.0004        137.0004
 -24363642.07649 -18971907.08949  20502486.7544   20502489.6234   20502485.9684
       241.0004        203.0004
 -13358672.26149 -10397708.10449  21907034.8714   21907038.9844   21907034.8454
       230.0004        178.0004
  -7776825.63349  -6042008.55849  23450877.5354   23450879.3284   23450877.3924
       209.0004        149.0004
   8551083.33959      5404.06059  25760983.6514
       177.0004         74.0004
 11 10 11  1  0 30.0000000  0  8G05G26G07G28G08G10G02G16
 -20245820.82749 -15761699.92249  20730196.7444   20730198.7414   20730197.4194
       243.0004        204.0004
 -14003463.95149 -10081928.44349  21761195.8514   21761197.9244   21761195.7564
       230.0004        175.0004
 -18989871.79449 -14500281.48949  21157853.7954   21157856.5134   21157854.5954
       238.0004        197.0004
  -1491297.95349   -906718.59449  23981010.2694   23981012.6144   23981009.3444
       205.0004        137.0004
 -24373122.58649 -18979294.51249  20500682.7544   20500685.5204   20500682.5684
       242.0004        202.0004
 -13269262.02649 -10328037.81749  21924050.1244   21924053.1294   21924049.8654
       234.0004        179.0004
  -7682387.14849  -5968420.15649  23468851.9284   23468851.3744   23468851.0144
       217.0004        152.0004
   8643713.29049     77594.41249  25778614.3224
       182.0004        102.0004
 11 10 11  1  1  0.0000000  0  8G05G26G07G28G08G10G02G16
 -20268231.94249 -15779163.13149  20725932.2324   20725934.7004   20725932.4374
       243.0004        204.0004
 -14090269.26849 -10149568.91749  21744676.6864   21744679.9174   21744676.5184
       229.0004        175.0004
 -18934619.31049 -14457227.59649  21168368.0434   21168370.7184   21168368.6634
       238.0004        197.0004
  -1587513.16149   -981691.47149  23962701.0124   23962705.3224   23962701.8334
       207.0004        138.0004
 -24382080.32449 -18986274.56249  20498978.1584   20498980.7834   20498977.6134
       242.0004        202.0004
 -13179521.27349 -10258109.96549  21941128.0904   21941131.0954   21941127.2574
       233.0004        180.0004
  -7587726.42049  -5894658.54549  23486861.1174   23486864.9774   23486862.1604
       209.0004        151.0004
   8736638.13749    150051.81549  25796295.1474
       175.0004        109.0004
 11 10 11  1  1 30.0000000  0  8G05G26G07G28G08G10G02G16
 -20290104.49349 -15796206.66949  20721770.0404   20721772.1654   20721770.6324
       243.0004        205.0004
 -14176798.60149 -10216994.32649  21728209.2454   21728212.7244   21728210.4164
       228.0004        175.0004
 -18878946.01649 -14413845.81149  21178962.5504   21178964.5064   21178963.1614
       239.0004        197.0004
  -1683589.19849  -1056555.92349  23944418.4034   23944421.5564   23944420.4434
       206.0004        139.0004
 -24390516.83449 -18992848.47049  20497372.7634   20497375.2994   20497372.6304
       242.0004        202.0004
 -13089452.44349 -10187926.47749  21958266.1874   21958269.6874   21958265.7874
       231.0004        177.0004
  -7492847.55149  -5820727.00349  23504916.1394   23504920.4034   23504917.0534
       211.0004        149.0004
   8829854.90459    222736.66459  25814033.2434
       177.0004        107.0004
 11 10 11  1  2  0.0000000  0  7G05G26G07G28G08G10G02
 -20311437.02149 -15812829.41549  20717710.6854   20717712.4584   20717710.8204
       242.0004        205.0004
 -14263049.92649 -10284203.11549  21711798.5184   21711799.9144   21711797.0774
       230.0004        175.0004
 -18822853.43949 -14370137.29449  21189637.1014   21189638.4194   21189637.2774
       239.0004        197.0004
  -1779522.76649  -1131309.34149  23926163.3004   23926164.7954   23926162.4394
       205.0004        136.0004
 -24398431.53949 -18999015.76149  20495866.9054   20495869.3064   20495865.8414
       242.0004        202.0004
 -12999057.20249 -10117488.64949  21975468.2624   21975471.1264   21975467.5294
       232.0004        178.0004
  -7397753.26849  -5746627.56149  23523014.7494   23523016.5064   23523014.5414
       214.0004        149.0004
 11 10 11  1  2 30.0000000  0  7G05G26G07G28G08G10G02
 -20332228.31549 -15829030.41749  20713753.9664   20713756.0404   20713754.7194
       243.0004        205.0004
 -14349022.02149 -10351194.33749  21695436.6304   21695440.0854   21695438.1104
       229.0004        175.0004
 -18766343.72049 -14326103.74349  21200390.1214   21200392.2434   21200390.9014
       239.0004        197.0004
  -1875311.48749  -1205949.87049  23907936.1234   23907937.3904   23907934.3944
       210.0004        138.0004
 -24405824.99949 -19004776.89949  20494458.9654   20494462.3314   20494459.2344
       241.0004        202.0004
 -12908337.31249 -10046797.84849  21992732.4874   21992735.1864   21992730.9854
       233.0004        179.0004
  -7302446.97149  -5672362.92349  23541149.5444   23541152.5024   23541149.7204
       211.0004        150.0004
 11 10 11  1  3  0.0000000  0  8G05G26G07G28G08G10G15G02
 -20352477.35549 -15844808.89149  20709900.5234   20709902.6484   20709901.2534
       242.0004        205.0004
 -14434713.38349 -10417966.79849  21679130.6654   21679133.0314   21679130.2554
       229.0004        177.0004
 -18709418.54049 -14281746.46249  21211222.9984   21211224.9174   21211223.4524
       238.0004        197.0004
  -1970952.32949  -1280475.21649  23889736.7074   23889737.4994   23889737.9014
       208.0004        139.0004
 -24412697.35949 -19010131.98849  20493151.5104   20493154.3694   20493151.0034
       241.0004        202.0004
 -12817294.53849  -9975855.44649  22010056.1634   22010059.3394   22010055.0834
       231.0004        177.0004
   -372045.59049   -254180.92149  25199107.3224   25199112.9084   25199112.6684
       193.0004        129.0004
  -7206931.64549  -5597935.43549  23559323.6594   23559328.8704   23559325.8024
       207.0004        148.0004
 11 10 11  1  3 30.0000000  0  8G05G26G07G28G08G10G15G02
 -20372183.63649 -15860164.43049  20706149.9474   20706153.2584   20706151.1084
       242.0004        205.0004
 -14520123.38849 -10484520.04149  21662876.9724   21662881.2864   21662878.7184
       229.0004        177.0004
 -18652080.86849 -14237067.75549  21222134.1104   21222135.6034   21222134.5714
       239.0004        196.0004
  -2066443.35449  -1354883.80149  23871562.2844   23871566.6584   23871562.2314
       204.0004        139.0004
 -24419049.95449 -19015082.06649  20491942.7504   20491946.0244   20491943.1354
       242.0004        202.0004
 -12725931.62749  -9904663.57349  22027442.6214   22027446.5094   22027442.1514
       231.0004        176.0004
   -471574.06249   -331735.49849  25180169.7624   25180173.3494   25180170.4154
       196.0004        126.0004
  -7111211.06649  -5523347.98349  23577542.6314   23577542.9874   23577541.5814
       213.0004        148.0004
 11 10 11  1  4  0.0000000  0  8G05G26G07G28G08G10G15G02
 -20391345.28149 -15875095.57349  20702504.6984   20702506.4174   20702504.8974
       243.0004        205.0004
 -14605250.05949 -10550852.49649  21646678.4394   21646682.3404   21646678.8974
       230.0004        177.0004
 -18594331.41949 -14192068.17349  21233123.3934   21233125.6074   21233123.3004
       240.0004        196.0004
  -2161781.11349  -1429172.94449  23853420.5694   23853424.5954   23853421.9264
       203.0004        139.0004
 -24424882.22449 -19019626.67949  20490833.1064   20490836.3144   20490833.0414
       242.0004        202.0004
 -12634249.61749  -9833223.05749  22044888.5214   22044892.7934   22044887.6154
       230.0004        176.0004
   -571075.11249   -409268.77849  25161238.3014   25161239.8874   25161237.4164
       199.0004        131.0004
  -7015287.81049  -5448602.56249  23595793.6204   23595796.0504   23595793.7694
       209.0004        147.0004
 11 10 11  1  4 30.0000000  0  8G05G26G07G28G08G10G15G02
 -20409961.29249 -15889601.55049  20698962.1614   20698964.2194   20698962.4884
       243.0004        205.0004
 -14690091.68949 -10616962.83549  21630533.0124   21630536.9924   21630532.6054
       229.0004        178.0004
 -18536172.46549 -14146749.51349  21244189.8574   21244192.5064   21244190.5094
       238.0004        195.0004
  -2256962.46849  -1503340.23649  23835309.4154   23835311.1674   23835308.4914
       205.0004        139.0004
 -24430194.31249 -19023765.94949  20489822.1994   20489824.8974   20489821.6174
       241.0004        202.0004
 -12542250.69849  -9761535.61149  22062397.6644   22062398.4354   22062395.5784
       232.0004        175.0004
   -670548.20649   -486780.27249  25142309.3374   25142308.3224   25142310.6374
       204.0004        131.0004
  -6919164.74349  -5373701.51949  23614085.6964   23614089.3504   23614085.8984
       207.0004        144.0004
 11 10 11  1  5  0.0000000  0  8G05G26G07G28G08G10G15G02
 -20428030.67849 -15903681.59249  20695523.3394   20695525.5124   20695523.6684
       242.0004        205.0004
 -14774647.30449 -10682850.30749  21614442.8264   21614446.3884   21614442.9684
       228.0004        178.0004
 -18477606.23449 -14101113.47949  21255335.4294   21255337.1704   21255335.3524
       240.0004        196.0004
  -2351985.42249  -1577384.09649  23817227.6884   23817230.3364   23817228.0934
       208.0004        140.0004
 -24434987.40649 -19027500.82649  20488909.6034   20488912.8374   20488909.7254
       241.0004        202.0004
 -12449936.96949  -9689602.83849  22079961.8474   22079965.8864   22079962.0164
       230.0004        175.0004
   -769992.81849   -564269.51049  25123383.6114   25123386.8634   25123383.2674
       199.0004        132.0004
  -6822845.54449  -5298647.63049  23632414.3594   23632416.7434   23632415.1104
       210.0004        149.0004
 11 10 11  1  5 30.0000000  0  8G05G26G07G28G08G10G15G02
 -20445553.05449 -15917335.39349  20692188.6734   20692191.3294   20692189.4054
       243.0004        205.0004
 -14858916.07149 -10748514.27549  21598407.0544   21598411.3174   21598407.7724
       231.0004        179.0004
 -18418635.37249 -14055162.16149  21266556.1764   21266558.8764   21266556.9364
       237.0004        195.0004
  -2446847.65749  -1651302.69449  23799175.9314   23799178.9684   23799176.2644
       211.0004        143.0004
 -24439262.34049 -19030831.92649  20488097.2554   20488099.1074   20488096.7374
       242.0004        202.0004
 -12357310.83449  -9617426.64349  22097588.7634   22097591.8324   22097587.7894
       229.0004        175.0004
   -869408.94949   -641736.56349  25104464.3604   25104469.6754   25104466.3474
       198.0004        131.0004
  -6726334.01349  -5223443.82749  23650781.1744   23650781.5754   23650780.3004
       209.0004        145.0004
 11 10 11  1  6  0.0000000  0  8G05G26G07G28G08G10G15G02
 -20462526.32649 -15930561.32849  20688959.1034   20688960.8854   20688959.5904
       242.0004        205.0004
 -14942895.25449 -10813952.58549  21582426.9794   21582430.6084   21582427.4174
       229.0004        179.0004
 -18359260.49649 -14008896.02849  21277856.0914   21277857.8574   21277856.4924
       238.0004        196.0004
  -2541545.18949  -1725092.97449  23781154.6334   23781158.3634   23781154.5004
       211.0004        144.0004
 -24443018.18549 -19033758.55949  20487381.1144   20487384.5314   20487381.4864
       241.0004        202.0004
 -12264372.65649  -9545007.32049  22115275.2104   22115277.0534   22115274.7474
       229.0004        174.0004
   -968794.18549   -719179.56649  25085551.3894   25085555.3314   25085549.8254
       197.0004        131.0004
  -6629631.99749  -5148091.63149  23669181.5704   23669185.7654   23669183.4334
       207.0004        146.0004
 11 10 11  1  6 30.0000000  0  8G05G26G07G28G08G10G15G02
 -20478949.96449 -15943358.97649  20685833.7054   20685836.1284   20685834.2064
       240.0004        205.0004
 -15026584.18949 -10879164.72249  21566500.2544   21566505.4484   21566500.8914
       228.0004        179.0004
 -18299484.14349 -13962317.04249  21289230.6474   21289232.3834   21289231.1404
       240.0004        195.0004
  -2636075.60549  -1798753.05649  23763165.1574   23763168.8474   23763167.1034
       213.0004        144.0004
 -24446255.89549 -19036281.44849  20486765.9484   20486768.5644   20486765.3804
       242.0004        202.0004
 -12171125.10749  -9472346.90349  22133019.0184   22133021.5224   22133018.8434
       229.0004        173.0004
  -1068148.39749   -796598.39049  25066645.9884   25066647.3034   25066647.7844
       199.0004        131.0004
  -6532743.26349  -5072593.95349  23687618.9574   23687622.0094   23687619.6234
       207.0004        145.0004
 11 10 11  1  7  0.0000000  0  8G05G26G07G28G08G10G15G02
 -20494823.05549 -15955727.61749  20682812.9464   20682815.8144   20682813.4824
       239.0004        206.0004
 -15109981.77849 -10944149.82849  21550630.3864   21550634.7764   21550630.9714
       230.0004        180.0004
 -18239308.61749 -13915427.01849  21300681.9824   21300683.4644   21300682.3984
       240.0004        195.0004
  -2730436.93849  -1872281.37549  23745212.5034   23745213.7974   23745211.0574
       215.0004        145.0004
 -24448976.41249 -19038401.33349  20486247.9994   20486250.9094   20486248.1184
       242.0004        202.0004
 -12077570.26449  -9399447.03249  22150820.6974   22150825.5734   22150820.8904
       226.0004        173.0004
  -1167471.00349   -873992.63349  25047745.6004   25047749.1574   25047746.0804
       195.0004        128.0004
  -6435671.26349  -4996953.44649  23706092.5314   23706093.8574   23706092.3454
       212.0004        145.0004
 11 10 11  1  7 30.0000000  0  8G05G26G07G28G08G10G15G02
 -20510144.31949 -15967666.26549  20679898.0204   20679900.2744   20679897.9594
       239.0004        205.0004
 -15193086.52949 -11008906.78049  21534817.0014   21534820.4104   21534817.3114
       230.0004        180.0004
 -18178735.81049 -13868227.43249  21312208.5324   21312210.7204   21312208.4964
       240.0004        195.0004
  -2824625.91849  -1945675.37149  23727288.5524   23727290.2094   23727287.2344
       215.0004        147.0004
 -24451179.84249 -19040118.28449  20485828.9924   20485831.7544   20485828.7334
       243.0004        203.0004
 -11983710.09049  -9326309.25249  22168681.2604   22168686.2504   22168680.5674
       224.0004        171.0004
  -1266761.32549   -951361.58849  25028853.0724   25028853.5364   25028854.5294
       200.0004        133.0004
  -6338419.14649  -4921172.60949  23724600.7604   23724601.7754   23724599.3394
       212.0004        144.0004
 11 10 11  1  8  0.0000000  0  8G05G26G07G28G08G10G15G02
 -20524912.98649 -15979174.31149  20677086.9144   20677089.0664   20677087.2804
       239.0004        205.0004
 -15275896.55549 -11073434.04949  21519058.5434   21519062.1744   21519059.2584
       230.0004        181.0004
 -18117767.32649 -13820719.52049  21323810.5004   21323812.1934   21323810.6354
       239.0004        195.0004
  -2918640.00249  -2018933.07249  23709398.0164   23709400.0974   23709395.6814
       216.0004        145.0004
 -24452866.56449 -19041432.60749  20485507.6054   20485510.4634   20485507.8614
       242.0004        202.0004
 -11889546.21649  -9252934.81649  22186601.7344   22186605.1204   22186599.5774
       229.0004        172.0004
  -1366018.17949  -1028704.55349  25009963.7734   25009966.6274   25009966.1724
       203.0004        136.0004
  -6240989.88349  -4845253.71349  23743139.7884   23743139.2374   23743139.2874
       212.0004        146.0004
 11 10 11  1  8 30.0000000  0  8G05G26G07G28G08G10G15G02
 -20539127.94449 -15990250.89949  20674382.3984   20674384.8264   20674382.7154
       240.0004        206.0004
 -15358410.55149 -11137730.66049  21503356.8404   21503359.9924   21503356.8434
       231.0004        181.0004
 -18056405.48449 -13772905.09449  21335487.2474   21335489.1654   21335487.3714
       238.0004        194.0004
  -3012476.26349  -2092052.25449  23691540.4354   23691542.2254   23691540.0374
       215.0004        147.0004
 -24454036.98949 -19042344.61649  20485285.0274   20485287.6034   20485284.7684
       242.0004        202.0004
 -11795080.52749  -9179325.21649  22204577.7474   22204581.5024   22204576.9254
       227.0004        171.0004
  -1465240.43849  -1106020.58249  24991082.6334   24991083.3824   24991081.4754
       202.0004        133.0004
  -6143386.37549  -4769199.02449  23761711.1784   23761714.2214   23761711.8544
       209.0004        147.0004
 11 10 11  1  9  0.0000000  0  8G05G26G07G28G08G10G15G02
 -20552788.79749 -16000895.72749  20671783.5224   20671785.0644   20671783.3044
       240.0004        206.0004
 -15440627.70249 -11201795.95949  21487712.4394   21487714.9164   21487712.6924
       234.0004        182.0004
 -17994652.45049 -13724785.85249  21347237.9284   21347240.5084   21347238.0004
       237.0004        194.0004
  -3106132.29549  -2165030.96849  23673717.8514   23673721.1454   23673717.8794
       213.0004        147.0004
 -24454691.87249 -19042854.91949  20485161.0604   20485163.4634   20485160.3594
       242.0004        203.0004
 -11700315.38849  -9105482.26549  22222608.8114   22222614.2134   22222609.2204
       226.0004        172.0004
  -1564427.93049  -1183309.50949  24972208.7714   24972207.7374   24972209.5114
       202.0004        132.0004
  -6045612.15449  -4693011.37549  23780321.1394   23780319.1114   23780319.0894
       214.0004        146.0004
 11 10 11  1  9 30.0000000  0  8G05G26G07G28G08G10G15G02
 -20565893.77949 -16011107.39549  20669287.7534   20669291.2684   20669288.8344
       238.0004        206.0004
 -15522545.95549 -11265628.36249  21472123.1214   21472125.4104   21472123.8044
       233.0004        181.0004
 -17932509.89149 -13676363.08749  21359062.5854   21359065.9584   21359063.3254
       236.0004        194.0004
  -3199604.64749  -2237866.55749  23655930.5564   23655933.9484   23655930.4284
       209.0004        146.0004
 -24454831.25549 -19042963.53049  20485133.3224   20485136.8844   20485133.7874
       242.0004        203.0004
 -11605252.12249  -9031407.01849  22240700.6314   22240704.2234   22240699.5284
       228.0004        172.0004
  -1663579.26749  -1260570.26749  24953340.2974   24953341.6684   24953341.2564
       202.0004        133.0004
  -5947670.11649  -4616692.91649  23798956.1654   23798955.8314   23798957.5314
       214.0004        144.0004
 11 10 11  1 10  0.0000000  0  8G05G26G07G28G08G10G15G02
 -20578443.00249 -16020886.01949  20666900.9864   20666903.2514   20666901.5304
       240.0004        206.0004
 -15604164.38149 -11329227.12649  21456591.5364   21456594.6604   21456591.6124
       233.0004        180.0004
 -17869979.99049 -13627638.49749  21370962.3774   21370965.0634   21370962.8904
       236.0004        194.0004
  -3292891.59449  -2310557.66749  23638180.1004   23638182.1464   23638178.8764
       213.0004        146.0004
 -24454456.69149 -19042671.66749  20485205.6134   20485207.8864   20485205.2014
       243.0004        202.0004
 -11509893.66549  -8957101.74449  22258847.2304   22258850.5774   22258846.9154
       229.0004        172.0004
  -1762694.20249  -1337802.62849  24934477.8704   24934481.4164   24934479.3824
       204.0004        134.0004
  -5849564.01849  -4540246.60649  23817623.7284   23817627.4684   23817625.0104
       213.0004        148.0004
 11 10 11  1 10 30.0000000  0  8G05G26G07G28G08G10G15G02
 -20590435.14249 -16030230.54849  20664618.6394   20664621.1614   20664619.4054
       239.0004        206.0004
 -15685481.72049 -11392591.26749  21441117.9074   21441119.9254   21441118.2864
       234.0004        181.0004
 -17807064.85349 -13578613.72449  21382935.2054   21382937.2924   21382935.6894
       238.0004        194.0004
  -3385990.03849  -2383101.91549  23620463.4404   23620465.2344   23620462.6034
       211.0004        145.0004
 -24453568.34849 -19041979.45149  20485373.9194   20485377.1764   20485373.9114
       242.0004        203.0004
 -11414241.42549  -8882567.55049  22277048.6754   22277052.4814   22277047.9994
       228.0004        172.0004
  -1861771.84449  -1415005.96749  24915624.5444   24915627.3814   24915624.7744
       204.0004        136.0004
  -5751296.91149  -4463674.89249  23836328.8604   23836324.7454   23836325.1614
       211.0004        144.0004
 11 10 11  1 11  0.0000000  0  8G05G26G07G28G08G10G15G02
 -20601869.05249 -16039140.09049  20662443.1524   20662445.7084   20662443.4524
       239.0004        207.0004
 -15766496.05949 -11455719.33449  21425701.2034   21425702.7444   21425701.5194
       233.0004        181.0004
 -17743766.20649 -13529290.11549  21394980.7514   21394982.1394   21394981.1494
       239.0004        194.0004
  -3478896.98349  -2455496.94149  23602782.4484   23602785.2244   23602782.5534
       211.0004        144.0004
 -24452166.52349 -19040887.12449  20485641.1644   20485643.8254   20485640.6524
       242.0004        202.0004
 -11318297.05549  -8807805.72149  22295305.4984   22295310.6304   22295305.6724
       227.0004        171.0004
  -1960810.79449  -1492179.18049  24896778.4864   24896780.4744   24896776.6484
       202.0004        134.0004
  -5652871.51149  -4386979.78349  23855054.4264   23855056.1574   23855054.9234
       214.0004        144.0004
 11 10 11  1 11 30.0000000  0  8G05G26G07G28G08G10G15G02
 -20612743.89549 -16047613.99949  20660373.9164   20660376.0264   20660374.4714
       241.0004        206.0004
 -15847206.01349 -11518610.18049  21410342.4114   21410344.4944   21410342.7394
       234.0004        181.0004
 -17680086.02949 -13479669.19849  21407097.7944   21407100.1614   21407098.7984
       237.0004        194.0004
  -3571609.81949  -2527740.69149  23585139.5224   23585143.9674   23585141.0034
       210.0004        146.0004
 -24450251.76549 -19039395.10149  20486004.9614   20486008.2684   20486005.0924
       241.0004        202.0004
 -11222062.25349  -8732817.57849  22313618.6934   22313622.6464   22313617.6224
       227.0004        171.0004
  -2059810.47549  -1569321.74649  24877937.8014   24877938.4404   24877938.6164
       201.0004        130.0004
  -5554291.20749  -4310163.94449  23873813.7764   23873814.4744   23873813.9954
       212.0004        145.0004
 11 10 11  1 12  0.0000000  0  8G05G26G07G28G08G10G15G02
 -20623059.05149 -16055651.79149  20658410.5944   20658412.8734   20658410.9344
       239.0004        206.0004
 -15927610.62749 -11581263.12749  21395042.0414   21395044.2544   21395041.8254
       232.0004        181.0004
 -17616026.72549 -13429752.84149  21419287.9834   21419290.4314   21419288.7274
       238.0004        194.0004
  -3664125.88449  -2599831.14249  23567535.9574   23567537.3124   23567534.7694
       211.0004        146.0004
 -24447825.01749 -19037504.12249  20486467.0354   20486469.8444   20486466.8824
       242.0004        202.0004
 -11125539.60049  -8657605.13749  22331987.3344   22331989.7034   22331986.9264
       230.0004        171.0004
  -2158770.06349  -1646433.10149  24859108.6564   24859110.0544   24859110.0564
       205.0004        136.0004
  -5455559.06749  -4233229.85049  23892600.7764   23892604.1184   23892601.0714
       207.0004        140.0004
 11 10 11  1 12 30.0000000  0  8G05G26G07G28G08G10G15G02
 -20632813.47349 -16063252.64849  20656554.1984   20656557.0904   20656554.9374
       239.0004        206.0004
 -16007707.84849 -11643676.54249  21379800.6634   21379802.2394   21379800.4714
       234.0004        182.0004
 -17551590.02849 -13379542.42949  21431550.4594   21431552.0774   21431550.3464
       237.0004        193.0004
  -3756441.99649  -2671765.75949  23549969.0314   23549971.7934   23549967.6304
       215.0004        147.0004
 -24444886.49549 -19035214.35849  20487026.4904   20487029.0494   20487025.7624
       242.0004        203.0004
 -11028730.62549  -8582169.59549  22350409.6094   22350412.5184   22350408.2154
       228.0004        172.0004
  -2257688.29749  -1723512.24149  24840284.3624   24840286.4564   24840284.5094
       203.0004        139.0004
  -5356677.94749  -4156179.63149  23911418.7374   23911421.0174   23911419.9554
       215.0004        144.0004
 11 10 11  1 13  0.0000000  0  8G05G26G07G28G08G10G15G02
 -20642007.04049 -16070416.47349  20654804.4664   20654807.4364   20654804.9894
       239.0004        206.0004
 -16087497.08749 -11705849.96749  21364615.8904   21364619.2514   21364615.7314
       233.0004        181.0004
 -17486778.53349 -13329039.96749  21443883.3184   21443885.4164   21443883.7324
       238.0004        194.0004
  -3848556.57449  -2743543.31549  23532440.1944   23532442.9634   23532438.6544
       212.0004        146.0004
 -24441437.63949 -19032526.93549  20487682.3594   20487685.3954   20487682.2994
       242.0004        202.0004
 -10931638.22249  -8506513.19649  22368883.3034   22368889.2274   22368884.9674
       226.0004        171.0004
  -2356565.25749  -1800559.19149  24821468.7134   24821469.9794   24821470.9174
       201.0004        134.0004
  -5257651.76049  -4079016.40349  23930260.4154   23930264.3024   23930260.8624
       205.0004        142.0004
 11 10 11  1 13 30.0000000  0  8G05G26G07G28G08G10G15G02
 -20650638.90849 -16077142.61249  20653162.9784   20653165.1024   20653163.2624
       241.0004        206.0004
 -16166976.78349 -11767782.19649  21349492.3684   21349495.2384   21349493.2264
       234.0004        182.0004
 -17421593.83749 -13278246.69949  21456287.7554   21456289.9054   21456287.9854
       238.0004        193.0004
  -3940466.56549  -2815161.51549  23514949.1694   23514951.6854   23514948.9754
       212.0004        145.0004
 -24437478.73049 -19029442.07149  20488435.9064   20488438.6544   20488435.6324
       242.0004        202.0004
 -10834263.75749  -8430637.00449  22387414.4684   22387419.3014   22387413.9844
       228.0004        171.0004
  -2455399.80949  -1877573.13149  24802661.0764   24802664.0174   24802662.3284
       198.0004        134.0004
  -5158483.57949  -4001742.50049  23949136.7714   23949136.1314   23949135.1104
       213.0004        140.0004
 11 10 11  1 14  0.0000000  0  8G05G26G07G28G08G10G15G02
 -20658707.54449 -16083429.87549  20651626.7964   20651629.3354   20651627.4824
       239.0004        206.0004
 -16246145.18049 -11829471.84649  21334427.3044   21334429.1614   21334426.6894
       235.0004        183.0004
 -17356037.98149 -13227164.21449  21468762.1074   21468764.7904   21468763.2654
       237.0004        193.0004
  -4032168.85549  -2886617.83149  23497497.9894   23497502.4094   23497498.9294
       212.0004        148.0004
 -24433010.10949 -19025960.03149  20489286.4824   20489289.6824   20489286.2264
       242.0004        203.0004
 -10736609.33349  -8354542.67349  22405999.6034   22406001.3224   22405997.7574
       228.0004        170.0004
  -2554190.58349  -1954552.91449  24783862.1234   24783863.5034   24783859.6804
       205.0004        136.0004
  -5059176.31849  -3924360.20449  23968028.7214   23968031.7094   23968029.3304
       206.0004        140.0004
 11 10 11  1 14 30.0000000  0  8G05G26G07G28G08G10G15G02
 -20666212.69349 -16089278.04749  20650198.3634   20650201.1654   20650199.0874
       239.0004        205.0004
 -16325000.86049 -11890917.82049  21319421.1944   21319423.9234   21319421.6654
       234.0004        182.0004
 -17290112.86549 -13175793.99949  21481307.5134   21481309.9054   21481308.2814
       236.0004        194.0004
  -4123660.76849  -2957910.23649  23480088.3404   23480090.2484   23480088.2644
       212.0004        146.0004
 -24428032.41449 -19022081.30249  20490233.3534   20490236.4064   20490233.0394
       242.0004        202.0004
 -10638676.75149  -8278231.57449  22424634.8884   22424637.8544   22424634.2224
       228.0004        171.0004
  -2652936.81249  -2031498.03449  24765070.8474   24765070.2574   24765071.0824
       203.0004        136.0004
  -4959732.66649  -3846871.70349  23986955.0004   23986954.9294   23986954.4524
       209.0004        143.0004
 11 10 11  1 15  0.0000000  0  8G05G26G07G28G08G10G15G02
 -20673153.85949 -16094686.76749  20648878.2264   20648880.2054   20648878.4064
       239.0004        206.0004
 -16403542.95449 -11952119.44349  21304474.0884   21304477.8074   21304474.5744
       234.0004        182.0004
 -17223820.94649 -13124137.95349  21493922.5334   21493924.8474   21493922.7294
       237.0004        193.0004
  -4214939.94849  -3029036.86349  23462719.2484   23462723.0574   23462717.7824
       212.0004        146.0004
 -24422546.89349 -19017806.87749  20491277.1494   20491280.1434   20491277.0024
       242.0004        202.0004
 -10540468.18649  -8201705.43249  22443320.8934   22443326.1104   22443321.7594
       226.0004        170.0004
  -2751637.90149  -2108407.96049  24746288.9334   24746290.6424   24746289.8864
       204.0004        138.0004
  -4860156.54849  -3769279.92149  24005902.9444   24005906.4044   24005902.6444
       208.0004        141.0004
 11 10 11  1 15 30.0000000  0  8G05G26G07G28G08G10G15G02
 -20679529.80449 -16099655.03549  20647663.6854   20647667.0844   20647665.0244
       238.0004        205.0004
 -16481769.40949 -12013075.11049  21289588.3944   21289591.7744   21289588.4824
       233.0004        183.0004
 -17157163.50249 -13072197.09849  21506606.8324   21506609.3414   21506607.6944
       237.0004        193.0004
  -4306003.05049  -3099995.10849  23445390.6214   23445393.0154   23445390.3344
       213.0004        148.0004
 -24416553.71149 -19013136.86049  20492418.1994   20492420.9664   20492418.1024
       243.0004        203.0004
 -10441985.44249  -8124965.65249  22462062.5174   22462066.6074   22462062.9154
       227.0004        169.0004
  -2850292.27249  -2185281.41149  24727515.1104   24727517.9404   24727517.1204
       202.0004        139.0004
  -4760450.47949  -3691586.91249  24024878.0584   24024875.6184   24024876.9644
       209.0004        137.0004
 11 10 11  1 16  0.0000000  0  8G05G26G07G28G08G10G15G02
 -20685340.41049 -16104182.77749  20646558.8604   20646561.2504   20646559.2644
       240.0004        205.0004
 -16559679.31549 -12073784.09949  21274761.5994   21274766.1374   21274762.7574
       231.0004        184.0004
 -17090143.63949 -13019973.81949  21519361.3004   21519362.3144   21519361.0924
       237.0004        192.0004
  -4396848.06749  -3170783.45049  23428102.7654   23428104.8814   23428103.7124
       213.0004        147.0004
 -24410054.40349 -19008072.45749  20493654.3714   20493657.1314   20493654.2874
       241.0004        202.0004
 -10343230.75049  -8048013.97249  22480857.6104   22480859.4794   22480854.7814
       228.0004        169.0004
  -2948900.45549  -2262118.88349  24708749.4504   24708751.6354   24708751.0754
       203.0004        136.0004
  -4660617.94349  -3613795.29049  24043873.1424   24043878.2234   24043873.8804
       209.0004        141.0004
 11 10 11  1 16 30.0000000  0  8G05G26G07G28G08G10G15G02
 -20690584.91649 -16108269.41649  20645561.9524   20645563.3944   20645562.0954
       240.0004        206.0004
 -16637271.08949 -12134245.22049  21259997.4224   21260000.3794   21259997.3064
       233.0004        183.0004
 -17022762.65649 -12967469.15149  21532182.9144   21532184.7414   21532183.1994
       237.0004        191.0004
  -4487472.18549  -3241399.63049  23410856.5604   23410861.2704   23410856.6604
       212.0004        150.0004
 -24403049.16449 -19002613.81749  20494988.0824   20494990.6004   20494987.5984
       243.0004        203.0004
 -10244206.22849  -7970852.03549  22499700.3564   22499702.6944   22499699.6604
       227.0004        169.0004
  -3047460.52149  -2338918.95849  24689996.4954   24689998.4284   24689995.5614
       205.0004        139.0004
  -4560662.44149  -3535907.92049  24062898.1664   24062896.4544   24062896.3334
       207.0004        142.0004
 11 10 11  1 17  0.0000000  0  8G05G26G07G28G08G10G15G02
 -20695262.74349 -16111914.46949  20644669.5894   20644673.4504   20644670.7204
       238.0004        205.0004
 -16714543.50249 -12194457.49249  21245293.2354   21245296.6364   21245293.9514
       233.0004        185.0004
 -16955023.13149 -12914685.11549  21545073.3554   21545075.2154   21545073.8134
       237.0004        192.0004
  -4577872.48049  -3311841.41749  23393654.0824   23393657.8634   23393653.9004
       212.0004        150.0004
 -24395538.62749 -18996761.45249  20496416.8724   20496419.7114   20496416.6894
       242.0004        203.0004
 -10144913.91149  -7893481.39549  22518594.3624   22518597.7914   22518593.4614
       226.0004        167.0004
  -3145971.83049  -2415680.97349  24671249.6644   24671248.9854   24671249.3004
       201.0004        135.0004
  -4460586.55349  -3457926.76349  24081940.5014   24081941.4304   24081938.5694
       205.0004        137.0004
 11 10 11  1 17 30.0000000  0  8G05G26G07G28G08G10G15G02
 -20699372.92549 -16115117.20849  20643888.6564   20643890.7404   20643889.1214
       239.0004        205.0004
 -16791494.91949 -12254419.63849  21230649.3494   21230652.9734   21230649.9804
       234.0004        185.0004
 -16886926.73849 -12861622.98649  21558031.6934   21558033.2704   21558031.3234
       236.0004        190.0004
  -4668046.32849  -3382106.73449  23376495.7794   23376498.3264   23376494.7724
       214.0004        147.0004
 -24387523.42349 -18990515.83449  20497942.6214   20497944.5764   20497942.4674
       243.0004        203.0004
 -10045355.57149  -7815903.48949  22537539.1724   22537543.0314   22537538.9834
       227.0004        167.0004
  -3244433.32549  -2492404.14549  24652513.2904   24652513.3704   24652513.2064
       205.0004        136.0004
  -4360393.64249  -3379854.33849  24101004.1554   24101008.8394   24101004.3074
       208.0004        141.0004
 11 10 11  1 18  0.0000000  0  8G05G26G07G28G08G10G15G02
 -20702914.52949 -16117876.89849  20643214.4944   20643216.8644   20643215.2904
       239.0004        206.0004
 -16868123.66449 -12314130.33349  21216068.6964   21216070.7454   21216067.9604
       234.0004        185.0004
 -16818475.25349 -12808284.17549  21571057.1004   21571059.3864   21571057.9804
       235.0004        191.0004
  -4757990.85249  -3452193.38049  23359380.7154   23359382.9314   23359380.1514
       217.0004        151.0004
 -24379004.50049 -18983877.70649  20499563.0064   20499565.8864   20499562.9154
       242.0004        203.0004
  -9945532.82249  -7738119.55749  22556534.9674   22556538.3524   22556533.8484
       224.0004        166.0004
  -3342844.05349  -2569087.76949  24633785.5274   24633787.5324   24633786.9804
       206.0004        141.0004
  -4260086.22749  -3301692.73749  24120092.0784   24120093.2034   24120093.5154
       206.0004        135.0004
 11 10 11  1 18 30.0000000  0  8G05G26G07G28G08G10G15G02
 -20705888.02649 -16120193.92449  20642649.0244   20642651.2954   20642649.2234
       239.0004        206.0004
 -16944429.51849 -12373589.44249  21201547.2604   21201551.3164   21201547.8364
       233.0004        185.0004
 -16749671.46149 -12754670.82149  21584150.4294   21584152.2104   21584150.7564
       236.0004        190.0004
  -4847704.28249  -3522099.93849  23342307.1184   23342311.9484   23342307.1104
       217.0004        153.0004
 -24369983.31749 -18976848.21349  20501280.8234   20501282.5354   20501280.0724
       244.0004        202.0004
  -9845448.69849  -7660131.94949  22575580.5314   22575582.9444   22575579.2474
       224.0004        165.0004
  -3441203.96549  -2645731.81349  24615069.4444   24615070.8344   24615070.3894
       210.0004        140.0004
  -4159668.79849  -3223445.37649  24139204.8724   24139204.7404   24139201.0634
       205.0004        137.0004
 11 10 11  1 19  0.0000000  0  8G05G26G07G28G08G10G15G02
 -20708291.96949 -16122067.13649  20642191.2294   20642193.7344   20642191.8644
       239.0004        206.0004
 -17020409.47249 -12432794.60449  21187089.4814   21187092.1514   21187089.6254
       236.0004        187.0004
 -16680516.50449 -12700783.82849  21597309.9544   21597311.8494   21597310.5064
       236.0004        190.0004
  -4937182.81449  -3591823.48949  23325280.0654   23325282.4344   23325280.6194
       213.0004        153.0004
 -24360459.36049 -18969426.94749  20503091.9584   20503094.9144   20503091.9364
       242.0004        203.0004
  -9745104.25649  -7581941.49249  22594674.8374   22594679.1554   22594674.6374
       222.0004        165.0004
  -3539510.95749  -2722334.68949  24596360.9734   24596361.2134   24596360.8064
       201.0004        136.0004
  -4059143.05049  -3145113.69549  24158331.0494   24158333.7364   24158330.6434
       204.0004        141.0004
 11 10 11  1 19 30.0000000  0  8G05G26G07G28G08G10G15G02
 -20710126.89349 -16123496.95249  20641842.1644   20641844.8624   20641842.6514
       239.0004        206.0004
 -17096063.70949 -12491745.96449  21172692.6344   21172695.2054   21172693.1624
       234.0004        186.0004
 -16611013.66549 -12646625.78349  21610536.1104   21610537.8354   21610536.5074
       236.0004        189.0004
  -5026424.85749  -3661362.73249  23308298.4814   23308300.7344   23308298.8874
       219.0004        152.0004
 -24350435.10949 -18961615.84049  20504999.9754   20505002.4404   20504999.7544
       242.0004        203.0004
  -9644502.64749  -7503550.65649  22613818.1584   22613820.4924   22613817.8984
       222.0004        164.0004
  -3637765.28449  -2798896.42749  24577664.5474   24577665.1664   24577665.0304
       210.0004        141.0004
  -3958513.66149  -3066701.21449  24177479.5544   24177481.0234   24177481.2594
       207.0004        142.0004
 11 10 11  1 20  0.0000000  0  8G05G26G07G28G08G10G15G02
 -20711390.87649 -16124481.89149  20641602.1264   20641604.3914   20641602.7124
       239.0004        206.0004
 -17171389.31249 -12550441.23449  21158358.5454   21158361.2004   21158359.2804
       235.0004        186.0004
 -16541163.58949 -12592197.16149  21623827.7974   21623830.8594   21623828.6974
       236.0004        190.0004
  -5115426.45349  -3730714.62649  23291363.7954   23291364.6574   23291361.9994
       219.0004        152.0004
 -24339909.79849 -18953414.30249  20507003.1104   20507005.2724   20507003.1984
       243.0004        203.0004
  -9543644.46049  -7424959.87249  22633013.1974   22633014.7834   22633012.3844
       225.0004        165.0004
  -3735964.60349  -2875415.32949  24558977.0554   24558979.7854   24558978.2594
       206.0004        141.0004
  -3857781.80449  -2988208.84749  24196649.9054   24196649.2554   24196651.0744
       206.0004        132.0004
 11 10 11  1 20 30.0000000  0  8G05G26G07G28G08G10G15G02
 -20712084.97949 -16125022.75549  20641468.8954   20641472.0684   20641469.7664
       238.0004        206.0004
 -17246386.28749 -12608880.43049  21144086.9034   21144089.2764   21144087.3634
       234.0004        186.0004
 -16470969.49749 -12537500.46749  21637185.8504   21637187.6154   21637186.2784
       236.0004        190.0004
  -5204186.11449  -3799877.96949  23274471.7084   23274474.8044   23274471.4804
       218.0004        154.0004
 -24328885.58049 -18944823.99549  20509101.1444   20509103.5174   20509100.3724
       243.0004        203.0004
  -9442533.01949  -7346171.74749  22652254.9864   22652255.2714   22652252.3964
       224.0004        165.0004
  -3834109.31249  -2951891.70849  24540302.4804   24540303.4274   24540301.4594
       205.0004        137.0004
  -3756952.04949  -2909640.17749  24215839.6824   24215839.4424   24215832.7594
       204.0004        135.0004
 11 10 11  1 21  0.0000000  0  8G05G26G07G28G08G10G15G02
 -20712207.53149 -16125118.26249  20641446.4874   20641448.9454   20641446.9354
       240.0004        206.0004
 -17321052.33849 -12667061.75249  21129878.1804   21129881.0764   21129878.5604
       235.0004        186.0004
 -16400433.25949 -12482537.15949  21650608.4854   21650609.7014   21650608.6084
       236.0004        189.0004
  -5292700.66949  -3868850.34849  23257626.4124   23257629.7254   23257627.2304
       214.0004        152.0004
 -24317362.58549 -18935845.04049  20511293.0584   20511296.0964   20511293.2044
       243.0004        203.0004
  -9341169.83549  -7267187.46649  22671541.4014   22671545.7644   22671539.5484
       221.0004        162.0004
  -3932197.83849  -3028324.33149  24521635.0474   24521636.7304   24521636.0834
       207.0004        139.0004
  -3656027.07949  -2830997.40149  24235041.5314   24235044.6084   24235041.8284
       208.0004        146.0004
 11 10 11  1 21 30.0000000  0  8G05G26G07G28G08G10G15G02
 -20711758.33549 -16124768.24649  20641533.1634   20641533.8464   20641532.9234
       240.0004        206.0004
 -17395386.49549 -12724984.45249  21115732.6444   21115735.6644   21115732.4854
       234.0004        185.0004
 -16329556.39549 -12427308.45449  21664095.4774   21664097.2934   21664095.3534
       235.0004        188.0004
  -5380967.68349  -3937629.84449  23240830.8574   23240833.3604   23240830.9994
       216.0004        152.0004
 -24305341.77649 -18926478.16849  20513580.7734   20513583.5044   20513580.1094
       242.0004        203.0004
  -9239556.99449  -7188008.66849  22690876.6624   22690881.6344   22690877.7944
       221.0004        163.0004
  -4030229.56149  -3104712.66149  24502980.6764   24502982.1424   24502981.4774
       207.0004        142.0004
  -3555010.10549  -2752282.92649  24254264.5254   24254266.3504   24254264.1694
       207.0004        143.0004
 11 10 11  1 22  0.0000000  0  8G05G26G07G28G08G10G15G02
 -20710737.40649 -16123972.71549  20641725.4994   20641728.4104   20641726.3924
       240.0004        205.0004
 -17469387.31249 -12782647.42749  21101650.9334   21101654.0364   21101651.2644
       236.0004        186.0004
 -16258341.28849 -12371816.16649  21677647.8824   21677649.2374   21677647.8244
       236.0004        190.0004
  -5468984.59549  -4006214.42549  23224082.3014   23224084.0294   23224082.1604
       215.0004        152.0004
 -24292824.46449 -18916724.41949  20515963.4174   20515965.7064   20515963.0644
       244.0004        204.0004
  -9137696.78149  -7108637.08249  22710261.6074   22710263.6044   22710260.6674
       224.0004        161.0004
  -4128203.47449  -3181055.88849  24484336.6864   24484338.9594   24484337.9224
       207.0004        143.0004
  -3453903.83749  -2673498.86549  24273506.8284   24273501.3684   24273509.3364
       204.0004        123.0004
 11 10 11  1 22 30.0000000  0  8G05G26G07G28G08G10G15G02
 -20709143.31349 -16122730.57649  20642030.2944   20642032.0154   20642030.3814
       240.0004        206.0004
 -17543052.77449 -12840049.09249  21087633.1484   21087636.4794   21087633.3504
       236.0004        187.0004
 -16186789.50949 -12316061.51449  21691262.9924   21691265.6834   21691263.6144
       235.0004        190.0004
  -5556747.92349  -4074601.44049  23207380.7484   23207383.9004   23207380.7904
       214.0004        153.0004
 -24279810.53649 -18906583.69049  20518439.8474   20518441.9914   20518439.3014
       243.0004        203.0004
  -9035590.32649  -7029073.61549  22729693.0284   22729694.6634   22729690.1384
       223.0004        162.0004
  -4226117.95249  -3257352.82849  24465703.2224   24465704.3824   24465702.8744
       203.0004        137.0004
  -3352711.51849  -2594647.61749  24292761.4994   24292762.7674   24292761.8654
       209.0004        137.0004
 11 10 11  1 23  0.0000000  0  8G05G26G07G28G08G10G15G02
 -20706976.62149 -16121042.25249  20642441.4194   20642444.5764   20642442.1514
       239.0004        206.0004
 -17616382.33949 -12897189.03049  21073679.3184   21073682.1504   21073679.1834
       238.0004        188.0004
 -16114903.82049 -12260046.69349  21704942.7474   21704944.8904   21704943.3944
       236.0004        190.0004
  -5644255.94049  -4142789.46949  23190727.8124   23190732.5574   23190728.4404
       216.0004        153.0004
 -24266302.03349 -18896057.57949  20521010.2594   20521012.5364   20521009.7654
       244.0004        203.0004
  -8933240.57349  -6949320.59549  22749168.4014   22749171.4774   22749166.7254
       222.0004        163.0004
  -4323973.19749  -3333603.71949  24447081.4394   24447082.7314   24447083.4074
       207.0004        139.0004
  -3251436.86449  -2515732.29149  24312033.1164   24312036.1254   24312033.1244
       213.0004        151.0004
 11 10 11  1 23 30.0000000  0  8G05G26G07G28G08G10G15G02
 -20704237.16149 -16118907.61849  20642963.2154   20642965.7464   20642963.2514
       239.0004        205.0004
 -17689374.39149 -12954065.96449  21059789.5934   21059792.1134   21059790.0724
       238.0004        189.0004
 -16042686.27949 -12203773.28349  21718685.3174   21718686.6514   21718685.8954
       235.0004        189.0004
  -5731506.06349  -4210776.58849  23174126.8234   23174127.4194   23174125.7964
       216.0004        153.0004
 -24252299.72749 -18885146.68349  20523674.4804   20523676.7904   20523674.1184
       243.0004        203.0004
  -8830649.58449  -6869379.58749  22768690.5404   22768694.9204   22768690.6954
       222.0004        164.0004
  -4421768.06249  -3409807.48749  24428473.1434   24428474.0494   24428473.9084
       206.0004        142.0004
  -3150082.57149  -2436754.99249  24331317.8424   24331321.9354   24331321.4384
       193.0004        138.0004
 11 10 11  1 24  0.0000000  0  8G05G26G07G28G08G10G15G02
 -20700923.65749 -16116325.66949  20643593.2104   20643596.1784   20643593.8094
       239.0004        205.0004
 -17762027.35749 -13010678.66249  21045964.4324   21045966.4924   21045964.4174
       238.0004        189.0004
 -15970138.82849 -12147242.79949  21732490.1514   21732492.1714   21732490.8894
       235.0004        189.0004
  -5818495.25349  -4278560.33649  23157572.7704   23157574.8014   23157571.4094
       216.0004        153.0004
 -24237804.22949 -18873851.48349  20526432.8184   20526435.4294   20526432.7074
       243.0004        203.0004
  -8727819.28149  -6789252.06649  22788259.0554   22788262.1814   22788257.4094
       224.0004        163.0004
  -4519501.10949  -3485963.04749  24409873.7504   24409876.2924   24409875.8524
       204.0004        142.0004
  -3048651.40849  -2357717.86749  24350623.6454   24350620.1664   24350622.7294
       206.0004        126.0004
 11 10 11  1 24 30.0000000  0  8G05G26G07G28G08G10G15G02
 -20697036.31249 -16113296.57149  20644333.2184   20644335.8304   20644333.9164
       239.0004        206.0004
 -17834339.91749 -13067026.08649  21032203.0974   21032205.9024   21032203.6764
       237.0004        188.0004
 -15897263.38249 -12090456.73249  21746358.6274   21746359.9304   21746359.1364
       237.0004        190.0004
  -5905221.18649  -4346138.97049  23141067.3384   23141070.5724   23141067.7614
       217.0004        154.0004
 -24222816.48949 -18862172.72249  20529284.6624   20529287.6894   20529284.4114
       242.0004        203.0004
  -8624751.66449  -6708939.67349  22807872.1964   22807875.3984   22807871.4554
       224.0004        164.0004
  -4617171.84249  -3562070.09049  24391289.5754   24391289.1344   24391289.3114
       208.0004        140.0004
  -2947147.01349  -2278623.31049  24369938.4604   24369937.7264   24369937.2004
       214.0004        141.0004
 11 10 11  1 25  0.0000000  0  8G05G26G07G28G08G10G15G02
 -20692574.75049 -16109820.05049  20645183.3304   20645184.8944   20645183.6014
       240.0004        206.0004
 -17906310.62349 -13123107.11349  21018507.3544   21018510.1754   21018507.6564
       236.0004        188.0004
 -15824061.84149 -12033416.57849  21760288.2804   21760290.7614   21760288.4914
       236.0004        190.0004
  -5991680.61249  -4413509.95949  23124615.2804   23124618.6454   23124616.1304
       216.0004        154.0004
 -24207337.18149 -18850110.91649  20532230.7764   20532233.6394   20532230.2354
       244.0004        203.0004
  -8521448.78849  -6628443.93349  22827530.0244   22827533.3324   22827528.8784
       225.0004        164.0004
  -4714778.92049  -3638127.59049  24372715.4184   24372713.9574   24372716.2964
       208.0004        139.0004
  -2845571.69749  -2199473.70349  24389264.8764   24389271.4124   24389265.3254
       200.0004        143.0004
 11 10 11  1 25 30.0000000  0  8G05G26G07G28G08G10G15G02
 -20687538.29149 -16105895.54249  20646139.9094   20646143.2824   20646140.7854
       238.0004        205.0004
 -17977937.78249 -13178920.46949  21004877.1474   21004880.1394   21004877.6794
       237.0004        188.0004
 -15750536.03549 -11976123.74549  21774279.5514   21774281.5604   21774280.0664
       236.0004        191.0004
  -6077870.90449  -4480671.20049  23108214.8934   23108217.7384   23108214.1034
       216.0004        154.0004
 -24191367.53149 -18837667.03349  20535269.4254   20535271.8304   20535269.3284
       243.0004        203.0004
  -8417912.60249  -6547766.42549  22847234.0434   22847236.2604   22847232.4564
       226.0004        164.0004
  -4812320.98849  -3714134.36249  24354154.3754   24354155.4734   24354155.6814
       212.0004        146.0004
  -2743928.56849  -2120271.46249  24408608.8444   24408612.3024   24408608.3104
       200.0004        135.0004
 11 10 11  1 26  0.0000000  0  8G05G26G07G28G08G10G15G02
 -20681927.23149 -16101523.30449  20647208.1094   20647211.0824   20647208.9074
       238.0004        205.0004
 -18049220.64849 -13234465.54149  20991312.9854   20991314.8604   20991312.8674
       237.0004        187.0004
 -15676688.91549 -11918580.54349  21788332.1264   21788334.4384   21788332.8654
       235.0004        189.0004
  -6163790.24149  -4547621.29049  23091866.0904   23091867.5394   23091864.5014
       218.0004        156.0004
 -24174908.87749 -18824842.10249  20538402.1024   20538403.8034   20538401.2454
       244.0004        203.0004
  -8314145.42849  -6466908.89449  22866976.5294   22866981.7674   22866975.5464
       220.0004        159.0004
  -4909797.88949  -3790090.33849  24335603.3144   24335605.4964   24335604.2784
       208.0004        144.0004
  -2642221.65349  -2041019.36849  24427960.3964   24427961.1384   24427961.2804
       203.0004        138.0004
 11 10 11  1 26 30.0000000  0  8G05G26G07G28G08G10G15G02
 -20675741.00549 -16096702.88349  20648386.2754   20648388.4294   20648386.5244
       239.0004        206.0004
 -18120157.33349 -13289740.86849  20977813.9134   20977816.1414   20977814.1264
       238.0004        188.0004
 -15602521.71049 -11860787.92049  21802445.9774   21802448.3654   21802446.1824
       235.0004        188.0004
  -6249435.55649  -4614357.89149  23075567.7484   23075569.6554   23075566.7024
       218.0004        156.0004
 -24157961.77549 -18811636.56749  20541625.9234   20541628.9974   20541626.1484
       243.0004        203.0004
  -8210148.94949  -6385872.67949  22886767.7764   22886771.9784   22886767.0114
       222.0004        162.0004
  -5007208.08749  -3865994.33149  24317067.5594   24317069.1744   24317067.0224
       209.0004        142.0004
  -2540453.34749  -1961719.27949  24447331.0104   24447324.5824   24447330.0614
       207.0004        134.0004
 11 10 11  1 27  0.0000000  0  8G05G26G07G28G08G10G15G02
 -20668979.78149 -16091434.41449  20649671.8454   20649675.1794   20649672.5124
       238.0004        206.0004
 -18190747.12949 -13344745.89349  20964380.2824   20964384.0134   20964380.8834
       236.0004        188.0004
 -15528036.95949 -11802747.86449  21816619.3324   21816621.8964   21816619.6264
       233.0004        187.0004
  -6334804.81849  -4680879.37649  23059320.9454   23059324.2364   23059320.9964
       216.0004        155.0004
 -24140527.60349 -18798051.49349  20544943.8964   20544946.6314   20544943.5954
       243.0004        203.0004
  -8105925.98449  -6304660.02849  22906601.7974   22906604.8474   22906600.9624
       222.0004        161.0004
  -5104551.44149  -3941846.27049  24298543.8094   24298544.7594   24298544.5244
       210.0004        143.0004
  -2438626.91249  -1882373.96449  24466699.9054   24466708.2274   24466701.2274
       190.0004        132.0004
 11 10 11  1 27 30.0000000  0  8G05G26G07G28G08G10G15G02
 -20661643.03949 -16085717.49449  20651068.6224   20651071.0984   20651069.2314
       240.0004        206.0004
 -18260988.32949 -13399479.27349  20951014.7864   20951017.6054   20951014.4364
       237.0004        189.0004
 -15453236.91449 -11744462.11649  21830853.3734   21830855.8914   21830853.8564
       233.0004        186.0004
  -6419895.08749  -4747183.45649  23043129.5204   23043131.6314   23043128.7384
       218.0004        158.0004
 -24122607.69749 -18784087.93249  20548353.7734   20548356.7404   20548353.9864
       243.0004        203.0004
  -8001478.23049  -6223272.17049  22926476.9274   22926481.8374   22926476.0674
       219.0004        161.0004
  -5201826.58149  -4017645.10649  24280033.7804   24280033.9364   24280032.8614
       210.0004        146.0004
  -2336745.69949  -1802986.14749  24486089.7124   24486094.8424   24486092.3904
       197.0004        138.0004
 11 10 11  1 28  0.0000000  0  8G05G26G07G28G08G10G15G02
 -20653730.87649 -16079552.19849  20652575.2204   20652576.6974   20652575.5854
       240.0004        206.0004
 -18330879.82449 -13453940.17449  20937714.2854   20937717.7544   20937714.5974
       238.0004        189.0004
 -15378123.64649 -11685932.30049  21845146.7854   21845149.2444   21845146.8454
       232.0004        184.0004
  -6504703.87049  -4813268.21149  23026991.7124   23026993.3534   23026991.2064
       221.0004        159.0004
 -24104203.10349 -18769746.68349  20551856.8004   20551859.3794   20551856.3004
       243.0004        203.0004
  -7896808.20149  -6141711.11949  22946394.2884   22946398.4794   22946393.7144
       219.0004        160.0004
  -5299032.91149  -4093390.26949  24261534.2684   24261538.1284   24261536.0374
       211.0004        148.0004
  -2234812.80249  -1723557.92149  24505491.3304   24505491.0254   24505489.7074
       204.0004        135.0004
 11 10 11  1 28 30.0000000  0  8G05G26G07G28G08G10G15G02
 -20645242.11649 -16072937.58649  20654189.1164   20654192.2554   20654189.7444
       237.0004        205.0004
 -18400418.92149 -13508126.47049  20924481.7734   20924484.2614   20924481.7494
       238.0004        189.0004
 -15302698.14949 -11627159.19349  21859500.5964   21859502.0844   21859500.7944
       234.0004        186.0004
  -6589227.62149  -4879130.85849  23010906.9344   23010908.3914   23010906.2504
       219.0004        157.0004
 -24085313.53249 -18755027.52949  20555451.2244   20555453.0754   20555450.9374
       244.0004        203.0004
  -7791916.81549  -6059977.59649  22966354.8854   22966358.2014   22966353.9744
       219.0004        161.0004
  -5396168.00049  -4169079.90449  24243051.5604   24243051.9434   24243052.1194
       208.0004        145.0004
  -2132829.72749  -1644090.55949  24524898.1714   24524897.0434   24524897.8604
       199.0004        133.0004
 11 10 11  1 29  0.0000000  0  8G05G26G07G28G08G10G15G02
 -20636177.66749 -16065874.37649  20655913.8714   20655916.7794   20655914.6154
       239.0004        205.0004
 -18469605.49349 -13562038.06349  20911316.2874   20911318.6544   20911316.1734
       239.0004        190.0004
 -15226963.58449 -11568145.23249  21873912.0774   21873914.3214   21873912.2834
       234.0004        186.0004
  -6673465.35749  -4944770.62949  22994876.9244   22994879.9704   22994876.9424
       222.0004        159.0004
 -24065941.20849 -18739932.20549  20559136.8734   20559139.9644   20559136.8674
       242.0004        203.0004
  -7686807.27449  -5978074.06049  22986355.0694   22986361.4664   22986354.9064
       217.0004        160.0004
  -5493232.12849  -4244714.27649  24224581.1244   24224581.2444   24224581.8784
       210.0004        145.0004
  -2030801.10049  -1564587.79949  24544309.1304   24544312.6454   24544310.1614
       196.0004        133.0004
 11 10 11  1 29 30.0000000  0  8G05G26G07G28G08G10G15G02
 -20626537.32849 -16058362.43349  20657749.3494   20657751.2754   20657749.7674
       240.0004        205.0004
 -18538437.93249 -13615673.71149  20898218.0764   20898220.4604   20898217.8064
       239.0004        190.0004
 -15150921.58649 -11508891.73549  21888382.5244   21888384.9344   21888382.5434
       234.0004        185.0004
  -6757413.77449  -5010184.95149  22978901.6784   22978904.6644   22978901.1234
       221.0004        157.0004
 -24046087.20249 -18724461.55649  20562915.5794   20562918.0484   20562915.3194
       243.0004        203.0004
  -7581481.33249  -5896001.91649  23006398.6854   23006402.5854   23006398.3374
       219.0004        156.0004
  -5590224.04649  -4320292.36949  24206124.0324   24206125.5104   24206124.7164
       210.0004        149.0004
  -1928729.58849  -1485051.53049  24563733.8714   24563736.0324   24563734.2394
       200.0004        135.0004
 11 10 11  1 30  0.0000000  0  8G05G26G07G28G08G10G15G02
 -20616321.02249 -16050401.69049  20659694.0544   20659695.5154   20659694.3094
       239.0004        206.0004
 -18606915.14249 -13669032.56849  20885186.9734   20885189.2544   20885187.1254
       238.0004        191.0004
 -15074574.51049 -11449400.50949  21902910.7934   21902912.4074   21902911.2754
       234.0004        185.0004
  -6841070.19649  -5075371.77149  22962982.8884   22962986.0624   22962982.5474
       221.0004        159.0004
 -24025752.55949 -18708616.37249  20566784.6034   20566787.5174   20566784.4854
       243.0004        203.0004
  -7475941.27849  -5813762.93949  23026485.1104   23026486.7724   23026482.1954
       221.0004        157.0004
  -5687142.72149  -4395813.35049  24187678.7424   24187682.9304   24187680.0804
       208.0004        147.0004
  -1826618.33549  -1405484.32549  24583168.3304   24583169.9974   24583166.1064
       203.0004        133.0004
 11 10 11  1 30 30.0000000  0  8G05G26G07G28G08G10G15G02
 -20605527.96949 -16041991.53049  20661746.1324   20661749.7954   20661747.3834
       238.0004        205.0004
 -18675034.97549 -13722112.95849  20872223.9004   20872226.4084   20872224.4034
       240.0004        191.0004
 -14997923.93649 -11389672.79749  21917497.3654   21917498.3844   21917497.1694
       234.0004        185.0004
  -6924431.88349  -5140328.92049  22947119.7424   22947121.0104   22947118.8154
       222.0004        159.0004
 -24004938.04549 -18692397.27449  20570746.2794   20570748.4994   20570745.9174
       243.0004        203.0004
  -7370188.76949  -5731358.40949  23046609.2704   23046611.6754   23046607.0504
       219.0004        157.0004
  -5783986.78149  -4471276.17549  24169252.1994   24169254.9194   24169252.5364
       211.0004        146.0004
  -1724469.85349  -1325888.17149  24602607.6804   24602604.4044   24602607.2134
       194.0004        128.0004
 11 10 11  1 31  0.0000000  0  8G05G26G07G28G08G10G15G02
 -20594158.24849 -16033132.01249  20663911.1484   20663912.9354   20663911.1804
       239.0004        205.0004
 -18742796.34649 -13774914.02649  20859329.5224   20859332.0814   20859329.2714
       239.0004        191.0004
 -14920971.85349 -11329710.14649  21932140.4154   21932142.4054   21932140.6144
       233.0004        185.0004
  -7007496.34549  -5205054.45349  22931312.9784   22931313.7254   22931311.7514
       221.0004        158.0004
 -23983644.44249 -18675804.84749  20574797.6414   20574800.6894   20574797.1444
       243.0004        203.0004
  -7264225.96749  -5648790.00949  23066770.9094   23066774.8604   23066771.1514
       217.0004        159.0004
  -5880755.35849  -4546680.27849  24150837.5214   24150838.0274   24150836.6304
       211.0004        145.0004
  -1622287.16449  -1246265.31149  24622043.8764   24622050.9214   24622047.5844
       194.0004        129.0004
 11 10 11  1 31 30.0000000  0  8G05G26G07G28G08G10G15G02
 -20582212.75149 -16023823.83849  20666183.1614   20666186.1714   20666184.2004
       238.0004        205.0004
 -18810198.35149 -13827435.06749  20846502.6404   20846505.8754   20846502.8854
       238.0004        191.0004
 -14843721.27649 -11269514.90849  21946840.6744   21946842.8234   21946841.1934
       232.0004        185.0004
  -7090261.56149  -5269546.82349  22915562.6984   22915566.3224   22915563.1104
       222.0004        159.0004
 -23961873.94849 -18658840.83249  20578940.6384   20578943.2544   20578940.6164
       243.0004        203.0004
  -7158055.66849  -5566059.91949  23086973.9714   23086978.7054   23086974.1104
       219.0004        157.0004
  -5977448.50149  -4622025.57449  24132434.5964   24132437.4434   24132434.8724
       199.0004        142.0004
  -1520073.89349  -1166618.55549  24641502.7904   24641504.9694   24641499.2684
       205.0004        132.0004
 11 10 11  1 32  0.0000000  0  8G05G26G07G28G08G10G15G02
 -20569690.45749 -16014066.21049  20668566.2984   20668569.0914   20668566.4624
       238.0004        204.0004
 -18877238.77649 -13879674.35649  20833746.1454   20833749.0954   20833746.1154
       240.0004        192.0004
 -14766173.18949 -11209087.82949  21961597.0634   21961599.4594   21961597.6754
       231.0004        181.0004
  -7172724.35649  -5333803.53449  22899872.9214   22899874.2074   22899870.4434
       223.0004        160.0004
 -23939627.00949 -18641505.54549  20583173.9254   20583176.5384   20583173.3584
       242.0004        203.0004
  -7051679.19849  -5483169.17049  23107216.5864   23107219.9934   23107216.9314
       221.0004        159.0004
  -6074064.10649  -4697310.39649  24114050.3764   24114053.1724   24114051.9344
       209.0004        146.0004
  -1417832.77249  -1086950.23049  24660959.3444   24660955.9614   24660960.0024
       204.0004        132.0004
 11 10 11  1 32 30.0000000  0  8G05G26G07G28G08G10G15G02
 -20556591.65449 -16003859.36449  20671058.7664   20671061.7304   20671059.3904
       238.0004        204.0004
 -18943916.84549 -13931631.27149  20821057.5944   20821060.6804   20821057.7894
       241.0004        192.0004
 -14688329.93549 -11148430.73849  21976410.0354   21976412.6104   21976411.0004
       232.0004        182.0004
  -7254882.95449  -5397823.20049  22884235.5034   22884240.0264   22884235.7074
       221.0004        161.0004
 -23916904.64649 -18623799.81049  20587498.4634   20587500.5354   20587498.3784
       243.0004        203.0004
  -6945098.97349  -5400119.64949  23127497.6214   23127502.4244   23127498.6534
       219.0004        159.0004
  -6170601.41949  -4772534.23049  24095680.8124   24095683.1724   24095680.7944
       208.0004        146.0004
  -1315566.67449  -1007262.34949  24680413.6634   24680417.2624   24680415.8224
       196.0004        132.0004
 11 10 11  1 33  0.0000000  0  8G05G26G07G28G08G10G15G02
 -20542916.99149 -15993203.80049  20673662.0244   20673663.7524   20673662.4954
       240.0004        204.0004
 -19010231.38449 -13983304.90449  20808438.2844   20808440.7234   20808438.6894
       240.0004        192.0004
 -14610193.97549 -11087545.56649  21991279.6354   21991280.9454   21991279.4804
       232.0004        182.0004
  -7336734.62649  -5461603.72049  22868659.9994   22868662.1684   22868660.2434
       222.0004        161.0004
 -23893708.31449 -18605724.74049  20591912.4984   20591914.4164   20591911.6304
       243.0004        202.0004
  -6838317.43449  -5316913.26549  23147818.6804   23147822.4864   23147818.6774
       222.0004        160.0004
  -6267059.83449  -4847696.62049  24077325.8314   24077326.9304   24077326.1364
       207.0004        145.0004
  -1213278.64749   -927557.35649  24699880.1564   24699885.5124   24699882.9114
       201.0004        131.0004
 11 10 11  1 33 30.0000000  0  8G05G26G07G28G08G10G15G02
 -20528665.35249 -15982098.64249  20676374.1634   20676375.4654   20676374.1414
       237.0004        204.0004
 -19076180.19449 -14034693.55149  20795889.1214   20795890.9484   20795889.2274
       241.0004        191.0004
 -14531766.57049 -11026433.31149  22006203.8104   22006205.6344   22006204.3714
       232.0004        184.0004
  -7418276.07349  -5525142.47749  22853143.7664   22853146.8094   22853142.6824
       221.0004        160.0004
 -23870038.73849 -18587280.91249  20596416.1564   20596418.9484   20596416.3644
       242.0004        203.0004
  -6731335.98449  -5233551.10849  23168177.9294   23168179.7454   23168175.6404
       221.0004        156.0004
  -6363437.38449  -4922795.93649  24058983.3844   24058986.5624   24058983.9154
       207.0004        145.0004
  -1110971.14949   -847837.22349  24719354.3754   24719352.6074   24719348.9944
       204.0004        133.0004
 11 10 11  1 34  0.0000000  0  8G05G26G07G28G08G10G15G02
 -20513838.21349 -15970545.03949  20679194.4244   20679197.4944   20679195.1464
       238.0004        204.0004
 -19141763.02349 -14085797.02849  20783409.0114   20783411.4614   20783409.0324
       240.0004        192.0004
 -14453050.88249 -10965096.40949  22021183.4164   22021185.1594   22021183.7894
       235.0004        186.0004
  -7499505.99849  -5588438.50849  22837686.3304   22837688.7924   22837686.0634
       221.0004        160.0004
 -23845897.95949 -18568469.91749  20601010.2964   20601012.9124   20601009.9524
       242.0004        203.0004
  -6624157.57449  -5150035.46149  23188571.7754   23188575.1514   23188571.9874
       219.0004        155.0004
  -6459734.15549  -4997832.37249  24040660.4764   24040663.2854   24040661.5024
       211.0004        149.0004
  -1008648.45249   -768105.30949  24738818.0654   24738823.2374   24738822.2904
       195.0004        134.0004
 11 10 11  1 34 30.0000000  0  8G05G26G07G28G08G10G15G02
 -20498434.37549 -15958542.05349  20682125.3454   20682128.6094   20682126.1794
       237.0004        204.0004
 -19206977.49649 -14136613.46749  20770998.3604   20771001.2874   20770998.0114
       239.0004        191.0004
 -14374047.94049 -10903535.66849  22036216.3934   22036218.7844   22036216.3394
       233.0004        185.0004
  -7580421.02949  -5651489.15849  22822289.0194   22822291.8474   22822288.2044
       222.0004        163.0004
 -23821286.39149 -18549292.07049  20605693.1034   20605696.1004   20605693.1024
       242.0004        202.0004
  -6516783.36449  -5066367.24849  23209002.6754   23209008.6164   23209003.7654
       216.0004        157.0004
  -6555948.05749  -5072804.22249  24022351.2134   24022353.4874   24022351.9634
       209.0004        147.0004
   -906312.52549   -688363.07649  24758293.2774   24758299.1224   24758292.7214
       203.0004        134.0004
 11 10 11  1 35  0.0000000  0  8G05G26G07G28G08G10G15G02
 -20482454.40449 -15946090.14249  20685167.5194   20685169.7474   20685167.8014
       238.0004        204.0004
 -19271823.10749 -14187142.50049  20758658.1134   20758661.7084   20758658.6884
       240.0004        191.0004
 -14294760.22849 -10841753.05649  22051303.9654   22051306.7894   22051304.8474
       232.0004        184.0004
  -7661019.27149  -5714292.97549  22806950.9644   22806954.4824   22806950.8384
       221.0004        160.0004
 -23796205.77549 -18529748.73549  20610464.8704   20610468.9344   20610465.3534
       241.0004        202.0004
  -6409216.09149  -4982548.60249  23229473.5714   23229477.1344   23229473.7414
       219.0004        157.0004
  -6652078.75849  -5147711.21449  24004057.5094   24004059.5134   24004057.7854
       207.0004        144.0004
   -803966.66649   -608613.06849  24777775.5324   24777770.7024   24777772.7204
       206.0004        132.0004
 11 10 11  1 35 30.0000000  0  8G05G26G07G28G08G10G15G02
 -20465898.54149 -15933189.47249  20688316.8004   20688319.8994   20688317.4094
       240.0004        203.0004
 -19336297.77049 -14237382.49049  20746389.9544   20746392.6864   20746389.6394
       240.0004        192.0004
 -14215189.72449 -10779750.08249  22066446.1404   22066448.8884   22066447.0904
       233.0004        185.0004
  -7741297.83449  -5776847.68149  22791674.9994   22791677.5244   22791674.9624
       222.0004        163.0004
 -23770657.08849 -18509840.66949  20615328.7064   20615330.3244   20615328.1464
       242.0004        202.0004
  -6301458.06649  -4898581.33549  23249980.6334   23249983.8834   23249978.9874
       221.0004        155.0004
  -6748124.98749  -5222552.41749  23985782.6824   23985783.5334   23985781.0804
       211.0004        148.0004
   -701613.57549   -528857.40849  24797249.8344   24797251.4594   24797248.4304
       200.0004        129.0004
 11 10 11  1 36  0.0000000  0  8G05G26G07G28G08G10G15G02
 -20448766.45649 -15919839.80149  20691577.9364   20691580.0924   20691578.4854
       242.0004        204.0004
 -19400400.27649 -14287332.49949  20734191.9454   20734194.2294   20734192.1694
       241.0004        192.0004
 -14135338.15249 -10717528.07149  22081641.3434   22081642.7614   22081642.0444
       231.0004        182.0004
  -7821253.79049  -5839151.00149  22776459.4544   22776462.7894   22776459.6114
       219.0004        162.0004
 -23744641.18749 -18489568.53649  20620278.1894   20620281.1924   20620278.1624
       242.0004        202.0004
  -6193510.56549  -4814466.38949  23270522.6404   23270525.7424   23270520.8774
       218.0004        155.0004
  -6844085.28249  -5297326.60049  23967518.8754   23967521.7964   23967519.5934
       206.0004        145.0004
   -599255.92049   -449098.13849  24816722.4824   24816729.0114   24816721.9294
       194.0004        128.0004
 11 10 11  1 36 30.0000000  0  8G05G26G07G28G08G10G15G02
 -20431059.01449 -15906041.80749  20694948.1624   20694949.9804   20694949.0124
       243.0004        204.0004
 -19464129.78049 -14336991.84749  20722064.2754   20722066.7664   20722064.6854
       240.0004        192.0004
 -14055208.21749 -10655089.16649  22096889.7924   22096891.7134   22096890.8954
       232.0004        183.0004
  -7900885.73749  -5901201.84749  22761305.7894   22761308.5654   22761305.4684
       221.0004        161.0004
 -23718160.01049 -18468933.85049  20625318.0134   20625320.7094   20625318.0094
       243.0004        202.0004
  -6085376.78449  -4730206.32049  23291100.7714   23291103.0764   23291098.7864
       220.0004        155.0004
  -6939959.65549  -5372033.83149  23949275.5804   23949280.1854   23949276.7424
       210.0004        147.0004
   -496897.32049   -369338.23849  24836204.4424   24836205.5144   24836204.9474
       200.0004        130.0004
 11 10 11  1 37  0.0000000  0  8G05G26G07G28G08G10G15G02
 -20412775.79349 -15891795.14549  20698427.3814   20698429.1534   20698427.2484
       241.0004        204.0004
 -19527484.31049 -14386359.00549  20710008.5474   20710010.2424   20710008.2344
       240.0004        192.0004
 -13974801.34049 -10592434.45849  22112191.5534   22112192.3384   22112191.1744
       233.0004        184.0004
  -7980190.28049  -5962997.57349  22746214.5664   22746217.0184   22746214.9154
       221.0004        163.0004
 -23691214.23849 -18447937.14449  20630444.9214   20630448.2564   20630444.6404
       241.0004        202.0004
  -5977058.16449  -4645802.20349  23311711.7034   23311712.4354   23311710.1174
       217.0004        153.0004
  -7035746.23449  -5446672.77349  23931048.8744   23931049.7134   23931048.1064
       209.0004        144.0004
   -394540.46849   -289579.70949  24855685.0744   24855684.6994   24855683.2614
       203.0004        131.0004
 11 10 11  1 37 30.0000000  0  8G05G26G07G28G08G10G15G02
 -20393917.97049 -15877100.73349  20702014.0024   20702017.8554   20702014.7444
       240.0004        203.0004
 -19590463.00549 -14435433.31249  20698022.5684   20698026.6104   20698023.2714
       238.0004        192.0004
 -13894119.82549 -10529565.74449  22127543.5834   22127545.2054   22127543.9944
       231.0004        181.0004
  -8059165.76249  -6024536.89949  22731185.8524   22731188.6684   22731186.4094
       220.0004        162.0004
 -23663805.46549 -18426579.65949  20635661.6594   20635663.6474   20635661.0454
       242.0004        202.0004
  -5868557.23549  -4561256.05249  23332358.8504   23332361.5924   23332357.8224
       217.0004        151.0004
  -7131444.39349  -5521242.73549  23912835.8134   23912841.3284   23912835.4874
       208.0004        148.0004
   -292188.60749   -209825.05049  24875158.9084   24875158.8974   24875158.4154
       205.0004        134.0004
 11 10 11  1 38  0.0000000  0  8G05G26G07G28G08G10G15G02
 -20374484.77949 -15861957.99949  20705713.3924   20705715.2664   20705713.2544
       241.0004        203.0004
 -19653063.97549 -14484213.27949  20686110.7284   20686113.4654   20686110.2954
       237.0004        191.0004
 -13813165.33149 -10466484.32349  22142948.8934   22142950.1864   22142949.0734
       231.0004        181.0004
  -8137808.95749  -6085817.26649  22716220.8544   22716224.1504   22716220.2384
       223.0004        164.0004
 -23635934.44549 -18404861.97449  20640964.8884   20640967.3334   20640964.1294
       241.0004        202.0004
  -5759875.75549  -4476569.16849  23353039.3614   23353042.4654   23353039.8654
       217.0004        152.0004
  -7227052.32849  -5595742.36749  23894642.5564   23894646.5894   23894642.9784
       209.0004        148.0004
   -189844.01549   -130076.02449  24894631.8044   24894638.0394   24894633.1994
       201.0004        132.0004
 11 10 11  1 38 30.0000000  0  8G05G26G07G28G08G10G15G02
 -20354476.97649 -15846367.51449  20709521.1704   20709523.1154   20709520.8714
       240.0004        203.0004
 -19715286.47549 -14532698.36249  20674270.2484   20674272.6444   20674270.3294
       238.0004        192.0004
 -13731940.91949 -10403192.56549  22158405.4544   22158406.9774   22158405.9134
       232.0004        182.0004
  -8216118.42649  -6146837.62949  22701318.9064   22701322.7724   22701318.6014
       223.0004        165.0004
 -23607603.19449 -18382785.68149  20646356.2104   20646359.0294   20646355.8474
       242.0004        202.0004
  -5651016.42049  -4391743.73449  23373752.5494   23373759.2404   23373753.2874
       211.0004        150.0004
  -7322570.02649  -5670171.74149  23876466.4454   23876470.3654   23876466.4944
       210.0004        148.0004
    -87510.29949    -50335.48249  24914109.6814   24914109.0614   24914107.3454
       207.0004        132.0004
 11 10 11  1 39  0.0000000  0  8G05G26G07G28G08G10G15G02
 -20333894.57949 -15830329.29549  20713436.9634   20713439.7784   20713437.5284
       241.0004        204.0004
 -19777128.83549 -14580887.22749  20662502.6124   20662504.6484   20662503.1024
       238.0004        193.0004
 -13650447.68149 -10339691.33449  22173913.6664   22173914.2754   22173913.4174
       230.0004        180.0004
  -8294091.05349  -6207595.51549  22686482.0694   22686484.5104   22686480.7504
       223.0004        166.0004
 -23578812.53249 -18360351.39649  20651833.7704   20651837.5224   20651833.4744
       241.0004        201.0004
  -5541980.82049  -4306780.97049  23394502.3824   23394506.7414   23394502.2564
       214.0004        153.0004
  -7417995.81949  -5744529.48649  23858308.3014   23858311.7884   23858308.8754
       210.0004        148.0004
     14809.93549     29394.54449  24933583.0064   24933580.3984   24933580.6614
       201.0004        129.0004
 11 10 11  1 39 30.0000000  0  8G05G26G07G28G08G10G15G02
 -20312738.07849 -15813843.70649  20717463.0924   20717465.9184   20717463.8024
       242.0004        204.0004
 -19838589.63449 -14628778.76249  20650807.1574   20650810.0654   20650807.5454
       238.0004        195.0004
 -13568687.55049 -10275982.14049  22189471.5604   22189473.9054   22189471.8014
       231.0004        181.0004
  -8371724.41949  -6268089.02449  22671709.2684   22671711.7054   22671708.9744
       225.0004        169.0004
 -23549563.80649 -18337560.17449  20657401.1274   20657403.2874   20657400.3954
       243.0004        202.0004
  -5432771.33049  -4221682.66749  23415286.2554   23415287.9354   23415283.7704
       214.0004        151.0004
  -7513328.61549  -5818814.77749  23840167.7644   23840169.5224   23840167.5044
       213.0004        149.0004
    117114.00849    109111.99749  24953046.6924   24953047.8114   24953044.6104
       201.0004        127.0004
 11 10 11  1 40  0.0000000  0  8G05G26G07G28G08G10G15G02
 -20291007.54949 -15796910.84649  20721599.5454   20721600.7524   20721599.7894
       242.0004        204.0004
 -19899667.39249 -14676371.80549  20639184.2284   20639187.1584   20639184.5004
       239.0004        194.0004
 -13486662.71049 -10212066.69049  22205079.8274   22205082.3114   22205079.8784
       231.0004        180.0004
  -8449016.22649  -6328316.39449  22657000.5644   22657003.5144   22657000.6774
       225.0004        168.0004
 -23519858.22849 -18314412.96949  20663053.2304   20663056.2034   20663052.8314
       241.0004        201.0004
  -5323389.94049  -4136450.41749  23436099.9854   23436104.2214   23436098.6324
       216.0004        148.0004
  -7608567.07449  -5893026.53549  23822044.9584   23822046.3194   23822044.5964
       214.0004        151.0004
    219398.99849    188814.55849  24972510.0514   24972514.3854   24972511.2574
       197.0004        126.0004
 11 10 11  1 40 30.0000000  0  8G05G26G07G28G08G10G15G02
 -20268703.35049 -15779530.97049  20725842.8574   20725845.0434   20725843.3924
       239.0004        203.0004
 -19960360.93149 -14723665.45449  20627634.3104   20627637.2864   20627634.7664
       238.0004        195.0004
 -13404375.05649 -10147946.45749  22220738.8364   22220741.7144   22220738.7854
       230.0004        179.0004
  -8525963.96049  -6388275.61949  22642357.5154   22642359.4124   22642357.1354
       225.0004        165.0004
 -23489697.11149 -18290910.79649  20668793.2354   20668795.7724   20668792.5194
       241.0004        202.0004
  -5213838.77549  -4051085.86949  23456946.8384   23456951.7394   23456946.6224
       214.0004        151.0004
  -7703710.48349  -5967164.17349  23803939.7184   23803940.9304   23803938.4464
       212.0004        149.0004
    321662.09049    268500.05249  24991972.6884   24991973.7104   24991971.3004
       193.0004        123.0004
 11 10 11  1 41  0.0000000  0  8G05G26G07G28G08G10G15G02
 -20245825.72749 -15761704.25949  20730195.4264   20730198.4064   20730196.3914
       240.0004        202.0004
 -20020668.91549 -14770658.67149  20616158.1064   20616161.2174   20616157.9974
       239.0004        195.0004
 -13321826.78249 -10083623.11949  22236448.1884   22236449.5014   22236448.4064
       232.0004        180.0004
  -8602565.16549  -6447964.86449  22627781.6784   22627782.6274   22627780.6354
       226.0004        167.0004
 -23459081.78949 -18267054.70449  20674617.7544   20674621.4834   20674617.9674
       240.0004        201.0004
  -5104119.99949  -3965590.75549  23477825.3134   23477829.8624   23477825.7384
       214.0004        152.0004
  -7798757.55049  -6041226.79349  23785851.7134   23785854.1084   23785851.2754
       214.0004        149.0004
    423900.42549    348166.24749  25011425.5594   25011429.1664   25011428.1514
       192.0004        123.0004
 11 10 11  1 41 30.0000000  0  8G05G26G07G28G08G10G15G02
 -20222375.20349 -15743431.12649  20734658.4264   20734661.6334   20734658.9144
       240.0004        203.0004
 -20080589.97549 -14817350.40449  20604754.9244   20604758.2274   20604756.0084
       239.0004        195.0004
 -13239020.04649 -10019098.39449  22252205.6044   22252206.6834   22252205.9394
       233.0004        180.0004
  -8678817.61949  -6507382.36549  22613269.9894   22613273.3824   22613270.0164
       224.0004        167.0004
 -23428013.30149 -18242845.48549  20680531.3334   20680533.5164   20680530.7184
       242.0004        201.0004
  -4994235.67949  -3879966.61949  23498734.4014   23498739.4364   23498734.0584
       211.0004        149.0004
  -7893707.21049  -6115213.50749  23767784.4264   23767785.7524   23767783.7464
       212.0004        149.0004
    526111.10749    427810.94449  25030875.5764                   25030876.5234
       192.0004        120.0004
 11 10 11  1 42  0.0000000  0  8G05G26G07G28G08G10G15G02
 -20198353.03049 -15724712.57049  20739230.5514   20739232.5434   20739230.8424
       241.0004        202.0004
 -20140123.34949 -14863740.04249  20593427.1004   20593428.7364   20593427.2344
       240.0004        195.0004
 -13155957.24149  -9954374.13649  22268011.8924   22268013.3934   22268012.2254
       233.0004        180.0004
  -8754719.63049  -6566526.74049  22598826.7274   22598829.5334   22598826.9434
       225.0004        168.0004
 -23396493.76049 -18218284.80949  20686528.4624   20686531.6674   20686528.3224
       241.0004        202.0004
  -4884188.59849  -3794215.64249  23519676.3504   23519680.8954   23519676.5224
       214.0004        151.0004
  -7988558.83449  -6189123.82949  23749733.7364   23749737.1424   23749733.7504
       215.0004        152.0004
    628290.51749    507431.24149  25050321.3084                   25050316.9714
       193.0004        118.0004
 11 10 11  1 42 30.0000000  0  8G05G26G07G28G08G10G15G02
 -20173758.60949 -15705548.09049  20743909.2914   20743912.4804   20743910.3564
       239.0004        201.0004
 -20199267.31549 -14909826.26249  20582173.0694   20582174.5234   20582172.7484
       240.0004        196.0004
 -13072639.57649  -9889451.29749  22283866.5314   22283868.6374   22283866.6994
       230.0004        178.0004
  -8830267.89449  -6625395.50649  22584450.6524   22584453.6434   22584450.1874
       225.0004        167.0004
 -23364523.93449 -18193373.25449  20692613.3304   20692615.0954   20692612.6884
       245.0004        202.0004
  -4773980.37249  -3708339.12149  23540647.7944   23540653.0094   23540648.6134
       215.0004        152.0004
  -8083310.81249  -6262956.46849  23731702.4524   23731706.0914   23731701.6844
       213.0004        150.0004
    730436.47249    587025.43149  25069760.5854                   25069761.0044
       188.0004        119.0004
 11 10 11  1 43  0.0000000  0  8G05G26G07G28G08G10G15G02
 -20148592.94449 -15685938.48649  20748698.4294   20748700.9754   20748698.9634
       239.0004        201.0004
 -20258020.16749 -14955607.71449  20570992.8124   20570994.2634   20570992.3444
       241.0004        196.0004
 -12989069.14549  -9824331.48849  22299769.7744   22299771.0424   22299769.8594
       232.0004        178.0004
  -8905460.34949  -6683987.01949  22570140.9754   22570145.7014   22570141.9104
       224.0004        167.0004
 -23332105.24849 -18168111.93749  20698781.7664   20698784.1354   20698781.1994
       245.0004        201.0004
  -4663613.31449  -3622338.83449  23561651.9754   23561655.8084   23561651.3404
       216.0004        153.0004
  -8177962.13249  -6336710.71949  23713691.0004   23713694.0834   23713692.9684
       212.0004        152.0004
    832546.65349     32551.86649  25089187.0974
       185.0004         74.0004
 11 10 11  1 43 30.0000000  0  8G05G26G07G28G08G10G15G02
 -20122856.22849 -15665883.91349  20753596.9774   20753598.6084   20753597.2734
       240.0004        202.0004
 -20316381.36449 -15001083.97349  20559885.5374   20559888.4404   20559885.9434
       238.0004        195.0004
 -12905248.27549  -9759016.51849  22315719.9824   22315721.8634   22315720.4564
       232.0004        178.0004
  -8980294.97049  -6742299.69149  22555901.2724   22555904.2814   22555901.4824
       226.0004        168.0004
 -23299239.73749 -18142502.45049  20705035.8444   20705038.3884   20705035.7444
       245.0004        202.0004
  -4553089.69249  -3536216.52549  23582683.2714   23582687.3204   23582682.1174
       216.0004        150.0004
  -8272512.17249  -6410386.07649  23695699.7204   23695703.1144   23695699.4974
       211.0004        151.0004
    934617.54959    112014.10259  25108613.9714
       180.0004        107.0004
 11 10 11  1 44  0.0000000  0  8G05G26G07G28G08G10G15G02
 -20096548.58449 -15645384.45949  20758603.0564   20758605.1444   20758603.4144
       239.0004        202.0004
 -20374348.64349 -15046253.27149  20548854.6744   20548858.0714   20548855.0464
       239.0004        195.0004
 -12821178.68749  -9693507.74549  22331717.6264   22331719.3284   22331718.3364
       230.0004        177.0004
  -9054768.70049  -6800331.14749  22541728.6154   22541731.8094   22541728.7454
       223.0004        166.0004
 -23265927.51149 -18116544.86549  20711374.7894   20711377.1794   20711374.3434
       245.0004        201.0004
  -4442411.08749  -3449973.45549  23603744.6674   23603749.0364   23603744.4324
       216.0004        151.0004
  -8366958.92649  -6483980.87849  23677725.8404   23677729.8804   23677725.9594
       211.0004        152.0004
   1036646.74249    191388.13949  25128030.0984
       179.0004        112.0004
 11 10 11  1 44 30.0000000  0  8G05G26G07G28G08G10G15G02
 -20069671.16049 -15624441.01649  20763716.6504   20763719.7644   20763717.2064
       239.0004        202.0004
 -20431921.66949 -15091115.36949  20537899.1824   20537902.4144   20537899.4724
       240.0004        196.0004
 -12736862.70949  -9627806.97449  22347762.6474   22347764.5904   22347762.9674
       231.0004        177.0004
  -9128880.18049  -6858080.34149  22527627.2294   22527628.5104   22527626.0794
       228.0004        167.0004
 -23232170.94349 -18090241.04649  20717798.9574   20717801.1234   20717798.1484
       245.0004        201.0004
  -4331580.47349  -3363611.93549  23624834.5604   23624838.7144   23624833.4114
       212.0004        152.0004
  -8461302.34549  -6557495.23249  23659773.4154   23659777.7944   23659774.3774
       211.0004        154.0004
   1138631.21259     25809.35459  25147435.3144
       176.0004         74.0004
 11 10 11  1 45  0.0000000  0  8G05G26G07G28G08G10G15G02
 -20042224.20249 -15603053.78549  20768940.2354   20768942.7764   20768940.6524
       239.0004        201.0004
 -20489098.30049 -15135668.56649  20527019.1414   20527022.0474   20527019.1394
       240.0004        196.0004
 -12652301.81449  -9561915.36849  22363854.4394   22363856.1374   22363855.2254
       232.0004        178.0004
  -9202626.43949  -6915544.93849  22513593.1394   22513595.8404   22513592.3324
       227.0004        168.0004
 -23197970.75049 -18063591.54949  20724306.5414   20724309.2854   20724306.3434
       245.0004        201.0004
  -4220599.23349  -3277133.05149  23645953.5604   23645958.9724   23645952.9284
       213.0004        149.0004
  -8555540.39749  -6630927.42449  23641841.6124   23641844.5464   23641841.9194
       213.0004        155.0004
   1240568.12859    105244.28159  25166833.8504
       168.0004        107.0004
 11 10 11  1 45 30.0000000  0  8G05G26G07G28G08G10G15G02
 -20014208.00249 -15581222.99349  20774272.4284   20774274.3064   20774272.2464
       240.0004        202.0004
 -20545877.49049 -15179912.08449  20516214.0664   20516217.5094   20516214.5994
       239.0004        196.0004
 -12567498.23249  -9495834.68149  22379991.2684   22379993.7814   22379991.7784
       230.0004        178.0004
  -9276005.22449  -6972723.18849  22499627.3624   22499631.8804   22499628.0634
       222.0004        167.0004
 -23163328.62849 -18036597.68349  20730899.1904   20730901.0444   20730898.3474
       246.0004        201.0004
  -4109469.35449  -3190538.36149  23667101.4384   23667104.9854   23667099.7614
       214.0004        149.0004
  -8649672.06449  -6704276.74749  23623927.8384   23623931.3464   23623927.8444
       211.0004        154.0004
   1342454.76559    184643.93259  25186225.7514
       171.0004        105.0004
 11 10 11  1 46  0.0000000  0  7G05G26G07G28G08G10G15
 -19985623.62549 -15558949.45449  20779711.3504   20779713.6124   20779711.7124
       239.0004        202.0004
 -20602258.07049 -15223844.99249  20505485.3004   20505488.3644   20505485.8194
       240.0004        196.0004
 -12482454.08849  -9429566.54249  22396175.8064   22396177.6494   22396176.0784
       229.0004        177.0004
  -9349014.15949  -7029613.25249  22485735.9254   22485739.3544   22485736.1294
       225.0004        167.0004
 -23128246.02349 -18009260.59349  20737574.4584   20737577.5844   20737574.3634
       245.0004        200.0004
  -3998193.51649  -3103829.91749  23688277.8614   23688279.9464   23688275.7974
       216.0004        148.0004
  -8743696.56049  -6777542.55149  23606035.1534   23606039.2114   23606036.4454
       215.0004        153.0004
 11 10 11  1 46 30.0000000  0  7G05G26G07G28G08G10G15
 -19956471.18149 -15536233.26449  20785258.4164   20785261.2454   20785258.9154
       240.0004        202.0004
 -20658238.53949 -15267466.12349  20494832.8394   20494835.0914   20494832.9604
       240.0004        196.0004
 -12397170.96649  -9363112.15549  22412404.1044   22412405.9354   22412404.3364
       229.0004        177.0004
  -9421651.01349  -7086213.38049  22471912.7484   22471916.3254   22471912.9474
       223.0004        165.0004
 -23092723.97049 -17981581.06549  20744334.3434   20744337.2954   20744333.6874
       244.0004        200.0004
  -3886773.84349  -3017009.40549  23709479.6174   23709483.6404   23709478.5264
       215.0004        149.0004
  -8837612.19149  -6850723.54549  23588164.0434   23588167.5614   23588164.8074
       212.0004        154.0004
 11 10 11  1 47  0.0000000  0  7G05G26G07G28G08G10G15
 -19926751.65149 -15513075.19449  20790914.6514   20790916.7084   20790914.4634
       241.0004        202.0004
 -20713817.79449 -15310774.62849  20484256.6014   20484258.7624   20484256.8434
       241.0004        196.0004
 -12311651.20449  -9296473.38649  22428678.3754   22428679.9134   22428678.4964
       228.0004        176.0004
  -9493913.85549  -7142522.07249  22458161.6564   22458163.9264   22458162.0434
       223.0004        166.0004
 -23056764.54349 -17953560.73549  20751176.6004   20751179.7614   20751176.5824
       244.0004        200.0004
  -3775212.57449  -2930078.54849  23730708.6014   23730712.2864   23730708.0884
       214.0004        147.0004
  -8931418.44049  -6923819.28549  23570312.1434   23570317.1034   23570313.0724
       210.0004        154.0004
 11 10 11  1 47 30.0000000  0  7G05G26G07G28G08G10G15
 -19896465.79249 -15489475.83549  20796677.6154   20796679.5324   20796678.0114
       241.0004        202.0004
 -20768994.68649 -15353769.60949  20473756.5174   20473758.6744   20473756.5304
       241.0004        196.0004
 -12225896.53249  -9229651.56049  22444997.0564   22444998.1164   22444996.0924
       230.0004        177.0004
  -9565800.52749  -7198537.64349  22444483.2444   22444485.4904   22444483.6784
       226.0004        168.0004
 -23020369.05849 -17925200.61049  20758104.0314   20758105.7364   20758103.0314
       245.0004        201.0004
  -3663512.00049  -2843039.16249  23751964.5294   23751966.4564   23751963.9084
       213.0004        145.0004
  -9025114.44349  -6996829.11349  23552484.0074   23552487.1514   23552484.9924
       214.0004        156.0004
 11 10 11  1 48  0.0000000  0  7G05G26G07G28G08G10G15
 -19865613.57249 -15465435.15149  20802547.9604   20802550.4574   20802548.7704
       240.0004        202.0004
 -20823767.19649 -15396449.49549  20463333.5924   20463336.1534   20463333.9474
       240.0004        196.0004
 -12139908.56449  -9162647.96749  22461359.7714   22461361.9714   22461359.7924
       230.0004        178.0004
  -9637307.85449  -7254257.62349  22430874.5024   22430878.0224   22430874.6794
       223.0004        167.0004
 -22983538.20549 -17896501.24249  20765111.6614   20765114.3834   20765111.2064
       244.0004        201.0004
  -3551673.69849  -2755892.43949  23773244.4524   23773250.7174   23773244.5574
       209.0004        144.0004
  -9118697.80749  -7069751.20349  23534675.2734   23534678.5774   23534675.9714
       215.0004        156.0004
 11 10 11  1 48 30.0000000  0  7G05G26G07G28G08G10G15
 -19834196.63349 -15440954.41749  20808526.4564   20808529.2564   20808526.7544
       238.0004        201.0004
 -20878135.17749 -15438814.15149  20452987.1784   20452990.5924   20452987.2444
       240.0004        196.0004
 -12053690.23849  -9095464.87049  22477766.6794   22477767.5954   22477766.5754
       229.0004        177.0004
  -9708434.49649  -7309680.96949  22417341.3524   22417343.9254   22417340.3514
       225.0004        167.0004
 -22946274.55349 -17867464.62749  20772203.2794   20772205.3614   20772202.7074
       245.0004        200.0004
  -3439700.84249  -2668640.88449  23794554.7424   23794557.8874   23794553.5234
       211.0004        147.0004
  -9212168.35849  -7142585.38549  23516888.1644   23516891.1334   23516889.1474
       214.0004        154.0004
 11 10 11  1 49  0.0000000  0  7G05G26G07G28G08G10G15
 -19802215.26149 -15416033.86549  20814612.5834   20814614.9604   20814613.2424
       240.0004        201.0004
 -20932096.64949 -15480862.03849  20442718.8364   20442722.2054   20442718.5704
       241.0004        197.0004
 -11967242.97349  -9028103.35249  22494216.1414   22494218.2104   22494216.8364
       228.0004        175.0004
  -9779178.22049  -7364805.91349  22403878.3384   22403881.6934   22403878.8664
       226.0004        169.0004
 -22908579.07349 -17838091.52449  20779375.3574   20779378.3904   20779375.1864
       243.0004        199.0004
  -3327594.95749  -2581285.65549  23815887.1234   23815890.5954   23815885.8304
       209.0004        146.0004
  -9305524.78649  -7215330.63549  23499123.0574   23499126.4714   23499124.2594
       214.0004        156.0004
 11 10 11  1 49 30.0000000  0  8G05G26G07G28G08G10G15G21
 -19769670.02749 -15390673.95149  20820806.3754   20820808.1454   20820806.6914
       240.0004        201.0004
 -20985650.21349 -15522592.07849  20432528.2794   20432530.8234   20432528.3384
       241.0004        198.0004
 -11880568.64449  -8960564.92349  22510709.3874   22510712.1114   22510709.7754
       229.0004        176.0004
  -9849536.49949  -7419630.55249  22390490.1694   22390491.7844   22390489.6504
       227.0004        168.0004
 -22870452.81749 -17808382.75849  20786631.8724   20786633.7904   20786631.1244
       244.0004        200.0004
  -3215357.88649  -2493828.20849  23837244.3894   23837249.9624   23837243.0494
       207.0004        145.0004
  -9398765.67649  -7287985.87249  23481381.2984   23481383.4254   23481380.6944
       214.0004        159.0004
   -149520.68149   -106683.48349  25001882.9784   25001885.0234
       200.0004        128.0004
 11 10 11  1 50  0.0000000  0  8G05G26G07G28G08G10G15G21
 -19736561.50649 -15364875.11149  20827106.1244   20827108.5834   20827106.2334
       239.0004        201.0004
 -21038794.82849 -15564003.45149  20422416.3574   20422418.1724   20422415.8964
       243.0004        198.0004
 -11793668.80349  -8892850.75749  22527246.7404   22527247.6654   22527246.7604
       229.0004        175.0004
  -9919506.88949  -7474152.91849  22377175.2794   22377176.9714   22377173.6504
       228.0004        170.0004
 -22831897.25949 -17778339.46249  20793968.0344   20793970.5934   20793967.1324
       243.0004        199.0004
  -3102991.65849  -2406270.12249  23858626.0764   23858632.5024   23858627.0264
       208.0004        145.0004
  -9491889.76449  -7360550.06449  23463658.4574   23463661.7534   23463659.1394
       211.0004        154.0004
   -190306.64049   -138464.72349  24994117.1064   24994119.7134   24994115.9524
       200.0004        129.0004
 11 10 11  1 50 30.0000000  0  8G05G26G07G28G08G10G15G21
 -19702890.88849 -15338638.26849  20833513.4474   20833515.9654   20833513.5964
       239.0004        201.0004
 -21091529.10749 -15605095.07849  20412380.6384   20412382.6264   20412381.1204
       243.0004        199.0004
 -11706546.06149  -8824962.90749  22543824.7434   22543827.9924   22543825.5824
       227.0004        176.0004
  -9989087.73149  -7528371.74549  22363933.3744   22363937.1294   22363934.4934
       227.0004        171.0004
 -22792914.63549 -17747963.39449  20801386.0844   20801388.7904   20801385.8174
       244.0004        199.0004
  -2990498.99249  -2318613.52749  23880034.3224   23880038.7954   23880034.4414
       210.0004        144.0004
  -9584896.23149  -7433022.61849  23445961.5614   23445963.5184   23445961.5014
       217.0004        157.0004
   -230621.27849   -169878.75149  24986446.9654   24986451.8894   24986447.7644
       201.0004        129.0004
 11 10 11  1 51  0.0000000  0  8G05G26G07G28G08G10G15G21
 -19668658.34349 -15311963.56549  20840027.5214   20840030.1164   20840028.1194
       239.0004        201.0004
 -21143851.58349 -15645865.83449  20402423.8004   20402426.2554   20402423.9034
       242.0004        199.0004
 -11619201.80449  -8756902.47649  22560445.8934   22560449.3794   22560446.2974
       227.0004        174.0004
 -10058276.19349  -7582284.81249  22350767.8624   22350770.9124   22350767.3184
       228.0004        171.0004
 -22753505.72849 -17717255.15249  20808885.7614   20808887.8834   20808885.0524
       243.0004        199.0004
  -2877881.53949  -2230859.67849  23901464.4464   23901467.6744   23901464.7964
       211.0004        143.0004
  -9677783.27749  -7505402.12349  23428285.9944   23428287.3034   23428285.5004
       217.0004        157.0004
   -270462.57549   -200923.89849  24978867.6364   24978867.2334   24978868.5264
       204.0004        131.0004
 11 10 11  1 51 30.0000000  0  8G05G26G07G28G08G10G15G21
 -19633865.48049 -15284852.24549  20846648.9484   20846650.9894   20846649.5114
       240.0004        201.0004
 -21195761.57749 -15686315.16049  20392545.5194   20392547.9244   20392546.1334
       243.0004        199.0004
 -11531638.96249  -8688671.71749  22577109.7194   22577111.3774   22577109.1754
       227.0004        173.0004
 -10127070.89749  -7635891.04949  22337677.2944   22337679.3174   22337676.5534
       228.0004        173.0004
 -22713672.61149 -17686216.36349  20816465.3324   20816468.1474   20816465.3924
       243.0004        199.0004
  -2765142.40849  -2143011.01949  23922918.9294   23922922.8504   23922917.8554
       212.0004        145.0004
  -9770550.88549  -7577688.53949  23410632.4454   23410634.4314   23410632.7184
       216.0004        157.0004
   -309830.40349   -231600.10649  24971372.8664   24971374.9374   24971374.0004
       202.0004        129.0004
 11 10 11  1 52  0.0000000  0  8G05G26G07G28G08G10G15G21
 -19598512.52649 -15257304.49349  20853376.0534   20853378.4114   20853376.3184
       239.0004        201.0004
 -21247257.44049 -15726441.81049  20382746.2324   20382748.4654   20382746.1024
       241.0004        199.0004
 -11443858.46149  -8620271.33749  22593812.7344   22593815.0634   22593813.7274
       226.0004        172.0004
 -10195469.16249  -7689188.39649  22324660.5744   22324663.7474   22324660.9274
       228.0004        173.0004
 -22673416.11649 -17654847.66049  20824127.0374   20824128.4904   20824125.6304
       244.0004        199.0004
  -2652283.09349  -2055068.70949  23944395.3184   23944399.1394   23944393.8574
       213.0004        145.0004
  -9863196.83149  -7649880.12749  23393002.5894   23393003.9924   23393003.7554
       217.0004        159.0004
   -348722.51449   -261905.62849  24963973.4004   24963974.5294   24963974.8804
       201.0004        131.0004
 11 10 11  1 52 30.0000000  0  8G05G26G07G28G08G10G15G21
 -19562600.40349 -15229321.03549  20860209.5074   20860212.1654   20860209.7004
       239.0004        201.0004
 -21298337.42649 -15766244.39549  20373026.0354   20373028.1214   20373026.1934
       242.0004        199.0004
 -11355861.97349  -8551702.65349  22610558.4444   22610560.7584   22610558.9334
       226.0004        172.0004
 -10263468.75249  -7742175.07649  22311721.1134   22311723.2444   22311720.3344
       228.0004        172.0004
 -22632737.23949 -17623149.84049  20831866.2534   20831869.3654   20831866.4644
       243.0004        198.0004
  -2539305.29749  -1967034.05349  23965893.5644   23965897.9494   23965893.2184
       212.0004        144.0004
  -9955719.90149  -7721976.00349  23375396.2694   23375398.3634   23375397.0464
       218.0004        158.0004
   -387137.92849   -291839.74649  24956663.7304   24956665.7854   24956663.7164
       205.0004        134.0004
 11 10 11  1 53  0.0000000  0  8G05G26G07G28G08G10G15G21
 -19526130.23649 -15200902.73749  20867149.7114   20867152.6924   20867150.5564
       240.0004        201.0004
 -21349001.05449 -15805722.54349  20363384.3764   20363387.9214   20363384.6114
       240.0004        199.0004
 -11267651.96849  -8482967.59549  22627343.9824   22627346.3284   22627344.4504
       226.0004        173.0004
 -10331067.77849  -7794849.61249  22298856.7514   22298860.4474   22298857.1874
       228.0004        174.0004
 -22591638.48149 -17591124.83149  20839687.7184   20839690.4174   20839687.4644
       243.0004        198.0004
  -2426211.95549  -1878909.36949  23987414.0294   23987417.5814   23987413.6454
       212.0004        145.0004
 -10048119.47549  -7793975.60749  23357812.0774   23357814.6454   23357813.0554
       216.0004        157.0004
   -425075.99949   -321401.88149  24949444.7274   24949444.2804   24949443.6584
       207.0004        135.0004
 11 10 11  1 53 30.0000000  0  8G05G26G07G28G08G10G15G21
 -19489102.47849 -15172049.95549  20874196.1934   20874198.6264   20874196.7984
       240.0004        201.0004
 -21399246.40349 -15844874.74649  20353823.7534   20353826.1774   20353823.5764
       240.0004        199.0004
 -11179230.11849  -8414067.46749  22644170.1524   22644172.4104   22644170.1514
       225.0004        171.0004
 -10398263.80649  -7847210.15549  22286072.0564   22286072.7724   22286071.0184
       231.0004        174.0004
 -22550120.92849 -17558773.49449  20847588.4464   20847591.1354   20847587.8074
       243.0004        198.0004
  -2313004.51249  -1790695.79249  24008956.0094   24008961.6134   24008956.7214
       209.0004        144.0004
 -10140393.64049  -7865877.47349  23340253.5224   23340255.0704   23340254.6284
       217.0004        160.0004
   -462535.20049   -350590.84549  24942315.2824   24942318.3914   24942314.8784
       207.0004        134.0004
 11 10 11  1 54  0.0000000  0  8G05G26G07G28G08G10G15G21
 -19451518.69449 -15142763.91049  20881349.1084   20881350.5374   20881348.6764
       240.0004        201.0004
 -21449073.06549 -15883700.69749  20344341.8024   20344344.4024   20344342.0924
       241.0004        199.0004
 -11090599.08849  -8345004.35249  22661036.7794   22661037.7844   22661036.7074
       228.0004        173.0004
 -10465055.40249  -7899255.52749  22273360.8054   22273362.9854   22273360.0204
       231.0004        175.0004
 -22508186.90049 -17526097.63349  20855568.2594   20855570.4284   20855567.4914
       242.0004        198.0004
  -2199686.16849  -1702395.81749  24030519.6114   24030525.0834   24030519.0394
       207.0004        144.0004
 -10232542.28449  -7937681.56249  23322718.6164   23322720.2084   23322719.3954
       219.0004        161.0004
   -499514.98749   -379406.26449  24935279.6184   24935280.6444   24935279.8184
       209.0004        134.0004
 11 10 11  1 54 30.0000000  0  8G05G26G07G28G08G10G15G21
 -19413379.00949 -15113044.68949  20888605.6744   20888608.0414   20888606.0274
       239.0004        201.0004
 -21498478.89249 -15922198.73049  20334940.6024   20334943.0774   20334940.6674
       242.0004        199.0004
 -11001759.68349  -8275778.84549  22677942.1524   22677942.8064   22677943.1824
       228.0004        172.0004
 -10531439.58249  -7950983.46549  22260728.5744   22260729.6244   22260728.4114
       231.0004        175.0004
 -22465836.74149 -17493097.51249  20863626.9064   20863629.7494   20863626.4744
       242.0004        197.0004
  -2086258.02749  -1614010.27649  24052106.8314   24052110.6174   24052105.4324
       212.0004        145.0004
 -10324562.94249  -8009385.98749  23305208.1174   23305209.2544   23305208.1494
       219.0004        157.0004
   -536013.43349   -407846.61249  24928332.8994   24928334.3244   24928332.7664
       208.0004        137.0004
 11 10 11  1 55  0.0000000  0  8G05G26G07G28G08G10G15G21
 -19374684.81349 -15082893.39749  20895970.0694   20895971.3784   20895969.9444
       240.0004        200.0004
 -21547463.18549 -15960368.28649  20325618.8154   20325621.4104   20325618.9474
       240.0004        199.0004
 -10912714.18149  -8206392.76949  22694887.4384   22694888.7644   22694887.5064
       229.0004        173.0004
 -10597414.91449  -8002392.77749  22248173.5284   22248175.4664   22248174.0064
       232.0004        175.0004
 -22423072.45049 -17459774.69049  20871764.6104   20871767.5304   20871764.4764
       241.0004        197.0004
  -1972722.74449  -1525541.20049  24073711.8004   24073714.0714   24073709.2584
       212.0004        144.0004
 -10416455.10149  -8080990.23549  23287720.5454   23287721.9514   23287721.9974
       219.0004        159.0004
   -572030.26649   -435911.67849  24921479.9624   24921480.6514   24921478.7584
       205.0004        137.0004
 11 10 11  1 55 30.0000000  0  8G05G26G07G28G08G10G15G21
 -19335437.49849 -15052311.08949  20903437.5934   20903439.7854   20903437.9804
       240.0004        200.0004
 -21596025.03149 -15998208.68449  20316377.7784   20316380.3994   20316378.4254
       241.0004        200.0004
 -10823464.87449  -8136847.86949  22711871.6794   22711871.7734   22711871.0464
       228.0004        173.0004
 -10662979.28449  -8053481.89149  22235696.0864   22235699.1384   22235696.4594
       230.0004        175.0004
 -22379895.75649 -17426130.51749  20879981.0304   20879983.4554   20879980.5764
       242.0004        198.0004
  -1859082.68949  -1436990.52749  24095336.4144   24095340.2594   24095336.0784
       213.0004        143.0004
 -10508217.63849  -8152493.47449  23270258.3974   23270261.2904   23270259.2324
       217.0004        161.0004
   -607564.26049   -463600.51149  24914717.0134   24914719.3954   24914717.1314
       204.0004        136.0004
 11 10 11  1 56  0.0000000  0  8G05G26G07G28G08G10G15G21
 -19295637.53549 -15021298.15049  20911011.9424   20911013.7744   20911012.0494
       240.0004        200.0004
 -21644162.91249 -16035718.71649  20307217.2324   20307220.3444   20307217.4774
       241.0004        199.0004
 -10734013.54749  -8067145.56249  22728892.4444   22728894.3364   22728893.2514
       227.0004        174.0004
 -10728130.58449  -8104249.12749  22223299.2374   22223301.7434   22223298.6124
       231.0004        176.0004
 -22336307.89149 -17392165.94849  20888275.9974   20888278.4534   20888275.0894
       243.0004        198.0004
  -1745339.90349  -1348359.79849  24116982.4414   24116986.0264   24116981.6224
       211.0004        142.0004
 -10599849.06249  -8223894.53749  23252822.0124   23252823.6254   23252821.4644
       217.0004        159.0004
   -642614.51849   -490912.38949  24908047.9134   24908048.7774   24908045.0484
       210.0004        136.0004
 11 10 11  1 56 30.0000000  0  8G05G26G07G28G08G10G15G21
 -19255285.85249 -14989855.29749  20918690.4984   20918692.2144   20918690.9004
       239.0004        200.0004
 -21691875.24349 -16072897.15049  20298137.9524   20298140.4634   20298138.3554
       241.0004        199.0004
 -10644361.49449  -7997286.80949  22745952.4044   22745953.8614   22745953.2324
       226.0004        172.0004
 -10792866.64349  -8154692.77949  22210978.6644   22210982.1084   22210978.7484
       229.0004        174.0004
 -22292310.35449 -17357882.15849  20896648.3734   20896650.7744   20896648.0694
       243.0004        199.0004
  -1631496.11149  -1259650.40049  24138645.0214   24138646.9754   24138642.7974
       208.0004        142.0004
 -10691347.92849  -8295192.32249  23235411.5414   23235411.0494   23235410.5674
       220.0004        160.0004
   -677179.25449   -517845.93249  24901469.9754   24901472.9354   24901471.0834
       208.0004        138.0004
 11 10 11  1 57  0.0000000  0  8G05G26G07G28G08G10G15G21
 -19214383.55649 -14957983.39549  20926473.3674   20926475.8394   20926474.1394
       240.0004        200.0004
 -21739161.16049 -16109743.31049  20289139.1464   20289142.1804   20289139.8744
       241.0004        199.0004
 -10554511.02149  -7927273.46249  22763050.3464   22763052.3984   22763052.2504
       224.0004        170.0004
 -10857185.49649  -8204811.35749  22198740.6204   22198743.2154   22198740.1674
       230.0004        175.0004
 -22247904.90249 -17323280.50749  20905097.8874   20905100.6934   20905097.4314
       242.0004        198.0004
  -1517553.81549  -1170864.16849  24160329.0014   24160330.7714   24160326.0744
       208.0004        140.0004
 -10782713.34649  -8366386.12549  23218022.3564   23218024.4594   23218023.8254
       218.0004        160.0004
   -711258.19749   -544400.93349  24894984.7964   24894986.9884   24894984.0674
       207.0004        138.0004
 11 10 11  1 57 30.0000000  0  8G05G26G07G28G08G10G15G21
 -19172931.54049 -14925683.16249  20934362.0234   20934364.0234   20934362.2774
       240.0004        200.0004
 -21786019.14049 -16146256.01949  20280222.8704   20280225.5794   20280223.3514
       241.0004        199.0004
 -10464463.87249  -7857106.86849  22780186.8254   22780188.7364   22780186.8644
       226.0004        173.0004
 -10921084.81549  -8254603.01449  22186581.3144   22186583.8624   22186580.7904
       232.0004        176.0004
 -22203092.83549 -17288362.02649  20913625.3884   20913628.0304   20913625.3564
       242.0004        198.0004
  -1403515.05949  -1082002.84649  24182029.6734   24182031.8974   24182025.5894
       210.0004        139.0004
 -10873943.91649  -8437474.84849  23200662.9764   23200665.1074   23200663.4944
       217.0004        161.0004
   -744850.13749   -570576.47849  24888594.0714   24888594.2694   24888592.4484
       211.0004        138.0004
 11 10 11  1 58  0.0000000  0  8G05G26G07G28G08G10G15G21
 -19130931.11049 -14892955.58849  20942353.7984   20942356.6574   20942354.5974
       240.0004        200.0004
 -21832448.07949 -16182434.40949  20271387.9064   20271390.6734   20271388.2344
       241.0004        200.0004
 -10374221.69349  -7786788.29649  22797359.1984   22797360.7184   22797358.8924
       225.0004        171.0004
 -10984562.97249  -8304066.48349  22174501.0094   22174504.1004   22174501.0774
       230.0004        175.0004
 -22157875.89049 -17253128.03249  20922230.4934   20922233.0314   20922229.8224
       243.0004        199.0004
  -1289382.06149   -993068.04949  24203748.9724   24203748.2764   24203746.1244
       210.0004        141.0004
 -10965038.55849  -8508457.64549  23183327.4204   23183329.3254   23183327.1974
       215.0004        159.0004
   -777953.69249   -596371.43749  24882294.0964   24882295.2554   24882294.1994
       209.0004        137.0004
 11 10 11  1 58 30.0000000  0  8G05G26G07G28G08G10G15G21
 -19088383.57249 -14859801.68449  20950450.4934   20950453.3274   20950450.8954
       239.0004        200.0004
 -21878447.08549 -16218277.78549  20262634.7154   20262637.1594   20262634.7474
       241.0004        199.0004
 -10283786.97049  -7716319.68149  22814566.3034   22814568.7254   22814566.5414
       222.0004        168.0004
 -11047617.97749  -8353200.24749  22162502.6524   22162505.7554   22162501.3204
       229.0004        174.0004
 -22112255.75649 -17217579.87849  20930911.1024   20930914.1484   20930911.0054
       242.0004        199.0004
  -1175157.10649   -904061.60349  24225485.0334   24225487.6804   24225483.1094
       210.0004        141.0004
 -11055995.98449  -8579333.54449  23166019.0854   23166021.3374   23166019.2894
       220.0004        159.0004
   -810568.73449   -621785.75249  24876088.1954   24876087.4104   24876087.2704
       209.0004        138.0004
 11 10 11  1 59  0.0000000  0  8G05G26G07G28G08G10G15G21
 -19045289.80049 -14826222.14049  20958651.7764   20958653.7124   20958651.9024
       241.0004        200.0004
 -21924014.79949 -16253785.09149  20253963.3604   20253966.2384   20253963.2954
       241.0004        200.0004
 -10193161.33749  -7645702.31349  22831812.7174   22831815.1164   22831812.5064
       222.0004        166.0004
 -11110247.75949  -8402002.65249  22150583.6264   22150586.2284   22150584.3584
       227.0004        175.0004
 -22066234.11049 -17181718.86349  20939669.2124   20939671.5114   20939669.0234
       243.0004        199.0004
  -1060842.33649   -814985.17849  24247237.3244   24247239.3424   24247236.9284
       207.0004        139.0004
 -11146814.73849  -8650101.38949  23148736.7384   23148739.9904   23148736.9114
       219.0004        161.0004
   -842694.30249   -646818.66549  24869973.9674   24869972.4634   24869973.8694
       210.0004        136.0004
 11 10 11  1 59 30.0000000  0  8G05G26G07G28G08G10G15G21
 -19001649.81349 -14792216.96149  20966956.1254   20966957.7294   20966956.0274
       239.0004        199.0004
 -21969149.12849 -16288954.68149  20245374.2384   20245377.3744   20245374.7494
       240.0004        199.0004
 -10102345.79149  -7574936.97149  22849094.4844   22849097.1644   22849093.9874
       224.0004        168.0004
 -11172449.58649  -8450471.58649  22138747.6494   22138750.6514   22138747.6084
       228.0004        174.0004
 -22019811.56549 -17145545.44649  20948503.6324   20948505.7784   20948502.8114
       244.0004        200.0004
   -946438.75049   -725839.54349  24269007.2274   24269009.8504   24269007.7274
       207.0004        139.0004
 -11237492.81849  -8720759.58649  23131481.4624   23131484.5254   23131482.7094
       218.0004        162.0004
   -874328.13249   -671468.35949  24863953.8554   24863956.0964   24863953.4794
       208.0004        137.0004
 11 10 11  2  0  0.0000000  0  8G05G26G07G28G08G10G15G21
 -18957466.38749 -14757788.31649  20975363.1134   20975365.6854   20975363.7044
       240.0004        199.0004
 -22013849.96449 -16323786.49949  20236868.5404   20236871.0384   20236868.4244
       241.0004        200.0004
 -10011343.17249  -7504025.85049  22866411.4244   22866413.6304   22866411.5104
       224.0004        168.0004
 -11234222.46449  -8498606.26749  22126991.9944   22126994.9274   22126991.6284
       228.0004        175.0004
 -21972990.92549 -17109061.83349  20957412.5614   20957415.3124   20957412.5564
       243.0004        199.0004
   -831949.97049   -636627.50749  24290791.8364   24290796.0004   24290793.2914
       205.0004        135.0004
 -11328029.98649  -8791307.99349  23114252.9714   23114254.8514   23114253.4004
       220.0004        161.0004
   -905470.44449   -695735.09349  24858026.0834   24858028.8734   24858024.8934
       204.0004        135.0004
 11 10 11  2  0 30.0000000  0  8G05G26G07G28G08G10G15G21
 -18912740.15349 -14722936.70849  20983874.4094   20983877.1664   20983874.5644
       239.0004        199.0004
 -22058116.11649 -16358279.60849  20228444.4324   20228447.5624   20228444.9364
       241.0004        200.0004
  -9920155.19449  -7432970.32549  22883764.5674   22883766.1824   22883764.5354
       223.0004        169.0004
 -11295564.43349  -8546405.19349  22115320.0654   22115322.1954   22115319.7594
       229.0004        176.0004
 -21925773.21049 -17072268.80749  20966397.8904   20966400.2574   20966397.4564
       243.0004        198.0004
   -717378.07749   -547350.71949  24312594.9664   24312598.9264   24312595.2154
       203.0004        137.0004
 -11418425.16849  -8861745.79049  23097051.3744   23097053.6504   23097051.2474
       219.0004        162.0004
   -936120.70249   -719618.41349  24852194.1054   24852197.9614   24852196.1444
       201.0004        135.0004
 11 10 11  2  1  0.0000000  0  8G05G26G07G28G08G10G15G21
 -18867472.55049 -14687663.25349  20992488.4414   20992491.0224   20992488.6424
       238.0004        198.0004
 -22101946.11049 -16392432.86149  20220104.4744   20220106.7774   20220104.7014
       242.0004        200.0004
  -9828783.40049  -7361771.55649  22901152.0464   22901154.9774   22901153.0584
       223.0004        171.0004
 -11356473.33949  -8593866.64849  22103728.5794   22103731.8324   22103728.2204
       228.0004        175.0004
 -21878159.78249 -17035167.43249  20975458.2394   20975460.9014   20975457.6204
       242.0004        198.0004
   -602724.63849   -458010.41649  24334412.2984   24334416.3624   24334412.4154
       206.0004        137.0004
 -11508676.45849  -8932071.44249  23079875.2404   23079879.6144   23079875.9404
       215.0004        162.0004
   -966278.05249   -743117.66949  24846456.0854   24846458.0954   24846456.4464
       206.0004        135.0004
 11 10 11  2  1 30.0000000  0  8G05G26G07G28G08G10G15G21
 -18821664.57249 -14651968.71649  21001205.7784   21001207.6534   21001206.2584
       238.0004        198.0004
 -22145339.13049 -16426245.60149  20211846.2574   20211849.1914   20211846.8954
       242.0004        200.0004
  -9737230.11449  -7290431.35749  22918574.1364   22918577.2024   22918573.9584
       223.0004        169.0004
 -11416947.92049  -8640989.68349  22092220.7944   22092223.5624   22092221.0654
       228.0004        175.0004
 -21830152.93349 -16997759.50549  20984593.6904   20984596.0984   20984593.7064
       243.0004        198.0004
   -487992.18149   -368608.49949  24356244.8164   24356248.2064   24356243.3464
       205.0004        136.0004
 -11598783.32949  -9002284.55549  23062730.3654   23062732.0424   23062731.3934
       218.0004        164.0004
   -995941.57849   -766232.08949  24840811.1634   24840811.4904   24840811.6164
       204.0004        134.0004
 11 10 11  2  2  0.0000000  0  8G05G26G07G28G08G10G15G21
 -18775316.96549 -14615853.71849  21010025.0514   21010027.4344   21010025.6634
       236.0004        197.0004
 -22188293.32349 -16459716.40949  20203673.1064   20203675.3904   20203673.1944
       242.0004        200.0004
  -9645496.24949  -7218950.46449  22936031.4094   22936032.8794   22936031.6014
       224.0004        169.0004
 -11476984.94949  -8687771.76949  22080796.3844   22080798.6394   22080796.5054
       229.0004        175.0004
 -21781753.58449 -16960045.72249  20993803.9884   20993806.4434   20993803.3044
       242.0004        198.0004
   -373182.55449   -279146.44349  24378093.5154   24378098.2404   24378091.5584
       205.0004        136.0004
 -11688743.54949  -9072383.40749  23045610.9104   23045612.8074   23045611.2104
       217.0004        161.0004
  -1025109.31049   -788960.18049  24835260.0484   24835264.0834   24835260.0634
       202.0004        132.0004
 11 10 11  2  2 30.0000000  0  8G05G26G07G28G08G10G15G21
 -18728431.20849 -14579319.38049  21018946.4664   21018949.6074   21018947.2164
       237.0004        197.0004
 -22230807.90149 -16492844.65049  20195582.7134   20195584.7734   20195582.8504
       242.0004        200.0004
  -9553584.00549  -7147330.54449  22953521.2434   22953522.8024   22953520.9854
       224.0004        167.0004
 -11536583.42949  -8734212.12449  22069454.8784   22069457.2304   22069454.3374
       228.0004        175.0004
 -21732963.50749 -16922027.48849  21003087.4064   21003090.8514   21003087.6144
       241.0004        197.0004
   -258297.73649   -189625.84049  24399955.1074   24399958.0174   24399955.5514
       207.0004        136.0004
 -11778556.04749  -9142367.14749  23028519.8624   23028522.3674   23028520.5514
       218.0004        161.0004
  -1053781.41249   -811302.07649  24829806.2924   24829806.4774   24829806.8164
       206.0004        133.0004
 11 10 11  2  3  0.0000000  0  8G05G26G07G28G08G10G15G21
 -18681008.96449 -14542366.97249  21027971.0254   21027973.7464   21027971.4304
       237.0004        197.0004
 -22272881.98249 -16525629.65249  20187575.7074   20187578.6284   20187576.1894
       241.0004        201.0004
  -9461495.51949  -7075573.25549  22971043.3484   22971046.2864   22971044.7754
       222.0004        168.0004
 -11595741.51949  -8780309.31749  22058197.7274   22058200.4104   22058198.1474
       230.0004        176.0004
 -21683784.70549 -16883706.33849  21012447.3444   21012449.3494   21012446.6514
       242.0004        198.0004
   -143340.56349   -100048.81649  24421832.6284   24421835.2704   24421831.7094
       208.0004        139.0004
 -11868220.03449  -9212235.18549  23011458.6044   23011461.8144   23011460.0624
       219.0004        166.0004
  -1081957.15449   -833257.18649  24824444.2424   24824443.6854   24824443.5284
       207.0004        132.0004
 11 10 11  2  3 30.0000000  0  8G05G26G07G28G08G10G15G21
 -18633051.07749 -14504997.20049  21037098.0064   21037099.5874   21037097.8734
       237.0004        197.0004
 -22314513.83649 -16558070.06049  20179653.6174   20179656.6394   20179654.0994
       242.0004        201.0004
  -9369232.09049  -7003679.73649  22988600.9304   22988604.4444   22988601.5634
       222.0004        168.0004
 -11654457.09749  -8826061.69849  22047024.3404   22047027.5004   22047023.4994
       229.0004        176.0004
 -21634218.56049 -16845083.37749  21021878.3154   21021881.3664   21021878.5244
       240.0004        196.0004
    -28312.74649    -10416.77949  24443720.5114   24443723.1434   24443720.3444
       207.0004        137.0004
 -11957733.62649  -9281986.00249  22994424.0244   22994427.4914   22994424.2434
       219.0004        166.0004
  -1109635.88549   -854825.01149  24819176.6704   24819177.7974   24819175.8674
       204.0004        129.0004
 11 10 11  2  4  0.0000000  0  8G05G26G07G28G08G10G15G21
 -18584558.85749 -14467211.05449  21046324.6394   21046327.6584   21046325.4184
       236.0004        196.0004
 -22355702.39149 -16590165.03049  20171816.2154   20171818.3244   20171815.9304
       242.0004        201.0004
  -9276795.85149  -6931651.53249  23006190.9104   23006194.9484   23006193.1234
       222.0004        168.0004
 -11712728.08849  -8871467.64549  22035935.6154   22035938.9314   22035936.0824
       230.0004        177.0004
 -21584265.88849 -16806159.21549  21031384.6464   21031387.3104   21031384.1844
       241.0004        197.0004
     86783.79149     79268.84149  24465622.4744   24465625.1814   24465620.3274
       205.0004        138.0004
 -12047095.44849  -9351618.55749  22977418.4464   22977421.2814   22977419.0334
       219.0004        163.0004
  -1136816.04549   -876004.36049  24814004.1974   24814004.2654   24814002.8514
       204.0004        129.0004
 11 10 11  2  4 30.0000000  0  8G05G26G07G28G08G10G15G21
 -18535534.11549 -14429009.96549  21055654.5574   21055656.6684   21055655.0424
       237.0004        197.0004
 -22396447.11449 -16621914.16849  20164062.3534   20164065.2514   20164062.7944
       243.0004        201.0004
  -9184188.99049  -6859490.35949  23023814.7994   23023816.5024   23023815.4084
       222.0004        165.0004
 -11770552.91849  -8916525.93549  22024933.4194   22024934.6814   22024932.4844
       231.0004        177.0004
 -21533929.16449 -16766935.79249  21040963.2774   21040966.3074   21040962.9164
       241.0004        197.0004
    201946.26449    169005.80649  24487537.5094   24487540.4104   24487537.3594
       205.0004        137.0004
 -12136305.06249  -9421132.53749  22960444.0994   22960445.6734   22960444.5394
       223.0004        164.0004
  -1163497.62949   -896795.23449  24808927.6594   24808927.9834   24808926.4324
       202.0004        129.0004
 11 10 11  2  5  0.0000000  0  8G05G26G07G28G08G10G15G21
 -18485977.85749 -14390394.70049  21065083.3644   21065087.2614   21065084.4004
       236.0004        196.0004
 -22436746.43649 -16653316.22849  20156393.8684   20156396.4974   20156393.9834
       243.0004        202.0004
  -9091412.78649  -6787197.22349  23041468.9824   23041470.3734   23041468.9744
       222.0004        164.0004
 -11827930.05049  -8961235.36249  22014013.2004   22014015.6954   22014013.0344
       231.0004        177.0004
 -21483209.78949 -16727414.19649  21050614.8494   21050617.3494   21050614.6024
       240.0004        196.0004
    317172.99749    258792.82649  24509463.9354   24509468.3824   24509463.0154
       205.0004        138.0004
 -12225360.46249  -9490526.32749  22943496.8784   22943499.3024   22943497.1234
       220.0004        167.0004
  -1189679.91049   -917197.01049  24803943.9774   24803942.3864   24803945.1154
       204.0004        131.0004
 11 10 11  2  5 30.0000000  0  8G05G26G07G28G08G10G15G21
 -18435891.04549 -14351366.03749  21074616.4744   21074618.4344   21074616.5784
       238.0004        197.0004
 -22476598.81549 -16684370.03549  20148810.6794   20148812.8504   20148810.9834
       243.0004        202.0004
  -8998468.58449  -6714773.18649  23059155.3924   23059157.8074   23059156.5484
       219.0004        163.0004
 -11884857.17749  -9005594.13749  22003180.3124   22003183.1474   22003180.5534
       231.0004        177.0004
 -21432108.82849 -16687595.26049  21060338.6854   21060341.4074   21060338.5394
       240.0004        195.0004
    432462.07749    348628.45049  24531404.6884   24531404.0324   24531401.9104
       205.0004        138.0004
 -12314259.85749  -9559798.54849  22926577.9784   22926583.2794   22926578.7904
       219.0004        165.0004
  -1215362.19049   -937209.16249  24799057.7114   24799059.5274   24799055.9284
       204.0004        133.0004
 11 10 11  2  6  0.0000000  0  8G05G26G07G28G08G10G15G21
 -18385275.59449 -14311925.43549  21084247.5524   21084250.3894   21084248.1574
       236.0004        196.0004
 -22516003.76749 -16715075.18549  20141311.6014   20141314.3034   20141311.7514
       243.0004        202.0004
  -8905358.62849  -6642220.00649  23076874.4004   23076876.4144   23076874.3324
       221.0004        165.0004
 -11941333.08949  -9049601.32449  21992433.8624   21992435.9494   21992434.1294
       232.0004        178.0004
 -21380628.57049 -16647480.77149  21070135.4114   21070138.2514   21070134.8894
       239.0004        195.0004
    547810.97249    438510.75449  24553353.4104   24553358.0184   24553353.1284
       205.0004        137.0004
 -12403002.83349  -9628948.90949  22909693.2304   22909694.2134   22909693.9854
       223.0004        167.0004
  -1240543.68549   -956831.11149  24794265.5664   24794268.1244   24794266.4594
       207.0004        134.0004
 11 10 11  2  6 30.0000000  0  8G05G26G07G28G08G10G15G21
 -18334132.89849 -14272074.00749  21093979.7364   21093982.3654   21093979.9484
       235.0004        196.0004
 -22554960.14849 -16745430.81249  20133898.8474   20133901.3274   20133898.7924
       243.0004        202.0004
  -8812084.84749  -6569539.16249  23094623.0924   23094626.4264   23094623.3844
       221.0004        164.0004
 -11997355.65249  -9093255.26249  21981773.2694   21981775.2094   21981773.3894
       233.0004        179.0004
 -21328770.57449 -16607071.94649  21080003.2734   21080006.7524   21080002.8154
       239.0004        194.0004
    663217.40849    528437.78749  24575315.0794   24575318.8364   24575313.7104
       207.0004        138.0004
 -12491587.94149  -9697976.27449  22892835.0324   22892837.1144   22892835.7964
       221.0004        166.0004
  -1265223.66549   -976062.24549  24789568.9884   24789569.9134   24789568.9314
       209.0004        133.0004
 11 10 11  2  7  0.0000000  0  8G05G26G07G28G08G10G15G21
 -18282464.20849 -14231812.70449  21103810.2954   21103814.6224   21103811.9134
       234.0004        196.0004
 -22593466.77649 -16775435.98649  20126570.6914   20126573.7564   20126571.0904
       242.0004        202.0004
  -8718649.12549  -6496732.14349  23112402.6564   23112405.3454   23112404.7484
       221.0004        162.0004
 -12052923.32149  -9136554.72349  21971198.5844   21971201.3074   21971198.4824
       233.0004        179.0004
 -21276536.60549 -16566370.16449  21089942.8384   21089945.8854   21089942.7774
       239.0004        194.0004
    778679.26749    618408.06149  24597284.2534   24597289.7874   24597285.0914
       207.0004        138.0004
 -12580013.66649  -9766879.40949  22876007.7734   22876011.0624   22876008.1874
       222.0004        168.0004
  -1289401.68149   -994902.26949  24784967.6284   24784970.8514   24784968.3284
       205.0004        136.0004
 11 10 11  2  7 30.0000000  0  8G05G26G07G28G08G10G15G21
 -18230270.83349 -14191142.57949  21113744.1314   21113746.5784   21113744.7764
       236.0004        196.0004
 -22631522.22349 -16805089.58749  20119329.4764   20119331.7364   20119329.5894
       243.0004        201.0004
  -8625052.65549  -6423799.81949  23130215.1424   23130216.8784   23130214.6024
       222.0004        163.0004
 -12108034.11949  -9179498.18849  21960712.5734   21960713.7294   21960711.9484
       234.0004        179.0004
 -21223928.06749 -16525376.49649  21099953.7094   21099957.2754   21099953.6634
       238.0004        194.0004
    894194.71249    708420.06949  24619269.2304   24619271.1184   24619268.2664
       208.0004        135.0004
 -12668278.43449  -9835657.12349  22859211.6764   22859214.8184   22859213.0644
       222.0004        171.0004
  -1313077.28349  -1013350.79749  24780463.0944   24780464.6114   24780462.0594
       208.0004        136.0004
 11 10 11  2  8  0.0000000  0  8G05G26G07G28G08G10G15G21
 -18177554.50049 -14150064.94149  21123776.2304   21123777.9864   21123776.4344
       236.0004        196.0004
 -22669125.71349 -16834391.01649  20112173.3074   20112176.1244   20112173.3074
       242.0004        201.0004
  -8531297.24449  -6350743.66949  23148054.6074   23148057.8954   23148055.0844
       220.0004        162.0004
 -12162686.38249  -9222084.35049  21950312.0254   21950314.4374   21950311.9314
       233.0004        179.0004
 -21170946.84149 -16484092.42449  21110036.2834   21110039.6734   21110035.9114
       238.0004        193.0004
   1009761.77949    798472.33449  24641258.8144   24641262.4754   24641257.9694
       207.0004        136.0004
 -12756381.02249  -9904308.49449  22842447.2814   22842448.8404   22842446.9514
       224.0004        168.0004
  -1336249.75449  -1031407.26749  24776052.4434   24776053.4264   24776052.2104
       205.0004        135.0004
 11 10 11  2  8 30.0000000  0  8G05G26G07G28G08G10G15G21
 -18124316.33649 -14108580.69149  21133906.0794   21133909.3764   21133906.6824
       235.0004        196.0004
 -22706276.10549 -16863339.38849  20105104.1734   20105106.8004   20105104.2114
       242.0004        202.0004
  -8437385.10749  -6277565.38949  23165925.7544   23165929.0844   23165926.0984
       221.0004        162.0004
 -12216878.72649  -9264312.13349  21939998.8834   21940000.6914   21939998.7864
       232.0004        179.0004
 -21117594.35249 -16442519.05349  21120188.7934   21120191.3744   21120188.0344
       237.0004        193.0004
   1125377.95749    888562.85549  24663260.3624   24663264.1504   24663260.5304
       208.0004        135.0004
 -12844320.36449  -9972832.66149  22825712.1894   22825714.0744   22825712.3594
       223.0004        167.0004
  -1358918.58849  -1049071.32649  24771738.9244   24771740.6474   24771738.3844
       207.0004        135.0004
 11 10 11  2  9  0.0000000  0  8G05G26G07G28G08G10G15G21
 -18070557.99449 -14066691.10349  21144136.2044   21144139.4364   21144136.5534
       236.0004        196.0004
 -22742972.05049 -16891933.62749  20098121.0404   20098123.6484   20098120.9424
       243.0004        201.0004
  -8343317.34549  -6204265.85549  23183827.4304   23183828.9104   23183827.4794
       220.0004        162.0004
 -12270608.68049  -9306179.61449  21929774.4224   21929777.0974   21929774.4444
       232.0004        181.0004
 -21063872.18149 -16400657.63049  21130411.5204   21130414.4144   21130411.5964
       237.0004        193.0004
   1241041.31449    978690.16049  24685270.1934   24685276.6274   24685268.4084
       205.0004        135.0004
 -12932094.47149 -10041228.05249  22809009.9674   22809013.5384   22809010.2184
       224.0004        170.0004
  -1381082.76749  -1066342.11149  24767520.3704   24767523.4244   24767522.1834
       200.0004        134.0004
 11 10 11  2  9 30.0000000  0  8G05G26G07G28G08G10G15G21
 -18016281.07649 -14024397.44149  21154464.7424   21154467.5024   21154465.1904
       235.0004        196.0004
 -22779212.80449 -16920173.17549  20091224.5724   20091226.6894   20091224.5084
       242.0004        201.0004
  -8249096.60549  -6130847.14449  23201756.6104   23201758.1504   23201756.9714
       221.0004        162.0004
 -12323875.60949  -9347686.29049  21919637.8874   21919640.1084   21919637.7414
       232.0004        180.0004
 -21009782.31149 -16358509.66949  21140704.7614   21140707.3274   21140704.3974
       238.0004        193.0004
   1356749.22749   1068852.16149  24707288.1534   24707293.7284   24707286.3164
       199.0004        132.0004
 -13019702.84649 -10109494.29049  22792337.2534   22792339.8284   22792337.8714
       222.0004        169.0004
  -1402742.54649  -1083219.84449  24763399.6504   24763401.4674   24763399.6314
       204.0004        135.0004
 11 10 11  2 10  0.0000000  0  8G05G26G07G28G08G10G15G21
 -17961486.64849 -13981700.52449  21164892.7164   21164894.7744   21164893.1714
       238.0004        197.0004
 -22814996.81949 -16948056.82149  20084415.4204   20084418.0234   20084415.2064
       242.0004        202.0004
  -8154723.68549  -6057309.82549  23219716.2964   23219717.5734   23219716.7714
       221.0004        160.0004
 -12376677.04149  -9388830.24249  21909590.1224   21909593.0444   21909590.2714
       233.0004        180.0004
 -20955325.84949 -16316076.07149  21151067.5184   21151070.3284   21151067.1974
       238.0004        192.0004
   1472500.31649   1159047.77449  24729315.2204   24729317.2384   24729315.8104
       200.0004        130.0004
 -13107143.47249 -10177629.85249  22775698.4764   22775701.5074   22775699.4644
       222.0004        169.0004
  -1423896.63349  -1099703.53149  24759373.4794   24759374.7854   24759374.3114
       206.0004        136.0004
 11 10 11  2 10 30.0000000  0  8G05G26G07G28G08G10G15G21
 -17906177.03749 -13938602.14649  21175417.3604   21175419.7754   21175418.0594
       237.0004        197.0004
 -22850323.98949 -16975584.49649  20077692.4804   20077695.5424   20077693.1074
       242.0004        202.0004
  -8060201.10649  -5983655.89149  23237702.3134   23237704.1794   23237703.0654
       219.0004        162.0004
 -12429011.99149  -9429610.70649  21899631.7114   21899633.2264   21899631.4284
       233.0004        181.0004
 -20900504.99749 -16273358.52549  21161500.1194   21161502.2324   21161499.5504
       240.0004        194.0004
   1588291.77149   1249274.91549  24751348.8404   24751353.7154   24751349.2384
       201.0004        132.0004
 -13194415.54049 -10245634.04149  22759091.7214   22759093.9404   22759091.9184
       222.0004        168.0004
  -1444545.28749  -1115793.39949  24755445.4024   24755445.5474   24755445.1354
       204.0004        135.0004
 11 10 11  2 11  0.0000000  0  8G05G26G07G28G08G10G15G21
 -17850353.07149 -13895103.00849  21186039.9874   21186042.7674   21186040.3994
       236.0004        196.0004
 -22885192.24749 -17002754.56649  20071057.1504   20071059.6934   20071057.3554
       240.0004        201.0004
  -7965529.87049  -5909886.09349  23255716.6414   23255719.8564   23255718.6504
       220.0004        162.0004
 -12480878.09149  -9470025.81449  21889761.5864   21889764.0814   21889761.5534
       233.0004        182.0004
 -20845320.83449 -16230357.87149  21172000.5964   21172003.7144   21172000.7394
       238.0004        193.0004
   1704121.98949   1339532.18749  24773391.7784   24773395.5374   24773390.7604
       201.0004        132.0004
 -13281516.89049 -10313505.18549  22742516.0554   22742518.4784   22742517.5294
       224.0004        169.0004
  -1464687.49549  -1131488.60649  24751609.5424   24751614.8954   24751611.0404
       203.0004        135.0004
 11 10 11  2 11 30.0000000  0  8G05G26G07G28G08G10G15G21
 -17794016.58749 -13851204.49349  21196760.8384   21196763.6314   21196761.4734
       236.0004        196.0004
 -22919600.69849 -17029566.35549  20064509.5144   20064512.2174   20064509.5974
       241.0004        202.0004
  -7870711.64849  -5836001.76849  23273759.9084   23273763.3244   23273761.1854
       218.0004        163.0004
 -12532274.07249  -9510074.60049  21879981.2694   21879984.3504   21879981.7794
       232.0004        182.0004
 -20789775.23249 -16187075.58549  21182570.9574   21182573.6754   21182570.6314
       239.0004        194.0004
   1819988.88049   1429818.07749  24795439.1024   24795444.6644   24795442.0774
       200.0004        129.0004
 -13368446.38549 -10381242.44049  22725975.1194   22725976.7734   22725974.7434
       223.0004        170.0004
  -1484323.04349  -1146789.04349  24747875.2314   24747876.5494   24747875.8844
       202.0004        135.0004
 11 10 11  2 12  0.0000000  0  8G05G26G07G28G08G10G15G21
 -17737169.31349 -13806907.96449  21207578.5814   21207580.9684   21207579.3734
       237.0004        196.0004
 -22953549.22849 -17056019.76349  20058049.5364   20058052.3494   20058049.3304
       241.0004        202.0004
  -7775748.81949  -5762004.76649  23291832.2004   23291835.4894   23291831.7104
       218.0004        163.0004
 -12583198.72249  -9549756.11649  21870290.6384   21870293.6234   21870290.6744
       233.0004        182.0004
 -20733870.53849 -16143513.48249  21193209.2244   21193211.9194   21193208.8924
       239.0004        194.0004
   1935889.58549   1520130.31349  24817498.3424   24817499.8174   24817496.3754
       202.0004        133.0004
 -13455203.25549 -10448845.18149  22709464.4504   22709467.3504   22709465.2164
       222.0004        168.0004
  -1503451.51949  -1161694.33849  24744234.7344   24744237.0794   24744235.7924
       199.0004        134.0004
 11 10 11  2 12 30.0000000  0  8G05G26G07G28G08G10G15G21
 -17679812.22649 -13762214.17649  21218493.6404   21218495.3674   21218494.0254
       236.0004        196.0004
 -22987035.36749 -17082112.86549  20051677.7794   20051679.9364   20051677.9014
       242.0004        203.0004
  -7680642.37849  -5687895.87049  23309931.1614   23309932.0704   23309931.8154
       220.0004        160.0004
 -12633649.80949  -9589068.62049  21860690.4564   21860692.8934   21860690.0574
       232.0004        181.0004
 -20677606.99849 -16099671.76349  21203915.9394   21203918.6724   21203915.4954
       239.0004        193.0004
   2051822.98749   1610468.01849  24839554.9124   24839560.2354   24839555.7104
       197.0004        130.0004
 -13541785.11249 -10516311.55449  22692988.8404   22692990.1284   22692989.5304
       224.0004        170.0004
  -1522072.33649  -1176204.06649  24740690.8364   24740693.4004   24740690.0844
       202.0004        135.0004
 11 10 11  2 13  0.0000000  0  8G05G26G07G28G08G10G15G21
 -17621947.50749 -13717124.82649  21229504.6984   21229506.9914   21229505.0814
       235.0004        195.0004
 -23020059.18749 -17107845.71849  20045393.2334   20045395.5264   20045393.4544
       242.0004        203.0004
  -7585394.47649  -5613676.74649  23328055.4034   23328057.0624   23328055.8214
       218.0004        160.0004
 -12683626.34349  -9628011.34549  21851180.3324   21851181.5364   21851179.1134
       232.0004        181.0004
 -20620987.27249 -16055552.48849  21214690.0894   21214693.1624   21214690.0774
       240.0004        194.0004
   2167786.33949   1700829.05249  24861625.0634   24861627.4864   24861624.2544
       202.0004        134.0004
 -13628191.41149 -10583641.12749  22676546.3194   22676547.4614   22676546.6454
       223.0004        170.0004
  -1540185.60849  -1190318.28949  24737245.5184   24737247.7784   24737245.8794
       207.0004        137.0004
 11 10 11  2 13 30.0000000  0  8G05G26G07G28G08G10G15G21
 -17563576.45149 -13671640.87149  21240611.3284   21240614.9054   21240612.4314
       235.0004        195.0004
 -23052619.29949 -17133217.22949  20039196.9994   20039199.7664   20039197.0494
       242.0004        202.0004
  -7490006.48849  -5539348.44649  23346206.6124   23346209.5514   23346208.0344
       218.0004        161.0004
 -12733126.32849  -9666582.72849  21841759.7694   21841762.8284   21841760.0894
       232.0004        182.0004
 -20564012.62649 -16011156.66649  21225532.2354   21225534.8094   21225531.9814
       239.0004        193.0004
   2283777.61849   1791211.86949  24883694.5474   24883698.4144   24883694.9024
       200.0004        131.0004
 -13714420.37649 -10650832.49949  22660137.5904   22660139.3294   22660137.4794
       224.0004        170.0004
  -1557790.58449  -1204036.44449  24733895.9414   24733896.1044   24733894.9894
       204.0004        136.0004
 11 10 11  2 14  0.0000000  0  8G05G26G07G28G08G10G15G21
 -17504700.95449 -13625763.84849  21251815.5204   21251818.3474   21251816.4914
       237.0004        195.0004
 -23084714.53949 -17158226.49249  20033089.2434   20033091.9604   20033089.6224
       241.0004        202.0004
  -7394480.04949  -5464912.26449  23364384.0894   23364387.2434   23364384.4794
       213.0004        160.0004
 -12782148.36449  -9704781.68449  21832431.2724   21832434.5374   21832431.0234
       231.0004        183.0004
 -20506684.96749 -15966485.75849  21236441.2824   21236443.5374   21236440.7644
       239.0004        192.0004
   2399794.63749   1881614.75149  24905775.2494   24905778.1374   24905775.2594
       202.0004        134.0004
 -13800470.61049 -10717884.61449  22643763.0534   22643763.9844   22643763.7874
       224.0004        170.0004
  -1574886.70849  -1217358.07849  24730641.9344   24730644.4874   24730642.0294
       206.0004        137.0004
 11 10 11  2 14 30.0000000  0  8G05G26G07G28G08G10G15G21
 -17445322.37449 -13579494.84049  21263115.1064   21263117.4394   21263115.6144
       236.0004        195.0004
 -23116343.63649 -17182872.53949  20027070.3744   20027073.1434   20027070.3844
       242.0004        202.0004
  -7298816.90249  -5390369.60449  23382588.9124   23382591.4934   23382588.9064
       217.0004        159.0004
 -12830690.72249  -9742606.87549  21823194.3924   21823196.2614   21823193.9664
       231.0004        181.0004
 -20449005.36449 -15921540.61449  21247417.3334   21247419.6374   21247416.9904
       238.0004        192.0004
   2515835.82949   1972036.49049  24927854.4614   24927861.4214   24927855.4054
       195.0004        130.0004
 -13886340.71149 -10784796.37649  22627422.2204   22627423.9844   22627423.0704
       225.0004        171.0004
  -1591473.60249  -1230282.93149  24727485.7034   24727488.3104   24727485.2364
       208.0004        139.0004
 11 10 11  2 15  0.0000000  0  8G05G26G07G28G08G10G15G21
 -17385442.74649 -13532835.42349  21274510.0434   21274512.5204   21274510.2304
       237.0004        195.0004
 -23147505.93949 -17207154.85649  20021140.6304   20021143.2314   20021141.2224
       243.0004        203.0004
  -7203018.67049  -5315721.67649  23400819.4104   23400821.5064   23400819.1204
       218.0004        160.0004
 -12878752.15249  -9780057.31549  21814048.4534   21814051.2124   21814047.4224
       232.0004        182.0004
 -20390976.15449 -15876323.04449  21258459.7044   21258462.4204   21258459.5984
       238.0004        192.0004
   2631898.64449   2062474.99249  24949942.6374   24949945.3694   24949943.3734
       204.0004        133.0004
 -13972029.15149 -10851566.58749  22611116.3794   22611118.6704   22611116.7334
       222.0004        170.0004
  -1607551.39249  -1242811.08349  24724425.5284   24724428.1084   24724424.4434
       209.0004        139.0004
 11 10 11  2 15 30.0000000  0  8G05G26G07G28G08G10G15G21
 -17325064.53349 -13485787.51249  21285999.2424   21286002.0794   21285999.4394
       235.0004        195.0004
 -23178201.46849 -17231073.45949  20015300.1974   20015302.1634   20015300.1574
       242.0004        203.0004
  -7107088.00849  -5240970.51049  23419071.8774   23419075.8434   23419073.9684
       216.0004        159.0004
 -12926332.19649  -9817132.64849  21804993.6514   21804996.7494   21804993.9634
       230.0004        181.0004
 -20332599.53449 -15830834.77849  21269568.5304   21269570.9174   21269568.3074
       238.0004        191.0004
   2747980.02549   2152928.05349  24972028.9124   24972036.0544   24972029.2504
       196.0004        133.0004
 -14057535.39549 -10918194.80449  22594845.5114   22594847.0084   22594845.6294
       225.0004        172.0004
  -1623120.54749  -1254942.92549  24721462.8604   24721463.0444   24721462.9274
       207.0004        138.0004
 11 10 11  2 16  0.0000000  0  8G05G26G07G28G08G10G15G21
 -17264188.57449 -13438351.79449  21297583.7434   21297586.4164   21297584.2384
       237.0004        195.0004
 -23208427.79049 -17254626.43549  20009547.7494   20009550.4454   20009547.7754
       242.0004        203.0004
  -7011025.45249  -5166116.60249  23437353.3704   23437355.8114   23437353.7974
       218.0004        157.0004
 -12973427.74349  -9853830.44149  21796032.1954   21796035.2084   21796031.3844
       231.0004        181.0004
 -20273876.17049 -15785076.31049  21280743.5674   21280745.9464   21280743.9314
       239.0004        193.0004
   2864079.33649   2243395.03449  24994124.1794   24994126.0784   24994123.9234
       203.0004        133.0004
 -14142856.90849 -10984679.08849  22578609.2234   22578610.2054   22578609.5134
       224.0004        171.0004
  -1638179.49049  -1266677.15149  24718598.1084   24718599.7274   24718597.8854
       208.0004        136.0004
 11 10 11  2 16 30.0000000  0  8G05G26G07G28G08G10G15G21
 -17202816.28349 -13390529.28849  21309262.8374   21309265.5754   21309263.2474
       237.0004        194.0004
 -23238184.17749 -17277813.23649  20003885.1704   20003888.0054   20003885.5534
       242.0004        203.0004
  -6914832.42749  -5091160.97949  23455659.3614   23455660.4304   23455659.0614
       219.0004        155.0004
 -13020037.87849  -9890149.99349  21787162.4114   21787165.5204   21787162.5584
       233.0004        181.0004
 -20214807.99849 -15739049.16049  21291983.9994   21291986.4224   21291983.7184
       240.0004        192.0004
   2980194.10049   2333874.09149  25016219.7584   25016222.9874   25016217.2414
       205.0004        133.0004
 -14227992.34449 -11051018.36549  22562408.5134   22562409.9834   22562409.3244
       225.0004        172.0004
  -1652728.34649  -1278013.91249  24715829.3954   24715830.2934   24715829.8574
       207.0004        138.0004
 11 10 11  2 17  0.0000000  0  8G05G26G07G28G08G10G15G21
 -17140949.71749 -13342321.60649  21321035.5644   21321038.2914   21321035.9564
       236.0004        194.0004
 -23267469.90949 -17300633.28449  19998312.7764   19998314.8334   19998312.6094
       243.0004        204.0004
  -6818510.88149  -5016105.22849  23473989.3574   23473990.8644   23473989.0804
       220.0004        157.0004
 -13066161.26649  -9926090.27749  21778385.9414   21778388.3544   21778385.6584
       232.0004        182.0004
 -20155396.61449 -15692754.58749  21303289.1284   21303292.0094   21303289.3094
       239.0004        192.0004
   3096321.82549   2424363.22449  25038317.3564   25038323.4394   25038317.9544
       203.0004        134.0004
 -14312940.81649 -11117211.94349  22546242.9374   22546244.7514   22546242.1704
       225.0004        172.0004
  -1666767.14949  -1288953.24649  24713157.6344   24713160.5014   24713157.6404
       207.0004        137.0004
 11 10 11  2 17 30.0000000  0  8G05G26G07G28G08G10G15G21
 -17078591.04049 -13293730.44949  21332901.1374   21332904.5524   21332901.6424
       235.0004        193.0004
 -23296284.42949 -17323086.16249  19992829.3294   19992831.8904   19992829.7504
       244.0004        204.0004
  -6722063.30449  -4940951.28149  23492341.9774   23492343.1484   23492342.6694
       216.0004        156.0004
 -13111797.19349  -9961650.71549  21769700.6574   21769703.2374   21769700.8214
       231.0004        182.0004
 -20095643.95749 -15646194.06749  21314660.1174   21314661.9764   21314659.5654
       239.0004        192.0004
   3212460.08549   2514860.58049  25060418.9934   25060424.0084   25060416.7004
       204.0004        132.0004
 -14397701.01449 -11183258.82549  22530113.6244   22530115.4994   22530113.5584
       227.0004        174.0004
  -1680295.74049  -1299495.00649  24710583.8484   24710584.2644   24710583.6714
       205.0004        137.0004
 11 10 11  2 18  0.0000000  0  8G05G26G07G28G08G10G15G21
 -17015741.41349 -13244756.74849  21344861.8584   21344864.9544   21344862.3424
       236.0004        194.0004
 -23324625.97949 -17345170.48349  19987436.5974   19987438.6414   19987436.3254
       243.0004        204.0004
  -6625490.32849  -4865699.63349  23510717.9434   23510720.4034   23510719.3874
       218.0004        155.0004
 -13156943.36649  -9996829.52549  21761110.6264   21761112.4854   21761110.6024
       232.0004        182.0004
 -20035551.21549 -15599368.54949  21326095.1234   21326097.8894   21326094.3484
       238.0004        191.0004
   3328607.69749   2605365.23449  25082520.8694   25082524.1484   25082521.2604
       198.0004        131.0004
 -14482271.01249 -11249157.49549  22514020.1684   22514022.4344   22514020.0704
       226.0004        173.0004
  -1693313.45149  -1309638.64749  24708104.8624   24708109.3174   24708107.4464
       203.0004        136.0004
 11 10 11  2 18 30.0000000  0  8G05G26G07G28G08G10G15G21
 -16952402.79449 -13195401.99949  21356914.3534   21356917.3754   21356915.0274
       235.0004        193.0004
 -23352493.95349 -17366885.79349  19982132.2884   19982135.2284   19982133.0044
       242.0004        204.0004
  -6528793.86549  -4790351.71749  23529118.2614   23529121.1344   23529119.1214
       217.0004        155.0004
 -13201598.62749 -10031625.78449  21752612.6604   21752614.9634   21752612.1314
       232.0004        182.0004
 -19975120.32649 -15552279.54849  21337594.1814   21337597.7874   21337594.1564
       236.0004        190.0004
   3444762.46449   2695875.41149  25104627.0314   25104628.8554   25104624.7524
       205.0004        133.0004
 -14566649.09049 -11314906.62649  22497963.7334   22497965.8024   22497964.5864
       226.0004        173.0004
  -1705820.63049  -1319384.52649  24705724.6364   24705727.2184   24705722.5244
       197.0004        136.0004
 11 10 11  2 19  0.0000000  0  8G05G26G07G28G08G10G15G21
 -16888577.25649 -13145667.87249  21369060.5114   21369062.8324   21369060.8734
       235.0004        193.0004
 -23379887.47849 -17388231.39549  19976920.0144   19976922.4694   19976920.1594
       243.0004        204.0004
  -6431975.57349  -4714908.90749  23547542.7954   23547545.5714   23547543.8884
       218.0004        155.0004
 -13245761.91749 -10066038.71249  21744207.9284   21744209.9694   21744208.1864
       230.0004        181.0004
 -19914352.98349 -15504928.37549  21349158.3524   21349161.1454   21349158.3264
       237.0004        191.0004
   3560921.76549   2786389.19149  25126730.2054   25126731.5354   25126728.7714
       198.0004        128.0004
 -14650834.33949 -11380505.50249  22481943.9444   22481946.5664   22481944.5654
       227.0004        175.0004
  -1717816.93349  -1328732.27949  24703443.1564   24703443.1944   24703442.6104
       206.0004        135.0004
 11 10 11  2 19 30.0000000  0  8G05G26G07G28G08G10G15G21
 -16824266.38749 -13095555.56949  21381298.5244   21381300.6884   21381299.2924
       236.0004        193.0004
 -23406805.56949 -17409206.53949  19971798.0884   19971800.5594   19971798.3364
       244.0004        204.0004
  -6335036.82649  -4639372.25049  23565991.0084   23565993.3844   23565991.1974
       219.0004        155.0004
 -13289431.66849 -10100067.06249  21735898.8784   21735900.6864   21735898.2854
       233.0004        182.0004
 -19853250.42049 -15457315.99149  21360785.8674   21360787.8864   21360785.7804
       237.0004        190.0004
   3677083.87149   2876905.10449  25148833.9634   25148837.0614   25148831.4974
       201.0004        128.0004
 -14734825.21349 -11445952.92149  22465960.8444   22465962.7614   22465961.5144
       227.0004        174.0004
  -1729301.82049  -1337681.53949  24701257.2154   24701261.2104   24701256.2764
       203.0004        136.0004
 11 10 11  2 20  0.0000000  0  8G05G26G07G28G08G10G15G21
 -16759472.22749 -13045066.65449  21393628.4814   21393630.9594   21393629.5174
       235.0004        192.0004
 -23433247.16449 -17429810.39149  19966766.7634   19966768.4194   19966767.2054
       243.0004        204.0004
  -6237979.48449  -4563743.15449  23584460.8064   23584461.7254   23584461.2234
       216.0004        155.0004
 -13332606.48749 -10133709.73449  21727683.3884   21727684.7954   21727681.8064
       233.0004        181.0004
 -19791814.97249 -15409444.21649  21372476.0474   21372478.7184   21372475.8184
       237.0004        190.0004
   3793246.51049   2967421.50749  25170940.5694   25170943.4264   25170944.3224
       201.0004        129.0004
 -14818620.28949 -11511247.76149  22450015.1794   22450018.3204   22450016.4004
       226.0004        176.0004
  -1740275.91849  -1346232.81049  24699170.0504   24699170.1284   24699169.7724
       205.0004        137.0004
 11 10 11  2 20 30.0000000  0  8G05G26G07G28G08G10G15G21
 -16694196.87549 -12994202.78949  21406049.3184   21406052.9604   21406050.2444
       233.0004        192.0004
 -23459211.94849 -17450042.69449  19961824.9944   19961827.4704   19961825.5974
       243.0004        205.0004
  -6140805.16549  -4488022.92449  23602951.1204   23602954.1434   23602951.5684
       215.0004        153.0004
 -13375285.23249 -10166965.85749  21719560.5904   21719562.6764   21719560.6194
       232.0004        182.0004
 -19730048.73949 -15361314.69749  21384230.3954   21384232.8074   21384229.6964
       237.0004        191.0004
   3909407.60149   3057936.63349  25193038.0194   25193051.8344   25193040.4344
       193.0004        122.0004
 -14902218.32749 -11576389.05749  22434106.6704   22434109.0294   22434107.4124
       225.0004        176.0004
  -1750739.21349  -1354386.01949  24697179.0464   24697181.5984   24697176.6384
       203.0004        138.0004
 11 10 11  2 21  0.0000000  0  8G05G26G07G28G08G10G15G21
 -16628441.92949 -12942965.25849  21418562.5024   21418565.4404   21418562.6244
       234.0004        192.0004
 -23484698.35649 -17469902.24949  19956975.5914   19956977.7884   19956975.6844
       243.0004        204.0004
  -6043514.99249  -4412212.40349  23621464.8704   23621465.7554   23621465.5934
       215.0004        152.0004
 -13417466.33849 -10199834.19649  21711534.5774   21711536.3854   21711533.9374
       233.0004        184.0004
 -19667952.32149 -15312927.87649  21396046.6874   21396049.8184   21396046.4544
       236.0004        191.0004
   4025565.41049   3148449.16949  25215149.2824   25215148.2864   25215149.7924
       200.0004        126.0004
 -14985616.92649 -11641374.95849  22418236.4844   22418239.2594   22418237.6734
       227.0004        176.0004
  -1760690.88349  -1362140.57049  24695284.2824   24695285.9474   24695285.6754
       205.0004        136.0004
 11 10 11  2 21 30.0000000  0  8G05G26G07G28G08G10G15G21
 -16562208.77049 -12891355.11549  21431166.5024   21431169.5284   21431166.5364
       234.0004        191.0004
 -23509705.56149 -17489388.39749  19952216.8034   19952219.2124   19952216.8084
       243.0004        205.0004
  -5946110.69449  -4336312.97049  23640000.9764   23640003.7834   23640000.7914
       216.0004        153.0004
 -13459148.54249 -10232313.80549  21703601.4764   21703604.2424   21703601.9134
       233.0004        184.0004
 -19605527.69149 -15264285.30749  21407925.5604   21407928.4804   21407924.8754
       236.0004        190.0004
   4141717.69349   3238957.50249  25237252.8054   25237251.8934   25237249.0494
       195.0004        120.0004
 -15068815.40849 -11706204.92649  22402404.0564   22402407.3854   22402404.6834
       227.0004        175.0004
  -1770131.49249  -1369496.90449  24693488.6364   24693491.4194   24693488.3054
       204.0004        137.0004
 11 10 11  2 22  0.0000000  0  8G05G26G07G28G08G10G15G21
 -16495499.98749 -12839374.36549  21443860.7884   21443863.2404   21443861.6824
       234.0004        191.0004
 -23534232.95249 -17508500.66249  19947549.4104   19947551.6354   19947549.3524
       244.0004        205.0004
  -5848594.31049  -4260326.20249  23658556.8444   23658559.3574   23658557.1994
       214.0004        154.0004
 -13500331.35649 -10264404.25649  21695766.1394   21695767.2774   21695764.8664
       234.0004        183.0004
 -19542776.81149 -15215388.51749  21419866.5684   21419869.8234   21419866.3754
       237.0004        191.0004
   4257862.20949   3329459.80549  25259345.3884                   25259346.2214
       185.0004        116.0004
 -15151812.41249 -11770877.88549  22386610.6374   22386613.7394   22386611.3314
       226.0004        176.0004
  -1779060.95449  -1376454.95949  24691789.1924   24691790.0144   24691789.5864
       200.0004        136.0004
 11 10 11  2 22 30.0000000  0  8G05G26G07G28G08G10G15G21
 -16428317.92349 -12787024.79749  21456645.3034   21456647.9484   21456646.0194
       234.0004        191.0004
 -23558279.85349 -17527238.52249  19942973.2134   19942976.0974   19942973.5604
       242.0004        205.0004
  -5750967.44649  -4184253.34149  23677135.0164   23677138.0094   23677136.2904
       216.0004        155.0004
 -13541013.26949 -10296104.41649  21688023.7834   21688025.9544   21688024.5254
       234.0004        184.0004
 -19479701.65749 -15166239.05449  21431869.6254   21431872.4284   21431869.6644
       237.0004        191.0004
   4373996.28749   3419953.92749  25281453.3554
       188.0004        118.0004
 -15234606.55649 -11835392.78349  22370855.8384   22370858.1554   22370856.1344
       227.0004        176.0004
  -1787479.64149  -1383014.97049  24690187.2064   24690188.2014   24690184.9164
       204.0004        134.0004
 11 10 11  2 23  0.0000000  0  8G05G26G07G28G08G10G15G21
 -16360663.95349 -12734307.50649  21469519.5914   21469522.3624   21469520.1884
       234.0004        192.0004
 -23581844.76449 -17545600.79249  19938489.2984   19938491.5194   19938489.5534
       243.0004        205.0004
  -5653231.23649  -4108095.28849  23695733.7664   23695736.4694   23695734.5604
       215.0004        155.0004
 -13581192.66049 -10327412.99749  21680378.8964   21680380.3114   21680378.3594
       235.0004        184.0004
 -19416303.29049 -15116837.73649  21443933.8874   21443936.7164   21443934.0524
       236.0004        189.0004
   4490118.66349   3510438.86749  25303551.6984
       186.0004        115.0004
 -15317195.87949 -11899748.08049  22355139.1544   22355141.4924   22355139.7934
       229.0004        175.0004
  -1795386.92749  -1389176.50049  24688682.6064   24688684.7834   24688684.6664
       205.0004        136.0004
 11 10 11  2 23 30.0000000  0  8G05G26G07G28G08G10G15G21
 -16292539.15249 -12681223.33149  21482482.9414   21482486.4484   21482483.9244
       233.0004        191.0004
 -23604926.77849 -17563586.78349  19934096.8304   19934099.0864   19934097.3184
       242.0004        204.0004
  -5555386.84149  -4031852.90649  23714352.3894   23714354.3714   23714352.8164
       216.0004        156.0004
 -13620868.26749 -10358329.04149  21672827.0774   21672829.7104   21672828.3734
       234.0004        183.0004
 -19352583.46749 -15067185.91349  21456060.1044   21456062.1384   21456060.2354
       238.0004        190.0004
   4606227.35959     82165.49759  25325635.5564
       170.0004         82.0004
 -15399578.77349 -11963942.53049  22339461.7824   22339464.1174   22339462.0544
       226.0004        174.0004
  -1802782.50449  -1394939.29449  24687274.9424   24687276.6854   24687273.9304
       203.0004        137.0004
 11 10 11  2 24  0.0000000  0  7G05G26G07G28G08G15G21
 -16223945.90149 -12627774.08649  21495535.7824   21495539.1494   21495536.8704
       233.0004        191.0004
 -23627525.37449 -17581196.07549  19929795.9184   19929798.7744   19929796.2874
       241.0004        204.0004
  -5457436.19349  -3955527.75249  23732993.3424   23732995.4354   23732992.1364
       217.0004        157.0004
 -13660038.97749 -10388851.65049  21665374.9154   21665376.6554   21665374.0574
       235.0004        184.0004
 -19288543.65749 -15017284.74449  21468246.5164   21468248.7314   21468245.6494
       238.0004        189.0004
 -15481753.64649 -12027974.87949  22323824.6254   22323827.5004   22323824.7084
       229.0004        176.0004
  -1809667.12249  -1400303.96249  24685965.3414   24685966.2394   24685965.9594
       207.0004        138.0004
 11 10 11  2 24 30.0000000  0  7G05G26G07G28G08G15G21
 -16154887.33749 -12573962.24649  21508678.0804   21508680.3224   21508678.0644
       234.0004        191.0004
 -23649640.24949 -17598428.44549  19925587.9104   19925590.4794   19925587.8984
       242.0004        204.0004
  -5359381.51749  -3879121.55349  23751652.0494   23751653.8194   23751652.5594
       218.0004        159.0004
 -13698704.19149 -10418980.38149  21658015.8204   21658018.5284   21658016.3584
       233.0004        184.0004
 -19224186.26549 -14967136.13849  21480492.8394   21480495.7084   21480492.7524
       237.0004        189.0004
 -15563720.22549 -12091844.93749  22308227.4024   22308229.6314   22308227.7664
       229.0004        176.0004
  -1816041.36749  -1405270.91949  24684752.5354   24684753.7374   24684751.6964
       204.0004        136.0004
 11 10 11  2 25  0.0000000  0  7G05G26G07G28G08G15G21
 -16085364.18749 -12519788.37149  21521908.3204   21521910.6374   21521908.4864
       235.0004        191.0004
 -23671269.75549 -17615282.60749  19921472.2624   19921474.2834   19921472.2944
       243.0004        204.0004
  -5261223.47649  -3802634.79049  23770329.8404   23770332.6064   23770330.6554
       219.0004        158.0004
 -13736862.25449 -10448713.92649  21650755.1734   21650757.4564   21650754.4384
       235.0004        185.0004
 -19159512.47649 -14916740.98449  21492800.4534   21492802.3614   21492800.0064
       237.0004        189.0004
 -15645475.72049 -12155550.51049  22292669.3294   22292671.3074   22292669.8534
       230.0004        177.0004
  -1821904.56049  -1409839.64249  24683638.0684   24683638.3734   24683637.4734
       207.0004        137.0004
 11 10 11  2 25 30.0000000  0  7G05G26G07G28G08G15G21
 -16015379.29349 -12465254.70249  21535225.3064   21535228.0704   21535225.5244
       234.0004        192.0004
 -23692413.25249 -17631758.06849  19917447.9274   19917451.1864   19917448.4954
       242.0004        204.0004
  -5162963.90949  -3726068.91049  23789028.9944   23789031.5884   23789028.5834
       216.0004        156.0004
 -13774512.21149 -10478051.54749  21643590.4894   21643593.0084   21643590.4144
       234.0004        185.0004
 -19094524.21349 -14866100.77949  21505166.1644   21505169.3994   21505166.4544
       237.0004        188.0004
 -15727019.50949 -12219091.12449  22277152.4764   22277153.5234   22277152.6634
       230.0004        177.0004
  -1827257.19649  -1414010.57249  24682617.6894   24682615.9494   24682616.9794
       201.0004        135.0004
 11 10 11  2 26  0.0000000  0  7G05G26G07G28G08G15G21
 -15944933.51149 -12410361.90549  21548630.8884   21548632.8194   21548631.6904
       234.0004        192.0004
 -23713069.43949 -17647853.81349  19913517.9664   19913520.2274   19913518.0054
       243.0004        204.0004
  -5064603.45849  -3649424.45049  23807745.7424   23807747.7474   23807746.0564
       213.0004        154.0004
 -13811651.99949 -10506991.61649  21636523.4904   21636525.2644   21636523.0744
       236.0004        186.0004
 -19029221.94749 -14815215.89449  21517593.1104   21517596.0344   21517592.8614
       236.0004        187.0004
 -15808348.53149 -12282464.38649  22261675.4934   22261677.2774   22261676.7324
       229.0004        176.0004
  -1832098.62849  -1417783.10949  24681698.2614   24681699.1354   24681695.9024
       205.0004        135.0004
 11 10 11  2 26 30.0000000  0  7G05G26G07G28G08G15G21
 -15874029.90249 -12355112.35449  21562122.9264   21562126.3054   21562124.1114
       235.0004        192.0004
 -23733238.52549 -17663569.99349  19909679.8344   19909682.5744   19909680.3404
       243.0004        205.0004
  -4966144.80349  -3572703.41549  23826482.5164   23826484.3094   23826482.4624
       216.0004        155.0004
 -13848282.03449 -10535534.48549  21629552.9934   21629554.6964   21629552.7704
       236.0004        186.0004
 -18963608.53749 -14764088.55949  21530079.0844   21530081.7574   21530078.8224
       236.0004        186.0004
 -15889462.71749 -12345670.23649  22246240.5184   22246242.5014   22246241.0574
       230.0004        176.0004
  -1836430.02149  -1421158.16949  24680870.8164   24680872.1364   24680871.1894
       202.0004        135.0004
 11 10 11  2 27  0.0000000  0  7G05G26G07G28G08G15G21
 -15802670.82249 -12299507.88049  21575701.6584   21575705.3274   21575702.7834
       234.0004        191.0004
 -23752919.38549 -17678905.73849  19905935.1874   19905937.0424   19905935.2744
       243.0004        205.0004
  -4867589.54549  -3495907.10749  23845235.9694   23845238.8694   23845236.5634
       213.0004        154.0004
 -13884401.09749 -10563679.18849  21622679.7974   21622681.3834   21622679.2764
       236.0004        185.0004
 -18897686.17449 -14712720.49549  21542623.2134   21542626.0984   21542623.1484
       235.0004        187.0004
 -15970360.47749 -12408707.43749  22230846.0694   22230848.0804   22230846.6394
       230.0004        178.0004
  -1840251.57449  -1424135.99549  24680144.8434   24680147.1344   24680141.6404
       202.0004        134.0004
 11 10 11  2 27 30.0000000  0  7G05G26G07G28G08G15G21
 -15730857.50849 -12243549.47149  21589368.5694   21589370.9014   21589368.1354
       236.0004        191.0004
 -23772110.75449 -17693860.05049  19902282.1674   19902285.2344   19902282.4394
       242.0004        205.0004
  -4768938.24849  -3419036.01549  23864010.4204   23864011.1534   23864010.1814
       214.0004        154.0004
 -13920007.16549 -10591424.13349  21615903.8344   21615905.5484   21615903.0074
       235.0004        185.0004
 -18831455.54749 -14661112.22549  21555226.2544   21555228.7824   21555226.1004
       236.0004        186.0004
 -16051039.63149 -12471574.28349  22215492.4344   22215495.4714   22215493.7764
       229.0004        178.0004
  -1843562.81049  -1426716.20949  24679514.1404   24679516.5774   24679514.5464
       198.0004        133.0004
 11 10 11  2 28  0.0000000  0  7G05G26G07G28G08G15G21
 -15658592.09249 -12187238.78549  21603118.8944   21603122.9074   21603120.4224
       235.0004        192.0004
 -23790812.04549 -17708432.48749  19898723.4814   19898726.5694   19898724.1304
       242.0004        205.0004
  -4670192.77049  -3342091.51149  23882799.0794   23882801.2544   23882800.3014
       216.0004        153.0004
 -13955099.96749 -10618769.14749  21609226.0994   21609227.9254   21609226.1494
       236.0004        186.0004
 -18764918.53549 -14609265.20449  21567888.3314   21567890.4794   21567888.0684
       235.0004        185.0004
 -16131499.02749 -12534269.90049  22200182.5264   22200184.2384   22200182.5834
       230.0004        179.0004
  -1846364.34649  -1428899.22249  24678981.7934   24678984.2304   24678982.0444
       201.0004        134.0004
 11 10 11  2 28 30.0000000  0  7G05G26G07G28G08G15G21
 -15585877.19049 -12130577.83949  21616957.3734   21616959.9784   21616957.3664
       236.0004        191.0004
 -23809023.02849 -17722622.86249  19895258.2474   19895260.8834   19895258.4494
       241.0004        204.0004
  -4571355.16949  -3265075.21149  23901607.8334   23901609.6894   23901608.0634
       218.0004        154.0004
 -13989678.79349 -10645713.65949  21602644.8984   21602647.9124   21602645.5314
       235.0004        186.0004
 -18698077.29349 -14557181.12149  21580607.5074   21580610.8164   21580607.3574
       234.0004        185.0004
 -16211737.43349 -12596793.31049  22184913.9184   22184916.4064   22184914.1924
       229.0004        179.0004
  -1848656.60049  -1430685.43749  24678546.4774   24678548.4584   24678546.4374
       201.0004        134.0004
 11 10 11  2 29  0.0000000  0  7G05G26G07G28G08G15G21
 -15512714.39849 -12073567.89549  21630880.1674   21630882.1704   21630880.0134
       235.0004        191.0004
 -23826742.26749 -17736430.07349  19891886.6174   19891889.3014   19891886.9004
       243.0004        204.0004
  -4472426.23449  -3187987.75949  23920434.7254   23920435.0994   23920434.5234
       216.0004        153.0004
 -14023742.10949 -10672256.47649  21596164.0634   21596165.3814   21596163.9074
       236.0004        187.0004
 -18630932.75149 -14504860.72449  21593384.8824   21593387.5144   21593385.1284
       235.0004        185.0004
 -16291753.04749 -12659143.12749  22169686.9054   22169689.1414   22169687.4534
       229.0004        179.0004
  -1850439.44549  -1432074.64849  24678203.8834   24678205.4754   24678204.1594
       199.0004        132.0004
 11 10 11  2 29 30.0000000  0  7G05G26G07G28G08G15G21
 -15439106.21049 -12016210.88449  21644886.3614   21644889.1364   21644887.1124
       235.0004        190.0004
 -23843969.39649 -17749853.81049  19888608.5624   19888611.0244   19888608.6204
       241.0004        205.0004
  -4373407.48749  -3110830.30149  23939276.4424   23939277.9634   23939276.1264
       211.0004        149.0004
 -14057288.78149 -10698396.71949  21589779.5424   21589781.9674   21589779.2414
       235.0004        187.0004
 -18563487.03649 -14452305.62149  21606219.2934   21606221.9164   21606219.5714
       235.0004        185.0004
 -16371544.44349 -12721318.23549  22154503.2364   22154505.1884   22154503.8174
       227.0004        178.0004
  -1851713.58949  -1433067.49949  24677964.6134   24677966.5164   24677962.7394
       200.0004        134.0004
 11 10 11  2 30  0.0000000  0  7G05G26G07G28G08G15G21
 -15365054.23949 -11958508.06249  21658977.8234   21658980.5374   21658978.8994
       234.0004        190.0004
 -23860703.27849 -17762893.18449  19885423.5684   19885426.4544   19885423.9154
       242.0004        205.0004
  -4274300.52749  -3033604.11449  23958136.8784   23958137.0914   23958136.0854
       212.0004        145.0004
 -14090317.88749 -10724133.65349  21583494.7784   21583496.7794   21583494.5314
       235.0004        187.0004
 -18495741.61449 -14399516.97749  21619111.2604   21619113.9694   21619110.2914
       234.0004        185.0004
 -16451109.55449 -12783317.02049  22139362.8754   22139364.1894   22139363.1334
       228.0004        180.0004
  -1852478.72849  -1433663.74349  24677817.1544   24677821.0614   24677817.0354
       202.0004        135.0004
 11 10 11  2 30 30.0000000  0  7G05G26G07G28G08G15G21
 -15290561.08349 -11900461.45549  21673154.5454   21673156.9514   21673154.9874
       235.0004        191.0004
 -23876943.76249 -17775548.10349  19882332.9694   19882336.1874   19882333.5174
       243.0004        204.0004
  -4175106.99549  -2956310.44149  23977011.5304   23977014.1054   23977012.1224
       212.0004        146.0004
 -14122828.92349 -10749466.90049  21577307.0224   21577309.8974   21577307.3784
       234.0004        186.0004
 -18427698.54149 -14346496.40249  21632058.9804   21632062.2864   21632058.9554
       233.0004        185.0004
 -16530447.81249 -12845139.02749  22124264.3404   22124267.0774   22124265.3394
       228.0004        181.0004
  -1852735.92849  -1433864.18349  24677770.6114   24677771.3544   24677769.0534
       204.0004        137.0004
 11 10 11  2 31  0.0000000  0  7G05G26G07G28G08G15G21
 -15215628.47549 -11842072.42149  21687412.7014   21687415.6134   21687413.1144
       233.0004        190.0004
 -23892689.42149 -17787817.46449  19879337.8264   19879339.7124   19879337.8604
       243.0004        205.0004
  -4075827.60949  -2878949.87749  23995903.6354   23995905.3574   23995904.7434
       212.0004        146.0004
 -14154820.51549 -10774395.38749  21571220.8234   21571221.9734   21571219.7244
       236.0004        187.0004
 -18359358.52749 -14293244.44549  21645064.5144   21645066.7684   21645063.8324
       235.0004        186.0004
 -16609556.50449 -12906782.14649  22109211.8114   22109213.1794   22109211.6164
       228.0004        182.0004
  -1852484.76549  -1433668.41349  24677816.6644   24677818.7944   24677817.1334
       201.0004        136.0004
 11 10 11  2 31 30.0000000  0  7G05G26G07G28G08G15G21
 -15140259.68749 -11783343.53049  21701755.3024   21701757.9204   21701755.5774
       233.0004        189.0004
 -23907940.63349 -17799701.52949  19876434.5554   19876437.7404   19876434.8694
       242.0004        204.0004
  -3976465.21649  -2801524.63149  24014811.1494   24014814.6554   24014811.5484
       209.0004        144.0004
 -14186292.64449 -10798919.10749  21565230.5154   21565233.0024   21565230.5654
       235.0004        187.0004
 -18290724.34249 -14239763.26649  21658123.6274   21658127.1694   21658123.8224
       233.0004        184.0004
 -16688435.28649 -12968246.10649  22094200.5224   22094202.9534   22094201.6774
       229.0004        182.0004
  -1851727.24749  -1433078.20749  24677960.0804   24677964.5574   24677960.5704
       203.0004        134.0004
