     2.11           OBSERVATION DATA    G (GPS)             RINEX VERSION / TYPE
teqc  2012Jun6                          20151118 02:04:17UTCPGM / RUN BY / DATE
OSX ker:10.8.0|Core 2 Duo|gcc 4.2 -m64|OSX ker:10.8.0+|=+   COMMENT
Linux 2.4.21-27.ELsmp|Opteron|gcc -static|Linux x86_64|=+   COMMENT
HEADER CHANGED BY EPN CB ON 2011-10-15                      COMMENT
TO BE CONFORM WITH THE INFORMATION IN                       COMMENT
ftp://epncb.oma.be/pub/station/log/brus.log                 COMMENT
                                                            COMMENT
teqc  2010Oct21                         20111015 00:01:18UTCCOMMENT
teqc  2010Oct21                         20111015 00:01:03UTCCOMMENT
teqc  2010Oct21                         20111014 01:01:02UTCCOMMENT
BIT 2 OF LLI FLAGS DATA COLLECTED UNDER A/S CONDITION       COMMENT
 SNR is mapped to RINEX snr flag value [0-9]                COMMENT
  L1 & L2: min(max(int(snr_dBHz/6), 0), 9)                  COMMENT
pseudorange smoothing corrections not applied               COMMENT
COORDINATES IN ETRF2000                                     COMMENT
Forced Modulo Decimation to 30 seconds                      COMMENT
BRUS                                                        MARKER NAME
13101M004                                                   MARKER NUMBER
Carine Bruyninx     ROB                                     OBSERVER / AGENCY
RT919994505         ASHTECH Z-XII3T     1L01-1D04           REC # / TYPE / VERS
CR519994604         ASH701945B_M    NONE                    ANT # / TYPE
  4027894.0130   307045.5980  4919474.9120                  APPROX POSITION XYZ
        3.9702        0.0000        0.0000                  ANTENNA: DELTA H/E/N
     1     1                                                WAVELENGTH FACT L1/2
     7    L1    L2    C1    P2    P1    S1    S2            # / TYPES OF OBSERV
    30.0000                                                 INTERVAL
teqc windowed: start @ 2011 Oct 14 04:00:00.000             COMMENT
teqc windowed: delta = 14400.000 sec                        COMMENT
  2011    10    14     4     0    0.0000000     GPS         TIME OF FIRST OBS
                                                            END OF HEADER
 11 10 14  4  0  0.0000000  0  8G05G17G28G15G18G27G09G26
   4514605.21449   3784935.37949  25614496.9054   25614500.0094   25614498.7824
       197.0004        127.0004
  -4111471.73249  -2966505.09449  23346389.0004   23346392.4774   23346389.6654
       222.0004        164.0004
 -10820637.37749  -8412656.74949  22351001.4324   22351003.5344   22351001.6154
       232.0004        177.0004
 -22721098.24549 -17688732.04249  20385971.9744   20385974.5764   20385972.7954
       245.0004        214.0004
 -11884440.37749  -9245753.71349  22842477.0344   22842477.5804   22842476.9304
       222.0004        160.0004
 -14156234.11049 -11008473.87549  21029117.2644   21029120.5774   21029117.4764
       238.0004        196.0004
 -17699090.83549 -13745929.37749  21584521.8124   21584524.4724   21584522.0744
       235.0004        184.0004
 -15926577.05849 -11597816.08249  21247320.7484   21247322.5224   21247320.1384
       239.0004        191.0004
 11 10 14  4  0 30.0000000  0  8G05G17G28G15G18G27G09G26
   4625525.23449   3871366.54049  25635604.8964   25635610.2244   25635607.1994
       198.0004        130.0004
  -4181519.34349  -3021087.59449  23333058.0554   23333063.0584   23333059.9474
       219.0004        164.0004
 -10754623.42449  -8361217.30749  22363564.4454   22363565.8534   22363563.6334
       233.0004        176.0004
 -22721262.65949 -17688860.17749  20385942.6064   20385943.2884   20385942.8024
       247.0004        215.0004
 -11912078.62449  -9267290.00749  22837219.0984   22837217.9884   22837217.9144
       224.0004        160.0004
 -14187637.08149 -11032943.70849  21023142.1534   21023144.6724   21023141.8954
       239.0004        197.0004
 -17783132.40349 -13811416.28149  21568529.6334   21568531.7364   21568529.1564
       235.0004        184.0004
 -15843465.72049 -11533054.01249  21263133.9724   21263138.6344   21263134.6844
       237.0004        191.0004
 11 10 14  4  1  0.0000000  0  8G05G17G28G15G18G27G09G26
   4736356.00449   3957728.13649  25656695.8854   25656696.2714   25656696.3074
       197.0004        125.0004
  -4251200.39949  -3075384.47149  23319800.3454   23319801.9374   23319800.3344
       223.0004        164.0004
 -10688268.69449  -8309512.31049  22376190.6264   22376191.7404   22376190.1964
       233.0004        175.0004
 -22720911.73049 -17688586.73749  20386008.9634   20386010.4104   20386009.3844
       245.0004        215.0004
 -11939171.47049  -9288401.32749  22832062.5304   22832063.5234   22832062.6044
       223.0004        160.0004
 -14218765.75449 -11057199.81249  21017218.0574   21017220.7674   21017218.2514
       239.0004        196.0004
 -17866899.51449 -13876689.33149  21552588.5844   21552591.3094   21552588.7094
       235.0004        184.0004
 -15759962.42749 -11467986.54049  21279025.4234   21279028.5124   21279025.5014
       239.0004        190.0004
 11 10 14  4  1 30.0000000  0  8G05G17G28G15G18G27G09G26
   4847094.80749   4044018.07549  25677766.6014   25677773.1144   25677772.2474
       194.0004        125.0004
  -4320513.00749  -3129394.21949  23306608.9414   23306612.8484   23306609.8604
       220.0004        165.0004
 -10621575.56149  -8257543.63449  22388882.1464   22388883.1084   22388881.6774
       231.0004        176.0004
 -22720045.49349 -17687911.74949  20386173.3474   20386175.2464   20386173.7004
       245.0004        215.0004
 -11965718.57449  -9309087.37549  22827010.7814   22827011.4874   22827010.8924
       224.0004        159.0004
 -14249620.64649 -11081242.57949  21011346.6464   21011349.4164   21011346.3684
       239.0004        197.0004
 -17950391.23549 -13941747.80049  21536700.3354   21536703.3424   21536700.7304
       235.0004        184.0004
 -15676069.36149 -11402615.36349  21294990.0544   21294993.0104   21294990.3364
       237.0004        190.0004
 11 10 14  4  2  0.0000000  0  8G05G17G28G15G18G27G09G26
   4957739.42449   4130234.61149  25698822.0394   25698827.7374   25698822.7274
       194.0004        126.0004
  -4389454.33449  -3183114.68749  23293491.0714   23293494.0374   23293491.4824
       222.0004        165.0004
 -10554545.99049  -8205312.81649  22401636.7874   22401639.3834   22401636.9974
       232.0004        175.0004
 -22718663.52749 -17686834.90349  20386435.5554   20386438.6904   20386436.1644
       245.0004        214.0004
 -11991718.52449  -9329347.08049  22822062.8994   22822064.2944   22822062.9984
       222.0004        158.0004
 -14280201.48949 -11105071.80549  21005527.1934   21005530.1464   21005527.5644
       239.0004        197.0004
 -18033606.22749 -14006590.64249  21520864.9194   21520868.1164   21520865.4034
       235.0004        184.0004
 -15591788.25749 -11336941.79849  21311027.3204   21311030.9924   21311027.6114
       237.0004        190.0004
 11 10 14  4  2 30.0000000  0  8G05G17G28G15G18G27G09G26
   5068288.40349   4216376.59849  25719859.7194   25719867.0574   25719861.9204
       195.0004        127.0004
  -4458021.14749  -3236543.30049  23280443.1034   23280446.5764   23280443.3184
       223.0004        167.0004
 -10487181.33549  -8152820.86749  22414457.4024   22414457.9524   22414455.8504
       233.0004        176.0004
 -22716764.30249 -17685354.99549  20386797.4164   20386799.9424   20386797.6674
       244.0004        214.0004
 -12017169.76949  -9349179.21749  22817218.2074   22817221.0194   22817218.4394
       222.0004        159.0004
 -14310507.48549 -11128686.85049  20999760.4044   20999763.0874   20999760.1144
       239.0004        197.0004
 -18116542.09849 -14071215.96949  21505082.5424   21505086.0194   21505082.7494
       234.0004        184.0004
 -15507119.53949 -11270966.20349  21327140.3114   21327142.6014   21327140.2194
       240.0004        190.0004
 11 10 14  4  3  0.0000000  0  8G05G17G28G15G18G27G09G26
   5178737.86249   4302441.04449  25740876.5504   25740879.6394   25740876.9784
       191.0004        123.0004
  -4526211.71549  -3289678.72949  23267466.7114   23267468.8834   23267467.2614
       222.0004        166.0004
 -10419484.87749  -8100070.38749  22427338.1774   22427340.0114   22427338.7844
       232.0004        175.0004
 -22714349.08549 -17683473.02149  20387256.0104   20387259.4284   20387257.5504
       244.0004        215.0004
 -12042073.10649  -9368584.42849  22812480.1804   22812481.9104   22812479.6914
       222.0004        160.0004
 -14340539.81749 -11152088.66749  20994045.0984   20994048.1264   20994045.2364
       239.0004        197.0004
 -18199199.38649 -14135624.22249  21489352.6034   21489356.6294   21489353.1834
       234.0004        183.0004
 -15422066.48549 -11204691.13949  21343325.9634   21343327.8184   21343325.8814
       239.0004        190.0004
 11 10 14  4  3 30.0000000  0  8G05G17G28G15G18G27G09G26
   5289086.40849   4388426.82649  25761876.3244   25761882.5364   25761879.2024
       194.0004        127.0004
  -4594022.57649  -3342518.31549  23254561.8044   23254565.9414   23254563.4524
       221.0004        165.0004
 -10351457.89449  -8047062.35349  22440283.9544   22440284.6184   22440282.7184
       233.0004        176.0004
 -22711416.20149 -17681187.67649  20387816.3324   20387817.3434   20387816.4864
       246.0004        215.0004
 -12066427.19249  -9387561.64349  22807845.3704   22807847.5854   22807846.4584
       222.0004        160.0004
 -14370297.58149 -11175276.52349  20988381.9824   20988386.0304   20988382.1624
       238.0004        197.0004
 -18281576.00249 -14199813.78549  21473678.0944   21473680.6214   21473678.3254
       236.0004        184.0004
 -15336630.07449 -11138117.32649  21359581.8024   21359585.5854   21359582.3414
       236.0004        188.0004
 11 10 14  4  4  0.0000000  0  8G05G17G28G15G18G27G09G26
   5399331.46949   4474331.95149  25782855.0694   25782860.4934   25782853.7304
       194.0004        121.0004
  -4661451.84349  -3395060.55449  23241730.6414   23241734.6314   23241732.2714
       222.0004        164.0004
 -10283103.06349  -7993798.84149  22453291.9004   22453292.4914   22453291.2094
       233.0004        175.0004
 -22707966.06949 -17678499.27049  20388471.7994   20388473.6094   20388472.2064
       244.0004        214.0004
 -12090231.29849  -9406110.29249  22803316.1464   22803318.5114   22803315.7954
       223.0004        160.0004
 -14399781.47449 -11198250.97649  20982771.3384   20982775.0254   20982771.8134
       241.0004        197.0004
 -18363671.21249 -14263784.05149  21458054.8124   21458058.3854   21458055.1574
       234.0004        184.0004
 -15250812.41849 -11071246.46349  21375912.6474   21375916.0034   21375913.2104
       237.0004        187.0004
 11 10 14  4  4 30.0000000  0  8G05G17G28G15G18G27G09G26
   5509471.68949   4560155.34049  25803813.9734                   25803815.4614
       185.0004        119.0004
  -4728496.08349  -3447302.80349  23228974.5114   23228975.7454   23228974.1474
       225.0004        166.0004
 -10214420.97349  -7940280.33149  22466360.9444   22466362.5304   22466361.6484
       232.0004        174.0004
 -22703996.92049 -17675406.43749  20389227.3264   20389229.2164   20389227.7684
       245.0004        214.0004
 -12113483.90749  -9424229.21749  22798891.5954   22798893.7624   22798890.9304
       223.0004        162.0004
 -14428990.39049 -11221011.16549  20977213.5544   20977216.4484   20977213.5964
       241.0004        197.0004
 -18445482.70549 -14327533.25749  21442486.2404   21442490.2414   21442486.9074
       234.0004        184.0004
 -15164614.34049 -11004079.16549  21392316.5934   21392319.2164   21392317.0474
       237.0004        187.0004
 11 10 14  4  5  0.0000000  0  9G05G17G28G15G12G18G27G09G26
   5619503.81549   4645894.50549  25824753.7054                   25824753.3424
       185.0004        121.0004
  -4795153.75849  -3499243.83249  23216287.5444   23216291.4494   23216288.3814
       223.0004        167.0004
 -10145414.88349  -7886509.35049  22479493.2924   22479494.2074   22479491.9874
       233.0004        175.0004
 -22699509.11549 -17671909.45449  20390080.7414   20390083.1144   20390081.3944
       244.0004        214.0004
   -131976.54349    -79818.25249  24937394.6774
       209.0004         79.0004
 -12136185.13449  -9441918.49249  22794570.5034   22794573.2634   22794570.5844
       222.0004        161.0004
 -14457925.25449 -11243557.80549  20971707.7874   20971710.1744   20971707.7344
       242.0004        197.0004
 -18527009.89449 -14391060.91049  21426973.7074   21426976.5224   21426972.6864
       235.0004        185.0004
 -15078038.13249 -10936617.20949  21408791.8114   21408794.1854   21408791.9144
       237.0004        188.0004
 11 10 14  4  5 30.0000000  0  9G05G17G28G15G12G18G27G09G26
   5729426.20049   4731548.16949  25845671.4214                   25845670.6294
       183.0004        117.0004
  -4861421.46249  -3550880.98949  23203678.2104   23203682.2514   23203679.1084
       225.0004        167.0004
 -10076086.27749  -7832487.05949  22492685.4384   22492686.4164   22492685.3244
       232.0004        174.0004
 -22694501.99049 -17668007.80849  20391034.3644   20391036.1594   20391034.4154
       244.0004        214.0004
   -248957.77449   -170972.11849  24915131.4284
       206.0004        135.0004
 -12158333.71149  -9459177.13049  22790357.5274   22790358.3964   22790356.8954
       224.0004        161.0004
 -14486585.48049 -11265890.43649  20966253.4294   20966256.7904   20966253.7064
       241.0004        198.0004
 -18608250.99649 -14454365.65149  21411513.2474   21411515.9834   21411513.6144
       236.0004        185.0004
 -14991085.22549 -10868861.72549  21425337.0334   21425341.3574   21425337.6464
       236.0004        188.0004
 11 10 14  4  6  0.0000000  0  9G05G17G28G15G12G18G27G09G26
   5839236.95149   4817114.91949  25866567.2784
       179.0004        117.0004
  -4927296.95749  -3602212.49849  23191142.5614   23191145.7154   23191142.4154
       223.0004        167.0004
 -10006437.78849  -7778215.50549  22505937.6724   22505940.1774   22505937.7404
       230.0004        173.0004
 -22688975.34149 -17663701.32949  20392084.1334   20392087.9484   20392085.4244
       244.0004        214.0004
   -365870.05849   -262072.63849  24892879.0694   24892883.7024
       203.0004        136.0004
 -12179929.68349  -9476005.16349  22786248.1274   22786249.2614   22786246.9824
       225.0004        163.0004
 -14514971.43149 -11288009.35549  20960852.1714   20960854.8724   20960852.0794
       242.0004        198.0004
 -18689205.17949 -14517446.81449  21396108.9744   21396110.9694   21396107.9964
       235.0004        186.0004
 -14903757.76049 -10800814.38749  21441956.3484   21441959.5154   21441956.6294
       237.0004        188.0004
 11 10 14  4  6 30.0000000  0  9G05G17G28G15G12G18G27G09G26
   5948934.16659   4902593.19659  25887442.5874
       171.0004        115.0004
  -4992777.02449  -3653235.86649  23178681.8474   23178684.7544   23178682.9984
       223.0004        166.0004
  -9936470.24949  -7723695.34849  22519253.3154   22519254.9274   22519253.3134
       230.0004        173.0004
 -22682928.26249 -17658989.33049  20393236.6324   20393238.6654   20393236.7204
       244.0004        214.0004
   -482710.92849   -353117.41949  24870644.9294   24870650.7214   24870647.2124
       204.0004        138.0004
 -12200971.61849  -9492401.48449  22782243.2554   22782244.9394   22782243.3464
       222.0004        162.0004
 -14543082.24549 -11309913.87649  20955502.8254   20955505.9964   20955503.0824
       242.0004        199.0004
 -18769870.13749 -14580302.61149  21380758.3734   21380761.1524   21380758.5234
       235.0004        186.0004
 -14816056.69049 -10732475.91249  21458645.3214   21458648.6894   21458645.2604
       237.0004        187.0004
 11 10 14  4  7  0.0000000  0  9G05G17G28G15G12G18G27G09G26
   6058515.33659     14964.26559  25908297.5604
       165.0004         74.0004
  -5057860.27849  -3703950.02549  23166296.5784   23166299.7254   23166296.6454
       223.0004        165.0004
  -9866186.92349  -7668929.12049  22532628.7864   22532628.5114   22532627.8974
       232.0004        175.0004
 -22676361.27649 -17653872.19449  20394485.6014   20394488.2774   20394486.5024
       245.0004        214.0004
   -599479.13549   -444105.64949  24848430.0844   24848430.5614   24848429.7164
       206.0004        137.0004
 -12221459.49549  -9508366.05149  22778345.2934   22778346.7004   22778344.6194
       226.0004        163.0004
 -14570918.82949 -11331604.70849  20950205.6934   20950208.4474   20950205.6134
       241.0004        199.0004
 -18850245.93549 -14642933.07249  21365463.2784   21365466.6564   21365463.2164
       236.0004        187.0004
 -14727984.68649 -10663848.39649  21475403.5604   21475407.8854   21475404.6144
       234.0004        186.0004
 11 10 14  4  7 30.0000000  0  8G17G28G15G12G18G27G09G26
  -5122543.05749  -3754352.14649  23153987.9514   23153991.1044   23153988.6334
       224.0004        166.0004
  -9795588.90249  -7613917.66749  22546062.3244   22546062.8884   22546061.8054
       232.0004        174.0004
 -22669273.10549 -17648348.96049  20395836.3314   20395837.1164   20395836.1384
       245.0004        214.0004
   -716171.63349   -535034.86649  24826223.8484   24826225.1424   24826221.4954
       208.0004        139.0004
 -12241392.10349  -9523897.96249  22774552.7704   22774554.9264   22774551.8924
       225.0004        163.0004
 -14598480.09849 -11353081.01949  20944960.7734   20944964.0144   20944960.6094
       242.0004        198.0004
 -18930330.55649 -14705336.66049  21350224.1974   21350227.1264   21350224.0784
       237.0004        188.0004
 -14639542.44849 -10594932.39349  21492233.5514   21492238.1354   21492234.4404
       235.0004        186.0004
 11 10 14  4  8  0.0000000  0  8G17G28G15G12G18G27G09G26
  -5186823.70649  -3804440.90949  23141756.6364   23141758.4854   23141756.5834
       224.0004        165.0004
  -9724679.07249  -7558663.24549  22559556.3164   22559557.2394   22559555.7644
       231.0004        173.0004
 -22661664.29349 -17642420.01049  20397281.7874   20397284.6244   20397282.6354
       244.0004        213.0004
   -832787.44149   -625904.26949  24804033.5024   24804032.2004   24804030.7744
       210.0004        140.0004
 -12260769.56949  -9538997.28849  22770864.6624   22770865.7924   22770864.0754
       224.0004        163.0004
 -14625766.74649 -11374343.33349  20939768.2104   20939771.5804   20939768.5334
       241.0004        199.0004
 -19010123.21449 -14767512.73149  21335039.6304   21335042.7164   21335039.1954
       235.0004        188.0004
 -14550732.78049 -10525730.09049  21509135.2834   21509137.5944   21509134.5604
       235.0004        185.0004
 11 10 14  4  8 30.0000000  0  8G17G28G15G12G18G27G09G26
  -5250699.53449  -3854214.23949  23129600.3574   23129604.8464   23129600.7794
       224.0004        167.0004
  -9653459.19049  -7503167.22849  22573108.2274   22573110.1784   22573107.9334
       230.0004        173.0004
 -22653534.09449 -17636084.80349  20398830.2774   20398831.9664   20398830.0794
       244.0004        213.0004
   -949324.33549   -716712.21149  24781853.5834   24781856.0994   24781852.5154
       205.0004        138.0004
 -12279591.05249  -9553663.39149  22767282.1094   22767284.4884   22767283.8294
       223.0004        164.0004
 -14652778.71649 -11395391.62449  20934628.3814   20934631.4354   20934628.4414
       242.0004        199.0004
 -19089622.50049 -14829460.21549  21319910.6074   21319914.1594   21319911.9884
       235.0004        188.0004
 -14461557.04049 -10456242.53749  21526103.1764   21526107.8214   21526103.5304
       234.0004        185.0004
 11 10 14  4  9  0.0000000  0  8G17G28G15G12G18G27G09G26
  -5314167.44749  -3903669.71649  23117522.7074   23117525.1644   23117523.3484
       222.0004        165.0004
  -9581931.20349  -7447431.15049  22586720.6484   22586721.3834   22586720.3474
       232.0004        174.0004
 -22644881.80349 -17629342.75649  20400475.3034   20400478.4804   20400476.0764
       244.0004        212.0004
  -1065780.02249   -807456.93149  24759690.5394   24759697.8964   24759693.5364
       204.0004        140.0004
 -12297855.58349  -9567895.49349  22763806.4014   22763808.8804   22763806.0114
       223.0004        161.0004
 -14679515.33449 -11416225.34849  20929540.3364   20929543.6654   20929540.3294
       242.0004        199.0004
 -19168826.48049 -14891177.59349  21304839.7374   21304841.9904   21304839.8814
       235.0004        189.0004
 -14372016.56749 -10386470.77949  21543141.6694   21543146.4064   21543142.7884
       234.0004        185.0004
 11 10 14  4  9 30.0000000  0  8G17G28G15G12G18G27G09G26
  -5377225.39949  -3952805.72949  23105523.6384   23105525.8424   23105524.1044
       224.0004        166.0004
  -9510096.96349  -7391456.40349  22600389.5184   22600390.8164   22600389.3414
       231.0004        172.0004
 -22635707.29349 -17622193.79449  20402222.7144   20402224.4744   20402222.6084
       244.0004        213.0004
  -1182152.44649   -898136.73549  24737546.3784   24737551.6024   24737548.3434
       202.0004        139.0004
 -12315562.66849  -9581693.22149  22760438.8184   22760439.2224   22760437.8914
       226.0004        162.0004
 -14705976.65549 -11436844.55749  20924504.7774   20924508.1174   20924505.0514
       241.0004        199.0004
 -19247734.14949 -14952664.06049  21289823.9964   21289826.6734   21289823.9474
       237.0004        189.0004
 -14282113.16649 -10316416.22249  21560251.8794   21560254.6314   21560252.3084
       236.0004        186.0004
 11 10 14  4 10  0.0000000  0  8G17G28G15G12G18G27G09G26
  -5439871.06949  -4001620.48349  23093603.1604   23093605.3224   23093603.5104
       225.0004        168.0004
  -9437958.75749  -7335244.81549  22614116.2574   22614117.9584   22614117.0314
       230.0004        173.0004
 -22626010.51049 -17614637.85949  20404067.9214   20404069.5314   20404068.4204
       246.0004        214.0004
  -1298440.22949   -988750.55449  24715418.5984   24715423.5464   24715417.7334
       205.0004        138.0004
 -12332712.20349  -9595056.49449  22757174.1324   22757175.9704   22757174.5254
       224.0004        163.0004
 -14732163.04749 -11457249.52649  20919522.0204   20919524.8594   20919522.0664
       242.0004        199.0004
 -19326344.62849 -15013918.95249  21274864.1964   21274867.8884   21274864.6974
       236.0004        189.0004
 -14191849.11549 -10246080.64449  21577428.4084   21577431.2974   21577428.7264
       236.0004        185.0004
 11 10 14  4 10 30.0000000  0  8G17G28G15G12G18G27G09G26
  -5502102.10849  -4050112.16149  23081759.3244   23081763.6294   23081761.1014
       224.0004        169.0004
  -9365518.99049  -7278798.25049  22627901.8844   22627903.4014   22627901.5854
       230.0004        171.0004
 -22615791.35549 -17606674.89349  20406013.3474   20406014.5054   20406012.9954
       245.0004        214.0004
  -1414641.25849  -1079296.77249  24693311.9114   24693311.6614   24693308.5384
       210.0004        139.0004
 -12349304.17349  -9607985.31049  22754016.4624   22754017.4734   22754016.4584
       224.0004        162.0004
 -14758074.68049 -11477440.39749  20914590.7624   20914593.9834   20914590.6024
       241.0004        199.0004
 -19404656.50649 -15074941.18649  21259962.1464   21259965.4464   21259962.4394
       235.0004        189.0004
 -14101226.31149 -10175465.50649  21594672.0954   21594676.2034   21594672.7714
       236.0004        184.0004
 11 10 14  4 11  0.0000000  0  8G17G28G15G12G18G27G09G26
  -5563915.38249  -4098278.31149  23069998.9104   23070000.5844   23069998.3544
       225.0004        170.0004
  -9292778.89549  -7222117.65649  22641743.8674   22641744.9764   22641744.7944
       230.0004        171.0004
 -22605049.11449 -17598304.31549  20408056.2024   20408058.7964   20408057.2414
       245.0004        214.0004
  -1530752.93249  -1169773.39849  24671213.3904   24671215.6184   24671209.4884
       207.0004        136.0004
 -12365337.22849  -9620478.59449  22750964.0994   22750966.4504   22750964.3414
       223.0004        162.0004
 -14783710.77749 -11497416.56749  20909712.7124   20909715.7614   20909712.8394
       241.0004        199.0004
 -19482668.16949 -15135729.46949  21245116.6514   21245120.7834   21245117.1304
       236.0004        190.0004
 -14010245.53249 -10104571.41749  21611986.7204   21611989.4544   21611986.3684
       236.0004        184.0004
 11 10 14  4 11 30.0000000  0  8G17G28G15G12G18G27G09G26
  -5625308.61049  -4146117.14549  23058314.9924   23058317.6534   23058315.3844
       225.0004        169.0004
  -9219740.61549  -7165204.70649  22655642.1664   22655642.7824   22655641.8094
       229.0004        170.0004
 -22593783.50949 -17589525.92349  20410199.3574   20410201.9734   20410200.0484
       243.0004        213.0004
  -1646773.59049  -1260179.12549  24649130.4134   24649135.6654   24649132.4964
       201.0004        137.0004
 -12380810.90649  -9632536.00849  22748021.2734   22748022.2694   22748020.5834
       225.0004        161.0004
 -14809071.55449 -11517178.19749  20904887.2564   20904889.3694   20904886.7124
       241.0004        198.0004
 -19560378.47249 -15196282.94349  21230329.1174   21230332.6934   21230329.8914
       237.0004        189.0004
 -13918909.04149 -10033400.14049  21629366.0824   21629369.5034   21629366.6204
       234.0004        185.0004
 11 10 14  4 12  0.0000000  0  8G17G28G15G12G18G27G09G26
  -5686279.69449  -4193627.01149  23046712.1704   23046714.3854   23046712.1324
       225.0004        169.0004
  -9146406.47849  -7108061.21249  22669597.9594   22669598.1254   22669597.0714
       229.0004        170.0004
 -22581994.59849 -17580339.76149  20412442.8894   20412445.4884   20412443.4274
       243.0004        212.0004
  -1762701.14549  -1350512.24049  24627070.0014   24627077.6284   24627073.7884
       198.0004        140.0004
 -12395725.44049  -9644157.73349  22745182.6224   22745184.3044   22745182.1274
       222.0004        162.0004
 -14834157.12649 -11536725.39349  20900112.6084   20900115.8324   20900113.0084
       241.0004        199.0004
 -19637786.19349 -15256600.62449  21215600.6364   21215602.7924   21215599.2144
       239.0004        190.0004
 -13827218.80949  -9961953.23849  21646814.4104   21646817.7334   21646814.9104
       234.0004        184.0004
 11 10 14  4 12 30.0000000  0  9G22G17G28G15G12G18G27G09G26
   -217484.03949   -156960.28249  24661769.7424   24661772.6934
       208.0004        141.0004
  -5746825.84749  -4240805.78049  23035190.3794   23035194.0674   23035191.4764
       227.0004        171.0004
  -9072778.71549  -7050688.94049  22683607.3254   22683609.6484   22683607.1924
       227.0004        168.0004
 -22569682.04549 -17570745.56849  20414785.8674   20414788.7034   20414786.6154
       244.0004        212.0004
  -1878533.87949  -1440771.50749  24605030.8034   24605034.3094   24605033.2694
       205.0004        138.0004
 -12410079.83849  -9655342.98949  22742451.6544   22742452.5394   22742451.0714
       224.0004        160.0004
 -14858967.19249 -11556057.90249  20895391.7374   20895394.8354   20895391.8584
       241.0004        199.0004
 -19714889.75549 -15316681.31049  21200927.1504   21200930.4804   21200927.1864
       237.0004        190.0004
 -13735176.49149  -9890231.97649  21664329.2584   21664333.8084   21664330.2434
       235.0004        184.0004
 11 10 14  4 13  0.0000000  0  9G22G17G28G15G12G18G27G09G26
   -286765.50049   -210945.85049  24648587.2634   24648587.7504   24648587.6934
       210.0004        142.0004
  -5806945.39349  -4287652.13849  23023751.2814   23023753.8654   23023751.5744
       226.0004        171.0004
  -8998859.43649  -6993089.50649  22697673.4074   22697676.0684   22697674.1834
       227.0004        168.0004
 -22556846.15449 -17560743.58649  20417230.4654   20417231.0254   20417229.8154
       246.0004        213.0004
  -1994270.24949  -1530955.75449  24583012.6474   24583008.2184   24583010.4724
       208.0004        135.0004
 -12423874.75949  -9666092.28249  22739826.4354   22739827.5694   22739826.0984
       225.0004        162.0004
 -14883502.09349 -11575176.00049  20890722.7064   20890726.2394   20890723.0484
       241.0004        199.0004
 -19791688.56449 -15376524.52349  21186313.2624   21186315.6214   21186312.5704
       238.0004        190.0004
 -13642784.50149  -9818238.24149  21681912.6854   21681914.5524   21681911.7284
       236.0004        184.0004
 11 10 14  4 13 30.0000000  0  9G22G17G28G15G12G18G27G09G26
   -355646.13449   -264619.08849  24635479.8034   24635478.7674   24635478.9214
       210.0004        142.0004
  -5866635.12549  -4334163.57649  23012391.2504   23012394.9554   23012392.0054
       224.0004        170.0004
  -8924649.96749  -6935263.96449  22711796.1294   22711798.7124   22711795.6884
       229.0004        169.0004
 -22543486.20049 -17550333.23749  20419771.1394   20419773.3834   20419771.6594
       244.0004        213.0004
  -2109907.44749  -1621062.58549  24561007.2074   24561005.2564   24561003.1684
       209.0004        137.0004
 -12437108.31849  -9676404.14149  22737308.3494   22737309.6994   22737306.2094
       225.0004        162.0004
 -14907761.23149 -11594079.20949  20886106.4364   20886109.9234   20886106.3734
       241.0004        199.0004
 -19868180.75049 -15436128.80949  21171757.3064   21171759.7444   21171756.7874
       239.0004        190.0004
 -13550043.70549  -9745972.69649  21699557.9994   21699562.8844   21699559.1844
       233.0004        184.0004
 11 10 14  4 14  0.0000000  0  9G22G17G28G15G12G18G27G09G26
   -424123.79549   -317978.31949  24622448.8284   24622448.4924   24622447.1774
       209.0004        144.0004
  -5925892.81249  -4380338.34049  23001115.0974   23001117.9804   23001116.2774
       226.0004        171.0004
  -8850152.76749  -6877214.18649  22725972.8574   22725974.5224   22725971.5494
       228.0004        168.0004
 -22529601.88849 -17539514.30049  20422413.5894   20422415.5024   20422414.2234
       245.0004        213.0004
  -2225443.77249  -1711090.84949  24539017.0724   24539020.4964   24539016.5414
       210.0004        145.0004
 -12449781.09449  -9686279.03749  22734897.4834   22734898.1784   22734896.1304
       224.0004        162.0004
 -14931744.69249 -11612767.61949  20881542.6354   20881545.7184   20881542.4054
       241.0004        198.0004
 -19944365.14149 -15495493.24949  21157260.0994   21157262.3224   21157259.1114
       239.0004        191.0004
 -13456956.34449  -9673437.11149  21717274.0944   21717276.6954   21717274.2624
       237.0004        184.0004
 11 10 14  4 14 30.0000000  0  9G22G17G28G15G12G18G27G09G26
   -492196.65749   -371022.10849  24609495.6954   24609496.0374   24609494.4434
       213.0004        144.0004
  -5984716.22749  -4426174.70749  22989921.7764   22989925.3814   22989922.1194
       225.0004        171.0004
  -8775369.87249  -6818941.81349  22740203.8364   22740204.4594   22740202.6064
       228.0004        169.0004
 -22515193.35449 -17528286.87649  20425155.2414   20425157.8024   20425155.6944
       244.0004        213.0004
  -2340877.29449  -1801039.03949  24517046.4574   24517051.8984   24517048.9674
       199.0004        136.0004
 -12461892.80849  -9695716.73649  22732590.7134   22732593.3254   22732590.7054
       223.0004        163.0004
 -14955452.57149 -11631241.29149  20877030.8854   20877034.3214   20877031.5004
       241.0004        199.0004
 -20020240.21249 -15554616.67149  21142820.1094   21142823.6044   21142820.8844
       238.0004        192.0004
 -13363524.24949  -9600632.91449  21735053.7484   21735056.5894   21735054.1374
       235.0004        183.0004
 11 10 14  4 15  0.0000000  0  9G22G17G28G15G12G18G27G09G26
   -559862.34949   -423748.63449  24596617.6814   24596620.0564   24596617.3834
       214.0004        145.0004
  -6043103.06449  -4471670.89249  22978810.5164   22978813.4084   22978811.3364
       224.0004        170.0004
  -8700303.33449  -6760448.40049  22754487.8624   22754489.0344   22754488.0404
       229.0004        170.0004
 -22500260.50049 -17516650.89549  20427997.8114   20427999.2894   20427997.9014
       244.0004        213.0004
  -2456205.99949  -1890905.57249  24495102.3824   24495106.4724   24495103.9644
       203.0004        137.0004
 -12473442.82649  -9704716.75549  22730394.8724   22730395.8834   22730394.0524
       225.0004        161.0004
 -14978884.89049 -11649500.24049  20872572.3594   20872575.1864   20872572.3954
       242.0004        199.0004
 -20095804.93849 -15613498.26749  21128441.5314   21128444.5414   21128441.3564
       239.0004        191.0004
 -13269749.22649  -9527561.47749  21752897.1594   21752901.8364   21752897.9824
       233.0004        182.0004
 11 10 14  4 15 30.0000000  0  9G22G17G28G15G12G18G27G09G26
   -627118.38649   -476155.93849  24583819.8234   24583819.9044   24583818.5394
       209.0004        147.0004
  -6101050.61749  -4516824.78149  22967784.8054   22967785.9774   22967783.7254
       227.0004        171.0004
  -8624954.91549  -6701735.34549  22768825.5594   22768827.7274   22768826.0714
       228.0004        170.0004
 -22484802.84749 -17504605.96949  20430937.2874   20430940.7654   20430938.0734
       243.0004        212.0004
  -2571427.62249  -1980688.65749  24473178.2284   24473181.6414   24473178.7444
       212.0004        145.0004
 -12484430.53549  -9713278.60549  22728303.7364   22728305.0414   22728303.5274
       225.0004        162.0004
 -15002040.92449 -11667543.90249  20868165.7284   20868168.6624   20868166.0134
       242.0004        200.0004
 -20171057.46849 -15672136.58749  21114122.1164   21114123.8244   21114121.3624
       240.0004        191.0004
 -13175632.54149  -9454223.83049  21770806.6174   21770811.8124   21770807.9804
       232.0004        182.0004
 11 10 14  4 16  0.0000000  0  9G22G17G28G15G12G18G27G09G26
   -693963.35649   -528242.94849  24571101.6004   24571100.0034   24571099.5494
       212.0004        148.0004
  -6158556.91349  -4561634.84149  22956840.7104   22956844.2704   22956841.0844
       227.0004        173.0004
  -8549327.11249  -6642804.60449  22783217.9744   22783219.4914   22783217.5454
       229.0004        169.0004
 -22468820.70249 -17492152.36649  20433980.0204   20433982.0194   20433980.3174
       244.0004        212.0004
  -2686540.77949  -2070387.20349  24451272.2284   24451275.2464   24451271.6114
       204.0004        142.0004
 -12494856.52349  -9721402.77749  22726318.5984   22726319.3324   22726318.4864
       224.0004        161.0004
 -15024921.16549 -11685372.66049  20863811.7514   20863814.6384   20863811.6114
       242.0004        199.0004
 -20245997.19549 -15730531.17149  21099860.1144   21099863.7704   21099860.4714
       238.0004        192.0004
 -13081176.76049  -9380621.96849  21788782.4694   21788785.4304   21788782.2574
       233.0004        181.0004
 11 10 14  4 16 30.0000000  0  9G22G17G28G15G12G18G27G09G26
   -760395.71249   -580008.43949  24558458.3404   24558458.5074   24558458.4234
       211.0004        146.0004
  -6215620.37349  -4606099.83249  22945981.7254   22945984.4624   22945982.4224
       228.0004        173.0004
  -8473422.20449  -6583657.90849  22797662.3724   22797663.2364   22797662.0884
       229.0004        169.0004
 -22452314.77749 -17479290.60449  20437119.4724   20437122.9334   20437120.2474
       243.0004        212.0004
  -2801543.59249  -2159999.67049  24429390.0494   24429391.2134   24429388.2574
       210.0004        142.0004
 -12504720.74149  -9729089.18149  22724442.0754   22724444.8804   22724441.4974
       225.0004        162.0004
 -15047525.93649 -11702986.76049  20859510.0444   20859513.0394   20859510.3434
       241.0004        200.0004
 -20320623.30349 -15788681.37349  21085659.9564   21085662.7994   21085659.7934
       239.0004        192.0004
 -12986383.95249  -9306757.47649  21806820.6334   21806823.7734   21806820.4834
       232.0004        180.0004
 11 10 14  4 17  0.0000000  0  9G22G17G28G15G12G18G27G09G26
   -826412.24449   -631449.89649  24545895.1604   24545896.0344   24545894.7404
       211.0004        146.0004
  -6272237.29749  -4650216.87949  22935208.1364   22935210.5764   22935207.6674
       226.0004        174.0004
  -8397240.77849  -6524295.74549  22812160.2284   22812159.7184   22812159.2004
       230.0004        169.0004
 -22435283.31349 -17466019.35049  20440362.2184   20440364.0424   20440362.3054
       244.0004        212.0004
  -2916433.00349  -2249523.96149  24407525.0014   24407527.5504   24407526.6664
       211.0004        141.0004
 -12514021.95049  -9736336.87949  22722672.3534   22722673.2264   22722671.6454
       226.0004        162.0004
 -15069854.08949 -11720385.30149  20855262.6844   20855264.4094   20855261.6544
       244.0004        200.0004
 -20394933.30549 -15846585.25049  21071519.1854   21071522.5654   21071518.6354
       239.0004        192.0004
 -12891255.17949  -9232631.18749  21824922.5194   21824926.8564   21824922.6104
       232.0004        180.0004
 11 10 14  4 17 30.0000000  0  9G22G17G28G15G12G18G27G09G26
   -892011.14349   -682565.93549  24533412.8894   24533412.9564   24533412.6324
       210.0004        147.0004
  -6328406.00349  -4693984.69549  22924519.0084   22924522.5394   22924519.2734
       225.0004        171.0004
  -8320786.21449  -6464720.76049  22826708.0734   22826709.5334   22826706.7374
       227.0004        167.0004
 -22417727.23949 -17452339.29549  20443702.0084   20443704.9094   20443702.7914
       244.0004        212.0004
  -3031208.32749  -2338959.31949  24385684.5264   24385687.5454   24385684.4104
       203.0004        143.0004
 -12522760.53049  -9743146.18549  22721009.3984   22721011.3064   22721008.9744
       224.0004        163.0004
 -15091906.37149 -11737568.89249  20851064.6254   20851067.9204   20851064.8884
       242.0004        200.0004
 -20468926.55549 -15904242.31749  21057438.1834   21057441.4834   21057438.2674
       238.0004        193.0004
 -12795792.62649  -9158244.81249  21843089.7064   21843092.0234   21843089.3314
       233.0004        180.0004
 11 10 14  4 18  0.0000000  0  9G22G17G28G15G12G18G27G09G26
   -957190.59149   -733355.14049  24521010.4324   24521009.6424   24521008.2284
       210.0004        146.0004
  -6384123.89349  -4737401.21149  22913916.6374   22913919.5474   22913916.7094
       225.0004        171.0004
  -8244060.19849  -6404934.26649  22841307.4324   22841309.1414   22841308.1114
       227.0004        168.0004
 -22399645.95649 -17438250.00049  20447144.7744   20447145.3894   20447144.6894
       245.0004        212.0004
  -3145866.73549  -2428303.38049  24363866.1984   24363869.9044   24363866.1554
       215.0004        148.0004
 -12530936.12249  -9749516.78149  22719453.2944   22719455.2234   22719452.8254
       224.0004        162.0004
 -15113682.16549 -11754537.03049  20846920.6254   20846924.2284   20846920.8614
       241.0004        200.0004
 -20542601.18749 -15961651.11649  21043418.1474   21043421.7724   21043418.4944
       237.0004        193.0004
 -12699997.98849  -9083599.68249  21861318.5204   21861321.5954   21861319.3784
       233.0004        179.0004
 11 10 14  4 18 30.0000000  0  9G22G17G28G15G12G18G27G09G26
  -1021948.92449   -783816.16249  24508687.1674   24508686.5204   24508684.8264
       210.0004        144.0004
  -6439389.24749  -4780465.10349  22903399.8054   22903403.4464   22903400.4964
       228.0004        172.0004
  -8167064.91749  -6344937.93349  22855959.3974   22855961.0374   22855958.5484
       228.0004        169.0004
 -22381040.09149 -17423751.91749  20450683.2184   20450685.9904   20450684.0584
       243.0004        212.0004
  -3260406.46649  -2517555.12249  24342072.1304   24342073.3044   24342070.0774
       214.0004        145.0004
 -12538548.99249  -9755448.88749  22718003.3684   22718005.8494   22718005.6924
       224.0004        164.0004
 -15135181.85949 -11771290.02649  20842829.3694   20842832.7094   20842829.7754
       241.0004        200.0004
 -20615956.26949 -16018810.90449  21029460.4304   21029462.4854   21029460.0064
       240.0004        193.0004
 -12603873.45949  -9008697.47549  21879609.3744   21879613.1774   21879609.8084
       231.0004        179.0004
 11 10 14  4 19  0.0000000  0  9G22G17G28G15G12G18G27G09G26
  -1086284.16649   -833947.50049  24496444.0234   24496443.6864   24496443.5484
       210.0004        143.0004
  -6494199.83349  -4823174.63849  22892969.9484   22892971.9954   22892970.6024
       227.0004        172.0004
  -8089802.47849  -6284733.43949  22870662.5344   22870663.4424   22870661.8524
       227.0004        167.0004
 -22361909.97349 -17408845.33749  20454323.8534   20454326.3074   20454324.0864
       243.0004        211.0004
  -3374826.00549  -2606713.26449  24320295.2144   24320299.3094   24320294.6404
       208.0004        142.0004
 -12545599.39849  -9760942.72949  22716663.1844   22716664.1184   22716663.6134
       224.0004        164.0004
 -15156405.59249 -11787827.98349  20838790.8604   20838793.9924   20838790.7534
       242.0004        200.0004
 -20688991.28449 -16075721.28649  21015562.1974   21015564.3154   21015561.4374
       239.0004        193.0004
 -12507421.04149  -8933539.76149  21897963.0024   21897967.2964   21897963.7314
       231.0004        180.0004
 11 10 14  4 19 30.0000000  0  9G22G17G28G15G12G18G27G09G26
  -1150193.75749   -883747.20049  24484284.9824   24484281.8864   24484282.9264
       209.0004        143.0004
  -6548553.14649  -4865527.83749  22882626.5864   22882630.3124   22882626.7374
       226.0004        171.0004
  -8012274.45949  -6224322.00849  22885415.9754   22885416.9864   22885415.9974
       226.0004        168.0004
 -22342255.00549 -17393529.78949  20458064.0564   20458066.9304   20458064.6344
       244.0004        211.0004
  -3489122.69549  -2695775.54749  24298545.6644   24298550.6404   24298547.6374
       212.0004        149.0004
 -12552086.31749  -9765997.47949  22715429.3214   22715430.1384   22715427.5604
       225.0004        163.0004
 -15177352.73749 -11804150.42849  20834804.8574   20834807.7954   20834805.4544
       243.0004        201.0004
 -20761704.32349 -16132380.79049  21001724.8104   21001727.6074   21001725.0744
       239.0004        194.0004
 -12410642.16549  -8858127.68349  21916381.1434   21916383.5434   21916381.2104
       232.0004        178.0004
 11 10 14  4 20  0.0000000  0  9G22G17G28G15G12G18G27G09G26
  -1213676.05249   -933213.92349  24472202.5814   24472201.6604   24472201.7584
       208.0004        142.0004
  -6602447.06149  -4907523.07049  22872370.5134   22872374.0244   22872371.8954
       226.0004        173.0004
  -7934483.35649  -6163705.56049  22900219.0884   22900219.7354   22900218.7264
       228.0004        167.0004
 -22322075.25649 -17377805.32049  20461904.6004   20461906.7854   20461904.8894
       242.0004        211.0004
  -3603295.03249  -2784740.99649  24276820.2964   24276824.4494   24276821.9434
       211.0004        150.0004
 -12558010.27049  -9770613.55249  22714301.3574   22714302.1984   22714299.4864
       225.0004        162.0004
 -15198023.47149 -11820257.48449  20830872.2324   20830874.4324   20830871.6184
       243.0004        201.0004
 -20834093.86749 -16188788.21249  20987950.4464   20987952.3914   20987949.4164
       240.0004        194.0004
 -12313538.76649  -8782462.71949  21934857.9584   21934862.0044   21934858.7964
       230.0004        178.0004
 11 10 14  4 20 30.0000000  0  9G22G17G28G15G12G18G27G09G26
  -1276728.52349   -982345.70549  24460202.0844   24460203.7654   24460201.9784
       206.0004        142.0004
  -6655879.04549  -4949158.36449  22862203.5594   22862205.4584   22862203.0174
       226.0004        171.0004
  -7856430.53949  -6102885.17449  22915072.3064   22915072.3584   22915071.4354
       228.0004        167.0004
 -22301370.37949 -17361671.65249  20465843.1974   20465846.8604   20465844.2834
       243.0004        211.0004
  -3717340.83849  -2873607.84449  24255116.5504   24255118.8944   24255116.9934
       205.0004        142.0004
 -12563370.71649  -9774790.52549  22713281.7164   22713282.6744   22713280.6554
       225.0004        163.0004
 -15218417.40349 -11836148.85749  20826990.2774   20826993.3664   20826990.4944
       242.0004        201.0004
 -20906158.47549 -16244942.44249  20974236.2544   20974238.7424   20974235.5154
       240.0004        194.0004
 -12216112.54549  -8706546.21349  21953397.8284   21953401.6464   21953398.1084
       231.0004        178.0004
 11 10 14  4 21  0.0000000  0  9G22G17G28G15G12G18G27G09G26
  -1339349.64549  -1031141.38249  24448286.8914   24448288.5074   24448286.0674
       204.0004        141.0004
  -6708847.38549  -4990432.36649  22852123.3754   22852126.6294   22852123.2604
       226.0004        171.0004
  -7778118.97949  -6041863.17849  22929973.4344   22929975.5714   22929972.7074
       227.0004        167.0004
 -22280141.25249 -17345129.49449  20469885.3334   20469886.5294   20469885.0744
       244.0004        211.0004
  -3831258.39449  -2962374.74349  24233441.2764   24233442.7034   24233439.7124
       212.0004        142.0004
 -12568167.97149  -9778528.65349  22712367.8844   22712369.0974   22712367.9544
       223.0004        161.0004
 -15238534.90449 -11851824.82649  20823161.9864   20823165.1654   20823162.0334
       242.0004        201.0004
 -20977897.20249 -16300842.74049  20960584.6064   20960587.5314   20960584.2034
       240.0004        194.0004
 -12118365.68249  -8630379.86449  21971998.9424   21972002.2524   21971999.3704
       231.0004        178.0004
 11 10 14  4 21 30.0000000  0  9G22G17G28G15G12G18G27G09G26
  -1401537.48849  -1079599.43949  24436452.2604   24436453.5864   24436452.4264
       205.0004        139.0004
  -6761349.55449  -5031343.10849  22842132.5874   22842135.8314   22842133.7234
       226.0004        173.0004
  -7699549.70749  -5980640.38049  22944925.0684   22944926.8684   22944924.9934
       227.0004        166.0004
 -22258387.67349 -17328178.65349  20474022.6114   20474026.4034   20474023.8064
       243.0004        211.0004
  -3945045.44449  -3051040.01149  24211784.4644   24211790.6474   24211785.3084
       204.0004        149.0004
 -12572401.86049  -9781827.78949  22711562.6294   22711563.8594   22711564.2274
       225.0004        162.0004
 -15258375.55649 -11867285.07249  20819386.9424   20819389.5984   20819386.9344
       243.0004        201.0004
 -21049308.53649 -16356487.92449  20946994.5004   20946998.2434   20946995.0964
       240.0004        194.0004
 -12020299.91049  -8553965.00849  21990660.9604   21990663.9674   21990660.7474
       232.0004        178.0004
 11 10 14  4 22  0.0000000  0  9G22G17G28G15G12G18G27G09G26
  -1463290.17449  -1127718.43449  24424700.6714   24424701.4994   24424701.3884
       206.0004        139.0004
  -6813383.60949  -5071889.08549  22832231.9014   22832233.6074   22832231.2974
       228.0004        172.0004
  -7620725.24449  -5919218.71549  22959924.4284   22959925.2104   22959924.1064
       224.0004        166.0004
 -22236109.48649 -17310819.04049  20478264.3364   20478265.5414   20478264.5114
       245.0004        212.0004
  -4058700.29649  -3139602.12949  24190155.3224   24190161.3234   24190156.0904
       200.0004        142.0004
 -12576072.67849  -9784688.18749  22710864.9804   22710864.4434   22710864.8794
       226.0004        163.0004
 -15277939.62949 -11882529.79649  20815664.0624   20815666.6494   20815663.9034
       243.0004        201.0004
 -21120391.47849 -16411877.21249  20933468.4434   20933471.7454   20933468.2634
       240.0004        194.0004
 -11921917.47649  -8477303.38349  22009381.5584   22009385.1204   22009381.3474
       231.0004        178.0004
 11 10 14  4 22 30.0000000  0  9G22G17G28G15G12G18G27G09G26
  -1524606.12749  -1175497.10949  24413034.9354   24413034.1104   24413032.7784
       207.0004        139.0004
  -6864947.85449  -5112068.99849  22822418.1464   22822421.1454   22822419.7634
       226.0004        173.0004
  -7541648.19849  -5857600.24649  22974972.8204   22974974.1784   22974972.6334
       226.0004        166.0004
 -22213307.58149 -17293051.33149  20482601.9174   20482604.4624   20482602.3674
       243.0004        211.0004
  -4172221.26549  -3228060.00049  24168555.0264   24168558.6584   24168556.5074
       208.0004        140.0004
 -12579181.13249  -9787110.35349  22710272.2274   22710273.7684   22710272.5394
       222.0004        163.0004
 -15297227.39749 -11897559.23349  20811993.4364   20811996.1304   20811993.8484
       242.0004        201.0004
 -21191145.00949 -16467009.83649  20920004.6664   20920007.8744   20920004.9564
       242.0004        195.0004
 -11823220.42349  -8400396.62149  22028162.8114   22028166.7034   22028163.7904
       232.0004        178.0004
 11 10 14  4 23  0.0000000  0  9G22G17G28G15G12G18G27G09G26
  -1585482.22949  -1222933.04349  24401451.0374   24401449.9304   24401449.3394
       209.0004        140.0004
  -6916039.15049  -5151880.39049  22812695.5904   22812699.2364   22812696.6014
       225.0004        172.0004
  -7462319.32349  -5795785.54649  22990068.5904   22990070.0524   22990068.8364
       225.0004        167.0004
 -22189981.00849 -17274874.79349  20487041.7774   20487043.6464   20487042.1624
       244.0004        211.0004
  -4285605.21849  -3316411.22749  24146980.8664   24146984.4774   24146979.1394
       208.0004        146.0004
 -12581725.99849  -9789093.35849  22709786.9034   22709789.6964   22709786.9324
       221.0004        162.0004
 -15316237.59449 -11912372.36949  20808375.6244   20808378.7484   20808375.9504
       242.0004        201.0004
 -21261566.78749 -16521883.93449  20906603.9784   20906606.5704   20906603.8744
       242.0004        195.0004
 -11724209.45649  -8323245.26049  22047005.7874   22047007.6354   22047005.6194
       231.0004        178.0004
 11 10 14  4 23 30.0000000  0  9G22G17G28G15G12G18G27G09G26
  -1645917.60549  -1270025.55349  24389949.2214   24389948.2614   24389948.3884
       211.0004        142.0004
  -6966656.02649  -5191322.07949  22803064.3874   22803066.2734   22803064.7544
       228.0004        172.0004
  -7382741.44749  -5733776.81749  23005212.4524   23005212.0624   23005212.0384
       227.0004        165.0004
 -22166130.70449 -17256290.13849  20491578.8064   20491582.0714   20491579.5064
       243.0004        210.0004
  -4398851.31249  -3404654.78649  24125425.7334   24125432.8994   24125425.2854
       201.0004        141.0004
 -12583707.71049  -9790637.55749  22709411.5404   22709411.5314   22709410.6564
       224.0004        162.0004
 -15334971.02049 -11926969.83149  20804810.8424   20804813.9654   20804810.9534
       242.0004        201.0004
 -21331656.30949 -16576499.13749  20893266.4034   20893269.3594   20893266.2674
       242.0004        196.0004
 -11624887.47849  -8245851.52549  22065903.3334   22065908.6344   22065904.2564
       229.0004        176.0004
 11 10 14  4 24  0.0000000  0  9G22G17G28G15G12G18G27G09G26
  -1705910.93749  -1316773.61149  24378531.5164   24378532.6124   24378531.6664
       205.0004        143.0004
  -7016797.15149  -5230393.06249  22793522.6564   22793525.1594   22793522.3444
       226.0004        172.0004
  -7302917.16249  -5671576.08749  23020401.1674   23020402.7254   23020401.9144
       225.0004        164.0004
 -22141757.35449 -17237297.93749  20496218.8964   20496220.0524   20496218.8264
       244.0004        210.0004
  -4511958.15249  -3492789.93349  24103904.3254   24103911.2554   24103906.1164
       210.0004        145.0004
 -12585127.38849  -9791743.82249  22709140.5784   22709143.2914   22709139.6254
       224.0004        162.0004
 -15353428.27849 -11941352.11049  20801298.2794   20801301.8984   20801299.1614
       242.0004        201.0004
 -21401413.11249 -16630855.08049  20879991.8104   20879995.1214   20879992.1364
       242.0004        196.0004
 -11525257.20649  -8168217.57849  22084864.3954   22084866.8284   22084863.2864
       231.0004        176.0004
 11 10 14  4 24 30.0000000  0  9G22G17G28G15G12G18G27G09G26
  -1765457.92349  -1363173.86649  24367200.9444   24367201.5174   24367199.7604
       208.0004        143.0004
  -7066458.55549  -5269090.22549  22784072.0904   22784074.6984   22784072.3984
       228.0004        174.0004
  -7222847.16549  -5609183.88649  23035638.8144   23035639.7064   23035638.0704
       227.0004        165.0004
 -22116859.59849 -17217897.09349  20500955.1774   20500958.1354   20500955.6164
       242.0004        210.0004
  -4624922.23849  -3580814.02749  24082410.1994   24082412.0114   24082410.6154
       204.0004        140.0004
 -12585983.60849  -9792410.98049  22708978.7884   22708980.9064   22708977.8014
       226.0004        164.0004
 -15371607.51049 -11955517.72949  20797839.1034   20797842.0964   20797839.1824
       242.0004        201.0004
 -21470834.27749 -16684949.48549  20866782.4824   20866784.7704   20866782.2854
       243.0004        196.0004
 -11425318.90649  -8090343.61449  22103881.5554   22103884.8584   22103882.1044
       232.0004        177.0004
 11 10 14  4 25  0.0000000  0  9G22G17G28G15G12G18G27G09G26
  -1824559.16649  -1409226.81349  24355957.4504   24355955.7694   24355955.5564
       211.0004        143.0004
  -7115639.37849  -5307412.89849  22774714.1124   22774716.0604   22774714.9644
       230.0004        174.0004
  -7142534.04949  -5546602.24449  23050922.6484   23050921.4384   23050922.1334
       226.0004        163.0004
 -22091438.69049 -17198088.60549  20505793.3904   20505795.7104   20505793.7934
       244.0004        210.0004
  -4737742.27249  -3668725.59649  24060943.4214   24060944.2784   24060941.4484
       211.0004        146.0004
 -12586277.73049  -9792640.19349  22708923.4164   22708923.8034   22708924.1394
       225.0004        164.0004
 -15389509.55049 -11969467.37249  20794432.8514   20794435.7914   20794433.1684
       242.0004        201.0004
 -21539919.08949 -16738781.79449  20853635.7474   20853638.2134   20853635.4174
       242.0004        196.0004
 -11325075.06249  -8012231.56349  22122957.2474   22122960.5764   22122957.3234
       230.0004        175.0004
 11 10 14  4 25 30.0000000  0  9G22G17G28G15G12G18G27G09G26
  -1883211.91349  -1454930.26949  24344793.7474   24344792.3324   24344793.4454
       208.0004        143.0004
  -7164337.35449  -5345359.31649  22765446.8884   22765449.1874   22765446.2094
       227.0004        174.0004
  -7061979.89949  -5483832.75849  23066251.0434   23066251.1234   23066249.7054
       225.0004        163.0004
 -22065494.50549 -17177872.36549  20510730.1384   20510732.7244   20510730.4144
       243.0004        210.0004
  -4850416.23949  -3756523.45049  24039499.0904   24039504.5474   24039499.8894
       210.0004        150.0004
 -12586009.43249  -9792431.12749  22708973.8784   22708974.9624   22708973.0694
       226.0004        162.0004
 -15407134.15649 -11983200.82149  20791079.0624   20791081.5554   20791079.0294
       243.0004        201.0004
 -21608666.24549 -16792350.99149  20840553.5934   20840555.7944   20840553.2234
       243.0004        196.0004
 -11224527.79749  -7933883.08349  22142090.4204   22142094.9594   22142090.8874
       229.0004        177.0004
 11 10 14  4 26  0.0000000  0  9G22G17G28G15G12G18G27G09G26
  -1941414.41049  -1500282.84849  24333717.5754   24333718.2184   24333715.8814
       210.0004        145.0004
  -7212550.72549  -5382928.14149  22756271.6494   22756274.2894   22756272.4314
       229.0004        175.0004
  -6981186.75549  -5420877.06649  23081624.8974   23081626.9964   23081625.6594
       225.0004        163.0004
 -22039027.78449 -17157248.95249  20515767.3394   20515769.2034   20515767.4614
       244.0004        210.0004
  -4962942.77849  -3844206.47849  24018085.9394   24018089.1524   24018085.8454
       204.0004        139.0004
 -12585179.15349  -9791784.16649  22709131.2854   22709132.5324   22709129.9614
       224.0004        164.0004
 -15424481.54349 -11996718.25949  20787777.4314   20787780.9814   20787777.8874
       242.0004        201.0004
 -21677074.82549 -16845656.35949  20827535.4644   20827537.9484   20827535.3594
       242.0004        195.0004
 -11123679.14949  -7855299.75249  22161281.1994   22161286.0214   22161281.6494
       230.0004        176.0004
 11 10 14  4 26 30.0000000  0  9G22G17G28G15G12G18G27G09G26
  -1999164.92549  -1545283.25549  24322728.9854   24322729.0854   24322727.7994
       209.0004        146.0004
  -7260277.45749  -5420117.76949  22747190.5054   22747192.3694   22747190.5704
       228.0004        173.0004
  -6900156.60949  -5357736.70649  23097042.9844   23097046.7874   23097044.3034
       223.0004        162.0004
 -22012038.24849 -17136218.15649  20520902.4164   20520905.1084   20520902.9884
       243.0004        210.0004
  -5075319.67549  -3931772.91649  23996702.4524   23996704.0214   23996701.6674
       213.0004        147.0004
 -12583787.25949  -9790699.57349  22709397.0504   22709398.5014   22709395.3074
       225.0004        164.0004
 -15441551.65849 -12010019.64749  20784529.6384   20784532.2964   20784529.8204
       243.0004        201.0004
 -21745143.50949 -16898696.88049  20814582.3864   20814585.1724   20814582.6754
       242.0004        196.0004
 -11022530.92549  -7776482.99449  22180530.5094   22180533.4554   22180530.2184
       231.0004        177.0004
 11 10 14  4 27  0.0000000  0  9G22G17G28G15G12G18G27G09G26
  -2056461.29849  -1589929.78649  24311824.0084   24311825.3984   24311823.1694
       207.0004        147.0004
  -7307515.27549  -5456926.42349  22738200.9514   22738202.3264   22738200.9264
       226.0004        172.0004
  -6818891.15449  -5294412.98749  23112509.2684   23112510.0344   23112508.6064
       224.0004        161.0004
 -21984526.32349 -17114780.30749  20526138.2124   20526140.5264   20526138.9634
       244.0004        210.0004
  -5187544.55749  -4019220.80049  23975348.4524   23975349.8584   23975348.3274
       217.0004        154.0004
 -12581833.78549  -9789177.40149  22709767.9884   22709769.6784   22709767.9744
       224.0004        162.0004
 -15458344.24649 -12023104.77149  20781333.9324   20781336.6524   20781333.9944
       242.0004        201.0004
 -21812870.83249 -16951471.39349  20801693.7634   20801696.9604   20801693.9314
       241.0004        195.0004
 -10921085.08749  -7697434.30149  22199832.6144   22199837.9284   22199833.1084
       228.0004        174.0004
 11 10 14  4 27 30.0000000  0  9G22G17G28G15G12G18G27G09G26
  -2113301.96549  -1634221.20349  24301009.3744   24301009.8924   24301009.2164
       209.0004        148.0004
  -7354262.34149  -5493352.66449  22729304.8364   22729307.4844   22729304.8984
       228.0004        173.0004
  -6737392.76149  -5230907.73949  23128017.3464   23128019.5004   23128016.9604
       223.0004        161.0004
 -21956492.46749 -17092935.76249  20531472.4174   20531475.0214   20531472.9044
       241.0004        210.0004
  -5299616.02249  -4106549.18349  23954021.7994   23954023.6004   23954021.5034
       214.0004        145.0004
 -12579318.93249  -9787217.78349  22710246.4824   22710248.4544   22710246.6874
       225.0004        164.0004
 -15474859.27349 -12035973.62549  20778191.2284   20778194.2044   20778191.4084
       242.0004        201.0004
 -21880255.52549 -17003978.94049  20788871.8194   20788873.9824   20788871.5814
       242.0004        196.0004
 -10819343.42449  -7618155.11249  22219193.8554   22219198.7344   22219194.4814
       230.0004        174.0004
 11 10 14  4 28  0.0000000  0  9G22G17G28G15G12G18G27G09G26
  -2169685.22649  -1678156.20649  24290276.7074   24290279.5294   24290277.7534
       209.0004        148.0004
  -7400516.75549  -5529395.05349  22720503.0294   22720505.2534   22720502.7544
       229.0004        174.0004
  -6655663.50749  -5167222.61549  23143570.4234   23143570.2784   23143570.0134
       225.0004        161.0004
 -21927936.91349 -17070684.69249  20536906.2894   20536908.8654   20536907.1604
       242.0004        209.0004
  -5411531.82549  -4193756.31449  23932724.6494   23932725.0324   23932723.8214
       220.0004        149.0004
 -12576243.31549  -9784821.20949  22710830.6744   22710833.7344   22710829.6574
       222.0004        164.0004
 -15491096.69549 -12048626.15349  20775101.0814   20775104.0334   20775101.0914
       242.0004        201.0004
 -21947296.09449 -17056218.32449  20776114.4164   20776116.8554   20776113.9684
       242.0004        196.0004
 -10717308.13149  -7538647.10549  22238612.7424   22238615.9844   22238612.3824
       230.0004        174.0004
 11 10 14  4 28 30.0000000  0  9G22G17G28G15G12G18G27G09G26
  -2225608.74249  -1721732.98049  24279636.6514   24279637.9354   24279637.0354
       210.0004        148.0004
  -7446276.11049  -5565051.67149  22711795.0514   22711796.9504   22711795.8154
       226.0004        175.0004
  -6573704.91849  -5103358.79249  23159167.1954   23159167.8454   23159166.3224
       226.0004        162.0004
 -21898859.57949 -17048027.04249  20542439.4264   20542442.1504   20542439.7334
       241.0004        209.0004
  -5523290.03449  -4280840.62849  23911455.0734   23911459.9684   23911457.5124
       216.0004        155.0004
 -12572606.68049  -9781987.49049  22711524.3594   22711525.1714   22711524.0514
       225.0004        165.0004
 -15507056.00649 -12061061.98749  20772064.2774   20772067.4154   20772064.7434
       242.0004        201.0004
 -22013991.13249 -17108188.47549  20763421.8694   20763424.8424   20763422.2484
       242.0004        196.0004
 -10614980.44349  -7458911.28349  22258084.2164   22258086.8334   22258084.3414
       230.0004        173.0004
 11 10 14  4 29  0.0000000  0  9G22G17G28G15G12G18G27G09G26
  -2281071.30849  -1764950.55249  24269083.4124   24269083.5554   24269082.5634
       211.0004        148.0004
  -7491539.09949  -5600321.46349  22703181.3724   22703184.8334   22703182.5844
       228.0004        176.0004
  -6491519.35549  -5039318.09949  23174806.8564   23174806.9704   23174805.4434
       226.0004        162.0004
 -21869261.53749 -17024963.64049  20548072.0304   20548074.3194   20548072.7734
       243.0004        208.0004
  -5634888.65649  -4367800.52149  23890218.5304   23890223.3564   23890220.3084
       211.0004        150.0004
 -12568409.96049  -9778717.31749  22712322.1994   22712323.8064   22712322.5744
       225.0004        164.0004
 -15522737.96049 -12073281.67449  20769080.4664   20769083.2354   20769080.3954
       243.0004        202.0004
 -22080340.12649 -17159888.97249  20750795.5904   20750799.5844   20750796.1564
       240.0004        196.0004
 -10512363.25949  -7378949.86349  22277611.6744   22277614.7184   22277611.7104
       229.0004        172.0004
 11 10 14  4 29 30.0000000  0  9G22G17G28G15G12G18G27G09G26
  -2336070.97149  -1807807.43549  24258618.1694   24258616.8324   24258616.6814
       212.0004        146.0004
  -7536303.85049  -5635203.05149  22694663.1454   22694666.5444   22694663.1344
       230.0004        176.0004
  -6409108.98149  -4975102.22549  23190488.3414   23190489.0094   23190489.7774
       224.0004        161.0004
 -21839143.11949 -17001494.75649  20553803.8044   20553805.6954   20553803.7564
       242.0004        209.0004
  -5746326.22449  -4454634.98449  23869016.9744   23869015.5324   23869015.3414
       222.0004        150.0004
 -12563653.57449  -9775011.06049  22713229.1694   22713228.9054   22713228.6954
       226.0004        164.0004
 -15538142.26349 -12085285.01749  20766149.1244   20766151.6944   20766148.8674
       243.0004        201.0004
 -22146341.54149 -17211318.63749  20738236.3934   20738239.8174   20738236.8374
       240.0004        196.0004
 -10409458.27349  -7298764.19449  22297194.6334   22297197.5204   22297195.1464
       229.0004        172.0004
 11 10 14  4 30  0.0000000  0  9G22G17G28G15G12G18G27G09G26
  -2390606.40649  -1850302.59249  24248240.4744   24248238.9104   24248239.2594
       212.0004        147.0004
  -7580568.23849  -5669694.75849  22686241.4344   22686243.0014   22686241.2294
       230.0004        178.0004
  -6326475.19749  -4910712.27149  23206212.2294   23206213.6664   23206213.0854
       224.0004        161.0004
 -21808503.99549 -16977620.12749  20559634.0874   20559635.9944   20559634.4034
       243.0004        208.0004
  -5857600.17549  -4541342.00849  23847839.2264   23847841.6714   23847839.8374
       212.0004        151.0004
 -12558337.35849  -9770868.55949  22714239.1244   22714241.1754   22714238.0174
       223.0004        163.0004
 -15553268.38049 -12097071.59749  20763270.4454   20763273.2074   20763270.5554
       242.0004        202.0004
 -22211993.48949 -17262475.97549  20725743.9374   20725746.1344   20725743.6744
       242.0004        197.0004
 -10306267.18149  -7218355.57849  22316829.9864   22316833.6804   22316830.0974
       228.0004        171.0004
 11 10 14  4 30 30.0000000  0  9G22G17G28G15G12G18G27G09G26
  -2444675.38749  -1892434.27649  24237950.4204   24237949.9694   24237950.4834
       212.0004        147.0004
  -7624330.09349  -5703794.87049  22677911.5354   22677914.5584   22677912.5824
       228.0004        176.0004
  -6243620.28849  -4846150.00449  23221979.0574   23221979.6364   23221979.2334
       224.0004        158.0004
 -21777344.85149 -16953340.28949  20565563.5554   20565565.5334   20565563.9964
       242.0004        208.0004
  -5968709.20649  -4627920.37549  23826690.9384   23826700.0934   23826694.8574
       208.0004        154.0004
 -12552462.00849  -9766290.38149  22715357.6124   22715358.9544   22715356.7004
       225.0004        163.0004
 -15568116.41449 -12108641.48349  20760444.7234   20760448.1154   20760445.2594
       242.0004        202.0004
 -22277295.03049 -17313360.28949  20713316.2454   20713319.9304   20713316.7254
       241.0004        198.0004
 -10202791.98849  -7137725.58049  22336521.2334   22336525.4324   22336520.6964
       228.0004        171.0004
 11 10 14  4 31  0.0000000  0  9G22G17G28G15G12G18G27G09G26
  -2498276.47249  -1934201.36449  24227750.9254   24227750.4864   24227749.9404
       213.0004        147.0004
  -7667587.87349  -5737502.21549  22669681.5094   22669683.1334   22669681.7194
       229.0004        176.0004
  -6160546.32249  -4781417.03449  23237786.9004   23237788.7464   23237787.6654
       222.0004        159.0004
 -21745666.47049 -16928655.84349  20571591.0004   20571593.9184   20571591.7534
       243.0004        208.0004
  -6079651.17849  -4714368.60949  23805585.8254   23805587.8104   23805586.0894
       217.0004        152.0004
 -12546027.96749  -9761276.85349  22716581.4784   22716583.8234   22716580.7824
       224.0004        162.0004
 -15582686.42149 -12119994.73149  20757672.3834   20757675.4284   20757672.3954
       242.0004        201.0004
 -22342244.95549 -17363970.61149  20700958.0124   20700960.5834   20700957.7874
       242.0004        198.0004
 -10099034.79049  -7056875.83249  22356264.2674   22356269.5764   22356264.8054
       227.0004        170.0004
 11 10 14  4 31 30.0000000  0  9G22G17G28G15G12G18G27G09G26
  -2551407.52449  -1975602.17049  24217639.4294   24217640.4404   24217639.4394
       213.0004        147.0004
  -7710339.46049  -5770815.10649  22661544.8174   22661548.6674   22661545.2124
       227.0004        176.0004
  -6077255.06849  -4716514.77649  23253637.5194   23253639.3564   23253637.0404
       223.0004        159.0004
 -21713468.73149 -16903566.71549  20577718.9544   20577720.6524   20577719.1894
       242.0004        208.0004
  -6190423.73449  -4800684.93249  23784505.7544   23784506.5954   23784504.3544
       212.0004        149.0004
 -12539035.65449  -9755828.29649  22717911.1974   22717912.9654   22717911.9294
       223.0004        163.0004
 -15596977.99649 -12131131.02049  20754952.4164   20754955.7774   20754952.5304
       241.0004        201.0004
 -22406841.85249 -17414305.83849  20688664.4144   20688668.2004   20688664.7514
       242.0004        198.0004
  -9994997.49949  -6975807.83549  22376062.9094   22376066.8784   22376062.7744
       227.0004        171.0004
 11 10 14  4 32  0.0000000  0  9G22G17G28G15G12G18G27G09G26
  -2604067.31049  -2016635.77949  24207617.6944   24207619.6054   24207617.4474
       212.0004        148.0004
  -7752583.35249  -5803732.38249  22653507.2804   22653509.2264   22653507.1974
       230.0004        177.0004
  -5993748.88349  -4651445.01849  23269528.6214   23269529.4154   23269528.3514
       222.0004        160.0004
 -21680752.29449 -16878073.38649  20583943.8014   20583946.7404   20583944.8714
       243.0004        208.0004
  -6301025.60149  -4886868.11749  23763454.9124   23763461.7494   23763456.5944
       210.0004        152.0004
 -12531486.05349  -9749945.50049  22719348.3164   22719351.4224   22719346.8484
       222.0004        162.0004
 -15610991.44549 -12142050.57649  20752285.9314   20752289.0804   20752285.6634
       242.0004        201.0004
 -22471084.54949 -17464365.07049  20676440.9444   20676443.5644   20676440.5674
       243.0004        200.0004
  -9890682.19349  -6894523.21349  22395913.0684   22395917.5134   22395913.9144
       227.0004        170.0004
 11 10 14  4 32 30.0000000  0  9G22G17G28G15G12G18G27G09G26
  -2656254.09249  -2057300.81349  24197688.7954   24197688.5634   24197688.9834
       213.0004        149.0004
  -7794317.64449  -5836252.59749  22645564.5944   22645567.4364   22645565.5494
       229.0004        176.0004
  -5910029.34349  -4586209.02949  23285460.2354   23285459.8904   23285459.5794
       223.0004        159.0004
 -21647517.58649 -16852176.22049  20590269.5134   20590270.9354   20590269.4244
       243.0004        208.0004
  -6411454.67949  -4972916.73449  23742441.9184   23742446.5264   23742445.0974
       209.0004        153.0004
 -12523379.11849  -9743628.41549  22720890.4824   22720891.4674   22720891.1654
       222.0004        161.0004
 -15624726.54549 -12152753.24449  20749671.5944   20749675.3614   20749671.9624
       241.0004        201.0004
 -22534971.70849 -17514147.26249  20664283.2334   20664286.0864   20664283.2564
       243.0004        200.0004
  -9786090.60549  -6813023.29449  22415817.9204   22415819.4384   22415816.4484
       228.0004        169.0004
 11 10 14  4 33  0.0000000  0  9G22G17G28G15G12G18G27G09G26
  -2707966.87449  -2097596.48949  24187848.1224   24187847.4404   24187846.2434
       212.0004        150.0004
  -7835541.15649  -5868374.79549  22637721.3244   22637722.8524   22637721.0354
       231.0004        177.0004
  -5826099.02749  -4520808.79949  23301431.7674   23301431.8624   23301430.9954
       225.0004        158.0004
 -21613765.76949 -16825876.10649  20596691.1554   20596693.9484   20596691.7494
       243.0004        208.0004
  -6521709.07449  -5058829.25049  23721461.8964   23721464.2114   23721461.5184
       212.0004        146.0004
 -12514715.62249  -9736877.65349  22722539.6804   22722541.9704   22722538.3784
       222.0004        160.0004
 -15638183.45149 -12163239.13549  20747111.1594   20747114.3774   20747111.6674
       242.0004        201.0004
 -22598502.48749 -17563651.76149  20652193.7174   20652196.0744   20652193.7624
       243.0004        200.0004
  -9681225.48249  -6731310.21249  22435770.3084   22435775.0004   22435771.6684
       228.0004        170.0004
 11 10 14  4 33 30.0000000  0  9G22G17G28G15G12G18G27G09G26
  -2759203.60949  -2137521.21049  24178097.9844   24178097.9364   24178098.4164
       212.0004        150.0004
  -7876251.76249  -5900097.32249  22629972.8074   22629975.9524   22629974.0074
       229.0004        177.0004
  -5741959.44949  -4455245.48649  23317442.5544   23317443.3434   23317441.3344
       224.0004        158.0004
 -21579496.88749 -16799173.09349  20603213.5884   20603215.3164   20603213.5324
       243.0004        208.0004
  -6631786.89849  -5144604.12249  23700520.7894   23700520.2234   23700518.8094
       217.0004        153.0004
 -12505496.22449  -9729693.71349  22724294.8014   22724297.1384   22724293.0564
       223.0004        163.0004
 -15651361.86249 -12173508.01849  20744604.2274   20744606.8684   20744604.0444
       242.0004        201.0004
 -22661675.29149 -17612877.31349  20640171.9274   20640174.8914   20640172.0394
       242.0004        200.0004
  -9576088.39549  -6649385.24249  22455778.7424   22455782.7194   22455779.2394
       229.0004        169.0004
 11 10 14  4 34  0.0000000  0  9G22G17G28G15G12G18G27G09G26
  -2809962.22249  -2177073.38049  24168438.7374   24168439.1934   24168437.9474
       212.0004        151.0004
  -7916447.41149  -5931418.56449  22622325.2014   22622326.6854   22622325.0274
       231.0004        177.0004
  -5657612.46549  -4389520.57649  23333492.7164   23333494.6474   23333492.5624
       222.0004        157.0004
 -21544711.21949 -16772067.37949  20609831.9334   20609834.4294   20609832.5464
       242.0004        208.0004
  -6741686.35149  -5230240.01549  23679600.4384   23679604.8194   23679602.1084
       209.0004        153.0004
 -12495721.21449  -9722076.83049  22726153.8204   22726156.3794   22726153.2884
       222.0004        162.0004
 -15664261.46349 -12183559.64749  20742149.2064   20742152.0274   20742149.3284
       242.0004        201.0004
 -22724488.55749 -17661822.70749  20628219.1054   20628221.8064   20628219.0784
       243.0004        200.0004
  -9470681.03849  -6567249.66849  22475837.7424   22475840.6364   22475837.7574
       230.0004        169.0004
 11 10 14  4 34 30.0000000  0  9G22G17G28G15G12G18G27G09G26
  -2860241.55449  -2216252.07049  24158870.6934   24158871.3164   24158871.4724
       214.0004        152.0004
  -7956126.47849  -5962337.28749  22614772.9964   22614776.4274   22614773.4294
       229.0004        177.0004
  -5573060.26649  -4323635.73149  23349581.4284   23349584.4314   23349581.3024
       220.0004        155.0004
 -21509409.41949 -16744559.49149  20616549.9634   20616552.2174   20616550.0824
       242.0004        207.0004
  -6851405.50749  -5315735.41149  23658722.4554   23658726.3864   23658723.6934
       213.0004        150.0004
 -12485391.57449  -9714027.79449  22728121.2354   22728122.8044   22728120.3844
       224.0004        161.0004
 -15676882.38049 -12193394.12349  20739748.3054   20739750.2304   20739747.9974
       242.0004        202.0004
 -22786941.56249 -17710487.36749  20616334.5984   20616337.0554   20616334.6124
       243.0004        200.0004
  -9365005.76649  -6484905.30849  22495946.2124   22495950.3294   22495946.9594
       227.0004        169.0004
 11 10 14  4 35  0.0000000  0  9G22G17G28G15G12G18G27G09G26
  -2910039.65149  -2255055.76749  24149394.6384   24149396.3354   24149393.7944
       216.0004        153.0004
  -7995287.07649  -5992851.99849  22607322.7804   22607324.1844   22607322.2724
       232.0004        179.0004
  -5488304.48449  -4257592.29049  23365709.5444   23365712.6754   23365710.0604
       219.0004        155.0004
 -21473591.78249 -16716649.65449  20623365.2954   20623368.1144   20623365.6694
       241.0004        207.0004
  -6960942.29949  -5401088.75449  23637879.7734   23637882.3034   23637881.0174
       215.0004        152.0004
 -12474507.34849  -9705546.58849  22730190.9714   22730193.8514   22730191.4184
       224.0004        163.0004
 -15689224.04749 -12203010.99549  20737398.4384   20737401.9674   20737398.8034
       241.0004        201.0004
 -22849032.57149 -17758869.96049  20604518.9644   20604521.4674   20604519.0744
       243.0004        200.0004
  -9259063.93249  -6402353.26449  22516107.3904   22516110.7134   22516107.4474
       228.0004        170.0004
 11 10 14  4 35 30.0000000  0  9G22G17G28G15G12G18G27G09G26
  -2959355.37749  -2293483.61249  24140012.7004   24140010.9824   24140010.5204
       215.0004        154.0004
  -8033927.87249  -6022961.68749  22599966.7374   22599971.3954   22599968.8264
       229.0004        178.0004
  -5403347.72849  -4191392.23049  23381876.4924   23381879.7384   23381876.8674
       218.0004        156.0004
 -21437259.42849 -16688338.74249  20630280.4154   20630281.9884   20630280.5004
       243.0004        207.0004
  -7070295.19349  -5486298.77149  23617069.3524   23617073.7844   23617069.5394
       212.0004        154.0004
 -12463069.67649  -9696634.10949  22732366.5734   22732370.2614   22732365.8624
       222.0004        163.0004
 -15701287.00049 -12212410.68749  20735103.0814   20735106.3524   20735103.3304
       241.0004        201.0004
 -22910760.65849 -17806969.74749  20592772.6074   20592775.3514   20592772.8024
       243.0004        200.0004
  -9152858.39649  -6319595.73149  22536316.1694   22536321.0804   22536317.5984
       224.0004        168.0004
 11 10 14  4 36  0.0000000  0  9G22G17G28G15G12G18G27G09G26
  -3008186.96149  -2331534.19849  24130717.6814   24130717.7654   24130716.5274
       214.0004        152.0004
  -8072047.17449  -6052665.02049  22592716.1664   22592716.2244   22592715.2314
       232.0004        179.0004
  -5318191.44549  -4125036.69349  23398081.5134   23398084.4014   23398082.0634
       219.0004        156.0004
 -21400412.63949 -16659626.95449  20637290.8474   20637293.8244   20637291.2054
       241.0004        207.0004
  -7179461.94049  -5571363.69349  23596297.2834   23596299.8674   23596297.7784
       215.0004        155.0004
 -12451079.35049  -9687291.00649  22734650.3274   22734652.4604   22734650.2324
       225.0004        164.0004
 -15713070.94049 -12221592.95749  20732860.9954   20732864.1604   20732860.7044
       242.0004        201.0004
 -22972124.35549 -17854785.60149  20581095.2244   20581097.8204   20581095.7784
       243.0004        200.0004
  -9046390.80349  -6236633.98649  22556575.5614   22556580.5384   22556577.1214
       226.0004        169.0004
 11 10 14  4 36 30.0000000  0  9G22G17G28G15G12G18G27G09G26
  -3056532.72449  -2369206.22749  24121518.7634   24121518.5154   24121518.2184
       214.0004        151.0004
  -8109643.18449  -6081960.59149  22585560.0304   22585563.0404   22585560.9864
       230.0004        179.0004
  -5232837.62249  -4058527.23249  23414324.3524   23414326.2814   23414324.3514
       218.0004        156.0004
 -21363052.10949 -16630514.87149  20644400.6574   20644403.0184   20644401.3964
       243.0004        207.0004
  -7288440.65249  -5656282.16249  23575557.4694   23575561.9594   23575559.4344
       214.0004        153.0004
 -12438536.72749  -9677517.54949  22737036.6974   22737038.0354   22737035.7764
       224.0004        164.0004
 -15724575.64249 -12230557.65149  20730670.8754   20730674.4434   20730671.3344
       241.0004        201.0004
 -23033122.42449 -17902316.55149  20569488.8674   20569490.0014   20569488.4884
       244.0004        200.0004
  -8939662.82949  -6153469.39049  22576887.6844   22576891.0964   22576887.7614
       228.0004        170.0004
 11 10 14  4 37  0.0000000  0  9G22G17G28G15G12G18G27G09G26
  -3104391.10149  -2406498.47649  24112409.7014   24112410.4044   24112409.0644
       214.0004        148.0004
  -8146714.18449  -6110847.05349  22578506.4374   22578508.2644   22578506.5134
       231.0004        180.0004
  -5147287.97049  -3991865.16949  23430603.5304   23430605.9064   23430603.9204
       218.0004        157.0004
 -21325178.11249 -16601002.67149  20651607.6414   20651610.0454   20651608.4204
       242.0004        207.0004
  -7397229.32049  -5741052.55149  23554859.9124   23554858.8224   23554857.8244
       219.0004        155.0004
 -12425442.62149  -9667314.36449  22739528.7434   22739530.1254   22739526.9484
       224.0004        164.0004
 -15735801.08649 -12239304.73549  20728535.6584   20728538.4734   20728535.4214
       242.0004        202.0004
 -23093753.64949 -17949561.64449  20557949.9264   20557952.9214   20557949.8854
       242.0004        200.0004
  -8832676.76849  -6070103.65049  22597246.1404   22597248.8414   22597247.0634
       226.0004        169.0004
 11 10 14  4 37 30.0000000  0  9G22G17G28G15G12G18G27G09G26
  -3151761.06949  -2443410.15849  24103396.9344   24103395.8044   24103397.4944
       213.0004        148.0004
  -8183258.73449  -6139323.29049  22571552.2734   22571554.1834   22571552.5074
       233.0004        182.0004
  -5061545.06649  -3925052.53449  23446919.4424   23446922.1494   23446920.3364
       218.0004        156.0004
 -21286791.79649 -16571091.26749  20658912.3074   20658915.1094   20658913.3084
       243.0004        207.0004
  -7505826.45449  -5825673.62549  23534194.0334   23534195.1984   23534191.9254
       217.0004        157.0004
 -12411797.88249  -9656682.11249  22742126.1054   22742126.2204   22742124.7924
       225.0004        162.0004
 -15746747.58449 -12247834.46549  20726452.1634   20726455.2454   20726452.3294
       242.0004        201.0004
 -23154017.12049 -17996520.18149  20546482.5744   20546485.0954   20546482.7534
       243.0004        201.0004
  -8725434.84349  -5986538.55449  22617652.8374   22617656.3774   22617653.3884
       226.0004        169.0004
 11 10 14  4 38  0.0000000  0  9G22G17G28G15G12G18G27G09G26
  -3198640.68249  -2479939.72549  24094475.0594   24094475.6004   24094474.3374
       212.0004        148.0004
  -8219275.48749  -6167388.25649  22564698.3644   22564700.1574   22564698.2114
       232.0004        181.0004
  -4975610.13849  -3858090.27949  23463274.2184   23463275.4374   23463273.6464
       220.0004        159.0004
 -21247893.52749 -16540780.93249  20666314.8694   20666317.0954   20666315.3584
       242.0004        206.0004
  -7614230.08049  -5910143.93649  23513560.9714   23513565.9804   23513562.3004
       215.0004        157.0004
 -12397603.04449  -9645621.20049  22744826.9264   22744826.2724   22744826.4584
       225.0004        163.0004
 -15757414.58649 -12256146.39949  20724422.9494   20724425.2024   20724422.8954
       242.0004        202.0004
 -23213911.19249 -18043190.86649  20535084.7114   20535087.7864   20535084.9254
       243.0004        201.0004
  -8617938.64449  -5902775.31549  22638109.2724   22638112.5434   22638109.5344
       226.0004        167.0004
 11 10 14  4 38 30.0000000  0  9G22G17G28G15G12G18G27G09G26
  -3245029.20349  -2516086.65849  24085649.0984   24085648.2694   24085647.7184
       212.0004        148.0004
  -8254763.01149  -6195040.85749  22557944.9424   22557946.4824   22557945.4324
       231.0004        179.0004
  -4889486.09949  -3790980.64149  23479661.4644   23479663.7834   23479662.5894
       220.0004        157.0004
 -21208484.53149 -16510072.63549  20673813.5884   20673816.0764   20673814.4044
       242.0004        206.0004
  -7722438.77749  -5994462.40749  23492973.0464   23492974.3494   23492973.5504
       219.0004        155.0004
 -12382859.47849  -9634132.71549  22747632.1274   22747633.1924   22747631.9334
       225.0004        161.0004
 -15767802.68549 -12264241.01349  20722446.2524   20722448.8304   20722446.1694
       243.0004        202.0004
 -23273435.15649 -18089573.16249  20523757.7394   20523760.6644   20523757.7604
       243.0004        201.0004
  -8510190.86449  -5818816.04849  22658611.4294   22658617.0614   22658611.9194
       225.0004        168.0004
 11 10 14  4 39  0.0000000  0  9G22G17G28G15G12G18G27G09G26
  -3290923.90649  -2551848.79049  24076916.5154   24076914.2174   24076914.7614
       214.0004        147.0004
  -8289718.65749  -6222278.99849  22551293.8694   22551295.9184   22551293.8784
       231.0004        181.0004
  -4803173.45449  -3723724.04449  23496086.4224   23496088.8174   23496086.5294
       219.0004        156.0004
 -21168564.30249 -16478965.97249  20681410.2734   20681412.9534   20681410.8984
       241.0004        206.0004
  -7830449.47249  -6078626.56449  23472420.1974   23472420.6664   23472419.4804
       219.0004        157.0004
 -12367566.94049  -9622216.45549  22750541.7654   22750542.7304   22750542.1724
       225.0004        161.0004
 -15777910.58249 -12272117.28649  20720522.1964   20720525.3384   20720522.5724
       242.0004        202.0004
 -23332586.53249 -18135665.12549  20512501.0374   20512504.6734   20512501.5514
       242.0004        201.0004
  -8402192.60749  -5734661.58849  22679164.3444   22679168.1674   22679165.4484
       226.0004        166.0004
 11 10 14  4 39 30.0000000  0  9G22G17G28G15G12G18G27G09G26
  -3336324.55749  -2587225.92849  24068273.7494   24068274.9234   24068273.2974
       212.0004        150.0004
  -8324141.88049  -6249102.26249  22544743.0974   22544745.0664   22544743.0654
       232.0004        179.0004
  -4716675.11449  -3656322.76849  23512547.2594   23512548.4454   23512546.4934
       220.0004        155.0004
 -21128134.53649 -16447462.25849  20689104.0584   20689106.1284   20689104.3494
       243.0004        206.0004
  -7938261.22649  -6162635.65249  23451902.4374   23451905.2684   23451902.7894
       221.0004        161.0004
 -12351727.26149  -9609873.85949  22753555.5484   22753556.5954   22753555.8684
       222.0004        159.0004
 -15787739.09049 -12279775.85449  20718652.8184   20718654.9574   20718651.8904
       242.0004        201.0004
 -23391365.02349 -18181466.52649  20501315.8864   20501319.4904   20501315.8564
       242.0004        201.0004
  -8293946.60049  -5650314.07949  22699762.6734   22699766.2764   22699763.6894
       224.0004        167.0004
 11 10 14  4 40  0.0000000  0  9G22G17G28G15G12G18G27G09G26
  -3381229.81949  -2622217.03049  24059729.5514   24059729.8264   24059729.4244
       214.0004        151.0004
  -8358031.40949  -6275509.65649  22538293.1554   22538296.4214   22538293.3854
       230.0004        179.0004
  -4629993.45249  -3588778.62249  23529041.8744   23529043.7854   23529042.7234
       220.0004        156.0004
 -21087196.11249 -16415562.20249  20696894.7634   20696896.7634   20696894.8604
       243.0004        206.0004
  -8045872.47049  -6246488.55349  23431423.5554   23431426.7694   23431424.6794
       214.0004        157.0004
 -12335341.41149  -9597105.67949  22756673.0384   22756675.2154   22756673.5354
       223.0004        161.0004
 -15797288.41149 -12287216.88449  20716834.5864   20716837.6144   20716834.9534
       241.0004        202.0004
 -23449769.60449 -18226976.57849  20490201.9504   20490205.4754   20490201.8494
       242.0004        201.0004
  -8185455.12949  -5565775.28949  22720406.0944   22720410.8874   22720407.1624
       222.0004        165.0004
 11 10 14  4 40 30.0000000  0  9G22G17G28G15G12G18G27G09G26
  -3425637.04149  -2656820.06849  24051278.8484   24051280.9294   24051279.6444
       214.0004        153.0004
  -8391384.67849  -6301499.18649  22531946.1514   22531947.9914   22531947.1104
       231.0004        179.0004
  -4543129.15549  -3521092.15949  23545571.1964   23545574.1984   23545570.6364
       220.0004        156.0004
 -21045748.71949 -16383265.53949  20704781.1034   20704784.1784   20704781.8704
       243.0004        206.0004
  -8153280.51649  -6330183.09249  23410981.5524   23410986.6444   23410984.1214
       215.0004        154.0004
 -12318409.22049  -9583911.76749  22759896.4854   22759898.3674   22759896.6454
       225.0004        163.0004
 -15806557.23449 -12294439.33749  20715071.5254   20715074.2324   20715071.2054
       242.0004        202.0004
 -23507798.08649 -18272193.55449  20479159.4034   20479162.8104   20479160.0484
       242.0004        201.0004
  -8076719.26549  -5481046.07749  22741099.3524   22741103.6444   22741099.3694
       223.0004        164.0004
 11 10 14  4 41  0.0000000  0  9G22G17G28G15G12G18G27G09G26
  -3469545.62549  -2691034.57049  24042925.2674   24042924.0674   24042923.4494
       216.0004        155.0004
  -8424200.82649  -6327070.19949  22525701.7984   22525704.3284   22525702.3834
       230.0004        180.0004
  -4456084.80449  -3453265.39849  23562136.7124   23562139.0294   23562137.7864
       222.0004        157.0004
 -21003793.77849 -16350573.39249  20712765.4664   20712767.9354   20712765.7304
       243.0004        206.0004
  -8260484.41549  -6413718.61149  23390588.0294   23390588.3344   23390586.6884
       221.0004        160.0004
 -12300931.89549  -9570293.07049  22763221.7624   22763223.1254   22763221.7304
       224.0004        161.0004
 -15815546.15749 -12301443.67849  20713360.2334   20713363.6594   20713360.2214
       241.0004        202.0004
 -23565449.90849 -18317117.03749  20468189.8044   20468192.0174   20468189.5574
       244.0004        202.0004
  -7967741.32449  -5396128.25149  22761838.4054   22761841.5944   22761838.4114
       224.0004        165.0004
 11 10 14  4 41 30.0000000  0  9G22G17G28G15G12G18G27G09G26
  -3512953.98149  -2724859.27349  24034664.6454   24034664.1674   24034663.5914
       217.0004        155.0004
  -8456478.38149  -6352221.52249  22519559.7264   22519562.6654   22519559.5764
       230.0004        179.0004
  -4368861.94449  -3385299.54649  23578735.0544   23578735.5604   23578734.2364
       220.0004        156.0004
 -20961331.67549 -16317486.04549  20720845.0414   20720848.0374   20720845.8324
       243.0004        206.0004
  -8367481.04749  -6497092.53549  23370222.8624   23370229.1804   23370222.8834
       210.0004        158.0004
 -12282910.64149  -9556250.55949  22766652.3334   22766652.3064   22766651.3664
       224.0004        162.0004
 -15824254.85249 -12308229.66849  20711702.8564   20711706.4684   20711702.9524
       241.0004        202.0004
 -23622723.59049 -18361745.86249  20457290.8544   20457292.9954   20457290.4994
       243.0004        202.0004
  -7858523.43049  -5311023.44749  22782620.2824   22782623.4844   22782621.5644
       222.0004        163.0004
 11 10 14  4 42  0.0000000  0  9G22G17G28G15G12G18G27G09G26
  -3555861.02149  -2758293.33549  24026500.8414   24026499.4634   24026498.0224
       215.0004        153.0004
  -8488216.16649  -6376952.25849  22513519.5864   22513521.7394   22513520.5014
       229.0004        179.0004
  -4281462.87849  -3317196.40749  23595365.6554   23595367.1044   23595365.8304
       219.0004        156.0004
 -20918363.76649 -16284004.57649  20729022.9234   20729024.4884   20729022.7814
       243.0004        205.0004
  -8474269.46049  -6580304.23849  23349900.5084   23349904.6634   23349903.3384
       217.0004        156.0004
 -12264346.52049  -9541785.00749  22770183.7604   22770185.7354   22770183.3804
       225.0004        163.0004
 -15832683.75749 -12314797.64349  20710099.2044   20710102.3494   20710099.4674
       241.0004        202.0004
 -23679618.16749 -18406079.28949  20446464.4384   20446466.5314   20446464.2314
       245.0004        203.0004
  -7749067.87249  -5225733.42749  22803449.8334   22803453.1994   22803450.4234
       223.0004        163.0004
 11 10 14  4 42 30.0000000  0  9G22G17G28G15G12G18G27G09G26
  -3598265.98749  -2791336.17249  24018429.7124   24018430.4624   24018429.8474
       213.0004        152.0004
  -8519413.14149  -6401261.55649  22507583.6544   22507585.7964   22507583.6014
       231.0004        180.0004
  -4193889.95649  -3248957.77449  23612030.8554   23612032.0864   23612029.5744
       220.0004        155.0004
 -20874891.12249 -16250129.79049  20737293.8954   20737297.3924   20737295.1614
       243.0004        205.0004
  -8580848.53449  -6663352.88949  23329625.4824   23329623.7004   23329623.8594
       221.0004        158.0004
 -12245240.82449  -9526897.47249  22773821.0254   22773821.9684   22773820.7204
       226.0004        164.0004
 -15840833.06249 -12321147.74549  20708548.3964   20708551.5764   20708548.5874
       242.0004        202.0004
 -23736132.67649 -18450116.55249  20435709.0954   20435711.8364   20435709.5104
       244.0004        203.0004
  -7639377.09349  -5140260.13149  22824323.7934   22824326.0744   22824323.5554
       223.0004        163.0004
 11 10 14  4 43  0.0000000  0  9G22G17G28G15G12G18G27G09G26
  -3640166.14249  -2823985.64749  24010455.8994   24010456.6974   24010455.5994
       212.0004        151.0004
  -8550066.50849  -6425147.28149  22501750.3024   22501752.9334   22501750.5484
       231.0004        180.0004
  -4106143.68649  -3180584.07249  23628728.1114   23628729.7714   23628726.6414
       219.0004        153.0004
 -20830913.10149 -16215861.22649  20745664.5694   20745665.7634   20745664.7184
       244.0004        205.0004
  -8687214.83449  -6746235.62449  23309378.7544   23309385.2574   23309379.2024
       212.0004        158.0004
 -12225593.30849  -9511587.73049  22777559.0644   22777560.1594   22777558.5764
       225.0004        162.0004
 -15848701.31649 -12327278.85949  20707051.1434   20707054.0814   20707051.5904
       242.0004        202.0004
 -23792264.55449 -18493855.66849  20425027.8694   20425030.5754   20425027.8254
       243.0004        203.0004
  -7529451.75949  -5054604.03749  22845241.8464   22845245.6324   22845241.1924
       224.0004        162.0004
 11 10 14  4 43 30.0000000  0  9G22G17G28G15G12G18G27G09G26
  -3681561.65449  -2856241.90649  24002578.8914   24002578.8324   24002578.4744
       211.0004        149.0004
  -8580176.37349  -6448609.48149  22496020.8464   22496022.8804   22496020.7724
       230.0004        179.0004
  -4018227.37649  -3112077.88749  23645457.1604   23645459.5334   23645457.2824
       217.0004        152.0004
 -20786432.16649 -16181200.76349  20754126.7484   20754130.3874   20754128.1994
       241.0004        205.0004
  -8793367.66749  -6828952.08449  23289180.4084   23289183.8034   23289181.7714
       220.0004        161.0004
 -12205406.32049  -9495857.62249  22781400.3344   22781402.8354   22781399.4974
       224.0004        162.0004
 -15856289.70649 -12333191.87949  20705607.3284   20705610.0244   20705607.1744
       242.0004        202.0004
 -23848014.06349 -18537296.82649  20414418.4494   20414421.7024   20414419.1084
       244.0004        204.0004
  -7419295.40849  -4968767.93849  22866203.2894   22866205.4694   22866204.0634
       224.0004        162.0004
 11 10 14  4 44  0.0000000  0  9G22G17G28G15G12G18G27G09G26
  -3722450.50949  -2888103.33849  23994798.6804   23994797.4854   23994797.6344
       211.0004        150.0004
  -8609741.14249  -6471646.94349  22490394.2824   22490397.4264   22490394.6224
       230.0004        181.0004
  -3930142.37649  -3043440.23049  23662219.5704   23662222.4544   23662218.4604
       218.0004        153.0004
 -20741448.44049 -16146148.52749  20762688.7674   20762690.6734   20762689.4084
       243.0004        205.0004
  -8899305.14749  -6911500.78549  23269023.2304   23269022.2974   23269023.0624
       217.0004        157.0004
 -12184680.57249  -9479707.71249  22785343.4614   22785345.6524   22785343.3514
       222.0004        162.0004
 -15863597.66849 -12338886.39049  20704216.9794   20704219.6434   20704216.9154
       242.0004        202.0004
 -23903379.80849 -18580438.94449  20403882.9154   20403886.1444   20403883.1094
       244.0004        204.0004
  -7308909.49549  -4882752.97249  22887208.8314   22887211.4114   22887208.4464
       223.0004        162.0004
 11 10 14  4 44 30.0000000  0  9G22G17G28G15G12G18G27G09G26
  -3762830.84149  -2919568.55649  23987114.6784   23987112.7164   23987114.3424
       215.0004        149.0004
  -8638758.60049  -6494257.93349  22484872.9824   22484875.0214   22484872.6424
       232.0004        180.0004
  -3841889.89949  -2974672.10249  23679013.5314   23679015.2634   23679013.2814
       218.0004        151.0004
 -20695962.33449 -16110704.80449  20771342.9754   20771346.1714   20771343.5774
       242.0004        204.0004
  -9005024.60449  -6993879.52049  23248900.4734   23248908.2554   23248902.6204
       217.0004        158.0004
 -12163416.37249  -9463138.20849  22789390.8794   22789392.4974   22789390.3354
       224.0004        162.0004
 -15870624.38349 -12344361.73949  20702879.2664   20702882.2934   20702879.6274
       242.0004        202.0004
 -23958359.49749 -18623280.23949  20393420.6704   20393424.2124   20393420.8434
       245.0004        205.0004
  -7198295.37349  -4796560.18649  22908257.8364   22908260.9194   22908259.2874
       224.0004        162.0004
 11 10 14  4 45  0.0000000  0  9G22G17G28G15G12G18G27G09G26
  -3802702.35449  -2950637.27649  23979526.4804   23979528.2454   23979526.2404
       215.0004        150.0004
  -8667228.25649  -6516442.04649  22479455.0904   22479457.1084   22479455.9654
       232.0004        179.0004
  -3753472.94349  -2905775.79249  23695839.4864   23695839.2314   23695837.5024
       219.0004        151.0004
 -20649975.78749 -16074871.14549  20780094.6084   20780096.9704   20780095.1354
       243.0004        204.0004
  -9110525.03049  -7076087.58349  23228830.1114   23228831.2854   23228828.8344
       222.0004        165.0004
 -12141615.64849  -9446150.64349  22793540.6304   22793539.4844   22793539.4234
       224.0004        161.0004
 -15877370.90249 -12349618.75749  20701595.7744   20701598.6844   20701595.5364
       242.0004        202.0004
 -24012952.96149 -18665820.58249  20383032.0024   20383034.9634   20383032.2864
       245.0004        205.0004
  -7087456.30149  -4710192.10249  22929352.0464   22929354.8114   22929350.9444
       224.0004        160.0004
 11 10 14  4 45 30.0000000  0  9G22G17G28G15G12G18G27G09G26
  -3842063.30049  -2981308.16849  23972036.9274   23972036.8654   23972035.9424
       218.0004        152.0004
  -8695148.25049  -6538197.87449  22474142.7714   22474144.1744   22474143.3014
       233.0004        178.0004
  -3664892.52649  -2836752.10849  23712695.6514   23712695.8434   23712694.2164
       221.0004        150.0004
 -20603488.77749 -16038647.52149  20788940.4184   20788943.2964   20788941.0904
       241.0004        204.0004
  -9215804.00149  -7158123.13349  23208788.7914   23208795.0424   23208790.5534
       211.0004        156.0004
 -12119278.81049  -9428745.32449  22797791.0544   22797791.1294   22797789.2184
       225.0004        160.0004
 -15883836.31049 -12354656.73649  20700365.4114   20700368.1374   20700365.5914
       242.0004        202.0004
 -24067158.13249 -18708058.36449  20372717.5684   20372720.0454   20372717.3394
       245.0004        205.0004
  -6976393.07449  -4623649.35549  22950485.1434   22950489.3104   22950484.9654
       221.0004        162.0004
 11 10 14  4 46  0.0000000  0  9G22G17G28G15G12G18G27G09G26
  -3880913.25549  -3011580.88749  23964644.8154   23964644.0154   23964643.8554
       219.0004        155.0004
  -8722518.05849  -6559524.98349  22468934.0364   22468936.5684   22468934.0864
       232.0004        178.0004
  -3576151.01849  -2767602.87849  23729582.6174   23729584.3154   23729582.3474
       220.0004        151.0004
 -20556502.99249 -16002035.22449  20797881.5364   20797884.5754   20797882.1554
       242.0004        204.0004
  -9320860.83649  -7239985.58849  23188800.4194   23188804.5504   23188801.8794
       221.0004        159.0004
 -12096407.83149  -9410923.78649  22802142.5544   22802143.6174   22802141.8204
       223.0004        160.0004
 -15890021.24649 -12359476.15549  20699188.6084   20699191.2604   20699188.7724
       242.0004        202.0004
 -24120974.56849 -18749993.22049  20362476.2684   20362478.8384   20362476.4614
       245.0004        204.0004
  -6865109.27149  -4536934.74049  22971660.4434   22971665.0454   22971661.4184
       222.0004        160.0004
 11 10 14  4 46 30.0000000  0  9G22G17G28G15G12G18G27G09G26
  -3919249.79949  -3041453.51849  23957349.0334   23957348.0534   23957347.5574
       217.0004        154.0004
  -8749335.41849  -6580421.60249  22463829.5704   22463832.4804   22463830.9864
       231.0004        179.0004
  -3487249.52149  -2698329.01849  23746499.7304   23746500.7744   23746499.4654
       220.0004        152.0004
 -20509018.24249 -15965034.13949  20806918.6324   20806920.3834   20806918.6544
       242.0004        204.0004
  -9425692.38149  -7321672.48849  23168854.7914   23168856.1714   23168853.6154
       222.0004        165.0004
 -12073002.63949  -9392685.99949  22806595.6324   22806597.0484   22806594.0494
       221.0004        161.0004
 -15895924.46549 -12364076.06049  20698064.5344   20698067.8524   20698064.9994
       242.0004        202.0004
 -24174400.07249 -18791623.46949  20352309.7204   20352312.3384   20352309.6324
       244.0004        204.0004
  -6753605.34949  -4450048.61349  22992881.0084   22992883.6804   22992880.8324
       222.0004        161.0004
 11 10 14  4 47  0.0000000  0  9G22G17G28G15G12G18G27G09G26
  -3957072.47449  -3070925.73849  23950151.0654   23950151.3304   23950150.5054
       217.0004        155.0004
  -8775599.76949  -6600887.30249  22458833.6604   22458834.3654   22458832.8384
       233.0004        180.0004
  -3398190.35649  -2628932.31249  23763446.9714   23763448.4904   23763446.0434
       219.0004        151.0004
 -20461036.59349 -15927645.85249  20816048.1394   20816051.1314   20816048.6114
       242.0004        204.0004
  -9530297.74749  -7403183.10249  23148943.8314   23148949.6604   23148945.7154
       217.0004        160.0004
 -12049065.11349  -9374033.37649  22811150.2254   22811152.3394   22811151.0174
       222.0004        162.0004
 -15901546.68049 -12368456.99849  20696995.5924   20696997.8454   20696995.3524
       242.0004        202.0004
 -24227434.10249 -18832948.67549  20342217.7424   20342220.2454   20342217.4694
       244.0004        204.0004
  -6641884.06249  -4362993.10149  23014140.0254   23014143.0394   23014140.5574
       223.0004        162.0004
 11 10 14  4 47 30.0000000  0  9G22G17G28G15G12G18G27G09G26
  -3994380.37849  -3099996.83049  23943053.3574   23943052.8764   23943052.2044
       218.0004        156.0004
  -8801310.08749  -6620921.28549  22453939.7704   22453941.9514   22453940.2024
       231.0004        180.0004
  -3308976.07949  -2559414.71049  23780424.6674   23780425.1514   23780424.7854
       219.0004        149.0004
 -20412558.78049 -15889870.96249  20825274.6904   20825276.6964   20825274.7444
       243.0004        204.0004
  -9634674.53549  -7484515.67749  23129085.6504   23129085.3014   23129086.0204
       224.0004        161.0004
 -12024596.81149  -9354967.16949  22815806.9414   22815808.0344   22815805.8504
       220.0004        161.0004
 -15906888.07049 -12372619.11649  20695978.3494   20695981.4874   20695978.7304
       242.0004        202.0004
 -24280075.59849 -18873968.01049  20332200.4024   20332203.2334   20332200.3664
       244.0004        205.0004
  -6529947.84849  -4275770.09749  23035441.5954   23035443.8774   23035441.4004
       224.0004        162.0004
 11 10 14  4 48  0.0000000  0  9G22G17G28G15G12G18G27G09G26
  -4031172.17349  -3128665.75749  23936049.9734   23936050.4344   23936049.5894
       215.0004        154.0004
  -8826465.22449  -6640522.65349  22449153.4364   22449155.2174   22449153.5144
       232.0004        179.0004
  -3219607.77649  -2489777.09249  23797430.4764   23797431.6004   23797429.7984
       217.0004        149.0004
 -20363585.47649 -15851709.95449  20834592.1864   20834595.8204   20834593.3414
       241.0004        203.0004
  -9738821.27549  -7565668.96949  23109267.8334   23109270.7214   23109267.0384
       223.0004        165.0004
 -11999598.57749  -9335488.03949  22820563.4554   22820566.8154   22820563.5134
       222.0004        160.0004
 -15911948.11449 -12376561.99849  20695015.4144   20695018.5984   20695015.7144
       241.0004        202.0004
 -24332323.24049 -18914680.44949  20322257.8874   20322260.8414   20322257.6674
       244.0004        204.0004
  -6417798.50849  -4188380.99849  23056781.1164   23056786.8814   23056782.1184
       221.0004        161.0004
 11 10 14  4 48 30.0000000  0  9G22G17G28G15G12G18G27G09G26
  -4067446.71649  -3156931.65149  23929149.4584   23929147.1604   23929148.0024
       216.0004        152.0004
  -8851064.04849  -6659690.54249  22444470.9984   22444474.8324   22444472.2224
       231.0004        180.0004
  -3130087.33949  -2420020.93549  23814466.3264   23814466.8214   23814465.0914
       218.0004        151.0004
 -20314117.92649 -15813163.83949  20844006.8834   20844008.9934   20844007.1484
       243.0004        203.0004
  -9842736.43549  -7646641.76949  23089490.2664   23089495.1904   23089490.9834
       218.0004        163.0004
 -11974071.68849  -9315596.98349  22825421.4544   22825422.4114   22825420.4304
       222.0004        160.0004
 -15916726.80749 -12380285.64849  20694106.7694   20694109.3034   20694106.6774
       242.0004        202.0004
 -24384175.73749 -18955084.98349  20312391.0974   20312393.2884   20312391.2904
       245.0004        205.0004
  -6305437.98749  -4100827.39749  23078163.0504   23078166.1104   23078162.8164
       219.0004        157.0004
 11 10 14  4 49  0.0000000  0  9G22G17G28G15G12G18G27G09G26
  -4103202.43249  -3184793.24849  23922343.8814   23922343.5224   23922343.5204
       215.0004        152.0004
  -8875104.78349  -6678423.56249  22439897.5744   22439899.6414   22439897.2554
       232.0004        181.0004
  -3040416.51949  -2350147.60349  23831529.2974   23831529.7154   23831528.8964
       219.0004        151.0004
 -20264156.52949 -15774232.88849  20853513.4564   20853516.1954   20853514.0514
       242.0004        203.0004
  -9946417.51049  -7727432.20949  23069761.5604   23069763.2404   23069763.0254
       221.0004        163.0004
 -11948016.95849  -9295294.62049  22830379.7064   22830380.8434   22830379.2324
       222.0004        160.0004
 -15921223.61349 -12383789.65149  20693250.7454   20693253.5084   20693250.9074
       242.0004        202.0004
 -24435631.60349 -18995180.44449  20302599.0474   20302601.5734   20302599.0904
       244.0004        204.0004
  -6192867.92149  -4013110.50349  23099585.1184   23099588.5844   23099585.7554
       220.0004        159.0004
 11 10 14  4 49 30.0000000  0  9G22G17G28G15G12G18G27G09G26
  -4138438.69849  -3212250.08949  23915638.5264   23915637.7414   23915636.5934
       215.0004        151.0004
  -8898586.74849  -6696721.17949  22435429.1174   22435430.6474   22435429.4914
       232.0004        181.0004
  -2950597.63149  -2280158.88549  23848621.6654   23848622.5024   23848620.8944
       219.0004        149.0004
 -20213702.93049 -15734918.41349  20863114.9974   20863117.0664   20863115.5074
       242.0004        203.0004
 -10049863.46049  -7808039.44449  23050075.8774   23050080.4714   23050076.9994
       220.0004        164.0004
 -11921436.31349  -9274582.42149  22835436.6264   22835438.9184   22835435.5954
       222.0004        159.0004
 -15925438.99549 -12387074.35149  20692448.3684   20692451.5834   20692448.6274
       242.0004        202.0004
 -24486690.09749 -19034966.27049  20292883.5054   20292884.9944   20292882.8444
       244.0004        205.0004
  -6080091.16649  -3925232.53349  23121046.3924   23121049.2084   23121044.8304
       219.0004        158.0004
 11 10 14  4 50  0.0000000  0  9G22G17G28G15G12G18G27G09G26
  -4173154.47949  -3239301.34649  23909030.2164   23909032.0904   23909030.8784
       215.0004        151.0004
  -8921509.19349  -6714582.79649  22431066.5224   22431069.8494   22431067.4554
       231.0004        181.0004
  -2860632.26549  -2210056.02849  23865741.3754   23865741.1544   23865739.9274
       219.0004        150.0004
 -20162758.10449 -15695221.15749  20872809.1014   20872811.8934   20872809.6564
       240.0004        203.0004
 -10153072.77649  -7888462.22849  23030436.1514   23030440.5084   23030436.9984
       220.0004        164.0004
 -11894330.74849  -9253461.22349  22840596.4904   22840598.6394   22840596.0754
       223.0004        160.0004
 -15929372.81949 -12390139.65849  20691699.6944   20691703.2554   20691699.9594
       242.0004        202.0004
 -24537350.01849 -19074441.52249  20283242.5014   20283245.1864   20283242.8904
       244.0004        204.0004
  -5967109.43449  -3837194.86349  23142545.4044   23142549.3104   23142545.6634
       217.0004        157.0004
 11 10 14  4 50 30.0000000  0  9G22G17G28G15G12G18G27G09G26
  -4207349.14149  -3265946.54949  23902525.5044   23902525.7084   23902523.8534
       216.0004        154.0004
  -8943871.08949  -6732007.62349  22426811.7874   22426813.9014   22426811.5924
       233.0004        182.0004
  -2770522.43649  -2139840.60949  23882888.9914   23882890.1154   23882887.9294
       219.0004        152.0004
 -20111323.40049 -15655142.17949  20882596.6684   20882599.6634   20882597.4284
       242.0004        202.0004
 -10256043.15349  -7968698.86249  23010842.6924   23010844.6344   23010842.9424
       221.0004        165.0004
 -11866701.79949  -9231932.18249  22845854.2364   22845855.2134   22845853.3524
       223.0004        160.0004
 -15933025.17449 -12392985.64649  20691005.0774   20691007.7394   20691005.0524
       243.0004        203.0004
 -24587610.49249 -19113605.51149  20273678.7694   20273680.8494   20273678.1664
       245.0004        204.0004
  -5853925.25549  -3748999.42849  23164082.8144   23164087.6364   23164083.1844
       218.0004        159.0004
 11 10 14  4 51  0.0000000  0  9G22G17G28G15G12G18G27G09G26
  -4241020.81349  -3292184.22449  23896119.0324   23896118.0914   23896116.4244
       219.0004        154.0004
  -8965670.45749  -6748994.12249  22422663.4564   22422665.7344   22422663.4544
       233.0004        182.0004
  -2680269.34549  -2069513.55249  23900063.6164   23900065.3024   23900062.9354
       218.0004        149.0004
 -20059399.17049 -15614681.75349  20892477.8504   20892480.1234   20892478.0744
       240.0004        202.0004
 -10358772.16849  -8048747.43549  22991292.1934   22991296.2834   22991293.8784
       220.0004        162.0004
 -11838549.91949  -9209995.66349  22851209.0924   22851212.4954   22851209.3014
       223.0004        159.0004
 -15936394.89549 -12395611.39949  20690363.3504   20690366.6744   20690363.6034
       242.0004        202.0004
 -24637469.24249 -19152456.47149  20264190.1944   20264193.2034   20264190.5714
       243.0004        204.0004
  -5740539.57049  -3660646.97449  23185658.7074   23185664.7694   23185660.3054
       219.0004        159.0004
 11 10 14  4 51 30.0000000  0  9G22G17G28G15G12G18G27G09G26
  -4274169.31649  -3318014.23849  23889810.0994   23889809.9884   23889808.8604
       217.0004        153.0004
  -8986907.45649  -6765542.42349  22418622.0854   22418624.3434   22418622.2344
       232.0004        180.0004
  -2589875.53949  -1999076.85549  23917264.3904   23917265.9964   23917264.3624
       215.0004        148.0004
 -20006987.36149 -15573841.39049  20902451.1054   20902453.9474   20902451.6864
       241.0004        202.0004
 -10461259.12149  -8128607.36149  22971792.2264   22971793.7354   22971792.0524
       222.0004        162.0004
 -11809877.83249  -9187653.77649  22856665.6794   22856667.9184   22856665.9084
       222.0004        159.0004
 -15939483.03649 -12398017.73749  20689775.6874   20689778.7034   20689775.8564
       242.0004        202.0004
 -24686926.32649 -19190994.43749  20254779.5054   20254781.9444   20254779.3974
       245.0004        205.0004
  -5626955.69149  -3572140.10749  23207275.1964   23207278.6264   23207275.5824
       220.0004        159.0004
 11 10 14  4 52  0.0000000  0  9G22G17G28G15G12G18G27G09G26
  -4306793.12149  -3343435.37849  23883601.1314   23883601.0874   23883600.4504
       214.0004        152.0004
  -9007580.63849  -6781651.36549  22414687.3924   22414690.7634   22414687.5584
       232.0004        181.0004
  -2499342.41249  -1928531.58949  23934490.7944   23934493.9134   23934490.7114
       214.0004        149.0004
 -19954088.66449 -15532621.63649  20912517.8594   20912520.3064   20912518.0584
       241.0004        202.0004
 -10563501.94249  -8208277.04649  22952335.9934   22952338.2874   22952334.6394
       222.0004        166.0004
 -11780686.32949  -9164907.16149  22862221.1614   22862223.7524   22862221.4574
       223.0004        160.0004
 -15942289.33149 -12400204.45649  20689242.4674   20689244.8684   20689242.4164
       243.0004        203.0004
 -24735980.13149 -19229218.16449  20245444.5654   20245447.2104   20245444.1654
       244.0004        205.0004
  -5513175.47049  -3483480.21849  23228927.2094   23228930.0744   23228926.7524
       220.0004        157.0004
 11 10 14  4 52 30.0000000  0  9G22G17G28G15G12G18G27G09G26
  -4338891.06949  -3368446.76649  23877492.8784   23877494.2134   23877493.3444
       214.0004        151.0004
  -9027688.67549  -6797319.95149  22410861.3464   22410863.6914   22410861.3984
       232.0004        181.0004
  -2408671.54849  -1857879.02149  23951746.2274   23951748.2614   23951746.4124
       216.0004        151.0004
 -19900703.86349 -15491023.10349  20922676.0274   20922678.9864   20922676.4494
       241.0004        202.0004
 -10665498.72349  -8287755.02349  22932924.1844   22932927.7024   22932925.4814
       220.0004        164.0004
 -11750976.46949  -9141756.63549  22867874.5314   22867878.2184   22867873.8654
       221.0004        158.0004
 -15944813.02649 -12402170.97549  20688761.8344   20688764.6794   20688762.2174
       242.0004        203.0004
 -24784629.12749 -19267126.46749  20236186.0924   20236189.3564   20236186.5894
       244.0004        204.0004
  -5399200.41349  -3394668.51649  23250614.8334   23250618.9354   23250615.5484
       219.0004        159.0004
 11 10 14  4 53  0.0000000  0  9G22G17G28G15G12G18G27G09G26
  -4370462.77349  -3393048.10649  23871487.1184   23871485.7764   23871485.8574
       217.0004        151.0004
  -9047230.91049  -6812547.65049  22407142.6814   22407145.0254   22407143.0394
       232.0004        180.0004
  -2317864.95649  -1787120.67749  23969026.3524   23969028.5844   23969027.7074
       218.0004        151.0004
 -19846834.30149 -15449046.84149  20932927.6944   20932930.2384   20932928.3634
       242.0004        202.0004
 -10767247.85849  -8367040.03349  22913563.2184   22913564.5624   22913563.7674
       221.0004        162.0004
 -11720749.93849  -9118203.50449  22873626.1994   22873630.3944   22873626.1024
       221.0004        160.0004
 -15947054.18349 -12403917.31749  20688335.1764   20688338.3004   20688335.1924
       242.0004        202.0004
 -24832872.42349 -19304718.63749  20227006.5214   20227009.0384   20227006.3904
       245.0004        204.0004
  -5285032.62549  -3305706.62449  23272340.8234   23272343.9914   23272341.5104
       219.0004        157.0004
 11 10 14  4 53 30.0000000  0  9G22G17G28G15G12G18G27G09G26
  -4401507.32749  -3417238.66349  23865577.7754   23865579.0854   23865576.3244
       214.0004        152.0004
  -9066206.61949  -6827333.89749  22403532.0654   22403534.5454   22403532.3524
       232.0004        181.0004
  -2226924.64349  -1716258.12749  23986332.6494   23986333.7794   23986331.6174
       216.0004        152.0004
 -19792481.26949 -15406693.83649  20943270.7844   20943273.0584   20943270.9574
       241.0004        201.0004
 -10868747.73949  -8446130.81149  22894247.3554   22894251.3114   22894247.1014
       219.0004        166.0004
 -11690008.20149  -9094248.91649  22879477.2144   22879479.7904   22879475.8364
       221.0004        160.0004
 -15949012.87249 -12405443.55749  20687963.1624   20687965.6914   20687963.2984
       243.0004        203.0004
 -24880708.89349 -19341993.80649  20217903.7334   20217905.9934   20217903.7824
       245.0004        205.0004
  -5170674.56449  -3216596.48149  23294103.3634   23294106.6964   23294102.8424
       222.0004        158.0004
 11 10 14  4 54  0.0000000  0  9G22G17G28G15G12G18G27G09G26
  -4432023.52249  -3441017.51549  23859770.5634   23859770.4374   23859769.7384
       215.0004        151.0004
  -9084614.59949  -6841677.75849  22400028.8404   22400030.8924   22400030.0324
       232.0004        181.0004
  -2135852.06349  -1645292.53149  24003662.3564   24003663.2744   24003661.8044
       217.0004        151.0004
 -19737645.84849 -15363964.94449  20953705.2734   20953707.7384   20953705.9004
       243.0004        202.0004
 -10969996.54149  -8525025.94949  22874980.1634   22874984.0204   22874981.2814
       219.0004        166.0004
 -11658752.43949  -9069893.78749  22885423.8104   22885428.5264   22885423.9464
       220.0004        160.0004
 -15950688.88849 -12406749.53549  20687642.8184   20687646.4704   20687643.3104
       241.0004        202.0004
 -24928136.86749 -19378950.66149  20208878.0114   20208881.2424   20208878.3244
       244.0004        205.0004
  -5056128.06649  -3127339.51249  23315900.8444   23315903.8444   23315900.6674
       220.0004        156.0004
 11 10 14  4 54 30.0000000  0  9G22G17G28G15G12G18G27G09G26
  -4462010.31349  -3464383.82949  23854062.8824   23854065.2354   23854062.2424
       214.0004        153.0004
  -9102453.84549  -6855578.44549  22396634.2944   22396636.2864   22396633.9604
       233.0004        181.0004
  -2044649.02449  -1574225.26149  24021016.0514   24021018.0134   24021017.5114
       213.0004        149.0004
 -19682329.02949 -15320860.95149  20964231.5834   20964234.4834   20964232.4114
       241.0004        201.0004
 -11070991.91149  -8603723.58649  22855762.5994   22855764.3334   22855763.9774
       223.0004        164.0004
 -11626984.12749  -9045139.27549  22891468.0164   22891474.6804   22891468.5184
       219.0004        158.0004
 -15952082.02449 -12407835.08549  20687378.5994   20687381.3524   20687378.5424
       242.0004        202.0004
 -24975155.19249 -19415588.31849  20199931.2254   20199933.6654   20199930.9994
       245.0004        206.0004
  -4941395.03749  -3037937.16249  23337732.6244   23337737.0444   23337733.5144
       220.0004        160.0004
 11 10 14  4 55  0.0000000  0  9G22G17G28G15G12G18G27G09G26
  -4491467.13649  -3487337.17749  23848460.6954   23848458.9724   23848459.7324
       218.0004        154.0004
  -9119723.78649  -6869035.53349  22393347.5404   22393350.1644   22393348.5024
       234.0004        183.0004
  -1953317.52549  -1503057.90649  24038397.0024   24038398.7504   24038397.2764
       215.0004        150.0004
 -19626532.33649 -15277383.02249  20974849.5974   20974852.2784   20974850.2504
       243.0004        202.0004
 -11171732.90749  -8682223.04949  22836592.4454   22836595.1874   22836592.5574
       223.0004        166.0004
 -11594704.97449  -9019986.71349  22897611.3854   22897615.3044   22897611.5484
       219.0004        158.0004
 -15953192.47449 -12408700.36549  20687167.0984   20687169.8554   20687167.0874
       241.0004        202.0004
 -25021763.20849 -19451906.24549  20191061.7674   20191064.3874   20191061.8934
       245.0004        206.0004
  -4826477.97349  -2948391.44549  23359600.7894   23359603.9764   23359601.2574
       219.0004        157.0004
 11 10 14  4 55 30.0000000  0  9G22G17G28G15G12G18G27G09G26
  -4520393.50149  -3509877.18849  23842955.8344   23842955.3984   23842954.1044
       218.0004        155.0004
  -9136423.83549  -6882048.54349  22390170.1834   22390172.3004   22390170.1344
       232.0004        182.0004
  -1861859.75149  -1431792.15249  24055801.0774   24055802.0764   24055800.9484
       215.0004        148.0004
 -19570257.07449 -15233532.18049  20985559.6064   20985561.4024   20985559.2944
       243.0004        202.0004
 -11272217.86249  -8760522.97149  22817471.0814   22817473.1544   22817470.1944
       222.0004        167.0004
 -11561916.93449  -8994437.59349  22903851.1904   22903854.4714   22903851.8564
       221.0004        157.0004
 -15954020.23249 -12409345.36449  20687009.8484   20687012.5694   20687009.7684
       242.0004        202.0004
 -25067959.95249 -19487903.69649  20182271.0234   20182273.2564   20182270.8124
       245.0004        206.0004
  -4711378.92849  -2858703.89949  23381503.4534   23381508.5124   23381503.3324
       218.0004        156.0004
 11 10 14  4 56  0.0000000  0  9G22G17G28G15G12G18G27G09G26
  -4548788.39149  -3532003.06549  23837551.1664   23837550.7044   23837551.6444
       218.0004        157.0004
  -9152553.04649  -6894616.75049  22387101.2014   22387102.2874   22387101.2204
       233.0004        182.0004
  -1770276.95649  -1360428.99249  24073229.3444   24073230.1554   24073228.7664
       215.0004        148.0004
 -19513504.47149 -15189309.38749  20996358.5254   20996360.9974   20996358.9844
       240.0004        201.0004
 -11372445.21149  -8838622.14949  22798396.6814   22798401.0144   22798398.3874
       224.0004        169.0004
 -11528620.93149  -8968492.65549  22910188.2054   22910191.8904   22910186.8394
       222.0004        158.0004
 -15954564.93249 -12409769.80149  20686906.3554   20686908.9274   20686905.5734
       242.0004        202.0004
 -25113744.04149 -19523579.59849  20173558.1874   20173560.7344   20173557.8074
       244.0004        206.0004
  -4596100.06349  -2768876.23449  23403439.4734   23403444.1894   23403440.7744
       217.0004        156.0004
 11 10 14  4 56 30.0000000  0  9G22G17G28G15G12G18G27G09G26
  -4576650.28849  -3553713.63049  23832250.3584   23832250.6384   23832249.4764
       218.0004        157.0004
  -9168109.97049  -6906739.02349  22384139.7944   22384142.1454   22384140.6114
       232.0004        181.0004
  -1678570.32749  -1288969.33349  24090678.9344   24090683.2944   24090680.8314
       214.0004        148.0004
 -19456275.10849 -15144715.08049  21007247.5774   21007251.5904   21007248.2494
       239.0004        201.0004
 -11472412.68149  -8916518.85449  22779377.1564   22779376.1074   22779376.0244
       228.0004        169.0004
 -11494818.51549  -8942153.10649  22916617.9214   22916624.6094   22916618.6734
       217.0004        158.0004
 -15954826.05749 -12409973.27649  20686856.7104   20686859.1974   20686856.6584
       241.0004        202.0004
 -25159113.73549 -19558932.59549  20164924.4014   20164927.6534   20164924.6814
       244.0004        206.0004
  -4480642.81649  -2678909.58149  23425409.8414   23425414.8684   23425409.7934
       219.0004        156.0004
 11 10 14  4 57  0.0000000  0  9G22G17G28G15G12G18G27G09G26
  -4603978.93949  -3575008.66849  23827049.0854   23827049.3054   23827048.5034
       219.0004        155.0004
  -9183094.41049  -6918415.19149  22381289.4024   22381290.7414   22381289.1774
       234.0004        183.0004
  -1586741.99649  -1217414.84649  24108154.5664   24108156.9194   24108155.4774
       214.0004        147.0004
 -19398570.54949 -15099750.50149  21018229.9404   21018231.2044   21018229.7824
       241.0004        201.0004
 -11572118.28249  -8994211.50549  22760401.7414   22760402.9574   22760401.4274
       227.0004        169.0004
 -11460511.16449  -8915420.12749  22923146.9354   22923151.9914   22923147.4234
       218.0004        158.0004
 -15954803.87349 -12409955.98349  20686860.8224   20686863.2184   20686860.7004
       242.0004        202.0004
 -25204068.40249 -19593962.19149  20156370.4024   20156372.6744   20156370.2024
       245.0004        206.0004
  -4365009.64449  -2588805.83649  23447417.1574   23447418.6084   23447416.8214
       220.0004        155.0004
 11 10 14  4 57 30.0000000  0  9G22G17G28G15G12G18G27G09G26
  -4630773.88949  -3595887.89249  23821951.3214   23821951.2164   23821950.1274
       217.0004        151.0004
  -9197506.04849  -6929645.02849  22378545.9114   22378548.4374   22378546.2724
       232.0004        181.0004
  -1494794.30849  -1145767.34049  24125651.4624   24125651.8114   24125648.4684
       213.0004        144.0004
 -19340392.51749 -15054416.98049  21029300.9844   21029302.7934   21029300.8324
       241.0004        201.0004
 -11671561.04749  -9071699.33649  22741476.8274   22741480.8854   22741478.6204
       224.0004        170.0004
 -11425701.21149  -8888295.52649  22929771.3174   22929776.0714   22929772.2714
       219.0004        158.0004
 -15954498.56149 -12409718.07549  20686918.7484   20686921.5224   20686919.1184
       242.0004        203.0004
 -25248606.89449 -19628667.50449  20147894.9114   20147897.4824   20147895.2004
       245.0004        206.0004
  -4249203.01749  -2498566.92349  23469452.9914   23469457.1644   23469452.6624
       221.0004        157.0004
 11 10 14  4 58  0.0000000  0  9G22G17G28G15G12G18G27G09G26
  -4657033.96149  -3616350.27749  23816952.1594   23816953.6384   23816951.1644
       214.0004        150.0004
  -9211343.26649  -6940427.27049  22375912.6664   22375915.0994   22375913.3444
       232.0004        180.0004
  -1402728.41549  -1074027.73449  24143171.7334   24143174.2344   24143171.8524
       214.0004        143.0004
 -19281741.95149 -15008715.25449  21040461.6744   21040464.2184   21040461.6234
       240.0004        200.0004
 -11770739.01549  -9148980.81749  22722605.3194   22722608.0204   22722605.9104
       227.0004        172.0004
 -11390389.63149  -8860779.98849  22936493.1454   22936496.3244   22936492.2574
       220.0004        159.0004
 -15953909.57349 -12409259.12249  20687030.8344   20687033.6714   20687030.7804
       241.0004        202.0004
 -25292728.05149 -19663047.61449  20139499.0034   20139501.5984   20139498.8184
       245.0004        207.0004
  -4133224.51549  -2408194.10449  23491522.0714   23491526.6024   23491522.8744
       215.0004        154.0004
 11 10 14  4 58 30.0000000  0  9G22G17G28G15G12G18G27G09G26
  -4682758.94949  -3636395.71949  23812058.6024   23812057.0824   23812057.1344
       216.0004        152.0004
  -9224605.94049  -6950761.82149  22373388.9614   22373391.3294   22373389.4664
       233.0004        180.0004
  -1310546.32149  -1002197.59849  24160711.9584   24160715.9494   24160712.6674
       211.0004        143.0004
 -19222620.22649 -14962646.38649  21051711.7144   21051714.2294   21051712.2254
       240.0004        200.0004
 -11869650.64349  -9226054.79049  22703783.2444   22703783.5924   22703783.5044
       227.0004        169.0004
 -11354578.28549  -8832875.06349  22943307.6234   22943308.9734   22943307.3994
       222.0004        158.0004
 -15953037.18149 -12408579.32649  20687196.8274   20687199.4524   20687196.6024
       242.0004        202.0004
 -25336430.97849 -19697101.82749  20131182.8114   20131185.2214   20131182.7134
       246.0004        207.0004
  -4017076.59949  -2317689.26349  23513624.3564   23513629.2794   23513624.4434
       219.0004        153.0004
 11 10 14  4 59  0.0000000  0  9G22G17G28G15G12G18G27G09G26
  -4707947.50549  -3656023.16449  23807264.1104   23807264.3254   23807264.1404
       215.0004        153.0004
  -9237293.29049  -6960648.05549  22370974.8394   22370976.8264   22370975.0484
       232.0004        181.0004
  -1218249.41349   -930277.99149  24178275.1814   24178278.5574   24178276.7254
       211.0004        143.0004
 -19163028.36449 -14916211.18549  21063051.1274   21063054.2424   21063051.8124
       239.0004        200.0004
 -11968294.43849  -9302920.05249  22685009.8144   22685013.8114   22685010.5784
       223.0004        170.0004
 -11318268.52349  -8804581.75049  22950216.9684   22950219.7194   22950216.5314
       221.0004        157.0004
 -15951880.81349 -12407678.25349  20687416.9134   20687419.5714   20687416.3234
       242.0004        202.0004
 -25379714.12549 -19730828.94149  20122946.2254   20122948.5284   20122946.0124
       246.0004        207.0004
  -3900760.99249  -2227053.75049  23535759.4794   23535763.7534   23535759.0244
       219.0004        155.0004
 11 10 14  4 59 30.0000000  0  9G22G17G28G15G12G18G27G09G26
  -4732599.40049  -3675232.43449  23802573.3494   23802573.0784   23802572.7604
       216.0004        154.0004
  -9249404.81049  -6970085.58349  22368670.1924   22368672.9674   22368670.2374
       233.0004        181.0004
  -1125839.70449   -858270.48049  24195862.4684   24195863.2634   24195860.4314
       213.0004        140.0004
 -19102968.03949 -14869410.94949  21074481.7584   21074483.7294   21074481.4814
       241.0004        200.0004
 -12066668.03549  -9379574.77149  22666291.6704   22666294.0934   22666292.6964
       228.0004        173.0004
 -11281462.40549  -8775901.67349  22957219.0304   22957223.0794   22957219.4744
       217.0004        157.0004
 -15950440.41349 -12406555.86049  20687690.4224   20687693.7054   20687690.5474
       241.0004        202.0004
 -25422576.41549 -19764228.12249  20114789.6714   20114792.0454   20114789.6044
       245.0004        207.0004
  -3784279.83149  -2136289.23549  23557923.9034   23557930.6714   23557925.9434
       215.0004        151.0004
 11 10 14  5  0  0.0000000  0  9G22G17G28G15G12G18G27G09G26
  -4756714.02349  -3694023.04049  23797984.1374   23797985.4074   23797983.7464
       215.0004        153.0004
  -9260939.85749  -6979073.93549  22366475.4624   22366477.8464   22366475.7394
       233.0004        182.0004
  -1033318.84249   -786176.33949  24213467.8224   24213469.2434   24213469.5544
       211.0004        140.0004
 -19042440.81449 -14822246.88649  21085998.9214   21086001.2004   21085999.3774
       239.0004        200.0004
 -12164770.55349  -9456018.23249  22647621.2394   22647624.1974   22647622.0854
       222.0004        170.0004
 -11244161.49349  -8746836.02749  22964316.2684   22964321.4054   22964316.7204
       215.0004        156.0004
 -15948716.43249 -12405212.48949  20688017.9174   20688021.3934   20688018.7344
       241.0004        202.0004
 -25465017.15449 -19797298.81749  20106712.9474   20106715.9584   20106713.1954
       244.0004        207.0004
  -3667635.58149  -2045397.63549  23580119.6974   23580124.9044   23580121.6084
       212.0004        151.0004
 11 10 14  5  0 30.0000000  0  9G22G17G28G15G12G18G27G09G26
  -4780290.56649  -3712394.36049  23793496.7064   23793498.1964   23793496.9104
       213.0004        152.0004
  -9271897.73449  -6987612.54049  22364390.8834   22364392.4604   22364391.0634
       235.0004        182.0004
   -940688.98249   -713997.28249  24231094.7694   24231096.2834   24231094.6004
       210.0004        138.0004
 -18981447.86849 -14774719.92549  21097604.4394   21097607.3464   21097605.5134
       238.0004        199.0004
 -12262599.93949  -9532248.90249  22629005.7464   22629008.4174   22629006.6784
       225.0004        168.0004
 -11206367.61949  -8717386.25749  22971509.8224   22971512.8814   22971509.7104
       218.0004        155.0004
 -15946708.50949 -12403647.86749  20688400.8284   20688403.7604   20688400.9894
       242.0004        202.0004
 -25507035.25249 -19830040.16949  20098717.3164   20098720.1764   20098717.2044
       245.0004        206.0004
  -3550830.10549  -1954380.41749  23602347.5734   23602353.2484   23602347.6914
       213.0004        149.0004
 11 10 14  5  1  0.0000000  0  9G22G17G28G15G12G18G27G09G26
  -4803328.12249  -3730345.71049  23789114.9074   23789114.6744   23789112.7204
       216.0004        152.0004
  -9282277.79049  -6995700.87449  22362414.2524   22362417.1154   22362414.9594
       233.0004        181.0004
   -847951.16849   -641734.13349  24248742.2564   24248743.1364   24248744.2234
       211.0004        138.0004
 -18919990.31349 -14726830.93949  21109300.5664   21109302.9564   21109300.8914
       240.0004        199.0004
 -12360154.41449  -9608265.35349  22610443.8604   22610445.2564   22610442.8744
       226.0004        170.0004
 -11168082.53449  -8687553.72549  22978798.3794   22978799.9504   22978796.1934
       222.0004        158.0004
 -15944416.28249 -12401861.70749  20688837.8044   20688839.8664   20688837.2824
       243.0004        202.0004
 -25548629.01849 -19862450.88749  20090802.0774   20090805.1564   20090802.0794
       244.0004        206.0004
  -3433865.25249  -1863239.02749  23624605.9054   23624610.7084   23624605.5014
       212.0004        148.0004
 11 10 14  5  1 30.0000000  0  9G22G17G28G15G12G18G27G09G26
  -4825826.20649  -3747876.67549  23784832.5124   23784832.3754   23784832.0274
       213.0004        152.0004
  -9292079.21649  -7003338.35249  22360549.4014   22360551.2774   22360548.8634
       233.0004        180.0004
   -755106.94649   -569388.03949  24266410.7874   24266411.9064   24266412.3364
       213.0004        139.0004
 -18858069.25549 -14678580.77149  21121083.5984   21121085.9744   21121083.8664
       239.0004        199.0004
 -12457432.19249  -9684066.17249  22591930.6334   22591935.2804   22591931.1834
       223.0004        171.0004
 -11129307.39849  -8657339.33849  22986173.8094   22986176.6184   22986173.6214
       220.0004        157.0004
 -15941839.43349 -12399853.76549  20689327.6634   20689330.5264   20689327.7124
       242.0004        203.0004
 -25589797.40749 -19894530.13749  20082968.3494   20082970.9754   20082968.5164
       246.0004        206.0004
  -3316742.89749  -1771974.88249  23646892.9634   23646897.9784   23646894.6584
       215.0004        147.0004
 11 10 14  5  2  0.0000000  0  9G22G17G28G15G12G18G27G09G26
  -4847784.55349  -3764987.06349  23780654.1734   23780654.4404   23780654.3694
       216.0004        154.0004
  -9301301.88449  -7010524.84349  22358793.9004   22358796.6184   22358794.6624
       234.0004        182.0004
   -662158.29749   -496960.59849  24284098.7174   24284099.3334   24284098.1064
       210.0004        139.0004
 -18795686.85649 -14629971.11749  21132953.6474   21132956.6734   21132954.1624
       238.0004        198.0004
 -12554432.19449  -9759650.53649  22573471.0544   22573475.0954   22573471.0714
       221.0004        170.0004
 -11090044.45749  -8626744.83849  22993645.8624   22993648.4154   22993645.8484
       220.0004        157.0004
 -15938978.27349 -12397624.28749  20689871.8444   20689874.8954   20689872.3644
       242.0004        203.0004
 -25630539.71049 -19926277.37349  20075214.7144   20075217.9204   20075214.9894
       245.0004        206.0004
  -3199465.82149  -1680590.17749  23669208.6264   23669215.5684   23669210.5624
       211.0004        148.0004
 11 10 14  5  2 30.0000000  0  9G22G17G28G15G12G18G27G09G26
  -4869203.02149  -3781676.78549  23776578.4414   23776578.4174   23776577.5764
       217.0004        155.0004
  -9309945.72749  -7017260.29249  22357149.9334   22357151.1564   22357149.4074
       233.0004        181.0004
   -569107.72749   -424453.72749  24301803.7934   24301804.5994   24301804.4484
       206.0004        137.0004
 -18732844.57649 -14581003.12349  21144913.2884   21144915.4494   21144912.7814
       240.0004        198.0004
 -12651152.90649  -9835017.30549  22555067.1094   22555070.1194   22555067.5354
       224.0004        169.0004
 -11050295.63849  -8595771.76449  23001208.8864   23001213.3514   23001210.0374
       219.0004        158.0004
 -15935833.10949 -12395173.49949  20690470.1964   20690473.1194   20690470.4664
       242.0004        203.0004
 -25670855.26649 -19957692.07549  20067543.3484   20067545.9414   20067543.2574
       245.0004        207.0004
  -3082036.07449  -1589086.51949  23691557.5614   23691562.4244   23691557.0874
       215.0004        148.0004
 11 10 14  5  3  0.0000000  0  9G22G17G28G15G12G18G27G09G26
  -4890080.11249  -3797944.63849  23772606.3034   23772606.4614   23772605.4624
       218.0004        156.0004
  -9318009.08649  -7023543.43349  22355614.8424   22355617.6704   22355615.8754
       234.0004        182.0004
   -475956.00249   -351868.06449  24319530.2554   24319533.5834   24319528.7674
       205.0004        135.0004
 -18669542.92049 -14531677.17549  21156958.2874   21156961.3544   21156958.8984
       237.0004        198.0004
 -12747591.95849  -9910164.60049  22536715.5164   22536718.3854   22536715.7434
       224.0004        170.0004
 -11010062.34949  -8564421.15749  23008865.9584   23008869.9454   23008865.1174
       219.0004        157.0004
 -15932402.68649 -12392500.44549  20691123.7324   20691125.8334   20691123.5734
       242.0004        202.0004
 -25710742.00449 -19988772.63949  20059952.8774   20059956.2634   20059953.3744
       246.0004        207.0004
  -2964455.03149  -1497464.96249  23713932.8224   23713937.5674   23713932.9314
       216.0004        151.0004
 11 10 14  5  3 30.0000000  0  9G22G17G28G15G12G18G27G09G26
  -4910416.05049  -3813790.81649  23768737.6124   23768737.1414   23768735.0984
       216.0004        156.0004
  -9325492.67649  -7029374.80349  22354191.1444   22354193.2414   22354191.4534
       233.0004        181.0004
   -382704.73649   -279204.83849  24337277.2964   24337276.5004   24337278.6574
       207.0004        134.0004
 -18605784.24649 -14481995.10849  21169091.7584   21169094.6244   21169092.2934
       239.0004        198.0004
 -12843748.73249  -9985091.89749  22518415.9114   22518419.9244   22518416.8644
       224.0004        171.0004
 -10969346.93849  -8532694.87049  23016612.2034   23016616.6974   23016612.9254
       218.0004        154.0004
 -15928687.82349 -12389605.74249  20691829.9004   20691832.7694   20691830.1064
       242.0004        202.0004
 -25750199.47949 -20019518.71049  20052444.6714   20052447.5614   20052444.7894
       245.0004        207.0004
  -2846725.62649  -1405727.81549  23736335.2124   23736339.9864   23736335.4134
       216.0004        152.0004
 11 10 14  5  4  0.0000000  0  9G22G17G28G15G12G18G27G09G26
  -4930209.98149  -3829214.65149  23764968.4914   23764968.5174   23764968.8714
       214.0004        155.0004
  -9332395.30849  -7034753.47049  22352877.8824   22352880.1944   22352878.2394
       234.0004        181.0004
   -289355.58049   -206465.29749  24355040.3704   24355038.4154   24355039.0074
       203.0004        132.0004
 -18541569.46149 -14431957.63049  21181311.0664   21181313.8894   21181311.4764
       238.0004        198.0004
 -12939620.25549 -10059796.94549  22500173.1194   22500175.9784   22500173.9434
       227.0004        172.0004
 -10928150.57249  -8500593.82349  23024454.6494   23024454.2584   23024454.0444
       222.0004        155.0004
 -15924687.74949 -12386488.79849  20692591.2264   20692593.9904   20692591.4534
       242.0004        202.0004
 -25789226.09149 -20049929.04449  20045018.1284   20045020.5814   20045018.4844
       246.0004        207.0004
  -2728849.23949  -1313876.12849  23758765.5694   23758769.8784   23758766.7244
       214.0004        151.0004
 11 10 14  5  4 30.0000000  0  9G22G17G28G15G12G18G27G09G26
  -4949461.65049  -3844215.94049  23761305.6774   23761306.2934   23761304.6394
       215.0004        154.0004
  -9338716.99049  -7039679.46249  22351673.8474   22351676.3314   22351674.8994
       233.0004        181.0004
   -195910.81249   -133651.26349  24372822.3144   24372824.1124   24372821.3564
       206.0004        134.0004
 -18476900.31849 -14381566.10849  21193617.3894   21193620.2524   21193618.0144
       239.0004        197.0004
 -13035205.87549 -10134279.23249  22481984.2904   22481987.4184   22481984.4224
       227.0004        171.0004
 -10886475.78849  -8468119.95949  23032382.0264   23032387.1804   23032382.9094
       218.0004        154.0004
 -15920402.86349 -12383149.92749  20693406.4624   20693409.5604   20693407.2584
       242.0004        202.0004
 -25827821.06049 -20080003.04249  20037673.8194   20037676.5834   20037673.9004
       246.0004        207.0004
  -2610828.61049  -1221912.02049  23781223.3424   23781228.7254   23781224.4714
       216.0004        151.0004
 11 10 14  5  5  0.0000000  0  9G22G17G28G15G12G18G27G09G26
  -4968170.29149  -3858794.10249  23757745.2024   23757745.8114   23757744.7264
       215.0004        154.0004
  -9344457.00849  -7044152.19849  22350582.8164   22350583.5934   22350583.6824
       235.0004        183.0004
   -102371.54749    -60763.59949  24390622.1444   24390622.4754   24390621.6374
       204.0004        133.0004
 -18411777.92849 -14330821.40449  21206010.9254   21206012.7934   21206010.6894
       241.0004        198.0004
 -13130503.84749 -10208537.33549  22463849.9524   22463852.5124   22463848.9264
       228.0004        173.0004
 -10844323.76649  -8435274.25049  23040405.7584   23040406.9934   23040405.5874
       220.0004        155.0004
 -15915832.62249 -12379588.68949  20694276.5954   20694279.4204   20694276.1894
       242.0004        202.0004
 -25865983.00849 -20109739.61749  20030411.4524   20030414.2184   20030411.8964
       245.0004        207.0004
  -2492665.37149  -1129836.83149  23803712.7564   23803715.1664   23803712.6604
       220.0004        151.0004
 11 10 14  5  5 30.0000000  0  9G22G17G28G15G12G18G27G09G26
  -4986335.85149  -3872949.08649  23754288.0274   23754288.9384   23754287.9784
       216.0004        153.0004
  -9349615.19249  -7048171.55849  22349600.3424   22349603.5844   22349600.5804
       232.0004        182.0004
     -8739.62349     12196.24649  24408438.7854   24408439.9604   24408436.3234
       202.0004        133.0004
 -18346203.86249 -14279724.74549  21218487.6674   21218491.0094   21218488.4734
       238.0004        197.0004
 -13225512.32349 -10282569.89649  22445768.5524   22445772.9424   22445769.8744
       228.0004        175.0004
 -10801696.74449  -8402058.40649  23048516.3504   23048519.9274   23048515.7964
       217.0004        152.0004
 -15910976.94449 -12375805.04049  20695199.5524   20695203.4044   20695200.4024
       241.0004        202.0004
 -25903711.13349 -20139138.14549  20023233.2544   20023234.9444   20023232.6254
       246.0004        207.0004
  -2374361.72849  -1037652.20149  23826225.4914   23826228.2214   23826224.7514
       219.0004        150.0004
 11 10 14  5  6  0.0000000  0  9G22G17G28G15G12G18G27G09G26
  -5003957.63149  -3886680.35049  23750936.1334   23750934.9834   23750934.5104
       216.0004        153.0004
  -9354191.19249  -7051737.27049  22348730.2294   22348732.0434   22348731.0294
       234.0004        182.0004
     84983.48549     85227.15549  24426275.2854   24426275.3584   24426275.9724
       200.0004        131.0004
 -18280179.94149 -14228277.54149  21231051.8504   21231055.1954   21231052.4414
       239.0004        198.0004
 -13320229.87049 -10356375.74549  22427746.9804   22427748.1874   22427746.8844
       230.0004        175.0004
 -10758596.57949  -8368473.85749  23056717.4174   23056721.0934   23056717.9064
       219.0004        154.0004
 -15905835.92749 -12371799.04449  20696178.7534   20696181.5764   20696178.6724
       242.0004        202.0004
 -25941004.63449 -20168198.01249  20016135.3834   20016138.3694   20016135.6344
       245.0004        208.0004
  -2255919.58649   -945359.68049  23848762.8054   23848767.7484   23848763.3284
       217.0004        151.0004
 11 10 14  5  6 30.0000000  0  9G22G17G28G15G12G18G27G09G26
  -5021035.47049  -3899987.72949  23747684.2474   23747685.3614   23747683.2544
       211.0004        151.0004
  -9358184.81549  -7054849.18149  22347970.2334   22347972.4874   22347970.9224
       235.0004        183.0004
    178795.78449    158327.54149  24444127.7304   24444130.0514   24444127.2534
       198.0004        130.0004
 -18213707.90249 -14176481.16949  21243701.9294   21243704.3674   21243702.2814
       240.0004        198.0004
 -13414655.05749 -10429953.78049  22409777.8824   22409779.4714   22409777.6804
       229.0004        175.0004
 -10715025.08149  -8334522.05149  23065010.2634   23065013.0774   23065008.6744
       219.0004        154.0004
 -15900409.28449 -12367570.49349  20697212.1364   20697214.3714   20697211.9504
       243.0004        202.0004
 -25977862.33549 -20196918.29349  20009122.8784   20009124.7154   20009122.5224
       247.0004        208.0004
  -2137341.29649   -852961.06849  23871327.4844   23871331.4554   23871325.7764
       215.0004        149.0004
 11 10 14  5  7  0.0000000  0  9G22G17G28G15G12G18G27G09G26
  -5037569.22049  -3912871.17949  23744537.9344   23744539.5654   23744538.6094
       214.0004        152.0004
  -9361596.02849  -7057507.27349  22347321.0214   22347323.7244   22347321.2894
       234.0004        182.0004
    272695.35549    231495.91649  24461993.4264   24461999.5294   24461994.3814
       200.0004        128.0004
 -18146789.23449 -14124336.76149  21256435.9414   21256438.0244   21256436.2004
       240.0004        197.0004
 -13508786.39949 -10503302.85849  22391864.9914   22391867.1764   22391865.7754
       229.0004        176.0004
 -10670984.98649  -8300205.10549  23073389.5644   23073393.8854   23073391.4324
       220.0004        156.0004
 -15894697.34049 -12363119.62549  20698298.5864   20698301.3564   20698298.1654
       242.0004        202.0004
 -26014283.54349 -20225298.44649  20002191.4824   20002193.9374   20002191.1904
       246.0004        208.0004
  -2018629.49849   -760458.40049  23893917.5414   23893918.4414   23893917.3884
       216.0004        150.0004
 11 10 14  5  7 30.0000000  0  9G22G17G28G15G12G18G27G09G26
  -5053557.87549  -3925329.88049  23741495.7534   23741496.5644   23741496.1314
       215.0004        153.0004
  -9364423.54249  -7059710.52349  22346782.4534   22346784.5234   22346782.7844
       234.0004        182.0004
    366681.71049    304731.92149  24479880.5174   24479882.8104   24479878.9974
       202.0004        127.0004
 -18079424.64449 -14071844.88249  21269255.1184   21269257.4534   21269254.9914
       240.0004        197.0004
 -13602621.60049 -10576421.16549  22374009.2584   22374011.2784   22374009.0574
       230.0004        177.0004
 -10626477.13349  -8265523.66549  23081860.4434   23081863.5034   23081860.5444
       220.0004        156.0004
 -15888699.14549 -12358445.70149  20699439.2434   20699442.4394   20699440.1814
       242.0004        202.0004
 -26050266.30549 -20253336.95249  19995343.5704   19995346.3054   19995343.7554
       245.0004        207.0004
  -1899785.05049   -667852.37549  23916531.9554   23916536.0364   23916532.1774
       215.0004        149.0004
 11 10 14  5  8  0.0000000  0  9G22G17G28G15G12G18G27G09G26
  -5069001.79949  -3937364.09349  23738556.5524   23738557.7364   23738557.4074
       216.0004        154.0004
  -9366667.87149  -7061459.34549  22346355.2134   22346358.3014   22346355.7154
       232.0004        182.0004
    460752.33649    378033.61249  24497780.7344   24497780.8644   24497782.2804
       201.0004        129.0004
 -18011616.50849 -14019007.39449  21282157.7764   21282160.6074   21282158.5694
       239.0004        196.0004
 -13696159.84549 -10649308.07049  22356208.4704   22356211.1944   22356208.5434
       229.0004        177.0004
 -10581504.12449  -8230479.77449  23090417.7934   23090420.1484   23090417.0014
       218.0004        156.0004
 -15882415.32649 -12353549.21149  20700635.6604   20700638.2324   20700635.8294
       242.0004        202.0004
 -26085810.12649 -20281033.42949  19988579.9354   19988582.4434   19988580.1504
       246.0004        207.0004
  -1780810.70749   -575145.13749  23939172.5484   23939176.3894   23939172.7274
       214.0004        148.0004
 11 10 14  5  8 30.0000000  0  9G22G17G28G15G12G18G27G09G26
  -5083900.06649  -3948973.13449  23735723.3084   23735723.3104   23735722.1744
       215.0004        152.0004
  -9368328.53349  -7062753.37449  22346039.6474   22346042.1624   22346040.6564
       233.0004        182.0004
    554906.38549    451400.35149  24515697.2504   24515699.4744   24515697.5274
       196.0004        125.0004
 -17943365.67549 -13965824.95549  21295146.5844   21295148.2384   21295146.6514
       240.0004        196.0004
 -13789399.15949 -10721962.06049  22338466.1514   22338468.0964   22338465.3664
       231.0004        177.0004
 -10536067.37649  -8195074.53549  23099065.7964   23099067.9984   23099062.8664
       219.0004        154.0004
 -15875845.27749 -12348429.68149  20701885.1564   20701888.5504   20701885.2954
       241.0004        201.0004
 -26120913.49249 -20308386.69849  19981900.5724   19981902.7094   19981900.3464
       246.0004        208.0004
  -1661708.21949   -482338.06049  23961837.3854   23961842.2304   23961836.6404
       213.0004        144.0004
 11 10 14  5  9  0.0000000  0  9G22G17G28G15G12G18G27G09G26
  -5098253.46649  -3960157.58949  23732990.6814   23732991.6554   23732989.9334
       216.0004        154.0004
  -9369406.13849  -7063593.05549  22345834.3034   22345836.4794   22345835.0304
       232.0004        181.0004
    649140.68549    524829.59349  24533630.2624   24533633.3484   24533628.2694
       192.0004        123.0004
 -17874674.76849 -13912299.58949  21308218.1294   21308220.0664   21308218.4354
       240.0004        196.0004
 -13882339.28349 -10794382.90949  22320780.3484   22320782.2484   22320780.1204
       229.0004        175.0004
 -10490170.24649  -8159310.54949  23107797.2744   23107800.0714   23107797.2394
       217.0004        153.0004
 -15868989.76449 -12343087.71449  20703189.6734   20703193.0714   20703190.1274
       242.0004        202.0004
 -26155576.41349 -20335396.75749  19975304.3024   19975306.4924   19975304.2204
       246.0004        208.0004
  -1542480.65049   -389433.50249  23984524.4924   23984529.2384   23984526.6794
       212.0004        143.0004
 11 10 14  5  9 30.0000000  0  9G22G17G28G15G12G18G27G09G26
  -5112060.72749  -3970916.48249  23730362.7014   23730364.8624   23730362.9274
       214.0004        155.0004
  -9369899.42749  -7063977.43549  22345740.7784   22345743.0094   22345740.8124
       232.0004        182.0004
    743455.33649    598321.39349  24551577.5394                   24551568.4504
       192.0004        120.0004
 -17805544.86049 -13858432.13549  21321372.2684   21321374.8694   21321372.3194
       238.0004        196.0004
 -13974976.73949 -10866567.90949  22303152.5114   22303153.4504   22303152.1604
       230.0004        177.0004
 -10443813.35549  -8123188.30249  23116621.7834   23116620.6734   23116620.1564
       223.0004        154.0004
 -15861847.64749 -12337522.42549  20704549.2904   20704552.1504   20704549.2734
       242.0004        201.0004
 -26189796.76949 -20362061.96149  19968792.6164   19968794.6364   19968792.4064
       247.0004        208.0004
  -1423128.63749   -296431.99649  24007238.6084   24007241.7134   24007238.2844
       211.0004        145.0004
 11 10 14  5 10  0.0000000  0  9G22G17G28G15G12G18G27G09G26
  -5125322.28149  -3981250.14849  23727841.5984   23727840.8744   23727840.1604
       218.0004        155.0004
  -9369808.96949  -7063906.94949  22345758.4054   22345759.7124   22345758.4974
       234.0004        182.0004
    837848.07049    671874.04049  24569540.0154                   24569538.4164
       194.0004        121.0004
 -17735977.55049 -13804223.86649  21334611.2114   21334613.1824   21334611.0694
       238.0004        195.0004
 -14067310.69949 -10938516.42149  22285580.0224   22285582.9084   22285580.7384
       225.0004        176.0004
 -10396999.30949  -8086709.81249  23125527.6704   23125530.4454   23125527.5024
       216.0004        151.0004
 -15854419.26949 -12331734.08249  20705962.4354   20705965.9414   20705962.7834
       241.0004        201.0004
 -26223574.21849 -20388382.05249  19962365.2104   19962367.1034   19962364.8644
       247.0004        209.0004
  -1303655.31449   -203335.94849  24029972.8864   24029975.1794   24029974.3494
       211.0004        143.0004
 11 10 14  5 10 30.0000000  0  9G22G17G28G15G12G18G27G09G26
  -5138036.66749  -3991157.44649  23725422.3194   23725421.6874   23725421.0464
       217.0004        157.0004
  -9369133.38349  -7063380.51749  22345887.0034   22345888.2494   22345886.4014
       233.0004        181.0004
    932318.13349    745486.91849  24587519.2714   24587521.1734   24587520.4954
       195.0004        122.0004
 -17665973.51749 -13749675.28349  21347931.1624   21347934.6344   21347932.2464
       238.0004        196.0004
 -14159338.83549 -11010226.61949  22268067.2494   22268071.2444   22268068.2454
       227.0004        176.0004
 -10349729.24149  -8049875.99449  23134522.9144   23134526.7104   23134523.1754
       216.0004        152.0004
 -15846703.72649 -12325721.97949  20707431.5614   20707433.6534   20707431.5834
       243.0004        202.0004
 -26256906.80349 -20414355.47949  19956021.8204   19956024.0594   19956021.6714
       246.0004        209.0004
  -1184061.76849   -110146.18849  24052728.1264   24052735.3164   24052728.7784
       206.0004        143.0004
 11 10 14  5 11  0.0000000  0  9G22G17G28G15G12G18G27G09G26
  -5150205.20649  -4000639.39349  23723104.1534   23723106.6644   23723103.5724
       214.0004        156.0004
  -9367873.66349  -7062398.93049  22346125.8654   22346129.0914   22346126.8874
       232.0004        181.0004
   1026862.56449    819157.82049  24605510.3224   24605510.2684   24605508.1584
       196.0004        124.0004
 -17595535.81749 -13694788.78049  21361337.1184   21361338.4974   21361336.5614
       241.0004        195.0004
 -14251061.41749 -11081698.72149  22250614.2794   22250616.3024   22250613.9734
       228.0004        175.0004
 -10302006.46249  -8012689.45849  23143603.5824   23143609.6294   23143605.7894
       216.0004        156.0004
 -15838701.97949 -12319486.84649  20708953.6834   20708956.6814   20708953.6524
       242.0004        202.0004
 -26289794.71249 -20439982.41049  19949762.8614   19949765.8824   19949763.1604
       246.0004        209.0004
  -1064351.22049    -16865.28549  24075508.9564   24075514.4794   24075509.6994
       206.0004        143.0004
 11 10 14  5 11 30.0000000  0  9G22G17G28G15G12G18G27G09G26
  -5161827.70449  -4009695.88949  23720894.3004   23720894.6294   23720894.1844
       218.0004        156.0004
  -9366030.52949  -7060962.73149  22346477.2294   22346479.9274   22346477.8684
       233.0004        180.0004
   1121479.91249    892885.47649  24623514.3354   24623514.6974   24623515.3054
       195.0004        124.0004
 -17524666.30349 -13639565.79949  21374821.5684   21374824.6404   21374822.0924
       237.0004        195.0004
 -14342476.60249 -11152931.30849  22233218.2004   22233220.9374   22233218.6424
       227.0004        176.0004
 -10253833.43449  -7975152.03749  23152774.2534   23152775.4604   23152771.5134
       221.0004        155.0004
 -15830414.10249 -12313028.76249  20710530.8684   20710533.8324   20710531.1504
       242.0004        202.0004
 -26322237.09949 -20465262.18749  19943590.0964   19943591.9624   19943589.9224
       247.0004        209.0004
   -944526.02949     76504.93249  24098314.7414   24098318.4354   24098314.0794
       212.0004        143.0004
 11 10 14  5 12  0.0000000  0  9G22G17G28G15G12G18G27G09G26
  -5172903.24049  -4018326.17649  23718787.1234   23718785.5924   23718785.1534
       216.0004        154.0004
  -9363602.57449  -7059070.81449  22346939.6324   22346940.5534   22346939.5004
       234.0004        181.0004
   1216169.18349    966669.16349  24641533.7164   24641533.8584   24641527.9724
       197.0004        124.0004
 -17453365.72949 -13584006.93049  21388389.7224   21388393.0114   21388390.3594
       239.0004        195.0004
 -14433581.68049 -11223922.25249  22215880.7734   22215884.1724   22215881.7084
       228.0004        176.0004
 -10205211.60849  -7937264.92249  23162024.6144   23162027.3574   23162023.8384
       218.0004        153.0004
 -15821839.02849 -12306346.89349  20712162.5724   20712165.5824   20712163.0574
       241.0004        202.0004
 -26354231.92049 -20490193.20649  19937501.2114   19937503.4964   19937501.3184
       247.0004        209.0004
   -824587.30249    169963.62349  24121138.0434   24121140.0504   24121135.4454
       210.0004        142.0004
 11 10 14  5 12 30.0000000  0  9G22G17G28G15G12G18G27G09G26
  -5183431.64449  -4026530.11849  23716781.1184   23716782.3424   23716781.4104
       214.0004        153.0004
  -9360589.99449  -7056723.34849  22347510.8834   22347514.3484   22347512.2664
       232.0004        181.0004
   1310928.93149   1040507.78849  24659563.2784   24659565.7224   24659565.9284
       196.0004        125.0004
 -17381635.68849 -13528113.41749  21402040.9364   21402042.3184   21402041.0644
       239.0004        196.0004
 -14524376.17849 -11294671.16949  22198605.0264   22198606.8274   22198605.2324
       228.0004        176.0004
 -10156142.41749  -7899029.18849  23171361.8794   23171364.1294   23171361.0834
       215.0004        152.0004
 -15812976.69549 -12299441.17649  20713849.0964   20713852.0764   20713849.0744
       242.0004        202.0004
 -26385778.44949 -20514774.91249  19931498.4214   19931500.4904   19931498.2524
       246.0004        209.0004
   -704537.12049    263509.16549  24143980.5124   24143986.5714   24143980.2064
       203.0004        141.0004
 11 10 14  5 13  0.0000000  0  9G22G17G28G15G12G18G27G09G26
  -5193413.17549  -4034307.93049  23714882.4004   23714882.9454   23714882.7734
       214.0004        155.0004
  -9356993.05049  -7053920.53849  22348196.9964   22348198.7644   22348197.5434
       234.0004        183.0004
   1405757.51449   1114400.07649  24677609.3644   24677614.2114   24677611.9644
       197.0004        125.0004
 -17309478.11849 -13471886.75349  21415770.5284   21415773.3954   21415771.3824
       238.0004        195.0004
 -14614858.01849 -11365176.46449  22181386.6604   22181387.7334   22181386.0884
       229.0004        176.0004
 -10106628.47849  -7860446.89249  23180783.6934   23180787.0044   23180782.6774
       216.0004        151.0004
 -15803827.20249 -12292311.70249  20715590.0294   20715593.0924   20715590.4464
       242.0004        202.0004
 -26416875.77049 -20539006.57849  19925580.3364   19925582.5794   19925580.2344
       246.0004        209.0004
   -584377.80549    357139.74549  24166845.2774   24166851.6504   24166845.6564
       207.0004        140.0004
 11 10 14  5 13 30.0000000  0  9G22G17G28G15G12G18G27G09G26
  -5202847.87049  -4041659.62349  23713085.9474   23713087.5644   23713085.5664
       214.0004        153.0004
  -9352811.99749  -7050662.58049  22348992.7014   22348995.6104   22348992.7464
       233.0004        182.0004
   1500652.92649   1188344.41149  24695668.6834   24695670.4274   24695670.4044
       200.0004        127.0004
 -17236895.21449 -13415328.66849  21429582.9354   21429585.7624   21429583.3444
       238.0004        195.0004
 -14705026.09149 -11435437.27249  22164227.1194   22164230.8264   22164227.5964
       230.0004        177.0004
 -10056672.69349  -7821520.32649  23190290.0404   23190294.5104   23190290.3354
       215.0004        150.0004
 -15794390.74549 -12284958.62349  20717386.2774   20717388.7914   20717385.9514
       242.0004        202.0004
 -26447523.56149 -20562887.96749  19919747.6934   19919750.8604   19919747.9854
       246.0004        209.0004
   -464111.66649    450853.55749  24189730.7834   24189736.7634   24189732.4624
       207.0004        141.0004
 11 10 14  5 14  0.0000000  0  9G22G17G28G15G12G18G27G09G26
  -5211735.94949  -4048585.39349  23711396.4704   23711396.3224   23711394.6984
       214.0004        152.0004
  -9348046.73549  -7046949.40349  22349898.9994   22349901.3884   22349899.5994
       234.0004        181.0004
   1595613.75949   1262339.72449  24713738.9084   24713738.6644   24713737.6824
       198.0004        127.0004
 -17163888.28349 -13358440.16849  21443476.3704   21443478.7214   21443476.5144
       238.0004        194.0004
 -14794878.84049 -11505452.36049  22147129.8054   22147131.6414   22147129.6674
       230.0004        177.0004
 -10006276.55649  -7782250.60949  23199880.0174   23199883.3964   23199880.2714
       218.0004        153.0004
 -15784667.13449 -12277381.78349  20719236.4954   20719239.3084   20719236.5394
       243.0004        202.0004
 -26477720.26349 -20586417.85649  19914002.1954   19914004.5794   19914001.9744
       247.0004        209.0004
   -343740.83949    544648.95449  24212638.1694   24212643.6744   24212638.5084
       212.0004        143.0004
 11 10 14  5 14 30.0000000  0  9G22G17G28G15G12G18G27G09G26
  -5220076.81549  -4055084.77449  23709807.4554   23709810.1244   23709808.2854
       215.0004        152.0004
  -9342696.67349  -7042780.54249  22350917.0974   22350919.0184   22350918.0074
       233.0004        181.0004
   1690639.19349   1336385.38849  24731821.9664   24731824.5884   24731821.0824
       198.0004        126.0004
 -17090458.68549 -13301222.32049  21457447.9764   21457451.7904   21457449.3414
       236.0004        194.0004
 -14884413.94649 -11575219.95749  22130090.9714   22130094.1514   22130091.3944
       231.0004        178.0004
  -9955441.69649  -7742639.06749  23209555.6354   23209556.3854   23209554.6544
       219.0004        152.0004
 -15774655.61849 -12269580.60749  20721142.0174   20721144.4084   20721141.8274
       242.0004        201.0004
 -26507464.65549 -20609595.29849  19908342.6394   19908344.4044   19908342.2644
       248.0004        210.0004
   -223266.72549    638524.81249  24235564.1104   24235568.8494   24235564.3294
       214.0004        143.0004
 11 10 14  5 15  0.0000000  0  9G22G17G28G15G12G18G27G09G26
  -5227870.71249  -4061157.91649  23708325.5514   23708327.0474   23708325.6844
       215.0004        154.0004
  -9336762.51849  -7038156.51149  22352047.4014   22352049.1794   22352047.1004
       234.0004        182.0004
   1785726.94549   1410479.60749  24749916.2044   24749919.5684   24749915.9084
       198.0004        126.0004
 -17016608.57049 -13243676.79749  21471502.5344   21471504.9144   21471502.8704
       239.0004        194.0004
 -14973631.56449 -11644740.14849  22113113.7734   22113116.0014   22113113.9814
       230.0004        178.0004
  -9904171.11149  -7702687.97149  23219312.1904   23219312.4634   23219310.8714
       219.0004        153.0004
 -15764356.72349 -12261555.50149  20723100.7794   20723104.2394   20723101.2464
       241.0004        202.0004
 -26536756.37549 -20632420.00549  19902768.1284   19902770.4954   19902767.9694
       246.0004        209.0004
   -102691.96149    732479.11549  24258510.2774   24258511.5404   24258509.5654
       213.0004        140.0004
 11 10 14  5 15 30.0000000  0  9G22G17G28G15G12G18G27G09G26
  -5235117.60049  -4066804.86249  23706947.8824   23706948.1604   23706947.3744
       218.0004        156.0004
  -9330244.39149  -7033077.47149  22353286.7284   22353288.9174   22353287.6864
       233.0004        183.0004
   1880875.63849   1484621.26649  24768023.9594   24768022.4264   24768022.3294
       197.0004        126.0004
 -16942339.81449 -13185805.06949  21485635.4094   21485638.4454   21485635.8684
       237.0004        194.0004
 -15062529.22549 -11714011.02049  22096197.8674   22096198.5444   22096197.4264
       232.0004        179.0004
  -9852467.06249  -7662399.10049  23229151.5714   23229153.9944   23229149.7254
       217.0004        153.0004
 -15753770.25249 -12253306.31149  20725115.7524   20725118.6994   20725115.9464
       241.0004        201.0004
 -26565594.24949 -20654891.07349  19897280.0874   19897283.1194   19897280.6464
       247.0004        210.0004
     17981.41949    826510.23549  24281474.3694   24281476.7504   24281473.8664
       213.0004        143.0004
 11 10 14  5 16  0.0000000  0  9G22G17G28G15G12G18G27G09G26
  -5241817.36349  -4072025.44949  23705672.5274   23705673.6114   23705672.0694
       217.0004        157.0004
  -9323142.07649  -7027543.21949  22354638.4284   22354640.6744   22354638.2114
       233.0004        182.0004
   1976084.00449   1558809.45049  24786140.9314   24786141.8834   24786142.9504
       196.0004        122.0004
 -16867653.78449 -13127608.18849  21499846.9324   21499850.4364   21499847.3314
       237.0004        194.0004
 -15151105.34049 -11783031.34249  22079341.8694   22079343.8734   22079341.0534
       230.0004        180.0004
  -9800331.41749  -7621773.93249  23239071.5904   23239073.6154   23239071.7874
       221.0004        152.0004
 -15742895.69549 -12244832.64049  20727184.8384   20727187.9244   20727184.8554
       242.0004        201.0004
 -26593977.06549 -20677007.56349  19891879.3464   19891881.8464   19891879.1444
       246.0004        210.0004
    138751.65249    920616.84249  24304453.7374   24304457.8864   24304454.2614
       212.0004        144.0004
 11 10 14  5 16 30.0000000  0  9G22G17G28G15G12G18G27G09G26
  -5247970.48349  -4076820.07049  23704503.2744   23704501.3944   23704501.7974
       218.0004        157.0004
  -9315455.88549  -7021553.98649  22356101.3594   22356103.4094   22356101.9624
       235.0004        182.0004
   2071350.13749   1633042.68449  24804268.1894   24804271.1384   24804263.4454
       192.0004        122.0004
 -16792552.50249 -13069087.73349  21514138.6624   21514141.6224   21514139.2834
       238.0004        193.0004
 -15239358.90149 -11851800.31449  22062547.5334   22062549.8774   22062547.6824
       233.0004        182.0004
  -9747766.74849  -7580814.45449  23249072.0114   23249075.1574   23249072.7464
       213.0004        149.0004
 -15731733.37149 -12236134.72549  20729309.3674   20729312.4714   20729309.5394
       242.0004        201.0004
 -26621904.34449 -20698769.07149  19886565.2104   19886567.1664   19886564.7484
       246.0004        209.0004
    259616.27249   1014796.99149  24327454.0304   24327459.3704   24327454.2234
       212.0004        144.0004
 11 10 14  5 17  0.0000000  0  9G22G17G28G15G12G18G27G09G26
  -5253576.80049  -4081188.61849  23703434.0214   23703433.5944   23703434.1194
       217.0004        155.0004
  -9307186.20649  -7015110.07749  22357674.4154   22357677.4804   22357674.9294
       233.0004        182.0004
   2166673.14749   1707320.19049  24822408.1764   24822410.2754   24822410.2894
       190.0004        123.0004
 -16717037.68249 -13010245.03049  21528508.5984   21528511.0254   21528508.7614
       237.0004        192.0004
 -15327288.18749 -11920316.61349  22045816.2004   22045816.9254   22045815.8684
       234.0004        183.0004
  -9694774.78649  -7539522.04049  23259158.3094   23259158.4014   23259157.1124
       216.0004        150.0004
 -15720283.07149 -12227212.42149  20731488.7204   20731491.0014   20731488.5504
       243.0004        202.0004
 -26649374.96149 -20720174.74449  19881337.0184   19881339.6994   19881337.2404
       245.0004        209.0004
    380573.33149   1109049.16249  24350470.5944   24350475.8574   24350471.9214
       212.0004        143.0004
 11 10 14  5 17 30.0000000  0  9G22G17G28G15G12G18G27G09G26
  -5258636.23049  -4085131.04349  23702471.0374   23702471.7804   23702471.7234
       215.0004        155.0004
  -9298333.10649  -7008211.57649  22359359.2174   22359362.3804   22359359.6884
       233.0004        180.0004
   2262050.86749   1781640.31149  24840560.4114                   24840556.4984
       187.0004        121.0004
 -16641110.97949 -12951081.38349  21542956.8714   21542959.8824   21542956.8694
       237.0004        192.0004
 -15414891.96249 -11988579.27349  22029145.6714   22029146.7094   22029144.9994
       234.0004        182.0004
  -9641357.76749  -7497898.38549  23269322.2034   23269323.8114   23269322.1764
       215.0004        151.0004
 -15708544.52449 -12218065.49749  20733721.9224   20733724.6664   20733721.9704
       242.0004        201.0004
 -26676387.65849 -20741223.59849  19876196.8704   19876199.3544   19876196.6904
       246.0004        210.0004
    501620.89049   1203371.86949  24373505.0944   24373510.8424   24373505.0964
       211.0004        142.0004
 11 10 14  5 18  0.0000000  0  9G22G17G28G15G12G18G27G09G26
  -5263149.77049  -4088648.08049  23701611.3984   23701613.1044   23701610.0364
       213.0004        153.0004
  -9288897.35449  -7000859.06049  22361155.3494   22361156.8044   22361155.1804
       233.0004        180.0004
   2357481.50849   1856001.69949  24858719.0654                   24858726.9794
       185.0004        117.0004
 -16564774.90049 -12891598.75349  21557484.0424   21557486.1024   21557483.6134
       239.0004        192.0004
 -15502169.29949 -12056587.56549  22012536.1044   22012538.1874   22012537.4184
       232.0004        183.0004
  -9587519.12849  -7455946.20749  23279568.5934   23279569.0014   23279568.0154
       220.0004        151.0004
 -15696518.38449 -12208694.48649  20736011.1574   20736013.6194   20736010.8714
       243.0004        202.0004
 -26702942.41749 -20761915.61949  19871143.5274   19871146.0214   19871143.5514
       245.0004        209.0004
    622756.19849   1297762.93749  24396557.3254   24396558.2724   24396556.0254
       211.0004        141.0004
 11 10 14  5 18 30.0000000  0  9G22G17G28G15G12G18G27G09G26
  -5267116.30449  -4091738.86849  23700857.4924   23700857.7444   23700855.4974
       216.0004        153.0004
  -9278877.81649  -6993051.64549  22363061.1154   22363063.6504   22363062.2404
       232.0004        181.0004
   2452964.98849   1930404.24349  24876890.9694
       183.0004        117.0004
 -16488030.11949 -12831797.65449  21572087.2684   21572090.2274   21572088.1384
       237.0004        192.0004
 -15589117.52049 -12124339.39649  21995991.6364   21995993.0194   21995991.3134
       234.0004        183.0004
  -9533259.98549  -7413666.35049  23289893.7424   23289894.0774   23289893.1994
       216.0004        150.0004
 -15684203.13449 -12199098.19349  20738353.6834   20738356.8994   20738353.7354
       241.0004        201.0004
 -26729037.19649 -20782249.20649  19866178.5754   19866180.3334   19866178.2504
       246.0004        209.0004
    743978.34949   1392221.71549  24419626.1644   24419629.6774   24419625.6204
       213.0004        143.0004
 11 10 14  5 19  0.0000000  0  9G22G17G28G15G12G18G27G09G26
  -5270536.78849  -4094404.16649  23700206.1344   23700206.5794   23700204.9844
       216.0004        154.0004
  -9268275.78649  -6984790.33449  22365078.9034   22365081.4164   22365079.1864
       232.0004        182.0004
   2548498.92149   2004846.04949  24895070.8524
       183.0004        116.0004
 -16410879.21949 -12771680.08249  21586768.8744   21586771.3504   21586768.6114
       237.0004        192.0004
 -15675736.22149 -12191834.45949  21979506.9664   21979509.8104   21979507.7894
       232.0004        182.0004
  -9478582.90449  -7371060.83549  23300298.9604   23300299.1044   23300297.3664
       217.0004        149.0004
 -15671599.50549 -12189277.19349  20740752.2034   20740755.3444   20740752.1164
       242.0004        201.0004
 -26754671.83849 -20802224.24449  19861299.5804   19861302.5074   19861299.7584
       245.0004        209.0004
    865284.51849   1486745.92149  24442709.7724   24442713.4634   24442709.4364
       211.0004        142.0004
 11 10 14  5 19 30.0000000  0  9G22G17G28G15G12G18G27G09G26
  -5273411.33449  -4096644.04849  23699659.1314   23699659.8084   23699659.6244
       215.0004        155.0004
  -9257091.17449  -6976075.06949  22367208.6324   22367209.7894   22367208.5174
       234.0004        182.0004
   2644081.87049     24173.20949  24913256.6604
       181.0004         74.0004
 -16333323.81549 -12711247.34149  21601527.2554   21601529.9534   21601527.7994
       236.0004        191.0004
 -15762023.71949 -12259071.45849  21963087.0094   21963090.1304   21963088.2094
       231.0004        183.0004
  -9423490.14149  -7328131.43249  23310780.0994   23310783.0564   23310781.1824
       216.0004        150.0004
 -15658707.36149 -12179231.38849  20743205.6564   20743208.7084   20743205.5444
       241.0004        201.0004
 -26779845.15949 -20821839.82149  19856509.6754   19856512.0054   19856509.8394
       246.0004        209.0004
    986672.81049   1581334.12749  24465808.7074   24465814.2014   24465808.6334
       209.0004        139.0004
 11 10 14  5 20  0.0000000  0  9G22G17G28G15G12G18G27G09G26
  -5275740.43749  -4098458.93649  23699216.0644   23699216.9304   23699215.7834
       218.0004        157.0004
  -9245325.14149  -6966906.73949  22369445.8264   22369448.7134   22369446.0444
       231.0004        181.0004
   2739711.93359     98690.83759  24931453.7534
       180.0004        108.0004
 -16255366.44349 -12650501.37049  21616361.6744   21616365.1684   21616362.5194
       236.0004        191.0004
 -15847979.46849 -12326049.93649  21946731.7384   21946732.4674   21946731.6894
       233.0004        184.0004
  -9367984.65749  -7284880.41749  23321344.4944   23321345.5844   23321343.8264
       217.0004        150.0004
 -15645526.85149 -12168960.85849  20745713.2644   20745716.5944   20745713.4594
       242.0004        201.0004
 -26804556.98649 -20841095.78949  19851807.0994   19851809.5374   19851807.0634
       246.0004        209.0004
   1108140.54849   1675984.21749  24488923.5484   24488927.4804   24488922.8354
       207.0004        139.0004
 11 10 14  5 20 30.0000000  0  9G22G17G28G15G12G18G27G09G26
  -5277523.89149  -4099848.64649  23698877.4704   23698877.7674   23698876.5494
       218.0004        155.0004
  -9232977.56549  -6957285.26949  22371795.9324   22371799.7154   22371795.7804
       232.0004        180.0004
   2835389.39059    173246.00559  24949664.8854
       171.0004        108.0004
 -16177008.19249 -12589443.03549  21631274.3484   21631276.1344   21631274.2994
       238.0004        191.0004
 -15933600.83749 -12392767.85549  21930437.4274   21930439.6034   21930437.6954
       232.0004        183.0004
  -9312068.40349  -7241309.31649  23331985.5254   23331987.0624   23331984.8714
       219.0004        150.0004
 -15632057.30249 -12158465.12249  20748277.1334   20748279.9454   20748277.2904
       243.0004        201.0004
 -26828805.82949 -20859991.00149  19847192.9154   19847195.4484   19847193.0494
       246.0004        210.0004
   1229686.24549   1770695.05649  24512051.7274   24512056.4834   24512052.6944
       206.0004        140.0004
 11 10 14  5 21  0.0000000  0 10G22G25G17G28G15G12G18G27G09G26
  -5278761.70849  -4100813.17349  23698641.6894   23698641.6674   23698641.9224
       218.0004        155.0004
   -112998.37649    -74191.99849  24811896.9334
       204.0004         67.0004
  -9220048.14349  -6947210.42149  22374256.6844   22374259.3754   22374257.6364
       232.0004        179.0004
   2931111.82749     19196.71749  24967876.7014
       175.0004         74.0004
 -16098250.41249 -12528073.36949  21646260.3394   21646262.8874   21646261.1944
       237.0004        192.0004
 -16018886.49049 -12459224.18449  21914207.6754   21914210.8664   21914208.0654
       232.0004        184.0004
  -9255743.47449  -7197419.77049  23342702.2724   23342704.9534   23342701.5074
       215.0004        148.0004
 -15618298.39149 -12147743.90049  20750895.4664   20750897.8944   20750895.3594
       242.0004        201.0004
 -26852590.39749 -20878524.42249  19842667.1044   19842669.2174   19842667.0774
       246.0004        210.0004
   1351308.36349   1865465.44349  24535195.8444   24535199.6714   24535198.3804
       209.0004        139.0004
 11 10 14  5 21 30.0000000  0 10G22G25G17G28G15G12G18G27G09G26
  -5279455.01249  -4101353.40449  23698509.6874   23698509.4884   23698510.2624
       217.0004        157.0004
   -221746.66949   -158923.33149  24791204.1184
       206.0004        116.0004
  -9206537.98249  -6936683.03649  22376828.3074   22376830.0704   22376827.9564
       232.0004        181.0004
   3026876.01059     93820.97359  24986102.0384
       181.0004        103.0004
 -16019096.18149 -12466394.77649  21661322.3824   21661325.6984   21661323.0294
       237.0004        191.0004
 -16103835.89149 -12525418.50149  21898042.2884   21898045.1034   21898043.2984
       231.0004        184.0004
  -9199012.67949  -7153213.95549  23353498.5384   23353500.2014   23353498.7364
       217.0004        150.0004
 -15604250.61649 -12136797.58449  20753568.9324   20753571.3314   20753568.9924
       243.0004        201.0004
 -26875910.45949 -20896695.89049  19838229.2964   19838231.6244   19838229.0684
       246.0004        210.0004
   1473004.12849   1960293.25349  24558353.8634   24558360.7954   24558354.1894
       207.0004        138.0004
 11 10 14  5 22  0.0000000  0  9G22G25G17G15G12G18G27G09G26
  -5279603.18949  -4101468.84649  23698481.2244   23698482.4884   23698480.9484
       219.0004        158.0004
   -330398.55149   -243579.67249  24770528.8924
       209.0004        112.0004
  -9192446.71449  -6925702.84849  22379508.4454   22379511.4304   22379510.0764
       232.0004        181.0004
 -15939546.48349 -12404408.03549  21676460.3154   21676463.4004   21676461.2974
       236.0004        190.0004
 -16188446.76449 -12591349.01549  21881942.4844   21881943.7074   21881942.5174
       234.0004        183.0004
  -9141877.74649  -7108693.24349  23364370.9724   23364371.7674   23364370.9964
       218.0004        149.0004
 -15589913.28549 -12125625.64449  20756297.5254   20756299.6294   20756297.5714
       243.0004        201.0004
 -26898764.58249 -20914504.29249  19833879.5994   19833882.7274   19833879.8014
       246.0004        210.0004
   1594771.86449   2055177.16549  24581524.3884   24581532.3854   24581525.0674
       206.0004        138.0004
 11 10 14  5 22 30.0000000  0  9G22G25G17G15G12G18G27G09G26
  -5279207.34349  -4101160.39249  23698555.2834   23698557.3604   23698555.6774
       214.0004        157.0004
   -438953.37749    -66889.38749  24749868.5854
       207.0004         74.0004
  -9177775.98049  -6914271.11649  22382302.1574   22382302.6834   22382300.8144
       234.0004        180.0004
 -15859603.77649 -12342115.05949  21691674.2734   21691675.9194   21691673.8014
       238.0004        191.0004
 -16272718.40749 -12657015.21349  21865904.0454   21865907.3324   21865905.4324
       232.0004        184.0004
  -9084341.79949  -7063860.05449  23375319.6564   23375320.1804   23375320.7484
       217.0004        150.0004
 -15575287.04349 -12114228.58549  20759080.1624   20759082.9414   20759080.2744
       242.0004        201.0004
 -26921152.78549 -20931949.64049  19829619.7284   19829622.3484   19829619.6854
       246.0004        210.0004
   1716609.05749   2150115.13949  24604709.5434   24604715.0044   24604709.6664
       203.0004        136.0004
 11 10 14  5 23  0.0000000  0  9G22G25G17G15G12G18G27G09G26
  -5278267.63149  -4100428.15449  23698735.9574   23698736.1004   23698735.7764
       217.0004        157.0004
   -547409.61449   -151400.81349  24729228.0594   24729228.5704
       208.0004        129.0004
  -9162525.09649  -6902387.33249  22385202.6524   22385205.0934   22385203.9024
       233.0004        182.0004
 -15779269.96249 -12279517.31349  21706959.6834   21706962.4694   21706960.6864
       236.0004        190.0004
 -16356649.42649 -12722415.97449  21849934.1364   21849936.0914   21849933.8514
       233.0004        183.0004
  -9026407.23449  -7018716.21149  23386344.1784   23386345.1064   23386342.3964
       216.0004        148.0004
 -15560371.51549 -12102606.09749  20761918.1934   20761921.1934   20761918.5634
       242.0004        201.0004
 -26943073.86649 -20949030.99849  19825448.1854   19825450.8404   19825448.1074
       246.0004        210.0004
   1838513.55349   2245105.55349  24627908.3274   24627911.4544   24627910.8384
       203.0004        134.0004
 11 10 14  5 23 30.0000000  0  9G22G25G17G15G12G18G27G09G26
  -5276783.86549  -4099271.94549  23699017.1994   23699018.5834   23699016.2034
       216.0004        154.0004
   -655765.37249   -235833.61849  24708611.4584   24708619.0654   24708609.4744
       208.0004        141.0004
  -9146695.27449  -6890052.41049  22388215.3284   22388217.3444   22388214.9884
       233.0004        181.0004
 -15698546.58849 -12216616.02349  21722321.7794   21722323.7584   21722321.6034
       237.0004        189.0004
 -16440238.22949 -12787550.09649  21834028.1064   21834029.5094   21834028.5044
       235.0004        184.0004
  -8968076.07849  -6973263.37249  23397442.8644   23397445.8084   23397442.7314
       214.0004        150.0004
 -15545166.10449 -12090757.72849  20764811.5654   20764814.8804   20764811.8294
       242.0004        201.0004
 -26964526.43749 -20965747.28549  19821366.1044   19821368.3344   19821365.6944
       245.0004        209.0004
   1960484.00549   2340147.39249  24651118.4764   24651124.4054   24651121.4084
       203.0004        136.0004
 11 10 14  5 24  0.0000000  0  9G22G25G17G15G12G18G27G09G26
  -5274757.37649  -4097692.86749  23699403.0294   23699404.0474   23699402.8794
       217.0004        155.0004
   -764019.84249   -320187.69349  24688008.0864   24688017.0814   24688010.3914
       209.0004        142.0004
  -9130286.96649  -6877266.72849  22391338.3894   22391340.1664   22391339.1464
       233.0004        183.0004
 -15617435.88449 -12153412.90849  21737755.6354   21737759.0004   21737756.3904
       235.0004        190.0004
 -16523483.97649 -12852416.88849  21818186.1964   21818187.9714   21818186.7864
       234.0004        185.0004
  -8909351.11849  -6927503.66849  23408618.1544   23408620.3064   23408616.8214
       212.0004        147.0004
 -15529671.33349 -12078683.88149  20767760.2064   20767763.5014   20767760.5224
       241.0004        201.0004
 -26985510.30049 -20982098.34449  19817372.6774   19817375.2484   19817372.5554
       245.0004        209.0004
   2082517.68149   2435238.46349  24674343.8884   24674344.6794   24674341.0834
       207.0004        136.0004
 11 10 14  5 24 30.0000000  0  9G22G25G17G15G12G18G27G09G26
  -5272187.62149  -4095690.44549  23699891.5384   23699893.7124   23699891.9224
       215.0004        156.0004
   -872170.84149   -404461.14049  24667431.5394   24667437.2484   24667431.2124
       211.0004        143.0004
  -9113300.08049  -6864030.20849  22394569.7114   22394573.0454   22394570.2924
       233.0004        183.0004
 -15535939.20749 -12089909.03249  21753263.5994   21753267.5314   21753264.6174
       235.0004        189.0004
 -16606384.55749 -12917014.72449  21802411.0484   21802412.5404   21802411.4994
       235.0004        185.0004
  -8850233.95649  -6881438.37549  23419869.2444   23419870.0804   23419870.7544
       214.0004        144.0004
 -15513886.38549 -12066383.91949  20770763.9414   20770767.2194   20770763.9734
       241.0004        201.0004
 -27006023.72249 -20998082.83149  19813469.4794   19813471.6674   19813469.2334
       246.0004        210.0004
   2204613.21449   2530377.73249  24697575.1904   24697579.3824   24697575.3004
       209.0004        140.0004
 11 10 14  5 25  0.0000000  0  9G22G25G17G15G12G18G27G09G26
  -5269075.87149  -4093265.71449  23700484.7464   23700485.6404   23700483.8624
       215.0004        157.0004
   -980217.96649   -488653.63149  24646871.1854   24646874.6184   24646870.2134
       211.0004        143.0004
  -9095736.03649  -6850343.96249  22397912.4154   22397915.1224   22397913.0874
       233.0004        183.0004
 -15454059.61049 -12026106.79049  21768847.3834   21768849.0324   21768847.0124
       237.0004        189.0004
 -16688939.45149 -12981343.18249  21786702.8834   21786703.7194   21786702.1684
       235.0004        186.0004
  -8790728.14049  -6835070.19949  23431193.4094   23431193.8724   23431193.0094
       217.0004        149.0004
 -15497812.01449 -12053858.44649  20773823.1574   20773826.2644   20773823.0384
       242.0004        201.0004
 -27026067.21149 -21013701.13449  19809655.5774   19809657.5054   19809655.4274
       246.0004        210.0004
   2326767.63949   2625562.92049  24720820.3344   24720826.9214   24720821.0554
       210.0004        143.0004
 11 10 14  5 25 30.0000000  0  9G22G25G17G15G12G18G27G09G26
  -5265421.98549  -4090418.49149  23701180.5574   23701180.4334   23701179.5834
       218.0004        156.0004
  -1088158.76749   -572763.25249  24626331.2654   24626333.8804   24626329.7924
       215.0004        145.0004
  -9077594.48949  -6836207.70649  22401364.8264   22401366.7324   22401365.2754
       233.0004        181.0004
 -15371797.87949 -11962006.78149  21784499.2274   21784502.8924   21784500.3484
       235.0004        189.0004
 -16771146.37049 -13045400.50049  21771056.5154   21771060.0704   21771057.5114
       233.0004        186.0004
  -8730835.42249  -6788400.57549  23442591.3454   23442589.3064   23442590.4404
       218.0004        147.0004
 -15481447.07149 -12041106.55749  20776937.1944   20776940.3094   20776937.0484
       241.0004        201.0004
 -27045638.82349 -21028951.74049  19805930.8924   19805933.0284   19805930.6064
       245.0004        210.0004
   2448979.96049   2720793.18749  24744077.2174   24744080.2824   24744076.6044
       210.0004        140.0004
 11 10 14  5 26  0.0000000  0  9G22G25G17G15G12G18G27G09G26
  -5261227.10549  -4087149.76049  23701977.1444   23701977.5764   23701976.3154
       214.0004        153.0004
  -1195992.77249   -656789.63549  24605812.0364   24605814.8284   24605809.9794
       215.0004        145.0004
  -9058876.79049  -6821622.48849  22404927.4094   22404929.0374   22404927.9314
       234.0004        181.0004
 -15289157.04249 -11897611.36149  21800225.3544   21800228.5654   21800226.2894
       235.0004        189.0004
 -16853005.09849 -13109186.50949  21755481.0294   21755482.7834   21755481.5244
       235.0004        187.0004
  -8670559.14449  -6741432.02549  23454060.0144   23454061.4844   23454059.3564
       215.0004        147.0004
 -15464792.47149 -12028128.96049  20780106.1674   20780109.4494   20780106.4504
       242.0004        201.0004
 -27064738.68749 -21043834.74749  19802295.6974   19802298.6194   19802295.9344
       245.0004        210.0004
   2571247.11349   2816066.19849  24767343.4344   24767348.5064   24767343.7504
       208.0004        137.0004
 11 10 14  5 26 30.0000000  0  9G22G25G17G15G12G18G27G09G26
  -5256491.46649  -4083459.63449  23702880.2134   23702880.3924   23702879.2694
       219.0004        154.0004
  -1303718.34249   -740731.55649  24585310.8284   24585315.7984   24585309.6924
       211.0004        146.0004
  -9039583.45849  -6806588.73549  22408597.3234   22408600.0114   22408597.8854
       232.0004        182.0004
 -15206138.56449 -11832921.68249  21816024.1784   21816026.4144   21816024.4124
       236.0004        189.0004
 -16934514.47149 -13172700.27649  21739970.6784   21739971.9684   21739969.7954
       236.0004        187.0004
  -8609901.34549  -6694166.21949  23465601.6584   23465604.0374   23465601.2504
       213.0004        146.0004
 -15447847.75949 -12014925.30249  20783331.2684   20783333.8394   20783331.2204
       242.0004        201.0004
 -27083365.82749 -21058349.39449  19798751.1814   19798753.8484   19798751.1144
       245.0004        209.0004
   2693567.29149   2911380.51749  24790621.2154   24790625.7194   24790621.4244
       206.0004        135.0004
 11 10 14  5 27  0.0000000  0  9G22G25G17G15G12G18G27G09G26
  -5251214.96749  -4079348.07449  23703883.7774   23703883.6964   23703883.4244
       218.0004        154.0004
  -1411333.66149   -824587.55749  24564827.0124   24564836.4264   24564830.7754
       208.0004        146.0004
  -9019714.62449  -6791106.52349  22412378.7204   22412381.6174   22412379.3704
       233.0004        181.0004
 -15122744.18549 -11767939.08849  21831893.2114   21831896.2144   21831893.8454
       235.0004        188.0004
 -17015672.11449 -13235939.97349  21724524.9864   21724528.1894   21724525.7154
       234.0004        187.0004
  -8548863.96549  -6646604.61149  23477216.8134   23477219.1364   23477217.4844
       214.0004        147.0004
 -15430612.37949 -12001495.14949  20786610.9534   20786613.5314   20786610.5414
       242.0004        201.0004
 -27101518.94249 -21072494.68349  19795297.6374   19795299.5124   19795297.3284
       246.0004        210.0004
   2815938.87249   3006734.89549  24813907.2264   24813910.9504   24813906.7964
       207.0004        136.0004
 11 10 14  5 27 30.0000000  0  9G22G25G17G15G12G18G27G09G26
  -5245399.53549  -4074816.54349  23704990.6934   23704990.6634   23704988.4214
       216.0004        154.0004
  -1518837.95249   -908357.06949  24544371.5064   24544378.9264   24544372.4184
       207.0004        144.0004
  -8999271.64949  -6775176.95349  22416269.6304   22416271.3984   22416269.3954
       235.0004        182.0004
 -15038976.44349 -11702665.56649  21847832.7154   21847836.6614   21847833.8464
       234.0004        188.0004
 -17096477.49849 -13298905.20249  21709149.2264   21709151.4384   21709150.0224
       235.0004        187.0004
  -8487450.39049  -6598749.91249  23488903.9144   23488905.1544   23488904.0054
       213.0004        145.0004
 -15413086.86649 -11987838.91749  20789945.9614   20789948.8674   20789946.0264
       242.0004        201.0004
 -27119198.06849 -21086270.63049  19791933.1854   19791935.2394   19791932.8794
       246.0004        210.0004
   2938359.32649   3102127.38549  24837204.4174   24837210.3004   24837203.3824
       210.0004        134.0004
 11 10 14  5 28  0.0000000  0  9G22G25G17G15G12G18G27G09G26
  -5239044.65249  -4069864.68849  23706201.1264   23706200.4924   23706199.3254
       217.0004        155.0004
  -1626229.30649   -992038.55449  24523938.1104   24523943.5914   24523936.9594
       206.0004        143.0004
  -8978254.58149  -6758800.02649  22420269.0904   22420270.9194   22420268.9324
       234.0004        182.0004
 -14954836.84649 -11637102.28949  21863844.6544   21863848.3994   21863845.1864
       235.0004        187.0004
 -17176928.80849 -13361594.51549  21693840.3384   21693841.2964   21693840.4184
       236.0004        187.0004
  -8425662.54549  -6550603.53149  23500662.2304   23500662.3504   23500661.3994
       214.0004        148.0004
 -15395270.71349 -11973956.21249  20793335.7334   20793339.2054   20793335.7574
       241.0004        201.0004
 -27136401.62449 -21099676.00449  19788659.1004   19788661.7354   19788659.2124
       246.0004        210.0004
   3060827.01649   3197556.64349  24860508.6904   24860514.3784   24860507.4594
       209.0004        134.0004
 11 10 14  5 28 30.0000000  0  9G22G25G17G15G12G18G27G09G26
  -5232150.98549  -4064493.00249  23707511.9534   23707510.1334   23707511.6274
       219.0004        155.0004
  -1733506.51349  -1075631.07149  24503522.8384   24503529.0004   24503522.2564
       206.0004        142.0004
  -8956664.43149  -6741976.55249  22424375.7474   22424378.9064   22424376.7894
       232.0004        180.0004
 -14870327.36549 -11571250.79049  21879927.5784   21879929.5784   21879927.3234
       235.0004        187.0004
 -17257025.21249 -13424007.27149  21678597.9364   21678599.8654   21678597.5654
       235.0004        187.0004
  -8363503.35449  -6502167.80549  23512489.5044   23512491.9944   23512489.2164
       212.0004        145.0004
 -15377163.81549 -11959846.95749  20796781.5104   20796784.4534   20796781.5644
       241.0004        201.0004
 -27153129.13749 -21112710.43649  19785475.8554   19785478.7134   19785475.9564
       246.0004        210.0004
   3183339.74049   3293021.00249  24883822.1524   24883828.5784   24883823.6104
       203.0004        133.0004
 11 10 14  5 29  0.0000000  0  9G22G25G17G15G12G18G27G09G26
  -5224719.49749  -4058702.22049  23708925.5964   23708925.8264   23708925.1984
       215.0004        153.0004
  -1840668.37549  -1159133.74649  24483130.6954   24483136.8234   24483129.7144
       208.0004        141.0004
  -8934501.94849  -6724707.09149  22428595.4014   22428595.9444   22428595.5874
       235.0004        180.0004
 -14785450.65349 -11505113.12949  21896077.0304   21896080.8344   21896078.6724
       233.0004        186.0004
 -17336765.61249 -13486142.63649  21663423.9324   21663426.0074   21663424.3224
       235.0004        187.0004
  -8300975.26949  -6453444.62149  23524391.0354   23524391.6314   23524389.4404
       216.0004        147.0004
 -15358766.40849 -11945511.32449  20800282.3824   20800285.5574   20800282.2414
       241.0004        201.0004
 -27169380.21949 -21125373.61349  19782383.5174   19782385.8714   19782383.4314
       247.0004        210.0004
   3305895.36049   3388518.78649  24907143.2054   24907145.2494   24907145.2694
       202.0004        130.0004
 11 10 14  5 29 30.0000000  0  9G22G25G17G15G12G18G27G09G26
  -5216750.46049  -4052492.58249  23710443.3994   23710442.4564   23710442.0174
       216.0004        152.0004
  -1947713.11249  -1242545.13849  24462758.9284   24462766.9004   24462758.2544
       206.0004        141.0004
  -8911767.60849  -6706992.03549  22432921.0624   22432923.2184   22432921.2444
       235.0004        182.0004
 -14700208.08049 -11438690.38249  21912299.6284   21912301.6544   21912299.7464
       235.0004        186.0004
 -17416148.60449 -13547999.48649  21648319.2244   21648319.1504   21648318.0054
       236.0004        187.0004
  -8238080.39749  -6404435.66349  23536355.6694   23536358.6094   23536356.7294
       212.0004        147.0004
 -15340078.00649 -11930948.94849  20803839.1774   20803841.7044   20803838.9664
       243.0004        201.0004
 -27185153.58149 -21137664.55049  19779382.1454   19779384.1924   19779382.0274
       246.0004        210.0004
   3428491.86349   3484048.43249  24930472.4124   24930481.9784   24930470.1864
       196.0004        126.0004
 11 10 14  5 30  0.0000000  0  9G22G25G17G15G12G18G27G09G26
  -5208245.42749  -4045865.29849  23712060.7304   23712060.4984   23712060.3934
       217.0004        154.0004
  -2054639.96749  -1325864.72449  24442415.8754   24442419.1314   24442415.0574
       210.0004        141.0004
  -8888462.82849  -6688832.48149  22437356.0404   22437357.9394   22437355.5694
       233.0004        181.0004
 -14614602.61549 -11371984.87549  21928590.6914   21928592.6464   21928590.6464
       234.0004        186.0004
 -17495173.21449 -13609577.09549  21633278.6504   21633281.0144   21633280.0534
       234.0004        186.0004
  -8174822.12049  -6355143.49649  23548393.5434   23548397.0944   23548395.8464
       211.0004        143.0004
 -15321099.09349 -11916160.20149  20807451.0024   20807453.3364   20807450.8404
       242.0004        201.0004
 -27200449.16549 -21149583.19449  19776471.3884   19776474.1064   19776471.2744
       247.0004        210.0004
   3551126.96649   3579608.16949  24953810.3524   24953810.7794   24953810.1724
       195.0004        125.0004
 11 10 14  5 30 30.0000000  0  9G22G25G17G15G12G18G27G09G26
  -5199204.05849  -4038820.04849  23713781.9104   23713781.0014   23713780.2534
       216.0004        154.0004
  -2161446.96449  -1409090.86949  24422088.5224   24422094.1684   24422088.7394
       211.0004        140.0004
  -8864587.62949  -6670228.45849  22441897.8864   22441900.5504   22441899.0864
       233.0004        179.0004
 -14528635.20549 -11304997.32749  21944947.9134   21944951.0484   21944949.0334
       233.0004        186.0004
 -17573837.61349 -13670874.01749  21618309.9884   21618312.2844   21618311.2944
       234.0004        187.0004
  -8111202.82849  -6305570.04349  23560504.5654   23560503.3754   23560502.6044
       214.0004        143.0004
 -15301828.74349 -11901144.35249  20811117.6424   20811120.4384   20811117.9244
       243.0004        201.0004
 -27215265.52749 -21161128.42049  19773652.0474   19773654.2864   19773652.1454
       246.0004        210.0004
   3673799.36849   3675196.94949  24977152.4164   24977160.8774   24977153.5664
       190.0004        122.0004
 11 10 14  5 31  0.0000000  0  9G22G25G17G15G12G18G27G09G26
  -5189627.55649  -4031357.84049  23715602.2064   23715603.2814   23715602.6444
       214.0004        154.0004
  -2268132.85049  -1492222.65249  24401789.2034   24401793.0384   24401788.1744
       212.0004        143.0004
  -8840143.26249  -6651180.91049  22446550.7454   22446552.8164   22446551.5384
       234.0004        181.0004
 -14442308.33149 -11237729.67349  21961375.8214   21961378.7464   21961376.2704
       234.0004        186.0004
 -17652141.15849 -13731889.74049  21603410.4964   21603411.7554   21603410.6264
       235.0004        187.0004
  -8047224.53549  -6255716.84149  23572674.8834   23572677.2654   23572675.5844
       211.0004        143.0004
 -15282267.15049 -11885901.55049  20814839.8954   20814843.1364   20814839.7944
       242.0004        201.0004
 -27229602.03549 -21172299.72949  19770923.3104   19770926.4234   19770923.3884
       246.0004        210.0004
   3796506.46949   3770812.73149  25000502.3424   25000511.5294   25000503.9454
       190.0004        121.0004
 11 10 14  5 31 30.0000000  0  9G22G25G17G15G12G18G27G09G26
  -5179516.55549  -4023479.12049  23717526.4354   23717527.9724   23717524.8564
       212.0004        153.0004
  -2374696.41049  -1575259.13949  24381507.4914   24381513.6694   24381507.4604
       214.0004        143.0004
  -8815130.57549  -6631690.51449  22451310.3134   22451312.6194   22451311.0694
       234.0004        181.0004
 -14355624.05449 -11170183.53149  21977872.7734   21977874.7464   21977872.5274
       234.0004        186.0004
 -17730082.19449 -13792622.98649  21588577.6374   21588580.0924   21588578.5274
       235.0004        187.0004
  -7982890.17249  -6205586.15449  23584918.9064   23584920.2074   23584916.8674
       215.0004        143.0004
 -15262414.31349 -11870431.80849  20818618.0384   20818621.0774   20818618.3274
       242.0004        202.0004
 -27243458.29149 -21183096.81649  19768286.8964   19768289.7334   19768286.7374
       246.0004        210.0004
   3919246.21349   3866453.97649  25023860.9434                   25023866.5114
       192.0004        121.0004
 11 10 14  5 32  0.0000000  0  9G22G25G17G15G12G18G27G09G26
  -5168871.79849  -4015184.51349  23719553.4634   23719553.7164   23719552.4494
       215.0004        153.0004
  -2481136.22949  -1658199.20549  24361256.5564   24361260.4634   24361255.3474
       215.0004        146.0004
  -8789550.24549  -6611757.81049  22456178.7014   22456180.2174   22456178.5124
       234.0004        179.0004
 -14268584.68449 -11102360.69349  21994434.8324   21994438.2294   21994435.4294
       233.0004        186.0004
 -17807659.88749 -13853073.12849  21573814.9104   21573817.2324   21573815.7194
       234.0004        187.0004
  -7918202.67349  -6155180.32349  23597229.4884   23597231.3984   23597227.7404
       211.0004        144.0004
 -15242270.07849 -11854735.01649  20822451.6244   20822454.3794   20822451.6614
       243.0004        202.0004
 -27256833.66649 -21193519.19849  19765741.6314   19765744.3384   19765741.7104
       247.0004        210.0004
   4042016.58649   3962119.10349  25047221.3574                   25047217.4204
       191.0004        119.0004
 11 10 14  5 32 30.0000000  0  9G22G25G17G15G12G18G27G09G26
  -5157694.03949  -4006474.56949  23721679.0714   23721680.6294   23721679.3864
       213.0004        155.0004
  -2587450.83549  -1741041.70249  24341020.2224   24341027.8024   24341022.1544
       212.0004        148.0004
  -8763402.92349  -6591383.29349  22461154.0654   22461155.9874   22461154.4254
       233.0004        180.0004
 -14181191.99849 -11034262.53249  22011064.8694   22011068.5574   22011065.6244
       235.0004        186.0004
 -17884872.82249 -13913239.03049  21559122.3864   21559124.7674   21559123.2154
       236.0004        188.0004
  -7853164.38449  -6104501.13349  23609603.6134   23609607.7394   23609603.5684
       213.0004        147.0004
 -15221834.22249 -11838810.98849  20826340.3784   20826343.1034   20826340.4304
       242.0004        202.0004
 -27269727.17149 -21203566.08849  19763288.6154   19763290.6474   19763288.2664
       247.0004        210.0004
   4164815.81749   4057806.64049  25070595.6664                   25070591.7134
       193.0004        118.0004
 11 10 14  5 33  0.0000000  0  9G22G25G17G15G12G18G27G09G26
  -5145984.29949  -3997350.06849  23723906.1424   23723909.7784   23723906.0794
       214.0004        155.0004
  -2693639.04949  -1823785.69249  24320817.6304   24320820.5954   24320814.8074
       215.0004        147.0004
  -8736689.94349  -6570567.99049  22466236.0854   22466240.4214   22466236.4114
       232.0004        181.0004
 -14093448.17049 -10965890.76649  22027763.1004   22027764.8564   22027763.4174
       234.0004        185.0004
 -17961720.28349 -13973120.14449  21544498.3434   21544500.7364   21544498.7284
       236.0004        188.0004
  -7787778.04649  -6053550.78749  23622050.4194   23622049.1034   23622050.2204
       215.0004        147.0004
 -15201107.03949 -11822659.94349  20830284.2774   20830287.5584   20830283.9294
       242.0004        201.0004
 -27282138.38249 -21213237.17049  19760926.8634   19760928.9814   19760926.3284
       247.0004        210.0004
   4287641.61649     31011.87049  25093966.2384
       191.0004         74.0004
 11 10 14  5 33 30.0000000  0  9G22G25G17G15G12G18G27G09G26
  -5133743.15349  -3987811.52549  23726237.5574   23726237.7984   23726237.3074
       216.0004        156.0004
  -2799699.42349  -1906430.08449  24300631.1474   24300638.2184   24300632.4534
       211.0004        147.0004
  -8709412.18449  -6549312.61749  22471427.9634   22471429.5564   22471428.2034
       233.0004        181.0004
 -14005355.45549 -10897247.13849  22044524.9464   22044528.4674   22044526.1474
       232.0004        184.0004
 -18038200.68849 -14032715.25949  21529944.4644   21529946.5454   21529944.8314
       235.0004        188.0004
  -7722046.47249  -6002331.39049  23634555.6274   23634557.9444   23634554.0874
       212.0004        143.0004
 -15180088.29349 -11806281.72049  20834283.9694   20834287.0804   20834284.0724
       242.0004        201.0004
 -27294066.62949 -21222531.91749  19758656.2424   19758659.1434   19758656.2644
       246.0004        210.0004
   4410491.97349    126776.10949  25117344.9294
       186.0004        106.0004
 11 10 14  5 34  0.0000000  0  9G22G25G17G15G12G18G27G09G26
  -5120971.41549  -3977859.50049  23728666.8504   23728668.9124   23728667.1324
       214.0004        155.0004
  -2905630.50949  -1988973.72349  24280475.5264   24280479.9334   24280475.6684
       215.0004        147.0004
  -8681570.50049  -6527617.83449  22476726.9704   22476728.6784   22476726.8934
       236.0004        182.0004
 -13916915.83349 -10828333.18249  22061355.0464   22061358.6774   22061356.0574
       234.0004        185.0004
 -18114313.07549 -14092023.59849  21515461.7094   21515463.3514   21515461.8794
       236.0004        189.0004
  -7655971.84449  -5950844.65149  23647127.7204   23647131.9474   23647129.8734
       213.0004        144.0004
 -15158777.86949 -11789676.21549  20838339.4864   20838342.4574   20838339.6414
       242.0004        202.0004
 -27305511.11449 -21231449.71249  19756478.7854   19756481.2174   19756478.8534
       246.0004        210.0004
   4533364.83559    222597.30259  25140724.0404
       176.0004        107.0004
 11 10 14  5 34 30.0000000  0  9G22G25G17G15G12G18G27G09G26
  -5107670.22449  -3967494.95449  23731200.7094   23731199.1134   23731199.8274
       218.0004        156.0004
  -3011431.14749  -2071415.73249  24260342.8854   24260346.9014   24260341.8594
       212.0004        146.0004
  -8653165.83349  -6505484.35549  22482131.8934   22482133.5674   22482132.8684
       236.0004        182.0004
 -13828131.34649 -10759150.50549  22078250.5344   22078253.5374   22078250.5844
       233.0004        184.0004
 -18190056.10249 -14151044.11649  21501047.9014   21501050.1614   21501048.6464
       236.0004        189.0004
  -7589556.76349  -5899092.63849  23659766.3794   23659771.0154   23659767.1944
       211.0004        144.0004
 -15137175.58049 -11772843.27749  20842449.5714   20842453.3414   20842450.2724
       241.0004        201.0004
 -27316471.19749 -21239990.03349  19754392.7884   19754395.6784   19754392.8074
       246.0004        210.0004
   4656258.30149     23175.10549  25164116.2154
       182.0004         74.0004
 11 10 14  5 35  0.0000000  0  8G22G25G17G15G12G18G27G09
  -5093840.35849  -3956718.43349  23733831.1314   23733830.9734   23733830.6144
       215.0004        155.0004
  -3117100.08349  -2153755.08049  24240233.1834   24240238.6584   24240231.8264
       214.0004        146.0004
  -8624199.40049  -6482913.10549  22487643.2244   22487645.7484   22487643.0944
       233.0004        180.0004
 -13739004.54149 -10689701.09949  22095210.1384   22095214.0734   22095211.1304
       233.0004        183.0004
 -18265428.65449 -14209775.95449  21486704.1914   21486707.0244   21486705.0794
       236.0004        189.0004
  -7522804.43249  -5847077.85749  23672470.1604   23672473.6474   23672471.4514
       213.0004        147.0004
 -15115281.66649 -11755783.10349  20846616.6794   20846619.4124   20846616.6574
       243.0004        202.0004
 -27326946.58249 -21248152.68049  19752399.9434   19752402.2894   19752399.7824
       247.0004        210.0004
 11 10 14  5 35 30.0000000  0  8G22G25G17G15G12G18G27G09
  -5079482.14849  -3945530.23049  23736562.3984   23736562.1134   23736563.4474
       215.0004        153.0004
  -3222635.30449  -2235990.28749  24220149.7754   24220155.1464   24220149.8844
       215.0004        146.0004
  -8594671.43649  -6459904.34049  22493262.9354   22493264.5334   22493263.4744
       234.0004        180.0004
 -13649537.02049 -10619986.18349  22112235.8834   22112238.4224   22112236.0584
       232.0004        184.0004
 -18340429.54749 -14268218.20049  21472432.9714   21472434.8774   21472433.6484
       237.0004        191.0004
  -7455716.98049  -5794801.94549  23685237.6524   23685238.8944   23685236.6234
       212.0004        144.0004
 -15093095.31649 -11738495.05549  20850838.3914   20850841.4414   20850838.4874
       243.0004        202.0004
 -27336936.03549 -21255936.67949  19750498.8774   19750501.2994   19750499.2254
       246.0004        210.0004
 11 10 14  5 36  0.0000000  0  8G22G25G17G15G12G18G27G09
  -5064597.84749  -3933932.05749  23739395.9484   23739395.3244   23739395.1814
       215.0004        152.0004
  -3328036.30149  -2318120.88949  24200093.8484   24200099.5044   24200093.4234
       217.0004        148.0004
  -8564584.00749  -6436459.60749  22498988.5294   22498989.9224   22498987.9294
       233.0004        180.0004
 -13559731.49149 -10550007.89349  22129324.7194   22129328.3844   22129324.8734
       232.0004        183.0004
 -18415058.53049 -14326370.63449  21458231.7854   21458233.0334   21458231.6984
       237.0004        190.0004
  -7388297.81549  -5742267.51649  23698064.0024   23698067.3334   23698064.5364
       212.0004        142.0004
 -15070617.36849 -11720979.79249  20855115.9594   20855118.6984   20855115.7914
       242.0004        202.0004
 -27346439.59449 -21263342.06549  19748690.6024   19748693.1714   19748690.6724
       246.0004        210.0004
 11 10 14  5 36 30.0000000  0  8G22G25G17G15G12G18G27G09
  -5049187.08349  -3921923.67649  23742325.8214   23742327.1934   23742326.9444
       213.0004        152.0004
  -3433301.01149  -2400145.31749  24180065.3604   24180067.8124   24180063.3584
       215.0004        147.0004
  -8533937.32849  -6412579.09949  22504819.0834   22504822.5954   22504820.0364
       232.0004        182.0004
 -13469589.38649 -10479767.34749  22146480.0584   22146481.9614   22146479.4624
       234.0004        183.0004
 -18489313.15049 -14384231.37049  21444101.0374   21444102.8004   21444101.3914
       237.0004        191.0004
  -7320549.16049  -5689476.35949  23710957.5334   23710962.2954   23710955.7594
       212.0004        143.0004
 -15047847.00549 -11703236.66049  20859449.2974   20859451.6994   20859448.8234
       243.0004        202.0004
 -27355456.16349 -21270367.97249  19746974.2204   19746977.1224   19746974.0724
       245.0004        210.0004
 11 10 14  5 37  0.0000000  0  8G22G25G17G15G12G18G27G09
  -5033251.11749  -3909506.05249  23745361.0474   23745360.3324   23745360.1684
       215.0004        153.0004
  -3538428.24549  -2482062.58249  24160053.4344   24160061.2974   24160055.7894
       207.0004        146.0004
  -8502732.45349  -6388263.64349  22510757.9174   22510759.7974   22510758.0924
       232.0004        180.0004
 -13379112.95649 -10409266.28549  22163696.8124   22163699.2884   22163696.5484
       233.0004        183.0004
 -18563192.70849 -14441799.84649  21430042.5684   21430044.4914   21430042.6594
       237.0004        191.0004
  -7252473.57749  -5636430.51649  23723912.4474   23723915.2144   23723912.6134
       212.0004        143.0004
 -15024784.03349 -11685265.53149  20863837.9174   20863840.8374   20863837.8434
       243.0004        202.0004
 -27363984.69249 -21277013.58649  19745351.6014   19745354.2784   19745351.5714
       246.0004        210.0004
 11 10 14  5 37 30.0000000  0  8G22G25G17G15G12G18G27G09
  -5016791.78249  -3896680.58249  23748492.6654   23748492.1034   23748490.9674
       215.0004        152.0004
  -3643417.33949  -2563872.21049  24140081.5884   24140083.3714   24140079.3754
       216.0004        148.0004
  -8470971.32949  -6363514.73949  22516802.5904   22516803.6764   22516802.2164
       233.0004        179.0004
 -13288305.11949 -10338506.97849  22180974.8344   22180979.5314   22180976.7794
       233.0004        183.0004
 -18636697.01949 -14499075.92449  21416054.9244   21416056.9264   21416054.9544
       237.0004        191.0004
  -7184074.46149  -5583132.49049  23736929.0684   23736931.2494   23736927.4694
       214.0004        144.0004
 -15001429.49649 -11667067.21049  20868281.3414   20868285.0914   20868281.4124
       243.0004        202.0004
 -27372025.80749 -21283279.40549  19743821.4104   19743824.0394   19743821.3384
       246.0004        210.0004
 11 10 14  5 38  0.0000000  0  8G22G25G17G15G12G18G27G09
  -4999809.31349  -3883447.49649  23751723.4944   23751725.1184   23751722.5324
       213.0004        152.0004
  -3748266.51749  -2645572.83049  24120127.3764   24120131.1184   24120125.8024
       213.0004        147.0004
  -8438654.81749  -6338333.07249  22522950.3764   22522953.5844   22522950.5044
       228.0004        178.0004
 -13197167.81149 -10267490.94949  22198320.6914   22198322.7104   22198319.8984
       233.0004        183.0004
 -18709824.12949 -14556058.07749  21402138.6924   21402141.0264   21402139.3064
       236.0004        191.0004
  -7115353.88049  -5529583.99449  23750007.8834   23750007.4384   23750006.4104
       212.0004        144.0004
 -14977782.74349 -11648641.18649  20872781.8064   20872784.4344   20872781.6754
       243.0004        201.0004
 -27379578.48349 -21289164.62549  19742384.8834   19742386.6644   19742384.7034
       247.0004        210.0004
 11 10 14  5 38 30.0000000  0  9G22G25G17G15G12G14G18G27G09
  -4982305.18849  -3869807.92149  23755053.4504   23755055.1514   23755053.3974
       212.0004        152.0004
  -3852974.61649  -2727163.50849  24100201.5254   24100206.7654   24100201.0904
       216.0004        150.0004
  -8405783.75149  -6312719.29549  22529206.8894   22529209.5714   22529207.2474
       232.0004        179.0004
 -13105703.08149 -10196219.79049  22215724.1964   22215727.9044   22215724.7054
       231.0004        182.0004
 -18782573.80349 -14612746.12549  21388295.4234   21388297.3514   21388295.6874
       237.0004        192.0004
    -36135.15149     -5990.23249  24290067.8214
       205.0004         74.0004
  -7046314.97649  -5475787.45249  23763141.5674   23763144.6514   23763140.2904
       206.0004        140.0004
 -14953843.81949 -11629987.49649  20877336.9934   20877340.1254   20877337.1974
       243.0004        202.0004
 -27386642.24349 -21294668.86349  19741039.5744   19741042.8364   19741039.7604
       245.0004        210.0004
 11 10 14  5 39  0.0000000  0  9G22G25G17G15G12G14G18G27G09
  -4964279.36849  -3855761.83549  23758484.3084   23758485.7964   23758484.5874
       213.0004        151.0004
  -3957539.26649  -2808642.41849  24080302.6104   24080308.1104   24080302.7384
       215.0004        150.0004
  -8372358.59249  -6286673.73049  22535567.2814   22535568.5434   22535567.0654
       231.0004        178.0004
 -13013912.10249 -10124694.39649  22233190.6824   22233194.2504   22233191.5454
       231.0004        181.0004
 -18854943.51049 -14669138.08949  21374524.1114   21374525.8514   21374524.3394
       237.0004        192.0004
   -138088.54749    -85434.43249  24270667.0734
       207.0004        122.0004
  -6976959.47949  -5421744.24949  23776340.3174   23776342.3724   23776339.4174
       212.0004        140.0004
 -14929611.48549 -11611105.17649  20881949.0834   20881951.3154   20881949.0334
       243.0004        202.0004
 -27393215.58749 -21299790.95449  19739788.2704   19739791.9604   19739788.8854
       246.0004        210.0004
 11 10 14  5 39 30.0000000  0  8G22G25G17G15G12G18G27G09
  -4945734.12049  -3841310.97049  23762014.2824   23762014.2914   23762013.7214
       214.0004        151.0004
  -4061960.30549  -2890009.42749  24060432.2024   24060438.6354   24060431.9294
       215.0004        150.0004
  -8338381.60649  -6260198.18849  22542032.9744   22542034.8004   22542033.9124
       232.0004        179.0004
 -12921798.49949 -10052917.60649  22250720.0704   22250722.8304   22250719.3734
       231.0004        181.0004
 -18926933.01649 -14725233.79449  21360824.1364   21360826.7214   21360824.4794
       237.0004        191.0004
  -6907291.62449  -5367457.57949  23789597.1054   23789601.5624   23789596.6994
       212.0004        143.0004
 -14905086.74249 -11591994.99449  20886615.6424   20886618.2824   20886615.5364
       244.0004        202.0004
 -27399299.03549 -21304531.31849  19738631.8784   19738634.0444   19738631.6344
       246.0004        210.0004
 11 10 14  5 40  0.0000000  0  9G22G25G17G15G12G14G18G27G09
  -4926670.46749  -3826456.19249  23765643.5164   23765642.7024   23765642.5144
       215.0004        153.0004
  -4166236.24149  -2971263.37749  24040585.6304   24040595.0224   24040588.0054
       209.0004        148.0004
  -8303853.92449  -6233293.53449  22548603.1004   22548605.4994   22548603.2454
       231.0004        180.0004
 -12829364.10749  -9980890.86749  22268309.2904   22268312.7444   22268309.8484
       231.0004        180.0004
 -18998541.53149 -14781032.63649  21347197.8044   21347199.9704   21347198.2294
       237.0004        192.0004
   -341452.69249   -243900.06949  24231967.8354   24231968.7304
       203.0004        137.0004
  -6837313.71249  -5312929.33849  23802915.2154   23802915.1454   23802913.8624
       210.0004        141.0004
 -14880269.48149 -11572656.88849  20891338.4724   20891340.7244   20891338.5484
       244.0004        202.0004
 -27404892.03749 -21308889.51249  19737567.4064   19737569.8064   19737567.4634
       247.0004        210.0004
 11 10 14  5 40 30.0000000  0  9G22G25G17G15G12G14G18G27G09
  -4907088.31349  -3811197.37049  23769368.2704   23769369.5484   23769367.3304
       214.0004        153.0004
  -4270364.70449  -3052402.39849  24020774.7144   24020779.8714   24020773.4214
       212.0004        147.0004
  -8268775.57049  -6205959.78149  22555278.0674   22555280.9644   22555278.6124
       230.0004        180.0004
 -12736609.90649  -9908614.92449  22285961.9054   22285962.5664   22285961.0454
       232.0004        179.0004
 -19069767.15949 -14836533.11049  21333644.6564   21333645.7844   21333644.5794
       237.0004        192.0004
   -442857.10649   -322916.42649  24212670.8374   24212672.0904   24212671.0774
       207.0004        142.0004
  -6767027.17749  -5258160.63749  23816288.4264   23816291.0874   23816289.6174
       208.0004        138.0004
 -14855158.74149 -11553090.08649  20896116.5914   20896118.9874   20896116.3724
       244.0004        201.0004
 -27409992.63749 -21312864.02149  19736597.2234   19736599.0174   19736597.2374
       247.0004        210.0004
 11 10 14  5 41  0.0000000  0  9G22G25G17G15G12G14G18G27G09
  -4886990.35749  -3795536.62149  23773195.1184   23773193.3654   23773194.1464
       216.0004        155.0004
  -4374345.80849  -3133426.57849  24000986.0904   24000992.8214   24000986.5294
       212.0004        149.0004
  -8233149.07249  -6178198.91149  22562057.8034   22562060.9104   22562058.1254
       231.0004        180.0004
 -12643539.59849  -9836092.65349  22303670.4564   22303673.7824   22303671.4224
       230.0004        180.0004
 -19140610.16849 -14891735.44749  21320163.1754   21320164.8444   21320163.2174
       237.0004        192.0004
   -544074.33149   -401786.96849  24193409.2384   24193412.4154   24193409.1734
       206.0004        143.0004
  -6696436.58649  -5203155.00549  23829721.6744   23829722.8894   23829721.2524
       207.0004        140.0004
 -14829755.66949 -11533295.51049  20900950.0654   20900953.5044   20900950.3734
       243.0004        202.0004
 -27414601.90949 -21316455.68049  19735719.3574   19735721.9744   19735719.5934
       246.0004        210.0004
 11 10 14  5 41 30.0000000  0  9G22G25G17G15G12G14G18G27G09
  -4866377.48149  -3779474.65149  23777115.8104   23777116.0984   23777116.5554
       216.0004        156.0004
  -4478177.89949  -3214334.66649  23981227.8944   23981233.2114   23981228.3724
       217.0004        153.0004
  -8196975.52349  -6150011.77849  22568942.0684   22568944.5614   22568942.6974
       231.0004        179.0004
 -12550155.47049  -9763325.85649  22321441.1504   22321444.5424   22321441.5284
       231.0004        180.0004
 -19211068.76649 -14946638.25749  21306753.7804   21306757.2814   21306755.5904
       235.0004        193.0004
   -645101.40949   -480509.34949  24174184.2694   24174186.6274   24174184.9374
       208.0004        142.0004
  -6625544.73149  -5147914.59449  23843210.9374   23843214.4904   23843210.8934
       207.0004        139.0004
 -14804059.95549 -11513272.89549  20905839.6344   20905843.3084   20905840.0404
       242.0004        202.0004
 -27418718.99249 -21319663.81849  19734936.8334   19734938.6604   19734936.1694
       246.0004        210.0004
 11 10 14  5 42  0.0000000  0  9G22G25G17G15G12G14G18G27G09
  -4845249.70249  -3763011.45349  23781136.2504   23781137.0124   23781135.7704
       217.0004        157.0004
  -4581858.55049  -3295124.73549  23961501.1004   23961504.1524   23961498.6484
       220.0004        153.0004
  -8160254.82249  -6121398.27549  22575929.1234   22575930.9634   22575929.7774
       231.0004        178.0004
 -12456458.26549  -9690315.10649  22339273.6154   22339275.2644   22339272.2704
       233.0004        179.0004
 -19281141.46549 -15001240.35049  21293421.2724   21293422.9064   21293421.3474
       236.0004        192.0004
   -745935.01249   -559080.98149  24154995.1964   24154998.4644   24154995.8014
       203.0004        140.0004
  -6554352.08349  -5092439.84549  23856760.1394   23856760.0484   23856758.7174
       206.0004        137.0004
 -14778070.46549 -11493021.35549  20910786.0164   20910789.0414   20910785.6194
       244.0004        202.0004
 -27422342.25649 -21322487.15449  19734246.1024   19734249.2724   19734246.6304
       246.0004        209.0004
 11 10 14  5 42 30.0000000  0  9G22G25G17G15G12G14G18G27G09
  -4823609.70549  -3746149.13049  23785256.2824   23785255.2114   23785254.1794
       218.0004        156.0004
  -4685388.03449  -3375797.04349  23941797.0804   23941802.8744   23941796.2504
       217.0004        151.0004
  -8122990.18549  -6092360.93949  22583020.5724   22583022.3064   22583021.4674
       231.0004        178.0004
 -12362452.20249  -9617063.68649  22357159.9414   22357163.7674   22357160.4184
       230.0004        179.0004
 -19350828.75849 -15055542.12349  21280160.6214   21280161.6584   21280160.1024
       238.0004        193.0004
   -846574.36349   -637501.27349  24135844.8214   24135847.2444   24135844.4404
       206.0004        137.0004
  -6482863.69249  -5036734.60149  23870363.6154   23870365.1464   23870363.1454
       211.0004        140.0004
 -14751788.63549 -11472542.02649  20915787.1504   20915790.1994   20915787.2764
       244.0004        202.0004
 -27425472.87249 -21324926.61349  19733651.5634   19733653.3564   19733651.1314
       246.0004        209.0004
 11 10 14  5 43  0.0000000  0  9G22G25G17G15G12G14G18G27G09
  -4801457.60249  -3728887.73549  23789470.1024   23789471.0364   23789470.0544
       217.0004        157.0004
  -4788764.12249  -3456349.81549  23922124.4764   23922131.0854   23922124.0614
       215.0004        147.0004
  -8085181.98749  -6062900.03849  22590215.8274   22590217.5274   22590215.5024
       230.0004        178.0004
 -12268138.18649  -9543572.29649  22375105.8244   22375110.6044   22375107.1034
       229.0004        178.0004
 -19420128.27849 -15109541.74449  21266971.7564   21266974.3344   21266972.1394
       237.0004        192.0004
   -947015.82249   -715767.32849  24116732.1074   24116732.8794   24116732.9224
       203.0004        137.0004
  -6411081.91449  -4980800.72749  23884024.4404   23884026.2424   23884023.6424
       214.0004        142.0004
 -14725213.45449 -11451834.11349  20920844.7384   20920847.3584   20920844.6214
       244.0004        202.0004
 -27428109.45149 -21326981.09749  19733149.0084   19733151.4884   19733148.7504
       246.0004        209.0004
 11 10 14  5 43 30.0000000  0  9G22G25G17G15G12G14G18G27G09
  -4778794.84249  -3711228.44949  23793783.5504   23793782.7724   23793781.8364
       218.0004        155.0004
  -4891985.46549  -3536782.00549  23902484.5604   23902488.1864   23902483.3714
       216.0004        148.0004
  -8046831.34249  -6033016.47049  22597512.5804   22597516.4354   22597513.7474
       231.0004        180.0004
 -12173518.18749  -9469842.48649  22393113.5674   22393115.6834   22393113.5234
       231.0004        178.0004
 -19489039.72249 -15163238.97149  21253859.4514   21253861.1384   21253859.5664
       237.0004        193.0004
  -1047256.97749   -793877.30949  24097657.9994   24097658.7824   24097656.8954
       208.0004        138.0004
  -6339009.02149  -4924640.05449  23897739.3994   23897740.5614   23897739.7974
       211.0004        142.0004
 -14698344.78049 -11430897.50349  20925957.4294   20925960.4094   20925957.0144
       244.0004        202.0004
 -27430251.40649 -21328650.18049  19732742.1174   19732744.0384   19732741.9114
       246.0004        210.0004
 11 10 14  5 44  0.0000000  0  9G22G25G17G15G12G14G18G27G09
  -4755623.69249  -3693173.02349  23798192.6704   23798193.3734   23798190.7494
       216.0004        155.0004
  -4995051.38949  -3617093.09849  23882874.5374
       224.0004        153.0004
  -8007940.24449  -6002711.75249  22604914.4904   22604916.1714   22604914.5234
       231.0004        180.0004
 -12078595.48649  -9395876.80249  22411177.1284   22411179.6094   22411176.9334
       232.0004        178.0004
 -19557562.19949 -15216633.10349  21240820.6364   21240821.9594   21240820.5344
       239.0004        193.0004
  -1147295.82749   -871829.63149  24078621.3844   24078622.2274   24078620.9904
       208.0004        141.0004
  -6266648.38549  -4868255.14249  23911507.7334   23911511.6444   23911507.0034
       208.0004        141.0004
 -14671183.22149 -11409732.68149  20931125.5474   20931128.6264   20931125.7864
       243.0004        202.0004
 -27431898.81749 -21329933.88949  19732428.0524   19732430.8434   19732428.1874
       246.0004        209.0004
 11 10 14  5 44 30.0000000  0  9G22G25G17G15G12G14G18G27G09
  -4731944.33749  -3674721.57849  23802697.2594   23802698.8524   23802697.5984
       215.0004        153.0004
  -5097959.99649  -3697281.58549  23863289.4984   23863292.0174   23863287.5864
       222.0004        155.0004
  -7968509.23049  -5971986.32849  22612418.0074   22612419.6994   22612418.5844
       231.0004        180.0004
 -11983371.81649  -9321676.60149  22429297.1414   22429300.7814   22429297.2574
       231.0004        179.0004
 -19625694.22949 -15269723.00249  21227854.9924   21227856.4784   21227854.8154
       237.0004        193.0004
  -1247129.24649   -949621.86549  24059623.2094   24059624.9424   24059622.1474
       208.0004        145.0004
  -6194002.30849  -4811647.84849  23925335.0344   23925337.5954   23925333.4824
       213.0004        141.0004
 -14643728.14949 -11388339.13449  20936349.7174   20936353.2524   20936350.2684
       243.0004        201.0004
 -27433050.76649 -21330831.52549  19732209.5514   19732211.6914   19732209.5804
       247.0004        210.0004
 11 10 14  5 45  0.0000000  0  9G22G25G17G15G12G14G18G27G09
  -4707757.93649  -3655875.02249  23807299.9944   23807301.3124   23807299.8454
       215.0004        153.0004
  -5200709.94849  -3777346.47149  23843733.4204   23843739.4544   23843735.3964
       220.0004        154.0004
  -7928539.94749  -5940841.46349  22620023.6774   22620026.3044   22620023.5944
       230.0004        180.0004
 -11887849.29349  -9247243.52949  22447473.8844   22447477.9384   22447475.4934
       230.0004        179.0004
 -19693434.86949 -15322507.92249  21214963.1754   21214965.5684   21214964.3434
       237.0004        193.0004
  -1346755.02549  -1027252.32049  24040663.1994   24040666.1954   24040664.5154
       203.0004        143.0004
  -6121073.63149  -4754820.32949  23939211.2104   23939212.8874   23939210.6594
       212.0004        142.0004
 -14615979.49749 -11366716.82649  20941631.1414   20941633.8294   20941631.2924
       244.0004        201.0004
 -27433706.79449 -21331342.72549  19732084.1714   19732086.9884   19732084.1864
       246.0004        210.0004
 11 10 14  5 45 30.0000000  0  9G22G25G17G15G12G14G18G27G09
  -4683066.22049  -3636634.74649  23811998.9734   23811997.7314   23811998.0074
       213.0004        152.0004
  -5303300.11349  -3857286.84549  23824215.4564   23824217.4144   23824214.4394
       220.0004        153.0004
  -7888033.81549  -5909278.29249  22627730.6584   22627733.7814   22627731.8534
       229.0004        178.0004
 -11792030.39849  -9172579.50649  22465708.1214   22465711.2714   22465708.6164
       232.0004        178.0004
 -19760783.56149 -15374987.43149  21202148.5464   21202149.9224   21202148.5044
       238.0004        193.0004
  -1446170.61249  -1104718.95049  24021745.4234   24021747.5374   24021745.3144
       205.0004        140.0004
  -6047865.28649  -4697774.86149  23953143.8454   23953145.0244   23953142.6344
       213.0004        142.0004
 -14587937.46249 -11344865.91049  20946966.7734   20946970.2034   20946966.8444
       243.0004        201.0004
 -27433866.60949 -21331467.27449  19732054.1194   19732056.2164   19732053.9704
       246.0004        210.0004
 11 10 14  5 46  0.0000000  0  9G22G25G17G15G12G14G18G27G09
  -4657870.84749  -3617001.97749  23816792.2584   23816792.3864   23816791.9444
       213.0004        150.0004
  -5405729.49349  -3937101.91249  23804721.5984   23804724.7124   23804720.5234
       218.0004        152.0004
  -7846992.63049  -5877298.17849  22635543.0204   22635544.2474   22635542.6364
       232.0004        180.0004
 -11695917.44149  -9097686.36649  22483998.8484   22484000.7084   22483999.1834
       232.0004        177.0004
 -19827739.41249 -15427160.82949  21189407.8794   21189409.1794   21189407.7024
       239.0004        194.0004
  -1545373.39749  -1182019.80049  24002868.9154   24002871.0444   24002868.1404
       209.0004        140.0004
  -5974380.39749  -4640513.92749  23967126.9414   23967128.9474   23967127.2164
       214.0004        142.0004
 -14559602.17049 -11322786.48749  20952359.0284   20952362.0554   20952358.8744
       242.0004        201.0004
 -27433530.18749 -21331205.13649  19732116.6944   19732120.4284   19732117.2934
       245.0004        210.0004
 11 10 14  5 46 30.0000000  0  9G22G25G17G15G12G14G18G27G09
  -4632173.35949  -3596977.95649  23821683.2694   23821683.9934   23821681.7694
       213.0004        150.0004
  -5507996.98349  -4016790.87449  23785259.0264   23785265.2104   23785260.1574
       213.0004        150.0004
  -7805418.07649  -5844902.46949  22643452.0974   22643455.3884   22643452.1614
       229.0004        178.0004
 -11599513.02749  -9022566.10049  22502343.2984   22502347.3164   22502344.3134
       227.0004        178.0004
 -19894301.81449 -15479027.64049  21176739.7884   21176742.4624   21176740.4964
       237.0004        193.0004
  -1644361.83349  -1259153.63949  23984033.1474   23984032.9914   23984031.2684
       210.0004        141.0004
  -5900621.95949  -4583039.82649  23981162.6924   23981163.8934   23981162.4124
       213.0004        145.0004
 -14530973.77949 -11300478.67649  20957806.4204   20957810.0554   20957806.9794
       243.0004        201.0004
 -27432697.25549 -21330556.11149  19732277.1244   19732278.9884   19732276.7274
       247.0004        211.0004
 11 10 14  5 47  0.0000000  0  9G22G25G17G15G12G14G18G27G09
  -4605974.13949  -3576562.98449  23826667.7374   23826667.5434   23826667.6784
       211.0004        149.0004
  -5610100.32549  -4096351.90049  23765831.1304   23765835.5454   23765830.4214
       221.0004        152.0004
  -7763310.48249  -5812091.39849  22651465.5934   22651468.2324   22651467.0464
       231.0004        179.0004
 -11502818.52349  -8947219.79049  22520741.4254   22520747.2294   22520743.5584
       227.0004        177.0004
 -19960468.88949 -15530586.40349  21164148.7674   21164151.7034   21164149.6674
       237.0004        195.0004
  -1743132.13049  -1336117.51149  23965235.9154   23965237.7054   23965236.3884
       213.0004        142.0004
  -5826592.41749  -4525354.45749  23995247.6794   23995250.3384   23995248.2944
       212.0004        142.0004
 -14502051.20449 -11277941.63549  20963310.4344   20963313.6094   20963310.9864
       243.0004        200.0004
 -27431366.38049 -21329519.08249  19732530.0054   19732531.8544   19732529.7934
       247.0004        210.0004
 11 10 14  5 47 30.0000000  0  9G22G25G17G15G12G14G18G27G09
  -4579275.43349  -3555758.79049  23831750.2714   23831748.6174   23831748.6974
       214.0004        149.0004
  -5712038.95949  -4175784.61749  23746432.0724   23746437.6814   23746431.9984
       218.0004        155.0004
  -7720672.15849  -5778866.76549  22659579.5194   22659582.2744   22659579.4514
       230.0004        178.0004
 -11405836.91149  -8871649.78449  22539199.0604   22539201.6894   22539199.1694
       229.0004        175.0004
 -20026240.63349 -15581837.10949  21151633.1074   21151635.6494   21151633.9344
       238.0004        195.0004
  -1841682.56449  -1412910.05549  23946482.9394   23946485.0954   23946483.5984
       210.0004        144.0004
  -5752294.44949  -4467459.93749  24009387.3324   24009389.3914   24009387.8934
       208.0004        140.0004
 -14472835.31349 -11255176.02849  20968870.5374   20968873.4214   20968870.5794
       244.0004        201.0004
 -27429537.77749 -21328094.21749  19732877.8964   19732880.0484   19732877.7604
       246.0004        210.0004
 11 10 14  5 48  0.0000000  0  9G22G25G17G15G12G14G18G27G09
  -4552077.75449  -3534565.79749  23836922.6664   23836924.9614   23836923.6544
       210.0004        147.0004
  -5813810.99949  -4255087.45749  23727064.7044   23727072.4854   23727065.3784
       218.0004        157.0004
  -7677503.59549  -5745228.97449  22667794.3204   22667796.6674   22667794.7694
       230.0004        177.0004
 -11308569.92249  -8795857.36349  22557708.1594   22557710.7214   22557708.0234
       227.0004        174.0004
 -20091614.97049 -15632778.17249  21139193.2254   21139195.0894   21139193.5544
       238.0004        196.0004
  -1940009.73149  -1489528.59949  23927771.2484   23927774.5794   23927769.9334
       208.0004        143.0004
  -5677730.74149  -4409358.34849  24023577.1144   24023579.2574   24023577.1834
       208.0004        137.0004
 -14443325.15049 -11232181.13049  20974485.9154   20974488.8434   20974485.6504
       242.0004        200.0004
 -27427210.65449 -21326280.89349  19733319.9544   19733322.8604   19733320.0774
       246.0004        209.0004
 11 10 14  5 48 30.0000000  0  9G22G25G17G15G12G14G18G27G09
  -4524383.22249  -3512985.64249  23842194.8224   23842193.9444   23842192.9894
       214.0004        149.0004
  -5915415.74149  -4334259.98449  23707730.1574   23707737.0964   23707729.8004
       214.0004        156.0004
  -7633807.39349  -5711180.02449  22676108.4234   22676111.0514   22676108.3604
       227.0004        175.0004
 -11211020.61449  -8719844.97749  22576270.3034   22576274.4484   22576270.9554
       225.0004        176.0004
 -20156592.04249 -15683409.66449  21126828.3384   21126830.3844   21126828.5484
       238.0004        196.0004
  -2038111.83449  -1565971.75949  23909102.7934   23909106.1664   23909103.1494
       207.0004        141.0004
  -5602904.72449  -4351052.37549  24037815.8144   24037819.1304   24037814.0594
       207.0004        139.0004
 -14413521.48249 -11208957.50949  20980156.6834   20980160.6304   20980157.2474
       242.0004        200.0004
 -27424385.08849 -21324079.17849  19733858.0804   19733860.8984   19733857.6844
       246.0004        210.0004
 11 10 14  5 49  0.0000000  0  9G22G25G17G15G12G14G18G27G09
  -4496193.51249  -3491019.66549  23847560.0774   23847560.4984   23847560.1594
       217.0004        153.0004
  -6016852.14849  -4413301.31249  23688427.0504   23688433.1764   23688427.4294
       216.0004        154.0004
  -7589585.16449  -5676721.19449  22684524.8614   22684527.1794   22684524.3674
       230.0004        178.0004
 -11113190.95749  -8643614.16849  22594887.3064   22594891.5174   22594887.4914
       227.0004        176.0004
 -20221171.36049 -15733731.23249  21114538.9274   21114541.2764   21114539.7404
       238.0004        195.0004
  -2135986.62849  -1642237.80049  23890480.7394   23890481.0074   23890478.5074
       211.0004        140.0004
  -5527819.89649  -4292544.76049  24052102.1834   24052104.3934   24052101.6014
       205.0004        140.0004
 -14383424.37649 -11185505.25149  20985884.8724   20985887.6594   20985884.8664
       244.0004        201.0004
 -27421061.17049 -21321489.13749  19734490.3554   19734493.2364   19734490.6534
       246.0004        210.0004
 11 10 14  5 49 30.0000000  0  9G22G25G17G15G12G14G18G27G09
  -4467509.80349  -3468668.72849  23853018.1724   23853018.9814   23853017.4344
       217.0004        154.0004
  -6118118.33649  -4492210.02449  23669156.9214   23669164.0184   23669156.8974
       217.0004        152.0004
  -7544837.73849  -5641853.10249  22693039.5974   22693043.1214   22693039.3154
       230.0004        178.0004
 -11015082.86849  -8567166.35849  22613555.5924   22613560.5764   22613556.5764
       225.0004        174.0004
 -20285351.46949 -15783741.71849  21102326.3934   21102328.1664   21102327.0684
       239.0004        195.0004
  -2233630.87049  -1718324.24349  23871898.9474   23871899.2974   23871897.4434
       215.0004        143.0004
  -5452477.58449  -4233836.48249  24066442.1384   24066442.3154   24066440.2824
       209.0004        140.0004
 -14353033.07149 -11161823.73349  20991668.4164   20991670.9174   20991668.5144
       242.0004        200.0004
 -27417237.81349 -21318509.91949  19735218.6584   19735221.0594   19735218.6784
       246.0004        210.0004
 11 10 14  5 50  0.0000000  0  9G22G25G17G15G12G14G18G27G09
  -4438333.26949  -3445933.78949  23858570.8794   23858570.7634   23858570.4974
       217.0004        155.0004
  -6219212.91249  -4570985.01749  23649918.5854   23649924.8634   23649918.3714
       220.0004        155.0004
  -7499566.37149  -5606576.76049  22701654.3374   22701658.2594   22701655.4554
       230.0004        178.0004
 -10916698.66249  -8490503.39549  22632279.9464   22632282.5474   22632279.5224
       228.0004        174.0004
 -20349130.75149 -15833439.86549  21090189.8634   21090191.7204   21090190.2084
       239.0004        196.0004
  -2331042.04849  -1794229.07249  23853360.7014   23853361.4554   23853361.2254
       213.0004        143.0004
  -5376880.67549  -4174929.82449  24080825.9524   24080827.2684   24080825.9774
       207.0004        138.0004
 -14322347.66849 -11137913.05849  20997507.5284   20997509.9794   20997507.3934
       241.0004        200.0004
 -27412914.69249 -21315141.27149  19736041.0454   19736043.1764   19736041.1584
       246.0004        210.0004
 11 10 14  5 50 30.0000000  0  9G22G25G17G15G12G14G18G27G09
  -4408665.87449  -3422816.32449  23864215.4674   23864216.5954   23864214.5774
       216.0004        154.0004
  -6320135.06449  -4649625.67749  23630715.8244   23630720.5064   23630714.0374
       218.0004        155.0004
  -7453773.31249  -5570893.89049  22710369.5214   22710371.4084   22710369.2244
       230.0004        177.0004
 -10818041.32849  -8413627.61649  22651053.7624   22651056.6114   22651052.6584
       227.0004        175.0004
 -20412509.32949 -15882825.76749  21078129.2934   21078130.9344   21078129.4954
       239.0004        196.0004
  -2428218.19449  -1869950.74049  23834869.5364   23834871.0184   23834868.8424
       210.0004        144.0004
  -5301033.12649  -4115827.84549  24095259.1104   24095260.1794   24095257.4684
       205.0004        138.0004
 -14291368.49249 -11113773.45849  21003402.1534   21003405.2174   21003402.4464
       240.0004        200.0004
 -27408091.87449 -21311383.24749  19736958.7524   19736961.0674   19736958.3884
       245.0004        210.0004
 11 10 14  5 51  0.0000000  0  9G22G25G17G15G12G14G18G27G09
  -4378509.27549  -3399317.68349  23869954.9994   23869955.2844   23869954.4534
       218.0004        156.0004
  -6420883.78249  -4728131.14649  23611542.8904   23611549.0944   23611542.1084
       217.0004        154.0004
  -7407460.28449  -5534805.86349  22719182.0164   22719184.7234   22719182.2754
       230.0004        178.0004
 -10719113.16049  -8336540.78849  22669876.3444   22669882.2624   22669877.6934
       224.0004        173.0004
 -20475486.48349 -15931898.88049  21066144.9964   21066146.6944   21066145.2184
       239.0004        196.0004
  -2525156.86949  -1945487.35549  23816423.2224   23816424.2994   23816421.2044
       212.0004        145.0004
  -5224937.50449  -4056532.54449  24109737.8334   24109741.3924   24109739.9814
       207.0004        138.0004
 -14260095.92449 -11089405.24149  21009353.5724   21009356.6734   21009353.5544
       241.0004        200.0004
 -27402769.01349 -21307235.57549  19737970.8974   19737973.9574   19737971.6104
       246.0004        209.0004
 11 10 14  5 51 30.0000000  0  9G22G25G17G15G12G14G18G27G09
  -4347864.70549  -3375438.79049  23875785.0194   23875787.0914   23875784.2914
       214.0004        156.0004
  -6521457.36449  -4806500.14349  23592405.0214   23592411.7454   23592403.3534
       220.0004        157.0004
  -7360628.62849  -5498313.70449  22728094.4614   22728097.4604   22728094.7544
       230.0004        177.0004
 -10619916.25049  -8259244.57449  22688753.4104   22688757.5794   22688755.1874
       227.0004        171.0004
 -20538060.96449 -15980658.22849  21054238.0054   21054238.9694   21054237.9494
       240.0004        196.0004
  -2621854.99549  -2020836.51949  23798022.1534   23798023.9934   23798020.5474
       212.0004        147.0004
  -5148596.65749  -3997046.18549  24124268.4814   24124268.0624   24124267.3824
       209.0004        135.0004
 -14228529.52349 -11064808.07649  21015360.6784   21015363.3474   21015360.6104
       241.0004        200.0004
 -27396945.48149 -21302697.78449  19739080.5284   19739082.4924   19739080.1734
       246.0004        209.0004
 11 10 14  5 52  0.0000000  0  9G22G25G17G15G12G14G18G27G09
  -4316733.51849  -3351180.73749  23881708.5264   23881711.2704   23881708.6174
       215.0004        155.0004
  -6621854.29749  -4884731.51549  23573300.6434   23573306.4914   23573299.4504
       221.0004        159.0004
  -7313279.64149  -5461418.42949  22737104.3464   22737106.0634   22737104.0884
       229.0004        175.0004
 -10520452.34649  -8181740.27749  22707684.0124   22707684.2584   22707682.8274
       229.0004        172.0004
 -20600231.99049 -16029103.18949  21042406.9824   21042408.2094   21042407.1114
       239.0004        197.0004
  -2718309.46949  -2095995.82349  23779666.3034   23779668.2494   23779665.6944
       215.0004        149.0004
  -5072013.23149  -3937370.78649  24138842.8994   24138840.8964   24138842.8234
       210.0004        134.0004
 -14196668.83749 -11039981.59049  21021423.6624   21021426.3584   21021423.1294
       241.0004        200.0004
 -27390620.82249 -21297769.51049  19740283.5674   19740286.2744   19740283.7734
       246.0004        209.0004
 11 10 14  5 52 30.0000000  0  9G22G25G17G15G12G14G18G27G09
  -4285118.00849  -3326545.30549  23887727.6984   23887727.0614   23887726.7104
       218.0004        154.0004
  -6722074.19449  -4962824.96349  23554228.3334   23554233.9534   23554229.2014
       220.0004        157.0004
  -7265415.94349  -5424122.09249  22746211.5524   22746214.5504   22746211.9414
       228.0004        174.0004
 -10420724.90949  -8104030.67449  22726660.0594   22726664.1434   22726660.1834
       227.0004        173.0004
 -20661999.65849 -16077233.84349  21030653.0984   21030654.7734   21030652.9904
       240.0004        196.0004
  -2814519.24549  -2170964.49149  23761358.4674   23761360.2474   23761358.0294
       215.0004        148.0004
  -4995190.72049  -3877509.10049  24153461.6024   24153459.7834   24153460.5654
       203.0004        135.0004
 -14164514.79849 -11014926.52449  21027541.3064   21027544.9324   21027541.5724
       240.0004        200.0004
 -27383795.72949 -21292451.27849  19741582.0094   19741584.9774   19741581.8394
       245.0004        209.0004
 11 10 14  5 53  0.0000000  0  9G22G25G17G15G12G14G18G27G09
  -4253018.77349  -3301532.90649  23893835.9574   23893834.0614   23893833.2324
       215.0004        151.0004
  -6822114.43649  -5040778.42449  23535193.2154   23535195.1954   23535190.7614
       220.0004        155.0004
  -7217037.50549  -5386424.66049  22755418.7684   22755421.6374   22755419.4384
       231.0004        178.0004
 -10320734.77149  -8026116.36349  22745686.2294   22745691.3184   22745687.9704
       225.0004        173.0004
 -20723361.22549 -16125048.06549  21018975.2074   21018977.6534   21018976.6074
       239.0004        197.0004
  -2910480.05049  -2245739.16849  23743098.2484   23743098.5474   23743096.3514
       211.0004        144.0004
  -4918130.78349  -3817462.38649  24168121.5334   24168127.4884   24168120.1494
       205.0004        133.0004
 -14132065.93549 -10989641.73249  21033717.2404   21033719.7844   21033717.0344
       241.0004        200.0004
 -27376468.31949 -21286741.62749  19742975.8364   19742979.0554   19742976.2934
       245.0004        209.0004
 11 10 14  5 53 30.0000000  0  9G22G25G17G15G12G14G18G27G09
  -4220438.18849  -3276145.44549  23900032.7754   23900035.0084   23900032.7654
       210.0004        150.0004
  -6921974.95949  -5118591.79649  23516189.5394   23516193.2044   23516187.9804
       220.0004        156.0004
  -7168147.24749  -5348328.38949  22764722.3354   22764724.7734   22764722.2844
       229.0004        177.0004
 -10220485.31349  -7947999.95949  22764762.8264   22764767.0644   22764763.5644
       226.0004        172.0004
 -20784317.34149 -16172546.34549  21007377.5904   21007378.3714   21007377.2084
       240.0004        197.0004
  -3006190.68549  -2320318.87149  23724883.0034   23724887.4164   23724883.1644
       209.0004        144.0004
  -4840837.34549  -3757233.74849  24182832.9644   24182832.6524   24182831.6064
       209.0004        135.0004
 -14099323.50549 -10964128.19149  21039947.6054   21039950.7584   21039947.6814
       241.0004        200.0004
 -27368639.66149 -21280641.39249  19744466.2754   19744468.8104   19744466.2074
       246.0004        210.0004
 11 10 14  5 54  0.0000000  0  9G22G25G17G15G12G14G18G27G09
  -4187377.83549  -3250384.12649  23906325.9604   23906326.5904   23906324.4574
       214.0004        153.0004
  -7021654.12249  -5196263.89049  23497218.9074   23497225.9644   23497221.2604
       220.0004        159.0004
  -7118746.65849  -5309834.45949  22774122.8054   22774126.3854   22774122.7134
       231.0004        176.0004
 -10119978.93349  -7869683.36849  22783890.3264   22783894.1624   22783891.0914
       228.0004        173.0004
 -20844866.95149 -16219727.85849  20995854.6254   20995856.1134   20995854.7084
       239.0004        197.0004
  -3101648.17649  -2394701.31749  23706718.7354   23706721.1564   23706719.3624
       213.0004        146.0004
  -4763313.38449  -3696825.49349  24197583.6284   24197586.7604   24197583.0744
       208.0004        139.0004
 -14066287.28549 -10938385.72149  21046234.5244   21046236.9464   21046234.5014
       242.0004        200.0004
 -27360309.31549 -21274150.24449  19746051.7764   19746053.8474   19746051.7164
       247.0004        209.0004
 11 10 14  5 54 30.0000000  0  9G22G25G17G15G12G14G18G27G09
  -4153839.66049  -3224250.49049  23912707.2854   23912706.8794   23912705.8004
       213.0004        151.0004
  -7121151.12149  -5273794.01649  23478287.4774   23478291.7864   23478288.0794
       223.0004        162.0004
  -7068837.89049  -5270944.55949  22783619.7474   22783622.4264   22783619.3954
       229.0004        175.0004
 -10019218.22649  -7791168.62849  22803065.9044   22803068.2324   22803064.5894
       227.0004        174.0004
 -20905010.20349 -16266592.72749  20984409.2774   20984411.4694   20984409.5744
       241.0004        197.0004
  -3196850.26849  -2468884.78149  23688603.4454   23688604.6684   23688602.3254
       215.0004        149.0004
  -4685561.82349  -3636239.82949  24212377.5144   24212381.9504   24212378.1784
       208.0004        138.0004
 -14032957.34649 -10912414.36149  21052576.6924   21052579.3364   21052576.6704
       241.0004        200.0004
 -27351477.18849 -21267268.08849  19747732.6304   19747734.8014   19747732.5104
       246.0004        210.0004
 11 10 14  5 55  0.0000000  0  9G22G25G17G15G12G14G18G27G09
  -4119824.09749  -3197744.85549  23919178.0364   23919181.0774   23919178.1554
       209.0004        148.0004
  -7220463.47449  -5351180.25949  23459390.8794   23459393.0254   23459388.8354
       224.0004        160.0004
  -7018421.17949  -5231658.86849  22793214.1744   22793215.8024   22793214.8024
       229.0004        174.0004
  -9918204.19949  -7712456.47949  22822287.4934   22822290.4554   22822287.2064
       228.0004        174.0004
 -20964744.33049 -16313138.80849  20973042.3304   20973044.4854   20973042.9654
       241.0004        198.0004
  -3291793.28749  -2542866.34849  23670536.6134   23670538.4684   23670535.6244
       214.0004        150.0004
  -4607584.33349  -3575478.17749  24227218.2654   24227222.7094   24227219.0634
       204.0004        139.0004
 -13999332.27149 -10886213.04449  21058975.1244   21058978.4284   21058975.4094
       242.0004        201.0004
 -27342141.87849 -21259993.84449  19749509.3514   19749511.4884   19749509.1374
       247.0004        209.0004
 11 10 14  5 55 30.0000000  0  9G22G25G17G15G12G14G18G27G09
  -4085334.78549  -3170870.05949  23925743.3874   23925744.2024   23925741.8414
       213.0004        153.0004
  -7319591.92449  -5428423.20949  23440526.4524   23440529.0774   23440523.7514
       221.0004        157.0004
  -6967500.28249  -5191980.30249  22802903.7744   22802907.5794   22802903.6944
       227.0004        175.0004
  -9816941.13949  -7633550.26149  22841554.1374   22841558.8434   22841556.6604
       222.0004        169.0004
 -21024070.67449 -16359367.12349  20961753.7604   20961755.1494   20961753.2834
       242.0004        199.0004
  -3386476.64849  -2616645.59649  23652519.9524   23652520.0624   23652519.3804
       214.0004        147.0004
  -4529385.91949  -3514544.39249  24242097.4674   24242101.3664   24242098.8174
       202.0004        137.0004
 -13965414.37049 -10859783.55049  21065429.2974   21065432.3644   21065429.5344
       241.0004        200.0004
 -27332305.17549 -21252328.90549  19751380.5534   19751383.1194   19751380.3414
       245.0004        209.0004
 11 10 14  5 56  0.0000000  0  9G22G25G17G15G12G14G18G27G09
  -4050371.88649  -3143626.26449  23932396.4534   23932397.4274   23932395.6574
       216.0004        153.0004
  -7418533.45749  -5505520.53449  23421696.7744   23421700.9354   23421697.2604
       221.0004        158.0004
  -6916075.22849  -5151908.88149  22812689.2604   22812693.0994   22812688.9704
       227.0004        175.0004
  -9715429.58049  -7554450.40449  22860870.8824   22860877.4874   22860872.7634
       222.0004        170.0004
 -21082987.03649 -16405275.99149  20950541.6834   20950543.8944   20950541.9334
       242.0004        199.0004
  -3480895.96449  -2690219.08349  23634552.3394   23634553.3364   23634549.1754
       211.0004        145.0004
  -4450967.81949  -3453439.37049  24257019.5964   24257023.9164   24257021.5734
       202.0004        135.0004
 -13931201.87049 -10833124.50749  21071940.5724   21071943.3764   21071940.5954
       242.0004        200.0004
 -27321964.88749 -21244271.57249  19753348.1384   19753351.0544   19753348.0784
       245.0004        209.0004
 11 10 14  5 56 30.0000000  0  9G22G25G17G15G12G14G18G27G09
  -4014937.67949  -3116015.21849  23939138.7184   23939139.8924   23939138.0194
       211.0004        150.0004
  -7517287.73549  -5582471.93249  23402904.3294   23402909.9754   23402904.9574
       222.0004        162.0004
  -6864148.24149  -5111446.34749  22822572.0194   22822572.9474   22822571.4054
       229.0004        175.0004
  -9613673.22749  -7475159.81249  22880238.1064   22880241.9934   22880237.1994
       227.0004        173.0004
 -21141493.51149 -16450865.45149  20939408.2824   20939410.2764   20939408.1904
       242.0004        199.0004
  -3575049.57949  -2763585.54249  23616633.8544   23616636.3014   23616634.0134
       212.0004        146.0004
  -4372333.51449  -3392165.88249  24271985.4854   24271987.1534   24271986.1484
       205.0004        135.0004
 -13896695.67349 -10806236.60149  21078506.7564   21078509.8834   21078506.5714
       242.0004        200.0004
 -27311122.03949 -21235822.62849  19755411.5724   19755414.1284   19755411.1864
       246.0004        209.0004
 11 10 14  5 57  0.0000000  0  9G22G25G17G15G12G14G18G27G09
  -3979033.88949  -3088038.23849  23945969.1474   23945973.0354   23945970.2164
       210.0004        149.0004
  -7615853.29249  -5659276.27449  23384149.0464   23384154.3904   23384148.8734
       225.0004        164.0004
  -6811721.51449  -5070594.38749  22832547.8954   22832549.7834   22832548.1144
       228.0004        174.0004
  -9511673.66649  -7395679.71749  22899647.8014   22899651.1044   22899647.0764
       225.0004        169.0004
 -21199589.18749 -16496134.81949  20928352.6714   20928354.9034   20928352.9164
       242.0004        199.0004
  -3668934.53149  -2836742.66249  23598768.7064   23598770.2114   23598768.5064
       213.0004        148.0004
  -4293485.77249  -3330726.08149  24286990.5244   24286991.6954   24286990.7534
       206.0004        134.0004
 -13861895.35149 -10779119.50649  21085128.6444   21085131.9134   21085128.7594
       241.0004        199.0004
 -27299776.05749 -21226981.62549  19757571.1334   19757573.2144   19757571.2694
       246.0004        209.0004
 11 10 14  5 57 30.0000000  0  9G22G25G17G15G12G14G18G27G09
  -3942662.45749  -3059696.88749  23952892.0064   23952893.5064   23952892.7594
       211.0004        151.0004
  -7714228.91449  -5735932.58549  23365427.8154   23365434.9764   23365427.8904
       222.0004        163.0004
  -6758796.50349  -5029354.16949  22842619.1224   22842621.4524   22842619.7654
       229.0004        177.0004
  -9409433.46249  -7316012.09549  22919104.0914   22919105.9024   22919103.3884
       224.0004        167.0004
 -21257273.12649 -16541083.35049  20917376.6264   20917378.0094   20917376.6024
       243.0004        199.0004
  -3762548.23949  -2909688.40449  23580953.2504   23580956.9124   23580953.4854
       211.0004        149.0004
  -4214427.67849  -3269122.41949  24302036.3924   24302035.0504   24302036.1774
       205.0004        132.0004
 -13826800.83649 -10751773.17149  21091807.0754   21091810.5614   21091807.3494
       241.0004        200.0004
 -27287926.71949 -21217748.40149  19759825.5924   19759828.5974   19759825.8674
       246.0004        209.0004
 11 10 14  5 58  0.0000000  0  9G22G25G17G15G12G14G18G27G09
  -3905824.60749  -3030992.09449  23959901.4564   23959903.3584   23959901.8434
       210.0004        150.0004
  -7812413.20449  -5812439.82049  23346744.7874   23346749.2834   23346744.8224
       223.0004        161.0004
  -6705375.18449  -4987727.22949  22852785.6744   22852787.7624   22852785.4244
       229.0004        176.0004
  -9306954.93849  -7236158.74749  22938603.0924   22938607.4574   22938604.6574
       226.0004        172.0004
 -21314544.53849 -16585710.42749  20906477.7924   20906479.7864   20906477.8124
       243.0004        200.0004
  -3855888.31549  -2982420.91849  23563188.9204   23563194.2694   23563190.2964
       205.0004        146.0004
  -4135161.82749  -3207356.81249  24317115.9424   24317121.8944   24317115.7684
       203.0004        133.0004
 -13791412.29749 -10724197.73149  21098541.3614   21098544.7784   21098541.5334
       241.0004        200.0004
 -27275573.57849 -21208122.60549  19762175.9744   19762179.1234   19762176.0614
       246.0004        209.0004
 11 10 14  5 58 30.0000000  0  9G22G25G17G15G12G14G18G27G09
  -3868522.19449  -3001925.30449  23966999.4424   23967001.9324   23966999.3914
       211.0004        147.0004
  -7910404.83549  -5888796.95749  23328098.0304   23328101.4204   23328097.9674
       223.0004        160.0004
  -6651458.84349  -4945714.54949  22863043.9204   22863048.6994   22863045.3784
       227.0004        174.0004
  -9204240.32949  -7156121.47449  22958148.4904   22958153.0584   22958149.1464
       223.0004        169.0004
 -21371402.98349 -16630015.71949  20895657.4124   20895659.9254   20895658.3954
       242.0004        200.0004
  -3948951.68349  -3054937.82849  23545480.5944   23545484.9354   23545481.9204
       209.0004        146.0004
  -4055691.26649  -3145431.69349  24332240.7764   24332243.0564   24332238.7694
       204.0004        131.0004
 -13755729.45949 -10696392.95249  21105331.8934   21105334.9004   21105331.7574
       242.0004        200.0004
 -27262716.49749 -21198104.13149  19764623.1704   19764625.8024   19764622.8694
       246.0004        209.0004
 11 10 14  5 59  0.0000000  0  9G22G25G17G15G12G14G18G27G09
  -3830757.67149  -2972498.41749  23974188.9744   23974186.3804   23974186.0464
       213.0004        145.0004
  -8008203.02349  -5965003.36449  23309487.4214   23309493.0744   23309486.1764
       225.0004        164.0004
  -6597049.97349  -4903318.09649  22873398.1564   22873400.8164   22873399.2604
       227.0004        175.0004
  -9101292.25349  -7075902.28549  22977741.5124   22977743.5984   22977740.2904
       226.0004        168.0004
 -21427848.15749 -16673998.97549  20884917.3724   20884918.9134   20884917.0884
       244.0004        200.0004
  -4041736.37149  -3127237.62249  23527826.7934   23527827.8624   23527826.6094
       213.0004        148.0004
  -3976019.21049  -3083349.58049  24347403.4854   24347403.4144   24347403.9004
       210.0004        135.0004
 -13719752.78849 -10668359.22049  21112177.7994   21112180.7774   21112177.8594
       241.0004        200.0004
 -27249355.73649 -21187693.17249  19767165.2154   19767167.9694   19767165.4274
       245.0004        209.0004
 11 10 14  5 59 30.0000000  0  9G22G25G17G15G12G14G18G27G09
  -3792532.29049  -2942712.38249  23981461.2804   23981460.2354   23981460.8784
       212.0004        145.0004
  -8105806.34749  -6041057.89949  23290914.4434   23290919.7974   23290913.3334
       222.0004        164.0004
  -6542150.31049  -4860539.19649  22883847.2084   22883848.2874   22883846.4294
       230.0004        175.0004
  -8998113.10949  -6995503.01049  22997375.7674   22997378.0734   22997375.7544
       225.0004        167.0004
 -21483878.70949 -16717659.14549  20874255.0204   20874256.4214   20874254.7914
       244.0004        201.0004
  -4134239.66449  -3199318.14149  23510224.6254   23510226.1674   23510223.6474
       214.0004        149.0004
  -3896148.39149  -3021112.57149  24362601.6074   24362602.3374   24362600.6164
       209.0004        134.0004
 -13683482.04649 -10640096.34049  21119080.1944   21119082.8054   21119080.1454
       242.0004        200.0004
 -27235491.07749 -21176889.55549  19769804.0054   19769806.3714   19769803.8164
       245.0004        209.0004
 11 10 14  6  0  0.0000000  0  9G22G25G17G15G12G14G18G27G09
  -3753848.49549  -2912569.18649  23988822.6164   23988823.3404   23988822.8534
       208.0004        146.0004
  -8203213.88849  -6116959.87949  23272375.5634   23272382.6444   23272376.3144
       219.0004        164.0004
  -6486761.66749  -4817379.26749  22894385.1024   22894389.5324   22894386.2244
       227.0004        174.0004
  -8894705.54049  -6914925.77149  23017053.3064   23017057.8124   23017052.6794
       224.0004        169.0004
 -21539494.46249 -16760996.10449  20863670.8014   20863673.3894   20863671.4614
       243.0004        201.0004
  -4226459.06949  -3271177.42849  23492674.6034   23492676.7814   23492674.8364
       211.0004        149.0004
  -3816081.60249  -2958722.86049  24377836.7034   24377838.9724   24377836.0484
       207.0004        136.0004
 -13646917.50449 -10611604.52149  21126038.0614   21126041.0734   21126037.7724
       242.0004        200.0004
 -27221122.81149 -21165693.53649  19772537.7234   19772540.6834   19772537.7074
       245.0004        209.0004
 11 10 14  6  0 30.0000000  0  9G22G25G17G15G12G14G18G27G09
  -3714707.66849  -2882069.86649  23996270.6574   23996271.7644   23996271.5444
       210.0004        148.0004
  -8300424.01449  -6192708.01349  23253877.6124   23253885.0224   23253878.7524
       222.0004        164.0004
  -6430885.57849  -4773839.52649  22905019.3054   22905021.7254   22905019.0334
       229.0004        175.0004
  -8791071.47249  -6834172.07249  23036772.8354   23036778.2524   23036773.9134
       220.0004        167.0004
 -21594694.48749 -16804009.11049  20853166.8334   20853169.4894   20853167.2834
       243.0004        201.0004
  -4318391.53249  -3342813.10049  23475180.3984   23475182.3024   23475181.5344
       212.0004        150.0004
  -3735821.98449  -2896182.93249  24393108.8144   24393110.7174   24393109.1314
       205.0004        134.0004
 -13610058.73349 -10582883.43149  21133051.9364   21133055.1404   21133052.1964
       241.0004        200.0004
 -27206250.51049 -21154104.76449  19775367.5864   19775370.9214   19775367.7724
       245.0004        208.0004
 11 10 14  6  1  0.0000000  0  9G22G25G17G15G12G14G18G27G09
  -3675112.00549  -2851216.13449  24003806.2094   24003806.2584   24003805.7694
       211.0004        148.0004
  -8397435.95749  -6268301.74749  23235420.4534   23235423.4054   23235419.0154
       226.0004        163.0004
  -6374524.20949  -4729921.63249  22915743.3924   22915746.3104   22915744.1014
       227.0004        173.0004
  -8687213.67349  -6753243.98549  23056534.2154   23056540.5954   23056537.0614
       220.0004        166.0004
 -21649478.48049 -16846697.93849  20842741.5664   20842744.2034   20842741.7544
       242.0004        201.0004
  -4410035.26249  -3414223.80549  23457741.8704   23457743.1194   23457741.6894
       214.0004        153.0004
  -3655373.10249  -2833495.49249  24408419.4694   24408418.0914   24408419.0244
       203.0004        132.0004
 -13572906.35149 -10553933.56449  21140122.0094   21140124.9954   21140121.8764
       241.0004        200.0004
 -27190874.25549 -21142123.29849  19778294.9444   19778297.0514   19778294.5534
       247.0004        209.0004
 11 10 14  6  1 30.0000000  0  9G22G25G17G15G12G14G18G27G09
  -3635063.17749  -2820009.28149  24011426.8494   24011426.7154   24011426.5344
       211.0004        148.0004
  -8494248.21249  -6343739.90049  23216994.6394   23217000.3514   23216993.9724
       222.0004        161.0004
  -6317679.76949  -4685627.31549  22926561.4644   22926564.2584   22926560.8034
       229.0004        175.0004
  -8583134.17849  -6672143.16049  23076340.0724   23076346.6524   23076342.5294
       220.0004        165.0004
 -21703845.70649 -16889062.02649  20832395.4434   20832398.1384   20832396.0104
       242.0004        200.0004
  -4501386.65349  -3485406.73549  23440358.3724   23440359.7724   23440357.9164
       217.0004        153.0004
  -3574736.57649  -2770661.88649  24423764.1084   24423763.5064   24423763.2664
       201.0004        130.0004
 -13535460.00849 -10524754.63649  21147247.8574   21147250.7784   21147247.7604
       241.0004        199.0004
 -27174993.52849 -21129748.74549  19781316.6234   19781318.7714   19781316.3254
       246.0004        209.0004
 11 10 14  6  2  0.0000000  0  9G22G25G17G15G12G14G18G27G09
  -3594563.01249  -2788450.72749  24019133.1404   24019134.1114   24019133.2414
       209.0004        147.0004
  -8590859.50949  -6419021.43749  23198608.0894   23198616.6054   23198609.5764
       220.0004        162.0004
  -6260353.66649  -4640957.68549  22937471.1434   22937473.3684   22937470.7974
       230.0004        174.0004
  -8478835.54449  -6590871.59049  23096190.4994   23096194.5304   23096190.3364
       223.0004        167.0004
 -21757795.53049 -16931100.85649  20822129.2274   20822132.1924   20822129.7024
       242.0004        200.0004
  -4592443.76249  -3556360.35749  23423032.0704   23423031.9684   23423030.9634
       217.0004        151.0004
  -3493916.12949  -2707684.92349  24439139.7774   24439144.2364   24439137.9764
       200.0004        132.0004
 -13497719.47949 -10495346.45549  21154429.1874   21154432.4184   21154429.5614
       241.0004        198.0004
 -27158608.30049 -21116981.06049  19784434.7904   19784437.0884   19784434.5004
       246.0004        209.0004
 11 10 14  6  2 30.0000000  0  9G22G25G17G15G12G14G18G27G09
  -3553613.68249  -2756542.18749  24026928.3814   24026925.9494   24026926.8844
       215.0004        148.0004
  -8687268.79549  -6494145.53349  23180265.4084   23180269.7104   23180263.9354
       224.0004        165.0004
  -6202548.00949  -4595914.39349  22948469.4244   22948472.9444   22948469.7964
       226.0004        172.0004
  -8374320.21449  -6509431.17949  23116080.2244   23116082.4714   23116079.4854
       223.0004        165.0004
 -21811327.25349 -16972813.89249  20811943.0704   20811944.6394   20811943.0594
       242.0004        200.0004
  -4683203.89749  -3627082.55749  23405758.7354   23405761.5614   23405758.5574
       213.0004        149.0004
  -3412914.91649  -2644567.08349  24454557.5014   24454557.5124   24454556.0574
       204.0004        135.0004
 -13459685.18649 -10465709.36849  21161666.4824   21161670.6574   21161666.8334
       240.0004        198.0004
 -27141718.76149 -21103820.39449  19787647.1834   19787650.9804   19787647.7524
       245.0004        208.0004
 11 10 14  6  3  0.0000000  0  9G22G25G17G15G12G14G18G27G09
  -3512217.09149  -2724285.13849  24034804.4254   24034802.9504   24034804.5034
       211.0004        146.0004
  -8783475.00149  -6569111.40649  23161955.4784   23161962.9514   23161956.3914
       222.0004        166.0004
  -6144264.78249  -4550498.94349  22959561.2074   22959564.4584   22959561.5754
       228.0004        173.0004
  -8269590.30449  -6427823.53449  23136008.7334   23136011.6224   23136008.0914
       222.0004        163.0004
 -21864440.39049 -17014200.76349  20801834.9874   20801837.8604   20801835.6044
       241.0004        200.0004
  -4773664.66049  -3697571.48249  23388545.3104   23388548.0074   23388545.2074
       215.0004        153.0004
  -3331735.24849  -2581310.24549  24470007.2434   24470004.9284   24470006.2804
       209.0004        135.0004
 -13421357.22249 -10435843.45149  21168961.2354   21168964.0134   21168961.0384
       242.0004        199.0004
 -27124325.04249 -21090266.87849  19790957.8234   19790961.1234   19790958.0044
       245.0004        208.0004
 11 10 14  6  3 30.0000000  0  9G22G25G17G15G12G14G18G27G09
  -3470375.13849  -2691681.02649  24042765.6784   24042764.7204   24042764.6984
       208.0004        142.0004
  -8879476.78349  -6643918.00549  23143688.5034   23143693.9174   23143688.2774
       222.0004        163.0004
  -6085505.90749  -4504712.87149  22970742.5364   22970746.0374   22970742.5884
       228.0004        173.0004
  -8164648.75349  -6346050.98749  23155977.9554   23155981.4594   23155978.6334
       221.0004        168.0004
 -21917134.42349 -17055261.05749  20791807.7304   20791810.7644   20791808.1594
       241.0004        199.0004
  -4863823.36049  -3767825.03549  23371388.2414   23371391.0694   23371388.3674
       216.0004        155.0004
  -3250380.19949  -2517916.71449  24485486.1804   24485487.5244   24485482.1484
       207.0004        133.0004
 -13382735.42649 -10405748.58049  21176310.2594   21176313.8604   21176310.2674
       241.0004        199.0004
 -27106426.86549 -21076320.28649  19794364.9194   19794366.8934   19794364.8894
       246.0004        209.0004
 11 10 14  6  4  0.0000000  0  9G22G25G17G15G12G14G18G27G09
  -3428089.24749  -2658731.00749  24050814.1314   24050812.4734   24050811.6394
       210.0004        143.0004
  -8975272.36049  -6718563.93749  23125457.4244   23125464.9364   23125458.8154
       220.0004        161.0004
  -6026272.62049  -4458557.14449  22982014.7564   22982017.1774   22982014.6264
       228.0004        172.0004
  -8059497.02749  -6264114.67249  23175985.2944   23175991.9864   23175987.4124
       219.0004        165.0004
 -21969407.94749 -17095993.68949  20781859.8694   20781863.1484   20781860.9674
       239.0004        199.0004
  -4953676.50949  -3837840.47649  23354290.8334   23354291.6874   23354289.4544
       218.0004        153.0004
  -3168852.03749  -2454388.25349  24501001.0524   24501004.2234   24500999.9834
       208.0004        135.0004
 -13343819.34049 -10375424.40449  21183716.0034   21183718.6304   21183715.9244
       241.0004        198.0004
 -27088023.61649 -21061980.12849  19797866.4124   19797868.8244   19797866.3724
       245.0004        208.0004
 11 10 14  6  4 30.0000000  0  9G22G25G17G15G12G14G18G27G09
  -3385363.02149  -2625437.87849  24058945.1964   24058944.2224   24058943.9724
       209.0004        147.0004
  -9070862.25549  -6793049.57849  23107267.4754   23107274.5554   23107268.7194
       221.0004        164.0004
  -5966568.54549  -4412034.53949  22993375.7644   22993378.5854   22993375.7324
       228.0004        172.0004
  -7954139.31549  -6182017.85649  23196036.2174   23196040.0794   23196036.8134
       223.0004        164.0004
 -22021262.29549 -17136399.69149  20771993.6334   20771995.7174   20771993.7944
       241.0004        199.0004
  -5043223.33949  -3907617.24649  23337249.4244   23337252.0594   23337249.4054
       217.0004        153.0004
  -3087155.92249  -2390728.99149  24516549.9824   24516547.2214   24516548.3554
       207.0004        131.0004
 -13304610.65149 -10344872.21749  21191176.8834   21191180.3204   21191177.1604
       241.0004        199.0004
 -27069117.06349 -21047247.77349  19801462.9044   19801466.7184   19801463.5174
       243.0004        208.0004
 11 10 14  6  5  0.0000000  0  9G22G25G17G15G12G14G18G27G09
  -3342197.09649  -2591802.08349  24067156.3214   24067158.0424   24067155.4564
       206.0004        145.0004
  -9166243.85549  -6867372.91049  23089118.6214   23089123.9064   23089118.4624
       224.0004        167.0004
  -5906394.50549  -4365145.75449  23004826.4344   23004830.1864   23004827.5414
       228.0004        171.0004
  -7848576.53749  -6099761.21949  23216126.5064   23216128.3714   23216126.4164
       225.0004        165.0004
 -22072695.43549 -17176477.46949  20762206.1434   20762208.0574   20762206.2584
       241.0004        200.0004
  -5132459.90149  -3977152.25549  23320268.7934   23320270.4814   23320268.1654
       217.0004        153.0004
  -3005292.79449  -2326939.58749  24532123.0284   24532127.3954   24532125.6304
       200.0004        131.0004
 -13265108.08049 -10314091.02449  21198693.2274   21198696.9644   21198693.6584
       240.0004        198.0004
 -27049705.68349 -21032122.04849  19805157.0364   19805160.4214   19805157.2164
       243.0004        208.0004
 11 10 14  6  5 30.0000000  0  9G22G25G17G15G12G14G18G27G09
  -3298593.99949  -2557825.68549  24075455.4734   24075454.7644   24075454.8624
       209.0004        148.0004
  -9261416.49749  -6941533.41549  23071008.7434   23071012.5604   23071007.5824
       227.0004        167.0004
  -5845752.73849  -4317892.48949  23016367.0304   23016369.4874   23016366.6904
       228.0004        170.0004
  -7742811.42849  -6017346.94649  23236251.6704   23236255.2864   23236251.6424
       222.0004        164.0004
 -22123707.23649 -17216226.93449  20752498.3284   20752500.8984   20752498.8894
       240.0004        200.0004
  -5221384.22349  -4046443.98349  23303345.7944   23303349.3314   23303346.8224
       216.0004        154.0004
  -2923266.41049  -2263022.88849  24547732.3954   24547738.0894   24547730.3154
       201.0004        132.0004
 -13225312.08549 -10283081.20549  21206266.5384   21206270.2144   21206266.7334
       240.0004        197.0004
 -27029789.96949 -21016603.35649  19808947.7954   19808950.5474   19808947.7984
       245.0004        208.0004
 11 10 14  6  6  0.0000000  0  9G22G25G17G15G12G14G18G27G09
  -3254555.29949  -2523509.86349  24083834.8704   24083834.7684   24083835.4244
       208.0004        147.0004
  -9356378.40549  -7015529.70149  23052935.7784   23052942.0764   23052935.8874
       224.0004        164.0004
  -5784644.88049  -4270276.04749  23027993.4574   23027997.0824   23027994.4154
       225.0004        169.0004
  -7636845.94749  -5934776.55749  23256416.7864   23256419.2354   23256416.6144
       223.0004        162.0004
 -22174296.57149 -17255647.20249  20742871.9514   20742874.0414   20742872.1554
       241.0004        200.0004
  -5309992.67549  -4115489.54249  23286485.6294   23286487.4234   23286484.2414
       216.0004        153.0004
  -2841078.74049  -2198980.58349  24563376.0404   24563375.6974   24563373.7994
       208.0004        130.0004
 -13185221.90849 -10251842.15049  21213896.2144   21213899.6384   21213895.8284
       240.0004        197.0004
 -27009369.36049 -21000691.24249  19812834.6844   19812836.5104   19812834.3844
       245.0004        208.0004
 11 10 14  6  6 30.0000000  0  9G22G25G17G15G12G14G18G27G09
  -3210083.42549  -2488856.46349  24092295.2914   24092299.1344   24092295.2604
       203.0004        145.0004
  -9451129.24849  -7089361.56949  23034906.4874   23034911.8804   23034906.7864
       226.0004        165.0004
  -5723073.58149  -4222298.48849  23039711.0094   23039715.1114   23039712.2184
       227.0004        171.0004
  -7530683.45249  -5852052.59949  23276618.6354   23276621.0584   23276617.6714
       221.0004        161.0004
 -22224463.91149 -17294738.65449  20733325.0084   20733327.3824   20733326.0754
       241.0004        200.0004
  -5398283.95249  -4184287.96849  23269684.9754   23269686.1254   23269684.4414
       217.0004        153.0004
  -2758734.10149  -2134815.97049  24579046.3494   24579041.7354   24579046.4874
       209.0004        133.0004
 -13144838.61149 -10220374.69449  21221580.5534   21221584.1834   21221580.5104
       240.0004        197.0004
 -26988444.50849 -20984386.18949  19816815.3854   19816818.4004   19816815.6764
       244.0004        208.0004
 11 10 14  6  7  0.0000000  0  9G22G25G17G15G12G14G18G27G09
  -3165180.71049  -2453867.37249  24100844.2584   24100843.5184   24100843.6214
       210.0004        145.0004
  -9545667.70749  -7163027.92249  23016915.3614   23016922.0524   23016915.5144
       226.0004        168.0004
  -5661040.92849  -4173961.41649  23051516.6244   23051518.6204   23051516.2204
       227.0004        171.0004
  -7424325.99949  -5769176.74849  23296855.8084   23296861.9284   23296857.2184
       218.0004        163.0004
 -22274208.47049 -17333500.66449  20723859.9154   20723861.4534   20723860.6054
       242.0004        201.0004
  -5486255.21349  -4252837.02249  23252944.6024   23252945.8094   23252943.7884
       218.0004        155.0004
  -2676234.86349  -2070530.89249  24594743.0664   24594744.0334   24594743.4804
       205.0004        131.0004
 -13104162.05049 -10188678.72949  21229321.3174   21229324.9064   21229321.2624
       240.0004        197.0004
 -26967015.45049 -20967688.24349  19820892.8594   19820896.5164   19820893.0234
       244.0004        208.0004
 11 10 14  6  7 30.0000000  0  9G22G25G17G15G12G14G18G27G09
  -3119848.44949  -2418543.55749  24109468.3454   24109467.9734   24109467.6774
       203.0004        140.0004
  -9639991.92249  -7236527.31649  22998967.2954   22998973.4524   22998967.2894
       226.0004        168.0004
  -5598548.26749  -4125265.90649  23063407.3864   23063410.1924   23063408.2044
       228.0004        171.0004
  -7317775.34749  -5686150.40749  23317132.0664   23317137.9174   23317133.0184
       219.0004        163.0004
 -22323529.28649 -17371932.47749  20714475.1924   20714475.9734   20714474.8894
       243.0004        201.0004
  -5573902.95749  -4321134.00049  23236265.2394   23236267.6724   23236263.9654
       218.0004        155.0004
  -2593583.30349  -2006127.03349  24610470.0814   24610471.2454   24610471.1604
       204.0004        130.0004
 -13063191.64049 -10156753.77849  21237117.5704   21237120.9344   21237117.5954
       240.0004        198.0004
 -26945081.67049 -20950597.00949  19825067.5764   19825069.8984   19825067.4524
       245.0004        208.0004
 11 10 14  6  8  0.0000000  0  9G22G25G17G15G12G14G18G27G09
  -3074089.82749  -2382887.51749  24118176.4104   24118177.2074   24118175.2754
       206.0004        145.0004
  -9734101.75049  -7309859.64649  22981058.9584   22981064.0314   22981059.5624
       226.0004        168.0004
  -5535598.29449  -4076214.03749  23075388.5854   23075390.0944   23075387.9774
       228.0004        172.0004
  -7211035.16649  -5602976.32949  23337447.1634   23337448.7934   23337445.6334
       224.0004        162.0004
 -22372426.62049 -17410034.30049  20705169.6324   20705171.3314   20705169.8784
       242.0004        201.0004
  -5661225.97549  -4389177.92149  23219646.8844   23219649.8764   23219647.5024
       215.0004        154.0004
  -2510783.44649  -1941607.67849  24626227.6584   24626228.6974   24626226.9034
       205.0004        131.0004
 -13021928.55649 -10124600.76149  21244969.4284   21244973.3574   21244969.2814
       239.0004        198.0004
 -26922644.17649 -20933113.26949  19829336.8354   19829340.0124   19829336.9444
       244.0004        208.0004
 11 10 14  6  8 30.0000000  0  9G22G25G17G15G12G14G18G27G09
  -3027906.21349  -2346900.28149  24126963.3764   24126966.1054   24126963.4204
       207.0004        145.0004
  -9827995.36349  -7383023.52149  22963191.8854   22963196.0854   22963191.6604
       228.0004        167.0004
  -5472192.60749  -4026807.05749  23087452.4834   23087456.0224   23087451.4264
       225.0004        170.0004
  -7104106.94849  -5519655.71749  23357795.5764   23357796.7914   23357793.1204
       223.0004        161.0004
 -22420899.47949 -17447805.37149  20695945.7064   20695946.6834   20695945.6204
       243.0004        202.0004
  -5748220.73349  -4456966.08749  23203094.5544   23203095.3094   23203093.1004
       217.0004        154.0004
  -2427837.69049  -1876974.66849  24642011.5504   24642014.5194   24642011.0194
       201.0004        131.0004
 -12980372.30249 -10092219.31149  21252877.4454   21252880.9754   21252877.2334
       240.0004        198.0004
 -26899702.40449 -20915236.59149  19833703.0054   19833705.7944   19833702.7514
       245.0004        208.0004
 11 10 14  6  9  0.0000000  0  9G22G25G17G15G12G14G18G27G09
  -2981299.49849  -2310583.38249  24135834.9154   24135835.2644   24135833.6374
       210.0004        147.0004
  -9921671.51849  -7456017.95449  22945366.4154   22945370.8264   22945367.1094
       228.0004        168.0004
  -5408333.24349  -3977046.56649  23099603.7724   23099608.7644   23099604.8284
       224.0004        169.0004
  -6996993.23249  -5436190.62849  23378179.0724   23378181.7654   23378178.2864
       223.0004        164.0004
 -22468947.24649 -17485245.20849  20686801.5804   20686803.7034   20686802.5784
       241.0004        201.0004
  -5834884.50349  -4524496.31849  23186601.5474   23186604.6434   23186601.7274
       215.0004        155.0004
  -2344748.57349  -1812229.94549  24657820.6354   24657824.6774   24657820.9244
       198.0004        130.0004
 -12938522.56449 -10059609.17549  21260842.3614   21260845.0854   21260842.2834
       241.0004        198.0004
 -26876256.47049 -20896967.05649  19838164.4944   19838167.2464   19838164.5574
       244.0004        208.0004
 11 10 14  6  9 30.0000000  0  9G22G25G17G15G12G14G18G27G09
  -2934273.56649  -2273939.83949  24144782.1814   24144784.2454   24144782.6314
       208.0004        147.0004
 -10015130.04649  -7528842.78849  22927581.5884   22927587.3324   22927581.7554
       226.0004        170.0004
  -5344023.10549  -3926934.84149  23111841.9834   23111845.3934   23111843.2764
       223.0004        169.0004
  -6889697.28949  -5352583.51549  23398596.2244   23398598.0484   23398594.4804
       220.0004        161.0004
 -22516570.42949 -17522354.19849  20677739.9564   20677741.5044   20677740.9534
       243.0004        202.0004
  -5921215.78849  -4591767.45949  23170173.6144   23170174.9774   23170173.1704
       215.0004        155.0004
  -2261520.01349  -1747376.52849  24673661.5484   24673664.2724   24673656.4354
       199.0004        127.0004
 -12896380.40349 -10026771.17049  21268861.6934   21268863.7904   21268861.6844
       242.0004        197.0004
 -26852307.42349 -20878305.49149  19842721.1684   19842724.5094   19842721.1814
       243.0004        207.0004
 11 10 14  6 10  0.0000000  0  9G22G25G17G15G12G14G18G27G09
  -2886828.11749  -2236969.38849  24153809.8424   24153813.2624   24153809.7274
       202.0004        147.0004
 -10108368.46449  -7601496.10049  22909838.8234   22909843.8474   22909838.0354
       227.0004        170.0004
  -5279263.33149  -3876472.74949  23124166.7864   23124168.1664   23124166.7264
       227.0004        170.0004
  -6782220.13449  -5268835.17949  23419046.3104   23419049.8224   23419046.7264
       217.0004        159.0004
 -22563767.17149 -17559130.88549  20668759.3034   20668760.2714   20668759.2924
       244.0004        202.0004
  -6007210.54849  -4658776.39949  23153810.0224   23153812.2264   23153808.5694
       218.0004        154.0004
  -2178154.02349  -1682416.07949  24689523.9344   24689525.4614   24689519.6484
       200.0004        130.0004
 -12853944.64149  -9993704.38549  21276936.3064   21276940.1424   21276936.4534
       241.0004        198.0004
 -26827854.09549 -20859250.98749  19847374.6344   19847377.8544   19847374.9484
       244.0004        207.0004
 11 10 14  6 10 30.0000000  0  9G22G25G17G15G12G14G18G27G09
  -2838967.09949  -2199675.16949  24162919.2294   24162921.0584   24162917.7024
       205.0004        143.0004
 -10201387.09149  -7673978.15149  22892136.0364   22892143.0654   22892136.3044
       225.0004        170.0004
  -5214057.34149  -3825662.94549  23136575.0564   23136576.5374   23136575.7604
       225.0004        169.0004
  -6674565.85249  -5184948.82649  23439530.1374   23439537.7294   23439532.0244
       216.0004        162.0004
 -22610538.43749 -17595576.03949  20659858.2944   20659860.3524   20659858.6134
       243.0004        202.0004
  -6092867.78749  -4725522.33949  23137511.2334   23137510.8374   23137509.9924
       220.0004        157.0004
  -2094654.66149  -1617351.69949  24705413.6864   24705414.5244   24705414.6954
       199.0004        131.0004
 -12811216.90749  -9960410.07949  21285066.6754   21285070.6934   21285066.9224
       241.0004        198.0004
 -26802897.87149 -20839804.61749  19852124.0404   19852127.1714   19852123.7154
       243.0004        207.0004
 11 10 14  6 11  0.0000000  0  9G22G25G17G15G12G14G18G27G09
  -2790691.28449  -2162057.66749  24172105.2704   24172105.4394   24172105.0014
       206.0004        143.0004
 -10294183.34849  -7746286.95249  22874477.5364   22874484.4404   22874479.0214
       224.0004        169.0004
  -5148405.66649  -3774505.85649  23149065.5894   23149070.9134   23149066.8224
       221.0004        168.0004
  -6566735.34049  -5100925.17049  23460051.4784   23460057.5434   23460051.5504
       217.0004        161.0004
 -22656882.39049 -17631688.22249  20651038.7034   20651041.3984   20651039.3314
       242.0004        203.0004
  -6178183.41449  -4792002.07849  23121273.7334   23121277.6534   23121274.0054
       216.0004        157.0004
  -2011023.83349  -1552184.84349  24721327.0774   24721331.1814   24721327.9254
       203.0004        132.0004
 -12768195.75849  -9926887.14549  21293253.2284   21293257.2234   21293253.1004
       239.0004        197.0004
 -26777437.28149 -20819965.23149  19856969.4294   19856972.1604   19856969.3154
       245.0004        208.0004
 11 10 14  6 11 30.0000000  0  9G22G25G17G15G12G14G18G27G09
  -2742003.92649  -2124119.46649  24181371.4624   24181371.4174   24181369.8554
       209.0004        143.0004
 -10386756.77149  -7818422.08949  22856862.5524   22856868.6614   22856862.5864
       227.0004        170.0004
  -5082311.15949  -3723003.70749  23161644.8654   23161647.8784   23161644.6184
       224.0004        169.0004
  -6458731.42849  -5016766.42849  23480603.3194   23480608.9924   23480604.5204
       216.0004        158.0004
 -22702799.49449 -17667467.79149  20642300.7394   20642303.5064   20642301.3684
       241.0004        203.0004
  -6263155.45249  -4858214.07949  23105103.4574   23105107.1654   23105103.6804
       215.0004        155.0004
  -1927264.63149  -1486917.93949  24737269.0994   24737269.3914   24737266.8664
       210.0004        132.0004
 -12724881.97249  -9893136.17849  21301495.8404   21301499.7984   21301495.7924
       240.0004        197.0004
 -26751473.25449 -20799733.55249  19861910.0264   19861912.9544   19861909.7404
       244.0004        207.0004
 11 10 14  6 12  0.0000000  0  9G22G25G17G15G12G14G18G27G09
  -2692907.45749  -2085862.46849  24190713.9034   24190714.5794   24190713.0354
       208.0004        146.0004
 -10479106.78349  -7890383.14049  22839287.5734   22839295.7644   22839288.5804
       226.0004        171.0004
  -5015776.61949  -3671158.66149  23174306.5904   23174309.4764   23174306.2674
       225.0004        170.0004
  -6350557.66049  -4932475.25249  23501191.2454   23501194.1504   23501189.9054
       221.0004        159.0004
 -22748289.73849 -17702914.75049  20633644.7604   20633647.1254   20633644.9874
       242.0004        203.0004
  -6347782.01749  -4924156.87449  23089000.7964   23089002.3484   23089000.2164
       217.0004        156.0004
  -1843380.68349  -1421553.83649  24753231.5434   24753233.4034   24753229.3214
       208.0004        131.0004
 -12681276.15349  -9859157.66949  21309794.2664   21309797.4954   21309794.0294
       241.0004        197.0004
 -26725006.65849 -20779110.26449  19866946.1144   19866949.3084   19866946.0794
       243.0004        207.0004
 11 10 14  6 12 30.0000000  0  9G22G25G17G15G12G14G18G27G09
  -2643403.39149  -2047287.93649  24200133.8754   24200135.9774   24200132.9384
       207.0004        145.0004
 -10571231.04449  -7962168.30249  22821760.0234   22821764.7544   22821757.9394
       228.0004        171.0004
  -4948802.91249  -3618971.41049  23187049.4314   23187054.8024   23187050.8914
       223.0004        170.0004
  -6242214.66549  -4848052.23749  23521807.1464   23521811.4764   23521807.1804
       217.0004        160.0004
 -22793351.50249 -17738027.82649  20625069.8064   20625072.4944   20625070.2114
       242.0004        203.0004
  -6432059.22349  -4989827.47249  23072963.8254   23072965.6924   23072964.1784
       220.0004        157.0004
  -1759373.80949  -1356093.96349  24769215.6414   24769217.4314   24769213.1534
       205.0004        131.0004
 -12637377.31649  -9824950.83549  21318148.7384   21318151.5894   21318148.6784
       241.0004        197.0004
 -26698036.76349 -20758094.78849  19872078.4674   19872081.6174   19872078.5904
       244.0004        207.0004
 11 10 14  6 13  0.0000000  0  9G22G25G17G15G12G14G18G27G09
  -2593494.54649  -2008397.95149  24209630.1234   24209632.7584   24209629.4674
       203.0004        143.0004
 -10663129.56349  -8033777.53449  22804268.9684   22804275.9404   22804269.6474
       226.0004        169.0004
  -4881393.35649  -3566444.54349  23199879.0374   23199881.9364   23199879.2494
       224.0004        171.0004
  -6133706.14149  -4763500.28249  23542455.1614   23542461.3064   23542455.8554
       218.0004        162.0004
 -22837985.53949 -17772807.60449  20616575.6664   20616578.7514   20616575.9594
       242.0004        203.0004
  -6515985.62849  -5055224.69549  23056992.6504   23056995.3854   23056992.3814
       219.0004        158.0004
  -1675247.67849  -1290541.16749  24785223.3754   24785226.1174   24785223.7864
       203.0004        130.0004
 -12593186.55649  -9790516.51649  21326556.8134   21326560.5084   21326557.1014
       240.0004        198.0004
 -26670564.62949 -20736687.95749  19877306.2374   19877309.1064   19877306.1584
       244.0004        207.0004
 11 10 14  6 13 30.0000000  0  9G22G25G17G15G12G14G18G27G09
  -2543182.78149  -1969194.04849  24219203.6204   24219208.1514   24219203.7254
       203.0004        143.0004
 -10754800.94649  -8105209.77949  22786825.3884   22786831.1784   22786825.9534
       227.0004        170.0004
  -4813549.91349  -3513579.58949  23212788.3374   23212792.0034   23212788.4904
       222.0004        168.0004
  -6025034.49549  -4678821.17849  23563135.1064   23563139.0514   23563135.5354
       219.0004        160.0004
 -22882191.12649 -17807253.53849  20608163.6104   20608166.8484   20608164.4744
       242.0004        203.0004
  -6599558.18949  -5120346.20849  23041089.3184   23041091.7584   23041088.5714
       219.0004        158.0004
  -1591005.71549  -1224898.11149  24801255.9364   24801254.3494   24801254.2044
       205.0004        127.0004
 -12548703.88549  -9755854.74949  21335020.9594   21335025.3624   21335021.3644
       239.0004        197.0004
 -26642590.30349 -20714889.81449  19882629.8234   19882632.7284   19882629.6984
       244.0004        207.0004
 11 10 14  6 14  0.0000000  0  9G22G25G17G15G12G14G18G27G09
  -2492470.43849  -1929677.99649  24228857.0514   24228856.3384   24228855.0794
       212.0004        146.0004
 -10846243.87449  -8176464.03149  22769425.2364   22769430.9074   22769425.0504
       228.0004        171.0004
  -4745274.34649  -3460377.92649  23225780.0324   23225783.7504   23225781.4274
       223.0004        169.0004
  -5916201.64249  -4594016.45349  23583844.3724   23583849.8534   23583844.9774
       216.0004        159.0004
 -22925967.82649 -17841365.26149  20599833.9804   20599836.4044   20599834.0424
       242.0004        204.0004
  -6682774.48949  -5185190.09449  23025255.3584   23025255.9894   23025254.3964
       221.0004        158.0004
  -1506650.01349  -1159166.43549  24817308.2094   24817310.5604   24817305.5684
       204.0004        126.0004
 -12503929.06949  -9720965.33049  21343541.6994   21343545.5144   21343541.7454
       241.0004        197.0004
 -26614113.59149 -20692700.20549  19888048.7134   19888052.0054   19888048.7564
       245.0004        208.0004
 11 10 14  6 14 30.0000000  0  9G22G25G17G15G12G14G18G27G09
  -2441359.52749  -1889851.26349  24238582.4344   24238582.5734   24238581.9444
       212.0004        144.0004
 -10937457.05149  -8247539.24249  22752066.8814   22752073.4174   22752066.9644
       227.0004        171.0004
  -4676568.66649  -3406841.10349  23238857.5724   23238859.0404   23238857.5344
       227.0004        170.0004
  -5807210.18249  -4509088.18849  23604583.6054   23604589.9184   23604586.3944
       216.0004        160.0004
 -22969315.22449 -17875142.46949  20591585.7134   20591587.7644   20591585.8114
       243.0004        204.0004
  -6765631.50449  -5249754.03949  23009487.2194   23009488.7864   23009486.2614
       220.0004        159.0004
  -1422183.29649  -1093348.21049  24833379.4154   24833383.1314   24833382.7174
       198.0004        123.0004
 -12458862.11049  -9685848.27849  21352118.7944   21352121.6644   21352118.4834
       241.0004        198.0004
 -26585134.64049 -20670119.23949  19893563.4294   19893566.4804   19893563.2354
       244.0004        207.0004
 11 10 14  6 15  0.0000000  0  9G22G25G17G15G12G14G18G27G09
  -2389852.27449  -1849715.75149  24248382.0354   24248384.1874   24248382.6294
       208.0004        142.0004
 -11028439.25749  -8318434.45949  22734754.9224   22734760.7614   22734754.8624
       229.0004        173.0004
  -4607435.18549  -3352970.93049  23252011.6144   23252015.4974   23252011.7374
       224.0004        169.0004
  -5698062.35849  -4424038.02649  23625354.4804   23625360.0874   23625356.2214
       219.0004        160.0004
 -23012232.70549 -17908584.67549  20583418.4924   20583420.6984   20583419.0554
       242.0004        204.0004
  -6848126.91149  -5314036.20049  22993787.9154   22993790.4394   22993788.9184
       220.0004        159.0004
  -1337608.42449  -1027445.69649  24849474.0964   24849476.1544   24849474.9004
       198.0004        124.0004
 -12413503.02349  -9650503.58949  21360750.5824   21360753.2594   21360750.0474
       241.0004        197.0004
 -26555653.21949 -20647146.73749  19899172.9044   19899176.0714   19899173.2544
       243.0004        207.0004
 11 10 14  6 15 30.0000000  0  9G22G25G17G15G12G14G18G27G09
  -2337951.77549  -1809273.81149  24258258.1304   24258260.8604   24258258.0474
       204.0004        142.0004
 -11119190.26349  -8389149.55249  22717484.9614   22717490.9194   22717486.0524
       230.0004        174.0004
  -4537876.76249  -3298769.63349  23265247.1654   23265250.4984   23265247.0654
       225.0004        168.0004
  -5588761.32749  -4338868.49349  23646156.0824   23646159.3504   23646155.1754
       219.0004        154.0004
 -23054720.99249 -17941692.44149  20575333.2034   20575335.2744   20575333.7744
       242.0004        204.0004
  -6930258.67849  -5378035.02349  22978158.7994   22978161.2104   22978158.9854
       218.0004        157.0004
  -1252929.67249   -961462.29949  24865588.6514   24865595.8694   24865587.1024
       196.0004        122.0004
 -12367852.77049  -9614932.01749  21369436.6094   21369440.1794   21369436.7564
       240.0004        197.0004
 -26525670.74849 -20623783.80349  19904878.6024   19904881.5554   19904878.8914
       245.0004        207.0004
 11 10 14  6 16  0.0000000  0  9G22G25G17G15G12G14G18G27G09
  -2285659.57049  -1768526.68949  24268208.4584   24268213.4484   24268207.9664
       202.0004        143.0004
 -11209708.04849  -8459682.89249  22700260.7374   22700267.2604   22700260.2694
       230.0004        174.0004
  -4467895.04949  -3244238.49949  23278564.4734   23278567.2144   23278566.3544
       224.0004        166.0004
  -5479308.68549  -4253580.83749  23666984.6424   23666988.2114   23666984.1354
       221.0004        160.0004
 -23096778.55249 -17974464.57849  20567330.2784   20567332.2614   20567330.4024
       242.0004        205.0004
  -7012023.55649  -5441747.93849  22962598.9934   22962601.9704   22962600.5214
       219.0004        159.0004
  -1168148.64949   -895399.18549  24881720.5724   24881724.0754   24881721.0494
       200.0004        128.0004
 -12321910.46449  -9579132.87449  21378178.8224   21378182.9824   21378179.3484
       239.0004        197.0004
 -26495186.81749 -20600030.12149  19910680.4864   19910682.7994   19910679.9624
       245.0004        207.0004
 11 10 14  6 16 30.0000000  0  9G22G25G17G15G12G14G18G27G09
  -2232978.63249  -1727476.69149  24278234.1674   24278238.5874   24278234.5834
       206.0004        146.0004
 -11299992.29349  -8530034.26149  22683078.4164   22683085.7514   22683079.4254
       228.0004        174.0004
  -4397492.65349  -3189379.54849  23291962.9384   23291965.2854   23291962.0514
       226.0004        166.0004
  -5369707.63349  -4168177.53649  23687842.3704   23687844.1694   23687842.3644
       223.0004        159.0004
 -23138405.69849 -18006901.32349  20559408.7674   20559410.6424   20559409.2844
       243.0004        205.0004
  -7093419.50549  -5505173.38849  22947109.7204   22947112.8414   22947110.9024
       219.0004        160.0004
  -1083268.87249   -829259.16949  24897876.3074   24897872.9454   24897872.5694
       199.0004        127.0004
 -12275677.08049  -9543106.91849  21386976.5014   21386980.5584   21386977.2504
       240.0004        197.0004
 -26464202.53449 -20575886.56249  19916576.5244   19916579.1564   19916576.3784
       245.0004        208.0004
 11 10 14  6 17  0.0000000  0  9G22G25G17G15G12G14G18G27G09
  -2179910.52749  -1686124.98549  24288335.7894   24288335.7694   24288334.5834
       213.0004        151.0004
 -11390041.03149  -8600202.11949  22665944.4394   22665950.2054   22665943.5554
       230.0004        174.0004
  -4326671.09449  -3134193.99649  23305438.1124   23305442.9704   23305439.6554
       224.0004        169.0004
  -5259959.80449  -4082659.85249  23708722.4164   23708727.9274   23708723.1514
       211.0004        151.0004
 -23179601.91549 -18039002.28249  20551569.2784   20551571.2704   20551569.8354
       242.0004        205.0004
  -7174443.07649  -5568308.66449  22931693.1114   22931695.6274   22931692.4114
       221.0004        160.0004
   -998292.75649   -763044.01449  24914044.2044   24914047.4334   24914047.2014
       198.0004        127.0004
 -12229151.88349  -9506853.57549  21395830.8834   21395834.6524   21395831.1884
       240.0004        196.0004
 -26432717.02949 -20551352.42649  19922567.4334   19922570.5484   19922567.2604
       245.0004        207.0004
 11 10 14  6 17 30.0000000  0  9G22G25G17G15G12G14G18G27G09
  -2126458.40649  -1644473.98249  24298506.9154   24298507.2654   24298505.0234
       210.0004        148.0004
 -11479853.94049  -8670186.21249  22648852.5724   22648858.3034   22648853.4434
       229.0004        173.0004
  -4255433.25849  -3078684.08449  23318995.8404   23318999.1924   23318996.5264
       225.0004        168.0004
  -5150068.21449  -3997030.14049  23729634.3744   23729640.3814   23729636.1134
       216.0004        156.0004
 -23220367.05449 -18070767.33949  20543811.6674   20543813.9874   20543812.2804
       242.0004        205.0004
  -7255092.63949  -5631152.51449  22916346.9744   22916348.5554   22916345.3914
       223.0004        161.0004
   -913223.71049   -696756.50649  24930232.1654   24930236.0264   24930232.6934
       202.0004        129.0004
 -12182335.77849  -9470373.55649  21404740.0034   21404743.2934   21404740.1064
       240.0004        196.0004
 -26400731.09249 -20526428.35249  19928654.2864   19928657.2924   19928654.2864
       246.0004        207.0004
 11 10 14  6 18  0.0000000  0  9G22G25G17G15G12G14G18G27G09
  -2072624.09149  -1602525.16849  24308750.5074   24308752.2274   24308750.7174
       209.0004        145.0004
 -11569429.77749  -8739985.56949  22631807.2084   22631813.8504   22631806.9444
       229.0004        174.0004
  -4183781.39449  -3022851.53849  23332630.1014   23332632.6954   23332630.2764
       224.0004        166.0004
  -5040035.29649  -3911290.32049  23750574.8844   23750579.7984   23750575.5794
       217.0004        158.0004
 -23260700.89549 -18102196.32149  20536136.8864   20536138.8114   20536137.3054
       243.0004        205.0004
  -7335365.59049  -5693702.90349  22901069.7594   22901072.3274   22901070.4784
       222.0004        160.0004
   -828064.80349   -630398.98649  24946439.1424   24946440.2244   24946442.0104
       199.0004        129.0004
 -12135228.79549  -9433666.87049  21413703.8404   21413707.5634   21413703.7244
       239.0004        195.0004
 -26368245.28849 -20501114.77049  19934836.7434   19934838.9274   19934836.5284
       246.0004        207.0004
 11 10 14  6 18 30.0000000  0  9G22G25G17G15G12G14G18G27G09
  -2018410.15849  -1560280.60449  24319068.6474   24319066.1094   24319066.5914
       207.0004        139.0004
 -11658767.18549  -8809599.12649  22614806.2644   22614813.2314   22614806.3244
       228.0004        174.0004
  -4111717.57249  -2966697.97849  23346343.4704   23346345.6894   23346342.8984
       224.0004        164.0004
  -4929862.94349  -3825441.86949  23771539.5304   23771545.1554   23771540.6514
       216.0004        154.0004
 -23300602.80849 -18133288.73849  20528543.3214   20528545.7524   20528543.8694
       243.0004        205.0004
  -7415259.01749  -5755957.56049  22885867.9254   22885868.3864   22885866.2854
       223.0004        162.0004
   -742818.34749   -563973.21049  24962657.6424   24962658.5494   24962655.3314
       196.0004        123.0004
 -12087830.59849  -9396733.27049  21422723.3844   21422726.9854   21422723.4334
       240.0004        195.0004
 -26335259.48249 -20475411.57949  19941113.4364   19941115.9904   19941113.1904
       246.0004        207.0004
 11 10 14  6 19  0.0000000  0  9G22G25G17G15G12G14G18G27G09
  -1963818.80849  -1517741.87049  24329452.6664   24329456.0564   24329453.4424
       203.0004        141.0004
 -11747865.23849  -8879026.19049  22597853.2654   22597857.3864   22597852.6184
       230.0004        174.0004
  -4039244.10449  -2910225.22049  23360134.3514   23360139.7624   23360134.4384
       224.0004        166.0004
  -4819554.11449  -3739487.06149  23792528.4144   23792534.1594   23792530.0164
       214.0004        153.0004
 -23340072.75149 -18164044.55649  20521032.8434   20521034.9064   20521033.1414
       243.0004        205.0004
  -7494770.53649  -5817914.61949  22870736.3444   22870738.9584   22870736.9394
       222.0004        162.0004
   -657487.53449   -497481.70849  24978895.4664   24978897.3844   24978895.7984
       198.0004        126.0004
 -12040141.65849  -9359573.11949  21431798.7294   21431802.1974   21431798.6944
       239.0004        195.0004
 -26301774.29249 -20449319.25649  19947485.1344   19947488.2614   19947485.2004
       246.0004        207.0004
 11 10 14  6 19 30.0000000  0  9G22G25G17G15G12G14G18G27G09
  -1908853.33049  -1474911.66749  24339913.5314   24339917.3444   24339913.8124
       206.0004        146.0004
 -11836723.46649  -8948266.39549  22580942.6464   22580948.8974   22580942.8224
       228.0004        174.0004
  -3966363.56449  -2853435.28649  23374003.3564   23374007.1614   23374003.6584
       225.0004        167.0004
  -4709111.93649  -3653428.29049  23813545.0094   23813552.3604   23813547.5614
       213.0004        155.0004
 -23379111.06349 -18194464.03649  20513603.7334   20513606.3194   20513604.0244
       242.0004        205.0004
  -7573897.80249  -5879572.25549  22855680.3204   22855681.1554   22855678.7354
       222.0004        162.0004
   -572075.78749   -430927.10449  24995152.6164   24995160.4254   24995151.7964
       200.0004        124.0004
 -11992162.79349  -9322187.04949  21440928.2644   21440932.3514   21440928.6624
       240.0004        195.0004
 -26267790.49349 -20422838.40149  19953952.0954   19953955.1684   19953951.9604
       245.0004        207.0004
 11 10 14  6 20  0.0000000  0  9G22G25G17G15G12G14G18G27G09
  -1853514.73349  -1431790.76149  24350445.4814   24350447.2964   24350445.1544
       208.0004        151.0004
 -11925339.47149  -9017317.82049  22564080.7694   22564086.4694   22564079.8004
       230.0004        175.0004
  -3893077.39349  -2796329.26049  23387951.0594   23387953.0304   23387950.0274
       225.0004        165.0004
  -4598537.03149  -3567266.17949  23834588.5274   23834593.4634   23834589.1334
       216.0004        153.0004
 -23417716.17349 -18224545.96449  20506256.7144   20506260.0284   20506257.6434
       241.0004        205.0004
  -7652637.55849  -5940927.94749  22840695.3374   22840697.8984   22840695.4534
       221.0004        161.0004
   -486584.57149   -364310.58949  25011419.0834   25011425.7834   25011416.6074
       191.0004        123.0004
 -11943892.60449  -9284573.97149  21450113.7914   21450118.0664   21450114.0594
       239.0004        194.0004
 -26233307.19149 -20395968.32949  19960513.9984   19960517.3614   19960514.1504
       246.0004        207.0004
 11 10 14  6 20 30.0000000  0  9G22G25G17G15G12G14G18G27G09
  -1797807.15949  -1388382.31549  24361045.7754   24361047.7704   24361045.2854
       209.0004        149.0004
 -12013713.90049  -9086181.02749  22547264.1004   22547269.6374   22547264.4414
       232.0004        175.0004
  -3819389.52149  -2738910.22249  23401971.9254   23401975.3804   23401972.5514
       224.0004        164.0004
  -4487833.82949  -3481004.08649  23855658.6504   23855659.6584   23855656.2774
       220.0004        152.0004
 -23455889.55149 -18254291.47749  20498993.3264   20498995.8174   20498993.6284
       242.0004        205.0004
  -7730988.83349  -6001980.93149  22825786.3304   22825787.7144   22825785.7314
       221.0004        160.0004
   -401018.78849   -297636.01449  25027700.3304                   25027701.8084
       195.0004        121.0004
 -11895333.12949  -9246735.48349  21459354.6534   21459358.3234   21459354.8704
       239.0004        194.0004
 -26198326.58849 -20368710.74449  19967171.3974   19967173.9604   19967170.9584
       246.0004        208.0004
