     2.11           OBSERVATION DATA    G (GPS)             RINEX VERSION / TYPE
teqc  2012Jun6                          20151118 02:04:17UTCPGM / RUN BY / DATE
OSX ker:10.8.0|Core 2 Duo|gcc 4.2 -m64|OSX ker:10.8.0+|=+   COMMENT
Linux 2.4.21-27.ELsmp|Opteron|gcc -static|Linux x86_64|=+   COMMENT
HEADER CHANGED BY EPN CB ON 2011-10-15                      COMMENT
TO BE CONFORM WITH THE INFORMATION IN                       COMMENT
ftp://epncb.oma.be/pub/station/log/brus.log                 COMMENT
                                                            COMMENT
teqc  2010Oct21                         20111015 00:01:18UTCCOMMENT
teqc  2010Oct21                         20111015 00:01:03UTCCOMMENT
teqc  2010Oct21                         20111014 01:01:02UTCCOMMENT
BIT 2 OF LLI FLAGS DATA COLLECTED UNDER A/S CONDITION       COMMENT
 SNR is mapped to RINEX snr flag value [0-9]                COMMENT
  L1 & L2: min(max(int(snr_dBHz/6), 0), 9)                  COMMENT
pseudorange smoothing corrections not applied               COMMENT
COORDINATES IN ETRF2000                                     COMMENT
Forced Modulo Decimation to 30 seconds                      COMMENT
BRUS                                                        MARKER NAME
13101M004                                                   MARKER NUMBER
Carine Bruyninx     ROB                                     OBSERVER / AGENCY
RT919994505         ASHTECH Z-XII3T     1L01-1D04           REC # / TYPE / VERS
CR519994604         ASH701945B_M    NONE                    ANT # / TYPE
  4027894.0130   307045.5980  4919474.9120                  APPROX POSITION XYZ
        3.9702        0.0000        0.0000                  ANTENNA: DELTA H/E/N
     1     1                                                WAVELENGTH FACT L1/2
     7    L1    L2    C1    P2    P1    S1    S2            # / TYPES OF OBSERV
    30.0000                                                 INTERVAL
teqc windowed: start @ 2011 Oct 14 08:00:00.000             COMMENT
teqc windowed: delta = 14400.000 sec                        COMMENT
  2011    10    14     8     0    0.0000000     GPS         TIME OF FIRST OBS
                                                            END OF HEADER
 11 10 14  8  0  0.0000000  0 10G31G25G04G12G14G02G30G27G09G29
  -5965959.87549  -4636035.29549  23805614.9434   23805620.1604   23805616.5294
       217.0004        157.0004
 -23623166.25849 -18132509.73349  20338059.4514   20338065.9094   20338059.2074
       252.0004        213.0004
   -978134.64549   -656280.23049  23454117.3744   23454123.9284   23454119.4114
       216.0004        151.0004
 -22719820.79849 -17680735.80149  20639065.5074   20639069.2134   20639066.1014
       244.0004        206.0004
 -12979248.68749 -10091540.68249  21827079.4924   21827084.7254   21827079.6794
       230.0004        177.0004
  -4916243.38849  -3458191.00349  23062558.0494   23062562.5414   23062557.9324
       224.0004        165.0004
  -6894293.90149  -5105704.53249  23206719.1954   23206720.9564   23206718.8574
       217.0004        148.0004
   2957344.77449   2326759.91049  24285740.6444   24285747.9694   24285739.9184
       202.0004        137.0004
 -10582100.33549  -8200237.54749  22938851.4254   22938857.0284   22938851.7294
       223.0004        159.0004
 -12591943.54549  -9799259.39449  22317666.7224   22317672.1894   22317667.3544
       229.0004        178.0004
 11 10 14  8  0 30.0000000  0 10G31G25G04G12G14G02G30G27G09G29
  -6062984.49549  -4711638.90449  23787152.7254   23787156.9344   23787153.3164
       218.0004        157.0004
 -23647033.84649 -18151107.87949  20333517.3454   20333524.1014   20333517.5994
       252.0004        213.0004
   -948562.65449   -633237.17649  23459746.3804   23459753.2524   23459746.5974
       217.0004        151.0004
 -22677910.54849 -17648078.50649  20647041.0584   20647044.4454   20647041.7234
       244.0004        206.0004
 -12946634.60349 -10066127.15549  21833285.9904   21833290.1404   21833285.7784
       230.0004        176.0004
  -4965145.40449  -3496296.44649  23053253.5674   23053257.6874   23053252.8574
       227.0004        167.0004
  -6992903.46149  -5182543.14849  23187954.0764   23187957.9074   23187953.0954
       214.0004        148.0004
   3053150.65449   2401413.61349  24303971.8944   24303980.4544   24303971.5164
       208.0004        137.0004
 -10469618.01249  -8112589.10649  22960256.5004   22960262.4214   22960255.5174
       222.0004        157.0004
 -12688277.26849  -9874324.59949  22299334.7594   22299341.2834   22299335.6384
       229.0004        178.0004
 11 10 14  8  1  0.0000000  0 10G31G25G04G12G14G02G30G27G09G29
  -6159871.71049  -4787135.44349  23768716.1264   23768719.0734   23768716.9264
       219.0004        157.0004
 -23670525.02749 -18169412.70549  20329047.7724   20329053.6794   20329047.1954
       252.0004        213.0004
   -918391.68149   -609727.36349  23465486.0294   23465492.5544   23465485.3344
       217.0004        151.0004
 -22635669.46449 -17615163.41549  20655079.5794   20655082.9664   20655079.8554
       244.0004        206.0004
 -12913435.60249 -10040257.86149  21839604.7054   21839607.5164   21839604.7754
       231.0004        177.0004
  -5013594.04249  -3534048.59749  23044033.5044   23044037.2694   23044032.7984
       224.0004        165.0004
  -7091372.51249  -5259272.23449  23169216.4604   23169223.5634   23169217.6914
       217.0004        155.0004
   3149099.89549   2476179.05949  24322228.7564   24322239.3204   24322229.6574
       208.0004        140.0004
 -10356913.52049  -8024767.55049  22981702.5234   22981708.7254   22981703.8304
       221.0004        157.0004
 -12784306.39949  -9949152.47049  22281061.6244   22281066.3704   22281061.4204
       230.0004        176.0004
 11 10 14  8  1 30.0000000  0 10G31G25G04G12G14G02G30G27G09G29
  -6256620.65749  -4862524.24649  23750306.6734   23750309.4254   23750306.1684
       219.0004        158.0004
 -23693640.21449 -18187424.55349  20324649.2534   20324655.0854   20324648.6924
       252.0004        213.0004
   -887623.17849   -585751.96849  23471342.1084   23471348.4834   23471341.7374
       216.0004        149.0004
 -22593099.26049 -17581991.86749  20663180.4974   20663183.5264   20663180.8574
       244.0004        206.0004
 -12879654.20649 -10013934.74349  21846032.7554   21846037.3054   21846031.9384
       231.0004        176.0004
  -5061587.43149  -3571446.01649  23034899.9714   23034903.1244   23034901.0164
       226.0004        166.0004
  -7189700.45749  -5335891.38349  23150505.6954   23150510.9454   23150506.2964
       219.0004        152.0004
   3245190.47249   2551054.64249  24340515.4724   24340525.6814   24340514.8934
       209.0004        140.0004
 -10243989.27749  -7936774.74649  23003189.8644   23003198.7174   23003190.7154
       219.0004        157.0004
 -12880029.71449 -10023742.04949  22262845.6394   22262850.8854   22262845.6764
       229.0004        176.0004
 11 10 14  8  2  0.0000000  0 10G31G25G04G12G14G02G30G27G09G29
  -6353229.18749  -4937803.61149  23731922.3734   23731924.2454   23731920.8664
       218.0004        158.0004
 -23716379.27149 -18205143.31049  20320321.5674   20320327.8554   20320321.2604
       252.0004        212.0004
   -856258.30549   -561311.87249  23477309.6744   23477316.8764   23477310.3394
       216.0004        150.0004
 -22550200.78549 -17548564.52449  20671344.6354   20671346.9084   20671344.8194
       245.0004        206.0004
 -12845291.75949  -9987158.85949  21852571.3504   21852576.0254   21852571.1104
       230.0004        177.0004
  -5109123.89949  -3608487.37549  23025854.5034   23025857.5534   23025853.7444
       224.0004        166.0004
  -7287886.39349  -5412399.86549  23131820.7424   23131825.9434   23131819.6204
       216.0004        150.0004
   3341420.94749   2626039.17949  24358827.3924   24358836.7924   24358828.2484
       210.0004        140.0004
 -10130847.59749  -7848612.52249  23024723.6294   23024729.6084   23024722.6974
       222.0004        157.0004
 -12975445.33949 -10098091.85649  22244688.2094   22244694.9304   22244688.4494
       230.0004        177.0004
 11 10 14  8  2 30.0000000  0 10G31G25G04G12G14G02G30G27G09G29
  -6449695.42349  -5012972.11649  23713562.4184   23713567.1714   23713563.6244
       215.0004        156.0004
 -23738742.10049 -18222568.91349  20316066.2084   20316072.4464   20316065.9874
       252.0004        213.0004
   -824298.15449   -536407.90549  23483392.1104   23483400.2074   23483392.7574
       217.0004        151.0004
 -22506974.86549 -17514882.02849  20679569.4414   20679572.5004   20679569.7874
       243.0004        205.0004
 -12810349.39349  -9959931.10349  21859218.7634   21859224.1374   21859219.5094
       229.0004        176.0004
  -5156201.62749  -3645171.29749  23016895.9534   23016901.1124   23016895.8624
       227.0004        169.0004
  -7385929.19749  -5488796.87549  23113163.3354   23113168.7264   23113161.4174
       215.0004        150.0004
   3437789.78249   2701131.52649  24377167.4634   24377175.8944   24377166.7014
       207.0004        140.0004
 -10017490.56849  -7760282.51349  23046293.5414   23046300.0204   23046293.5324
       219.0004        156.0004
 -13070551.37849 -10172200.44849  22226590.4564   22226595.4694   22226591.2994
       230.0004        177.0004
 11 10 14  8  3  0.0000000  0 10G31G25G04G12G14G02G30G27G09G29
  -6546016.51149  -5088027.51949  23695233.0184   23695238.1734   23695234.9464
       214.0004        155.0004
 -23760727.69549 -18239700.55649  20311883.0154   20311888.7124   20311882.5384
       252.0004        213.0004
   -791743.10849   -511040.37049  23489587.8984   23489594.5824   23489588.1244
       219.0004        151.0004
 -22463421.98549 -17480944.75349  20687856.9804   20687860.5284   20687857.2874
       245.0004        205.0004
 -12774828.04249  -9932252.17449  21865980.4844   21865985.0114   21865980.1854
       229.0004        176.0004
  -5202817.96449  -3681495.67849  23008024.6944   23008029.6444   23008024.3224
       226.0004        168.0004
  -7483827.02449  -5565080.86449  23094534.5834   23094539.2914   23094533.4304
       215.0004        152.0004
   3534296.38549   2776331.23349  24395531.3734   24395540.7864   24395531.8074
       204.0004        140.0004
  -9903919.66149  -7671785.80449  23067904.2444   23067911.7954   23067904.7194
       220.0004        156.0004
 -13165344.60849 -10246065.29949  22208552.1994   22208556.5244   22208552.0654
       230.0004        176.0004
 11 10 14  8  3 30.0000000  0 10G31G25G04G12G14G02G30G27G09G29
  -6642191.29549  -5162968.93249  23676931.8814   23676936.7664   23676934.9784
       217.0004        158.0004
 -23782336.37049 -18256538.50449  20307770.5384   20307776.7594   20307770.6284
       252.0004        213.0004
   -758594.53549   -485210.36749  23495895.4584   23495901.0694   23495896.0284
       217.0004        149.0004
 -22419543.58949 -17446753.83849  20696206.9664   20696210.0944   20696207.5324
       244.0004        205.0004
 -12738729.63449  -9904123.59949  21872848.7574   21872854.2394   21872849.2934
       230.0004        176.0004
  -5248971.16749  -3717459.19449  22999243.7924   22999246.4104   22999242.3114
       227.0004        168.0004
  -7581579.28349  -5641251.42749  23075932.0154   23075939.9284   23075931.7334
       216.0004        154.0004
   3630938.96449   2851636.85749  24413922.6844   24413930.6214   24413922.0704
       207.0004        141.0004
  -9790137.49149  -7583124.49349  23089557.3444   23089564.0294   23089557.0894
       220.0004        156.0004
 -13259823.79849 -10319685.43949  22190574.1034   22190578.3014   22190573.8624
       231.0004        178.0004
 11 10 14  8  4  0.0000000  0 10G31G25G04G12G14G02G30G27G09G29
  -6738218.02849  -5237794.93849  23658660.7144   23658664.3834   23658660.4574
       217.0004        157.0004
 -23803568.07849 -18273082.70449  20303730.8654   20303736.6954   20303730.3074
       252.0004        213.0004
   -724853.84249   -458918.94949  23502315.3554   23502323.7954   23502316.4784
       216.0004        148.0004
 -22375340.66549 -17412310.04549  20704617.9034   20704621.8504   20704618.8314
       243.0004        205.0004
 -12702055.93949  -9875546.75449  21879829.1174   21879832.1614   21879828.8334
       231.0004        176.0004
  -5294659.75349  -3753060.65849  22990546.9794   22990552.1164   22990547.4044
       224.0004        167.0004
  -7679185.04649  -5717307.86949  23057359.0664   23057363.8074   23057359.9554
       218.0004        151.0004
   3727715.98349   2927047.21949  24432338.2014   24432348.5754   24432338.6074
       208.0004        141.0004
  -9676146.06349  -7494300.12949  23111248.9154   23111256.2054   23111250.6034
       217.0004        155.0004
 -13353987.46149 -10393059.71249  22172654.4274   22172660.0194   22172654.4684
       231.0004        179.0004
 11 10 14  8  4 30.0000000  0 10G31G25G04G12G14G02G30G27G09G29
  -6834094.97449  -5312504.25749  23640414.1114   23640419.2304   23640415.3494
       214.0004        157.0004
 -23824422.24649 -18289332.71849  20299761.7734   20299768.6124   20299762.0324
       252.0004        213.0004
   -690521.65149   -432166.63249  23508851.3274   23508856.0094   23508850.6134
       217.0004        148.0004
 -22330813.65449 -17377613.71149  20713091.4954   20713095.3104   20713092.0364
       244.0004        205.0004
 -12664808.30249  -9846522.67949  21886916.7684   21886921.1764   21886916.4374
       230.0004        176.0004
  -5339881.29149  -3788298.20049  22981942.7254   22981946.9254   22981942.1284
       227.0004        171.0004
  -7776642.71749  -5793248.89449  23038812.4004   23038818.5384   23038812.2024
       216.0004        149.0004
   3824626.53849   3002561.65049  24450780.1444   24450789.0244   24450780.0964
       208.0004        141.0004
  -9561947.22449  -7405314.14949  23132979.5564   23132987.8724   23132982.0154
       217.0004        156.0004
 -13447833.21149 -10466186.27149  22154796.4344   22154801.5434   22154796.4554
       230.0004        180.0004
 11 10 14  8  5  0.0000000  0 10G31G25G04G12G14G02G30G27G09G29
  -6929819.92649  -5387095.12149  23622198.1944   23622204.2704   23622198.9854
       215.0004        157.0004
 -23844898.93049 -18305288.59349  20295865.7124   20295871.7244   20295865.6364
       252.0004        214.0004
   -655599.39949   -404954.49149  23515494.0024   23515501.6214   23515495.4694
       215.0004        147.0004
 -22285964.03949 -17342665.99749  20721626.9524   20721629.4444   20721627.0034
       245.0004        204.0004
 -12626988.31749  -9817052.60349  21894113.5184   21894117.7484   21894113.1074
       230.0004        176.0004
  -5384634.37649  -3823170.71649  22973426.7914   22973430.8794   22973426.4854
       227.0004        171.0004
  -7873951.48449  -5869073.92349  23020295.5754   23020302.3664   23020295.4684
       217.0004        154.0004
   3921668.95149   3078178.81849  24469246.5674   24469256.6244   24469246.8384
       208.0004        142.0004
  -9447542.94749  -7316168.10249  23154750.7414   23154757.3994   23154751.7624
       219.0004        156.0004
 -13541359.39549 -10539063.81149  22136998.1124   22137004.1464   22136998.6514
       230.0004        179.0004
 11 10 14  8  5 30.0000000  0 10G31G25G04G12G14G02G30G27G09G29
  -7025389.99349  -5461565.31749  23604012.5724   23604016.9064   23604012.5184
       217.0004        159.0004
 -23864997.28849 -18320949.66449  20292041.0564   20292047.4104   20292040.9744
       252.0004        214.0004
   -620087.80549   -377283.15249  23522251.9404   23522259.6284   23522253.3714
       214.0004        147.0004
 -22240792.13149 -17307467.14649  20730222.3884   20730225.6414   20730222.9014
       244.0004        204.0004
 -12588596.92649  -9787137.29349  21901418.8334   21901422.7294   21901419.3004
       229.0004        175.0004
  -5428916.17549  -3857676.00149  22965000.9884   22965003.4814   22965000.9194
       228.0004        171.0004
  -7971109.56249  -5944781.48549  23001806.3154   23001812.4434   23001805.7634
       216.0004        153.0004
   4018842.22649   3153897.94649  24487739.4704   24487747.6434   24487739.0644
       208.0004        141.0004
  -9332934.89549  -7226863.27049  23176561.3064   23176566.4134   23176561.2924
       221.0004        157.0004
 -13634563.08549 -10611690.06049  22119261.9874   22119268.2774   22119262.5884
       231.0004        179.0004
 11 10 14  8  6  0.0000000  0 10G31G25G04G12G14G02G30G27G09G29
  -7120803.83849  -5535913.77049  23585856.3794   23585859.7424   23585856.3974
       219.0004        160.0004
 -23884717.33749 -18336315.94949  20288288.1974   20288294.6584   20288287.8154
       252.0004        214.0004
   -583988.04849   -349153.48849  23529122.5114   23529127.8334   23529123.3684
       216.0004        145.0004
 -22195299.09749 -17272018.06849  20738879.4564   20738882.6704   20738879.5264
       244.0004        204.0004
 -12549635.74049  -9756777.98049  21908832.3524   21908837.8444   21908832.5944
       229.0004        176.0004
  -5472725.38349  -3891813.03549  22956661.9524   22956668.2544   22956662.2994
       225.0004        169.0004
  -8068115.91749  -6020370.85749  22983348.6194   22983352.4494   22983347.5934
       217.0004        152.0004
   4116144.75649   3229717.85449  24506256.0964   24506264.2814   24506254.4144
       208.0004        140.0004
  -9218125.01649  -7137401.15849  23198407.4704   23198415.2464   23198408.3304
       218.0004        155.0004
 -13727442.88549 -10684063.92449  22101588.5404   22101594.1084   22101588.4434
       231.0004        181.0004
 11 10 14  8  6 30.0000000  0 10G31G25G04G12G14G02G30G27G09G29
  -7216060.14749  -5610139.47149  23567729.6864   23567733.4544   23567730.4984
       217.0004        161.0004
 -23904059.44549 -18351387.74149  20284606.5804   20284614.0264   20284607.0234
       251.0004        214.0004
   -547302.01349   -320566.98949  23536102.2854   23536111.1884   23536103.0994
       213.0004        145.0004
 -22149486.11149 -17236319.68349  20747597.4334   20747600.7574   20747597.6184
       244.0004        203.0004
 -12510106.91949  -9725976.35049  21916354.3284   21916359.9924   21916355.0194
       228.0004        176.0004
  -5516060.86649  -3925580.94349  22948418.2194   22948420.1694   22948416.3214
       230.0004        171.0004
  -8164970.14049  -6095841.70249  22964917.7164   22964922.7224   22964916.8044
       219.0004        153.0004
   4213574.75949   3305637.07849  24524795.9174   24524805.6944   24524796.3454
       206.0004        139.0004
  -9103116.18349  -7047784.02049  23220292.2044   23220300.4604   23220293.6004
       219.0004        156.0004
 -13819997.57549 -10756184.44849  22083974.9114   22083981.6374   22083975.2504
       230.0004        181.0004
 11 10 14  8  7  0.0000000  0 10G31G25G04G12G14G02G30G27G09G29
  -7311155.81349  -5684239.98949  23549633.7624   23549637.4254   23549633.4044
       219.0004        161.0004
 -23923022.35949 -18366164.04649  20280999.0284   20281005.5034   20280998.9374
       252.0004        214.0004
   -510029.79049   -291523.74849  23543195.8094   23543203.3024   23543196.4704
       216.0004        146.0004
 -22103353.16549 -17200371.97849  20756376.4144   20756379.5864   20756376.5144
       244.0004        203.0004
 -12470011.12749  -9694732.91749  21923985.1534   21923989.6134   21923984.7984
       230.0004        175.0004
  -5558919.38349  -3958977.18949  22940259.8964   22940265.8804   22940260.3554
       227.0004        170.0004
  -8261669.87449  -6171192.16149  22946516.4604   22946520.7864   22946515.7014
       219.0004        154.0004
   4311131.88449   3381655.38549  24543360.7274   24543368.8964   24543359.2024
       204.0004        137.0004
  -8987909.42449  -6958012.64749  23242217.2124   23242223.3034   23242216.1584
       221.0004        156.0004
 -13912224.08649 -10828049.23349  22066425.4784   22066431.0034   22066426.1154
       232.0004        182.0004
 11 10 14  8  7 30.0000000  0 10G31G25G04G12G14G02G30G27G09G29
  -7406090.16249  -5758214.78049  23531567.4224   23531572.7804   23531567.4834
       216.0004        161.0004
 -23941606.86649 -18380645.49949  20277463.1244   20277468.9674   20277462.8694
       252.0004        214.0004
   -472173.45849   -262025.33849  23550399.0464   23550408.1344   23550399.7194
       216.0004        146.0004
 -22056902.52849 -17164176.71649  20765215.5054   20765219.1664   20765216.0104
       244.0004        203.0004
 -12429350.96649  -9663049.72249  21931723.2794   21931727.5654   21931722.4204
       230.0004        174.0004
  -5601300.26149  -3992001.25249  22932197.3954   22932200.4434   22932196.1444
       228.0004        170.0004
  -8358214.97649  -6246422.09649  22928143.4124   22928149.5694   22928143.9294
       219.0004        154.0004
   4408813.83449   3457770.96349  24561946.1974   24561958.2034   24561946.3364
       195.0004        132.0004
  -8872507.80349  -6868089.43649  23264177.9924   23264184.8974   23264177.1584
       219.0004        155.0004
 -14004121.36849 -10899657.48549  22048938.3334   22048944.1024   22048939.1294
       233.0004        182.0004
 11 10 14  8  8  0.0000000  0 10G31G25G04G12G14G02G30G27G09G29
  -7500859.67249  -5832061.16949  23513533.0604   23513538.9554   23513533.8664
       218.0004        161.0004
 -23959811.71849 -18394831.11049  20273999.0864   20274004.5794   20273998.3764
       253.0004        214.0004
   -433733.51449   -232072.19149  23557716.2604   23557722.1804   23557715.9214
       217.0004        146.0004
 -22010133.37649 -17127733.27149  20774115.5064   20774118.7704   20774115.8964
       244.0004        203.0004
 -12388127.08149  -9630927.26349  21939567.7944   21939572.0744   21939566.1714
       230.0004        175.0004
  -5643200.36049  -4024650.67849  22924221.9954   22924227.5084   22924222.2894
       226.0004        170.0004
  -8454603.21949  -6321529.80949  22909800.6604   22909807.5444   22909801.6054
       218.0004        154.0004
   4506620.43949   3533983.62549  24580557.9614   24580570.7344   24580558.7964
       193.0004        128.0004
  -8756912.13049  -6778015.04649  23286173.9644   23286180.6824   23286174.3024
       219.0004        154.0004
 -14095686.80949 -10971007.16449  22031512.9614   22031518.4814   22031513.5604
       231.0004        182.0004
 11 10 14  8  8 30.0000000  0 10G31G25G04G12G14G02G30G27G09G29
  -7595463.67449  -5905778.58549  23495531.1594   23495535.4654   23495531.7954
       219.0004        163.0004
 -23977637.84949 -18408721.61949  20270605.9594   20270612.4664   20270606.0844
       252.0004        214.0004
   -394712.06849   -201665.92349  23565140.1064   23565146.6374   23565140.6804
       215.0004        144.0004
 -21963048.25749 -17091043.60749  20783075.2774   20783078.8434   20783076.1094
       244.0004        203.0004
 -12346342.26149  -9598367.71449  21947518.5264   21947522.6824   21947517.8154
       231.0004        176.0004
  -5684619.08649  -4056925.00949  22916341.7644   22916345.5964   22916341.1544
       227.0004        171.0004
  -8550834.55549  -6396515.29649  22891488.5434   22891494.0554   22891488.6304
       218.0004        155.0004
   4604549.07249   3610291.37549  24599196.8814   24599203.0424   24599194.9404
       197.0004        127.0004
  -8641125.59549  -6687791.88749  23308206.2254   23308214.3714   23308207.1434
       217.0004        152.0004
 -14186919.04449 -11042097.18949  22014152.0514   22014158.5334   22014153.2724
       232.0004        183.0004
 11 10 14  8  9  0.0000000  0 10G31G25G04G12G14G02G30G27G09G29
  -7689899.76649  -5979365.14249  23477561.3104   23477564.7974   23477561.9174
       221.0004        163.0004
 -23995084.87849 -18422316.71649  20267285.9554   20267292.4654   20267286.0134
       252.0004        214.0004
   -355110.38349   -170807.51649  23572674.4924   23572683.3274   23572676.5094
       213.0004        145.0004
 -21915647.93849 -17054108.33649  20792095.4314   20792099.2334   20792095.7434
       244.0004        202.0004
 -12303997.76949  -9565372.05549  21955576.8034   21955582.0014   21955576.6714
       228.0004        176.0004
  -5725554.72749  -4088822.91449  22908551.5404   22908556.3874   22908552.7714
       227.0004        171.0004
  -8646907.61549  -6471377.43549  22873207.6944   22873214.2264   22873206.3124
       218.0004        154.0004
   4702598.38349   3686693.19849  24617859.1614   24617864.0654   24617858.3854
       199.0004        125.0004
  -8525150.04449  -6597421.47649  23330278.4364   23330285.0654   23330277.6764
       216.0004        154.0004
 -14277816.10149 -11112926.03049  21996854.7704   21996860.6044   21996855.9394
       232.0004        183.0004
 11 10 14  8  9 30.0000000  0 10G31G25G04G12G14G02G30G27G09G29
  -7784164.87549  -6052818.47549  23459623.7334   23459627.1854   23459623.2554
       222.0004        162.0004
 -24012151.35649 -18435615.28149  20264039.1494   20264045.0624   20264038.4694
       253.0004        214.0004
   -314928.66549   -139497.16849  23580323.3644   23580329.9174   23580324.7214
       216.0004        147.0004
 -21867931.97649 -17016927.12449  20801174.9424   20801178.9494   20801175.4264
       243.0004        201.0004
 -12261094.43149  -9531940.94249  21963739.9624   21963745.3994   21963740.8794
       230.0004        175.0004
  -5766004.20049  -4120341.99449  22900853.9764   22900857.4604   22900853.8614
       226.0004        169.0004
  -8742819.98149  -6546114.32749  22854956.4384   22854962.3094   22854955.4514
       220.0004        157.0004
   4800768.30549   3763188.98449  24636537.5904   24636546.1454   24636536.7004
       192.0004        124.0004
  -8408986.43749  -6506904.52749  23352382.3194   23352389.3414   23352382.2414
       216.0004        154.0004
 -14368375.15249 -11183491.50649  21979623.8134   21979628.2164   21979624.1884
       234.0004        184.0004
 11 10 14  8 10  0.0000000  0 10G31G25G04G12G14G02G30G27G09G29
  -7878258.45249  -6126138.14949  23441718.6134   23441722.0834   23441717.6534
       222.0004        163.0004
 -24028838.51849 -18448618.28049  20260863.4264   20260869.7054   20260863.0384
       252.0004        214.0004
   -274169.41049   -107736.78449  23588078.2844   23588086.4604   23588079.0114
       212.0004        147.0004
 -21819902.76649 -16979501.81949  20810314.6704   20810318.7524   20810315.3944
       243.0004        202.0004
 -12217635.16449  -9498076.63049  21972011.5194   21972016.4434   21972010.8104
       229.0004        175.0004
  -5805967.09249  -4151481.90649  22893249.5584   22893253.4574   22893250.1364
       228.0004        169.0004
  -8838571.85949  -6620726.19249  22836734.1994   22836740.9674   22836734.5364
       217.0004        158.0004
   4899056.15449   3839776.66949  24655241.5014                   24655241.2864
       191.0004        121.0004
  -8292638.09349  -6416243.63749  23374522.2944   23374528.9554   23374522.3944
       215.0004        151.0004
 -14458595.54649 -11253793.07449  21962455.3064   21962459.6794   21962454.9134
       233.0004        183.0004
 11 10 14  8 10 30.0000000  0 10G31G25G04G12G14G02G30G27G09G29
  -7972178.25249  -6199322.40649  23423845.3144   23423849.7254   23423846.0714
       220.0004        163.0004
 -24045145.38749 -18461324.94749  20257760.7584   20257766.2944   20257760.1574
       253.0004        214.0004
   -232833.30649    -75526.91649  23595945.1904   23595953.9444   23595944.2084
       214.0004        144.0004
 -21771560.30049 -16941832.41949  20819514.5114   20819518.1044   20819514.8244
       243.0004        203.0004
 -12173620.97949  -9463779.91849  21980387.3224   21980391.3434   21980386.9244
       231.0004        177.0004
  -5845441.01049  -4182240.79949  22885738.8244   22885741.9074   22885737.1264
       228.0004        170.0004
  -8934161.23849  -6695211.43249  22818545.0194   22818551.1724   22818543.1364
       218.0004        155.0004
   4997461.30149   3916455.84549  24673966.3234                   24673964.2204
       188.0004        119.0004
  -8176106.47649  -6325439.93949  23396697.0864   23396704.9144   23396699.0464
       213.0004        150.0004
 -14548474.57449 -11323828.65049  21945350.0804   21945356.7254   21945351.1954
       232.0004        184.0004
 11 10 14  8 11  0.0000000  0 10G31G25G04G12G14G02G30G27G09G29
  -8065921.15049  -6272368.81549  23406005.4034   23406010.6904   23406006.5474
       217.0004        159.0004
 -24061071.60449 -18473734.99849  20254729.6564   20254735.5994   20254729.3594
       253.0004        214.0004
   -190921.57249    -42868.52849  23603920.5504   23603927.5304   23603921.5944
       216.0004        145.0004
 -21722905.35649 -16903919.52449  20828773.2364   20828776.7044   20828773.8204
       244.0004        203.0004
 -12129053.52949  -9429052.09249  21988867.6664   21988872.2384   21988867.2804
       232.0004        176.0004
  -5884423.78749  -4212616.99749  22878319.2204   22878323.9894   22878319.8514
       228.0004        171.0004
  -9029586.78949  -6769569.00049  22800386.4874   22800393.5924   22800385.2744
       219.0004        157.0004
   5095982.30049   3993225.28449  24692713.1654                   24692719.9854
       188.0004        118.0004
  -8059393.41649  -6234494.84849  23418907.2164   23418915.2824   23418906.9034
       213.0004        150.0004
 -14638010.30649 -11393596.73349  21928314.0204   21928318.4424   21928313.3904
       233.0004        185.0004
 11 10 14  8 11 30.0000000  0 10G31G25G04G12G14G02G30G27G09G29
  -8159486.48049  -6345276.86449  23388201.4404   23388206.3004   23388201.6294
       219.0004        161.0004
 -24076617.79549 -18485848.92749  20251771.3524   20251777.3224   20251770.9104
       253.0004        214.0004
   -148436.52549     -9763.39449  23612005.2884   23612011.8774   23612006.4254
       215.0004        144.0004
 -21673939.73349 -16865764.54749  20838091.8654   20838094.3684   20838091.9754
       244.0004        202.0004
 -12083935.35849  -9393895.13949  21997453.3454   21997458.1264   21997452.7374
       229.0004        176.0004
  -5922914.77149  -4242609.98749  22870995.9994   22870998.5934   22870995.3944
       227.0004        172.0004
  -9124848.04849  -6843798.54349  22782258.0314   22782263.7484   22782258.2964
       218.0004        160.0004
   5194617.08049      1832.30049  24711480.4814
       185.0004         74.0004
  -7942501.51849  -6143410.39249  23441151.8374   23441159.4974   23441152.6884
       212.0004        149.0004
 -14727201.59949 -11463096.42049  21911340.1324   21911345.4794   21911340.2004
       232.0004        183.0004
 11 10 14  8 12  0.0000000  0 10G31G25G04G12G14G02G30G27G09G29
  -8252871.08349  -6418044.07649  23370431.6804   23370434.8654   23370431.3034
       220.0004        164.0004
 -24091782.97149 -18497665.95749  20248885.0794   20248891.5044   20248885.0684
       252.0004        214.0004
   -105378.61549     23788.13549  23620199.0154   23620206.2354   23620199.7314
       215.0004        146.0004
 -21624663.54149 -16827367.55249  20847468.4654   20847471.8944   20847468.4724
       244.0004        202.0004
 -12038267.45349  -9358309.81749  22006143.4134   22006148.3564   22006144.0204
       230.0004        176.0004
  -5960911.41349  -4272217.74849  22863764.0774   22863768.1814   22863764.1234
       227.0004        168.0004
  -9219943.02749  -6917898.50549  22764161.5194   22764168.5534   22764160.8964
       218.0004        158.0004
   5293364.83149     78781.78849  24730271.3124
       183.0004         99.0004
  -7825431.93749  -6052187.48549  23463428.9764   23463437.0694   23463430.5664
       213.0004        148.0004
 -14816046.06049 -11532325.83949  21894433.6304   21894439.0604   21894434.3834
       232.0004        184.0004
 11 10 14  8 12 30.0000000  0 10G31G25G04G12G14G02G30G27G09G29
  -8346073.31849  -6490669.18149  23352696.5184   23352698.7424   23352696.3434
       221.0004        163.0004
 -24106567.30649 -18509186.22749  20246072.7014   20246078.1364   20246071.8564
       253.0004        214.0004
    -61749.49749     57784.75649  23628501.5404   23628507.1644   23628501.6384
       213.0004        145.0004
 -21575077.74849 -16788729.32849  20856904.3874   20856907.8324   20856904.7514
       244.0004        203.0004
 -11992051.90349  -9322297.77649  22014939.2674   22014942.5624   22014938.9044
       230.0004        177.0004
  -5998412.58149  -4301439.42049  22856628.7284   22856632.4414   22856627.9624
       227.0004        169.0004
  -9314870.85049  -6991868.21249  22746097.2644   22746104.0584   22746096.5754
       219.0004        157.0004
   5392223.77049    155831.59749  24749087.8504
       187.0004        111.0004
  -7708187.30349  -5960828.17249  23485740.7724   23485748.0244   23485740.2174
       215.0004        150.0004
 -14904541.85749 -11601283.59649  21877594.4684   21877599.4424   21877595.0764
       232.0004        185.0004
 11 10 14  8 13  0.0000000  0  9G31G25G04G12G14G02G30G09G29
  -8439092.03049  -6563151.28549  23334995.0264   23334998.1944   23334995.5184
       220.0004        163.0004
 -24120971.03449 -18520409.93049  20243331.3034   20243337.2664   20243331.0704
       253.0004        214.0004
    -17551.35049     92224.78449  23636910.9154   23636918.4504   23636912.2424
       213.0004        143.0004
 -21525183.99749 -16749851.14049  20866398.8964   20866402.1564   20866399.1394
       244.0004        202.0004
 -11945290.92449  -9285860.70849  22023837.6864   22023840.9644   22023836.3134
       230.0004        176.0004
  -6035416.75949  -4330273.84449  22849586.7184   22849590.2934   22849586.9474
       228.0004        170.0004
  -9409630.70449  -7065707.05549  22728065.5224   22728071.3524   22728065.1944
       220.0004        158.0004
  -7590770.11349  -5869334.40549  23508086.3294   23508090.9654   23508083.8624
       216.0004        150.0004
 -14992687.66749 -11669968.61449  21860820.8854   21860825.4444   21860820.4514
       234.0004        184.0004
 11 10 14  8 13 30.0000000  0 10G31G25G04G12G14G02G30G27G09G29
  -8531923.77949  -6635487.69049  23317329.0604   23317333.1734   23317329.0724
       220.0004        160.0004
 -24134993.17649 -18531336.30149  20240663.0884   20240668.9324   20240662.8624
       253.0004        214.0004
     27215.51149    127107.92249  23645431.6144   23645437.3644   23645431.1684
       215.0004        144.0004
 -21474982.21749 -16710732.92049  20875952.0524   20875955.0864   20875952.3504
       245.0004        202.0004
 -11897985.65949  -9248999.53949  22032838.7974   22032842.8074   22032839.6964
       231.0004        175.0004
  -6071921.40049  -4358719.00749  22842640.2544   22842644.8984   22842639.9904
       227.0004        171.0004
  -9504220.61349  -7139413.43649  22710065.0194   22710072.6114   22710066.5974
       219.0004        160.0004
   5590269.83549     72684.53949  24786771.8904
       174.0004         94.0004
  -7473181.58849  -5777707.11249  23530461.1934   23530468.2834   23530460.0874
       214.0004        146.0004
 -15080480.78949 -11738378.82149  21844114.7704   21844119.3354   21844114.1794
       235.0004        185.0004
 11 10 14  8 14  0.0000000  0 10G31G25G04G12G14G02G30G27G09G29
  -8624566.91649  -6707677.12949  23299700.0344   23299703.0104   23299699.2204
       220.0004        162.0004
 -24148633.96049 -18541965.49749  20238067.2594   20238073.1684   20238066.9574
       253.0004        214.0004
     72548.81849    162432.46749  23654058.4704   23654065.2104   23654056.4584
       215.0004        143.0004
 -21424473.90149 -16671375.84649  20885564.1404   20885566.5604   20885564.5084
       246.0004        203.0004
 -11850138.69549  -9211716.26149  22041943.4494   22041948.9944   22041944.0164
       229.0004        176.0004
  -6107925.52349  -4386774.16749  22835788.8724   22835792.2544   22835787.8804
       227.0004        169.0004
  -9598639.65649  -7212986.70349  22692098.2434   22692103.6614   22692098.2104
       219.0004        159.0004
   5689454.51049    149934.14049  24805654.3894
       179.0004        112.0004
  -7355424.21449  -5685948.28349  23552868.9384   23552876.8564   23552870.2694
       213.0004        147.0004
 -15167919.98349 -11806513.23549  21827473.5214   21827479.2564   21827474.2484
       233.0004        185.0004
 11 10 14  8 14 30.0000000  0 10G31G25G04G12G14G02G30G27G09G29
  -8717019.86549  -6779718.39449  23282105.4574   23282109.7224   23282105.6154
       218.0004        161.0004
 -24161893.57049 -18552297.68149  20235543.9924   20235550.1794   20235544.0414
       253.0004        214.0004
    118446.99249    198197.17149  23662791.7874   23662798.7414   23662791.4394
       215.0004        143.0004
 -21373660.24449 -16631780.84749  20895233.4464   20895236.4344   20895233.7244
       246.0004        203.0004
 -11801751.95149  -9174012.38149  22051153.5184   22051156.3464   22051152.8114
       233.0004        175.0004
  -6143427.70649  -4414438.19949  22829032.6154   22829036.8824   22829032.5224
       226.0004        170.0004
  -9692886.97149  -7286426.14249  22674163.4734   22674168.5514   22674164.1714
       220.0004        157.0004
   5788744.50959    227265.76459  24824546.9234
       181.0004        108.0004
  -7237500.16849  -5594059.55849  23575308.0484   23575317.4144   23575309.7234
       214.0004        148.0004
 -15255003.63049 -11874370.61049  21810902.3304   21810908.0894   21810903.4944
       233.0004        186.0004
 11 10 14  8 15  0.0000000  0 10G31G25G04G12G14G02G30G27G09G29
  -8809280.11749  -6851609.48349  23264549.4814   23264554.4984   23264549.9854
       219.0004        161.0004
 -24174771.13449 -18562332.16049  20233093.9904   20233099.6054   20233093.3304
       253.0004        214.0004
    164908.92849    234401.17249  23671633.5384   23671641.3034   23671633.9824
       212.0004        145.0004
 -21322541.41149 -16591948.04049  20904960.2584   20904964.0444   20904960.8254
       244.0004        202.0004
 -11752826.80649  -9135888.94649  22060461.4844   22060466.5194   22060460.8844
       228.0004        174.0004
  -6178425.92449  -4441709.51449  22822373.3544   22822376.8334   22822373.1294
       227.0004        170.0004
  -9786960.68549  -7359730.33049  22656263.4364   22656266.4944   22656262.3054
       221.0004        159.0004
   5888139.00249     67734.34449  24843461.5974
       176.0004         85.0004
  -7119410.82249  -5502042.01949  23597782.6744   23597789.0514   23597782.3224
       216.0004        148.0004
 -15341729.43549 -11941949.13249  21794400.9654   21794404.5694   21794400.6444
       235.0004        186.0004
 11 10 14  8 15 30.0000000  0 10G31G25G04G12G14G02G30G27G09G29
  -8901346.51449  -6923349.51749  23247028.9654   23247034.9844   23247029.6384
       219.0004        164.0004
 -24187267.36949 -18572069.50649  20230715.0324   20230721.3364   20230715.3324
       252.0004        214.0004
    211932.48649    271042.80849  23680581.8214   23680589.2424   23680581.9054
       215.0004        146.0004
 -21271118.99449 -16551878.67249  20914745.4444   20914749.5704   20914746.3234
       244.0004        202.0004
 -11703365.92149  -9097348.07549  22069874.6674   22069879.2034   22069873.9984
       230.0004        174.0004
  -6212919.32549  -4468587.46149  22815808.4274   22815813.9854   22815808.5354
       226.0004        172.0004
  -9880860.36049  -7432898.84949  22638392.2174   22638400.3794   22638393.2254
       218.0004        161.0004
   5987635.81659    145262.39559  24862398.5814
       171.0004        106.0004
  -7001158.91549  -5409897.87349  23620286.2474   23620292.8934   23620286.4704
       216.0004        148.0004
 -15428096.19749 -12009247.88349  21777964.6804   21777969.2994   21777965.2914
       234.0004        186.0004
 11 10 14  8 16  0.0000000  0 10G31G25G04G12G14G02G30G27G09G29
  -8993215.15249  -6994935.45649  23229547.3234   23229553.4464   23229548.1254
       221.0004        164.0004
 -24199380.83349 -18581508.58249  20228410.4444   20228416.4414   20228410.3764
       253.0004        214.0004
    259517.17049    308121.65449  23689636.8504   23689643.5074   23689637.5194
       216.0004        145.0004
 -21219392.56749 -16511572.41449  20924588.8154   20924592.9764   20924589.4474
       244.0004        203.0004
 -11653369.96949  -9058390.25449  22079388.2294   22079392.1044   22079388.2494
       229.0004        174.0004
  -6246905.09249  -4495069.85649  22809342.1604   22809345.9864   22809342.2384
       228.0004        172.0004
  -9974583.42749  -7505929.78249  22620558.0414   22620564.4394   22620560.2024
       219.0004        160.0004
   6087234.58059    222869.87759  24881345.0914
       166.0004        106.0004
  -6882745.47749  -5317627.79449  23642818.1174   23642825.6954   23642818.7874
       212.0004        147.0004
 -15514100.75949 -12076264.39149  21761598.0674   21761603.0124   21761599.0134
       235.0004        186.0004
 11 10 14  8 16 30.0000000  0  9G31G25G04G12G14G02G30G09G29
  -9084885.65049  -7066367.02249  23212103.9794   23212108.1324   23212103.8984
       222.0004        164.0004
 -24211112.80849 -18590650.40749  20226178.0874   20226184.0134   20226177.5984
       253.0004        214.0004
    307660.01949    345635.44349  23698797.4014   23698806.5864   23698799.0944
       217.0004        144.0004
 -21167364.81349 -16471031.36149  20934489.1504   20934493.5094   20934489.9994
       244.0004        202.0004
 -11602842.58149  -9019018.32949  22089002.2994   22089007.0644   22089001.8954
       229.0004        174.0004
  -6280383.16049  -4521156.65249  22802971.3084   22802975.0364   22802971.2314
       227.0004        172.0004
 -10068130.15749  -7578823.29749  22602758.1194   22602762.2044   22602756.9984
       220.0004        158.0004
  -6764173.94149  -5225234.52949  23665380.1664   23665390.2224   23665380.1314
       213.0004        144.0004
 -15599743.07949 -12142998.63349  21745301.1794   21745306.3804   21745301.5714
       235.0004        187.0004
 11 10 14  8 17  0.0000000  0  9G31G25G04G12G14G02G30G09G29
  -9176354.79349  -7137641.68649  23194697.0824   23194702.8154   23194697.5914
       221.0004        165.0004
 -24222461.95649 -18599493.92149  20224018.4894   20224024.2324   20224018.4194
       253.0004        214.0004
    356360.42749    383583.70749  23708065.3414   23708072.7464   23708065.6014
       214.0004        143.0004
 -21115035.42149 -16430255.26849  20944448.1184   20944451.5334   20944448.5534
       244.0004        202.0004
 -11551784.15249  -8979232.60449  22098719.0914   22098722.4874   22098718.9614
       228.0004        174.0004
  -6313350.83649  -4546845.72749  22796697.4134   22796701.1934   22796697.3834
       228.0004        170.0004
 -10161498.09049  -7651577.50949  22584990.4844   22584993.8234   22584989.9094
       222.0004        158.0004
  -6645445.21849  -5132718.79449  23687975.3814   23687982.9114   23687975.4644
       214.0004        145.0004
 -15685019.95849 -12209448.12249  21729073.3424   21729078.8694   21729073.9744
       235.0004        187.0004
 11 10 14  8 17 30.0000000  0  9G31G25G04G12G14G02G30G09G29
  -9267620.93349  -7208758.15449  23177331.3744   23177335.0674   23177330.6944
       223.0004        166.0004
 -24233428.69549 -18608039.44849  20221931.5534   20221937.3064   20221931.1914
       253.0004        214.0004
    405616.34649    421964.80449  23717437.8424   23717445.7874   23717439.4444
       214.0004        142.0004
 -21062405.70649 -16389245.15549  20954463.0294   20954466.6104   20954463.2944
       244.0004        202.0004
 -11500197.62849  -8939035.35649  22108535.7654   22108539.6704   22108535.1004
       228.0004        173.0004
  -6345807.27849  -4572136.43649  22790519.8734   22790525.8994   22790520.5814
       224.0004        171.0004
 -10254686.50549  -7724191.81549  22567257.4854   22567262.2714   22567257.4734
       222.0004        161.0004
  -6526561.67149  -5040082.39649  23710597.1964   23710604.9024   23710596.2634
       211.0004        145.0004
 -15769930.30449 -12275611.99449  21712914.4854   21712920.3404   21712915.7304
       234.0004        187.0004
 11 10 14  8 18  0.0000000  0  9G31G25G04G12G14G02G30G09G29
  -9358682.07749  -7279714.89449  23160003.7844   23160006.0714   23160002.8474
       224.0004        166.0004
 -24244012.96049 -18616286.94949  20219917.1794   20219923.0444   20219917.0374
       252.0004        214.0004
    455425.96549    460777.38749  23726918.2544   23726925.2864   23726918.2154
       216.0004        145.0004
 -21009476.70949 -16348001.84249  20964534.8554   20964538.4924   20964535.2984
       243.0004        201.0004
 -11448085.03749  -8898428.20949  22118452.9364   22118456.8334   22118452.1524
       228.0004        172.0004
  -6377751.05849  -4597027.67449  22784443.4694   22784446.9964   22784442.9574
       227.0004        172.0004
 -10347694.27849  -7796665.33349  22549558.8174   22549562.3864   22549557.8074
       223.0004        162.0004
  -6407525.66949  -4947327.23849  23733249.9974   23733256.7524   23733250.0094
       213.0004        145.0004
 -15854472.20749 -12341488.76949  21696828.8004   21696832.2874   21696828.9984
       237.0004        187.0004
 11 10 14  8 18 30.0000000  0  9G31G25G04G12G14G02G30G09G29
  -9449536.40049  -7350510.45649  23142713.9864   23142717.3674   23142713.6174
       224.0004        167.0004
 -24254214.68249 -18624236.36449  20217975.8944   20217981.9104   20217975.6864
       252.0004        214.0004
    505787.59849    500020.09349  23736501.1444   23736507.9924   23736501.0504
       216.0004        146.0004
 -20956249.14449 -16306525.87649  20974664.1924   20974667.4664   20974664.3694
       244.0004        202.0004
 -11395448.63349  -8857412.88349  22128468.6574   22128474.0984   22128468.3814
       227.0004        173.0004
  -6409180.89749  -4621518.42949  22778460.8364   22778465.8554   22778461.5554
       227.0004        173.0004
 -10440520.14849  -7868997.16249  22531893.0564   22531897.9864   22531894.4784
       221.0004        158.0004
  -6288339.34049  -4854454.93649  23755930.1904   23755938.7274   23755930.8034
       213.0004        144.0004
 -15938644.26349 -12407077.35449  21680810.6734   21680814.8354   21680810.7724
       236.0004        188.0004
 11 10 14  8 19  0.0000000  0  9G31G25G04G12G14G02G30G09G29
  -9540181.07349  -7421142.67549  23125464.3124   23125467.9864   23125464.2724
       222.0004        166.0004
 -24264033.35649 -18631887.29449  20216107.0754   20216113.6184   20216106.9194
       252.0004        214.0004
    556699.97049    539691.95049  23746188.0244   23746196.9044   23746189.1664
       216.0004        146.0004
 -20902723.98049 -16264818.01049  20984849.0544   20984853.1194   20984849.7214
       243.0004        201.0004
 -11342289.88449  -8815990.55449  22138584.5614   22138590.2764   22138585.6434
       227.0004        172.0004
  -6440094.46049  -4645606.90249  22772579.7324   22772583.2354   22772579.8064
       229.0004        172.0004
 -10533162.48449  -7941185.94849  22514265.4764   22514269.2474   22514264.5884
       223.0004        161.0004
  -6169004.24449  -4761466.71749  23778639.2634   23778646.1744   23778638.1154
       212.0004        145.0004
 -16022444.38849 -12472376.11349  21664863.6124   21664868.7294   21664863.9334
       236.0004        188.0004
 11 10 14  8 19 30.0000000  0  9G31G25G04G12G14G02G30G09G29
  -9630614.03549  -7491609.91649  23108254.7024   23108258.6924   23108256.1674
       222.0004        168.0004
 -24273468.52349 -18639239.39449  20214311.7384   20214318.0494   20214311.6334
       252.0004        214.0004
    608161.63549    579791.82349  23755982.5784   23755991.0554   23755981.2384
       213.0004        146.0004
 -20848901.50749 -16222878.47549  20995091.9884   20995095.2074   20995091.7804
       242.0004        201.0004
 -11288610.77549  -8774162.71049  22148798.7564   22148804.2734   22148798.6554
       226.0004        171.0004
  -6470490.00649  -4669291.70949  22766794.4634   22766798.9094   22766795.0764
       225.0004        170.0004
 -10625619.77449  -8013230.54449  22496672.2054   22496676.1274   22496670.3264
       224.0004        163.0004
  -6049522.06249  -4668363.89249  23801376.9934   23801384.2814   23801374.2564
       214.0004        148.0004
 -16105870.62649 -12537383.54249  21648987.6834   21648993.3964   21648988.6464
       236.0004        188.0004
 11 10 14  8 20  0.0000000  0  9G31G25G04G12G14G02G30G09G29
  -9720833.77949  -7561911.00049  23091086.9694   23091091.3924   23091086.9574
       223.0004        170.0004
 -24282521.12749 -18646293.39549  20212589.8954   20212595.4394   20212589.2694
       253.0004        214.0004
    660169.65449    620317.41949  23765878.4844   23765886.3884   23765880.0754
       214.0004        145.0004
 -20794783.83549 -16180708.91249  21005389.9554   21005393.7394   21005390.4204
       243.0004        201.0004
 -11234414.31149  -8731931.80149  22159113.7024   22159117.1564   22159114.0534
       228.0004        171.0004
  -6500367.80049  -4692573.08849  22761109.6754   22761113.6444   22761109.0764
       227.0004        169.0004
 -10717891.73349  -8085130.74049  22479111.8294   22479117.0604   22479111.3214
       222.0004        161.0004
  -5929896.08249  -4575149.02149  23824139.3834   23824149.1184   23824139.5494
       213.0004        147.0004
 -16188922.06749 -12602098.91749  21633183.4314   21633188.6234   21633184.6664
       235.0004        188.0004
 11 10 14  8 20 30.0000000  0  9G31G25G04G12G14G02G30G09G29
  -9810837.22649  -7632043.54549  23073958.2854   23073964.4104   23073960.2104
       219.0004        169.0004
 -24291189.95949 -18653048.34849  20210939.8554   20210945.7844   20210939.4334
       252.0004        214.0004
    712723.46649    661268.34449  23775880.3614   23775888.4834   23775880.2884
       214.0004        144.0004
 -20740370.63649 -16138309.08049  21015745.0174   21015747.9304   21015744.6904
       242.0004        200.0004
 -11179701.66949  -8689298.63649  22169524.0174   22169529.0744   22169524.0034
       225.0004        171.0004
  -6529725.41949  -4715449.12749  22755522.7014   22755525.4434   22755522.0154
       228.0004        170.0004
 -10809976.03649  -8156884.71349  22461588.3464   22461593.8804   22461588.1004
       222.0004        161.0004
  -5810127.25649  -4481822.84049  23846929.9934   23846940.6044   23846931.5154
       211.0004        145.0004
 -16271596.19249 -12666520.26749  21617452.3204   21617456.8224   21617452.1354
       237.0004        189.0004
 11 10 14  8 21  0.0000000  0  9G31G25G04G12G14G02G30G09G29
  -9900623.35349  -7702006.75849  23056872.3744   23056878.4354   23056873.1694
       219.0004        165.0004
 -24299475.70949 -18659504.79949  20209362.3584   20209369.2694   20209362.7384
       252.0004        214.0004
    765820.49849    702642.47749  23785983.7934   23785991.2244   23785984.8044
       213.0004        144.0004
 -20685663.52849 -16095680.21849  21026155.1024   21026158.4234   21026155.1094
       242.0004        200.0004
 -11124475.76649  -8646265.52949  22180034.2324   22180037.8704   22180032.7984
       226.0004        169.0004
  -6558562.11949  -4737919.26349  22750035.8184   22750038.9184   22750035.3554
       230.0004        171.0004
 -10901872.21949  -8228492.11649  22444102.5164   22444106.8014   22444101.6444
       223.0004        161.0004
  -5690218.25449  -4388387.41749  23869750.3774   23869757.9834   23869748.9974
       215.0004        145.0004
 -16353891.85749 -12730646.72149  21601791.3444   21601795.8034   21601791.6604
       235.0004        189.0004
 11 10 14  8 21 30.0000000  0  9G31G25G04G12G14G02G30G09G29
  -9990189.48749  -7771798.52749  23039829.9234   23039833.8394   23039830.4664
       224.0004        168.0004
 -24307377.92049 -18665662.38049  20207859.3064   20207865.5074   20207858.8944
       252.0004        214.0004
    819459.18449    744438.74349  23796191.8524   23796199.1524   23796192.6194
       217.0004        148.0004
 -20630663.35349 -16052822.99749  21036621.0504   21036625.1834   21036621.3954
       242.0004        200.0004
 -11068738.23849  -8602833.77149  22190640.0504   22190643.8564   22190639.9924
       225.0004        169.0004
  -6586876.03549  -4759982.05049  22744646.8164   22744651.4964   22744647.0424
       227.0004        172.0004
 -10993578.60949  -8299951.62349  22426651.0974   22426654.9804   22426649.6704
       223.0004        162.0004
  -5570170.87249  -4294844.18649  23892594.7724   23892602.3684   23892594.0134
       214.0004        148.0004
 -16435807.06449 -12794476.72049  21586202.0884   21586207.7854   21586203.2014
       234.0004        188.0004
 11 10 14  8 22  0.0000000  0  9G31G25G04G12G14G02G30G09G29
 -10079533.53749  -7841417.27649  23022827.7424   23022832.6594   23022827.6224
       222.0004        168.0004
 -24314896.62049 -18671521.12949  20206428.3124   20206434.3654   20206428.4854
       252.0004        214.0004
    873637.58849    786655.57949  23806501.0744   23806510.5564   23806501.8114
       215.0004        147.0004
 -20575370.97149 -16009738.09049  21047142.5854   21047146.7824   21047142.5834
       241.0004        200.0004
 -11012491.80949  -8559005.46049  22201343.0274   22201347.1764   22201343.2854
       226.0004        170.0004
  -6614666.21549  -4781636.69549  22739359.2674   22739362.0074   22739357.9864
       226.0004        170.0004
 -11085094.11749  -8371262.35849  22409235.0694   22409241.2964   22409234.3304
       223.0004        163.0004
  -5449987.20449  -4201194.77649  23915465.7504   23915473.2704   23915464.4574
       212.0004        146.0004
 -16517340.13049 -12858008.94649  21570687.6834   21570692.6234   21570688.6034
       235.0004        189.0004
 11 10 14  8 22 30.0000000  0  9G31G25G04G12G14G02G30G09G29
 -10168653.94149  -7910861.72849  23005868.9554   23005873.2794   23005869.3254
       222.0004        169.0004
 -24322032.04749 -18677081.21649  20205070.2174   20205076.8714   20205070.3184
       252.0004        214.0004
    928353.70349    829291.37949  23816912.3234   23816920.6484   23816912.8074
       217.0004        146.0004
 -20519787.55549 -15966426.40449  21057719.9334   21057723.8604   21057720.0634
       241.0004        199.0004
 -10955739.20749  -8514782.72249  22212143.2124   22212148.1964   22212143.6994
       227.0004        169.0004
  -6641931.42249  -4802882.27549  22734170.8344   22734174.6184   22734170.0354
       227.0004        171.0004
 -11176417.79049  -8442423.64949  22391856.9714   22391863.7594   22391856.5644
       223.0004        164.0004
  -5329669.87049  -4107441.17549  23938358.6434   23938368.4394   23938359.8364
       212.0004        145.0004
 -16598489.78949 -12921242.41849  21555246.4734   21555250.6804   21555246.1534
       236.0004        189.0004
 11 10 14  8 23  0.0000000  0  9G31G25G04G12G14G02G30G09G29
 -10257547.92049  -7980129.74049  22988952.4414   22988957.9714   22988952.8764
       222.0004        168.0004
 -24328783.34049 -18682341.97749  20203785.4634   20203791.9904   20203785.4274
       251.0004        214.0004
    983606.19549    872345.16949  23827427.6574   23827434.9234   23827426.9104
       217.0004        144.0004
 -20463913.40249 -15922888.16949  21068352.8264   21068356.4874   21068353.0164
       240.0004        199.0004
 -10898481.24749  -8470166.20149  22223037.7404   22223043.4994   22223039.4994
       225.0004        169.0004
  -6668669.98549  -4823717.49449  22729082.8454   22729086.0654   22729082.6674
       225.0004        170.0004
 -11267547.53949  -8513433.82649  22374514.6614   22374521.3544   22374514.6084
       223.0004        162.0004
  -5209220.05549  -4013584.36649  23961280.1344   23961288.8994   23961280.7604
       212.0004        144.0004
 -16679253.62649 -12984175.23649  21539876.5294   21539881.7544   21539877.0474
       235.0004        190.0004
 11 10 14  8 23 30.0000000  0  9G31G25G04G12G14G02G30G09G29
 -10346213.32749  -8049219.66749  22972079.9384   22972085.4374   22972080.7364
       223.0004        168.0004
 -24335150.79849 -18687303.64749  20202573.9764   20202580.3614   20202573.6614
       252.0004        214.0004
   1039392.95949    915815.26849  23838043.6964   23838050.5684   23838042.1764
       216.0004        145.0004
 -20407749.76449 -15879124.35949  21079039.2354   21079044.2164   21079040.3074
       240.0004        199.0004
 -10840720.67949  -8425158.04849  22234031.1914   22234035.1474   22234030.0404
       227.0004        167.0004
  -6694880.84649  -4844141.50949  22724093.8604   22724098.8874   22724094.5724
       224.0004        171.0004
 -11358482.46949  -8584292.19749  22357211.9884   22357216.8474   22357211.7054
       225.0004        164.0004
  -5088640.17349  -3919626.23249  23984226.7064   23984235.2084   23984226.1344
       211.0004        144.0004
 -16759630.61949 -13046806.62349  21524581.6174   21524586.6104   21524581.1124
       236.0004        189.0004
 11 10 14  8 24  0.0000000  0  9G31G25G04G12G14G02G30G09G29
 -10434647.20749  -8118129.18249  22955251.9564   22955256.7684   22955252.1934
       223.0004        169.0004
 -24341133.88849 -18691965.82049  20201435.5854   20201442.0344   20201435.1884
       252.0004        214.0004
   1095712.31449    959700.41649  23848761.8704   23848771.2404   23848762.2914
       216.0004        148.0004
 -20351297.19749 -15835135.40949  21089782.4224   21089786.8864   21089782.6564
       240.0004        198.0004
 -10782459.66449  -8379759.91449  22245116.0564   22245122.2554   22245116.8654
       224.0004        167.0004
  -6720562.44549  -4864153.11649  22719208.3934   22719211.4364   22719206.9714
       228.0004        171.0004
 -11449220.83649  -8654997.41549  22339945.5654   22339949.9854   22339944.0084
       224.0004        165.0004
  -4967931.56349  -3825567.77349  24007196.2434   24007206.2104   24007196.9444
       210.0004        143.0004
 -16839618.68749 -13109134.98249  21509360.2774   21509365.4554   21509360.2134
       236.0004        190.0004
 11 10 14  8 24 30.0000000  0  9G31G25G04G12G14G02G30G09G29
 -10522848.93449  -8186857.79249  22938467.9664   22938472.7364   22938468.7194
       223.0004        169.0004
 -24346733.19649 -18696328.93049  20200369.7024   20200376.6944   20200369.3704
       251.0004        214.0004
   1152562.13749   1003998.88649  23859578.4524   23859587.5284   23859579.4274
       216.0004        145.0004
 -20294557.23549 -15790922.50649  21100580.4404   21100584.2424   21100580.2464
       241.0004        198.0004
 -10723700.84249  -8333973.88449  22256299.1154   22256303.7604   22256298.5894
       227.0004        168.0004
  -6745713.82549  -4883751.57649  22714422.0104   22714424.4504   22714422.2954
       229.0004        172.0004
 -11539762.07249  -8725548.99949  22322714.0904   22322720.1454   22322715.1494
       224.0004        166.0004
  -4847097.29049  -3731411.40249  24030190.2934   24030200.4074   24030189.1404
       206.0004        142.0004
 -16919216.60849 -13171159.30849  21494212.7504   21494218.4464   21494213.1424
       236.0004        190.0004
 11 10 14  8 25  0.0000000  0  9G31G25G04G12G14G02G30G09G29
 -10610816.20249  -8255403.68549  22921728.7884   22921733.0744   22921729.3434
       225.0004        171.0004
 -24351948.70749 -18700392.98149  20199376.6684   20199383.9864   20199376.9144
       251.0004        213.0004
   1209939.99649   1048708.85249  23870498.1824   23870506.5404   23870497.6864
       216.0004        142.0004
 -20237530.74749 -15746486.33949  21111431.8194   21111435.8254   21111432.2584
       241.0004        198.0004
 -10664446.91649  -8287802.05849  22267574.0404   22267578.9174   22267573.9394
       225.0004        168.0004
  -6770334.31649  -4902936.34349  22709735.0864   22709739.3714   22709735.4044
       227.0004        172.0004
 -11630104.96649  -8795946.05249  22305523.3654   22305527.9314   22305522.5734
       223.0004        165.0004
  -4726139.40249  -3637158.70749  24053207.1614   24053218.3694   24053209.5244
       206.0004        142.0004
 -16998422.97249 -13232878.53449  21479140.5044   21479145.8064   21479141.4354
       237.0004        192.0004
 11 10 14  8 25 30.0000000  0  9G31G25G04G12G14G02G30G09G29
 -10698546.22949  -8323764.73849  22905034.9784   22905038.3194   22905034.2654
       226.0004        170.0004
 -24356779.79449 -18704157.48549  20198458.0204   20198464.6294   20198457.8154
       251.0004        213.0004
   1267844.78449   1093829.41349  23881515.7564   23881523.9804   23881516.6484
       214.0004        140.0004
 -20180217.94049 -15701827.07049  21122338.3494   21122342.1024   21122338.5464
       241.0004        198.0004
 -10604699.45949  -8241245.66849  22278943.8644   22278948.7404   22278942.7484
       227.0004        168.0004
  -6794422.13249  -4921706.07049  22705153.1844   22705155.8804   22705151.7284
       229.0004        172.0004
 -11720247.56149  -8866187.02949  22288368.8364   22288375.0474   22288369.1444
       224.0004        165.0004
  -4605059.29949  -3542810.78249  24076250.4714   24076258.7284   24076249.7964
       205.0004        139.0004
 -17077235.60949 -13294290.96449  21464143.0004   21464148.1604   21464143.6424
       238.0004        192.0004
 11 10 14  8 26  0.0000000  0  9G31G25G04G12G14G02G30G09G29
 -10786036.65749  -8391939.09749  22888384.7894   22888389.7324   22888385.6834
       223.0004        169.0004
 -24361226.14749 -18707622.19049  20197612.0464   20197618.7054   20197612.0594
       252.0004        214.0004
   1326274.59149   1139359.08449  23892636.1204   23892644.0554   23892635.2414
       216.0004        144.0004
 -20122619.82449 -15656945.48049  21133299.0824   21133302.8024   21133299.4514
       241.0004        198.0004
 -10544460.67349  -8194306.43849  22290408.1244   22290411.8724   22290407.7314
       228.0004        168.0004
  -6817975.76749  -4940059.52149  22700669.3464   22700673.5934   22700668.7734
       226.0004        170.0004
 -11810188.41849  -8936270.79749  22271254.6764   22271260.9344   22271253.9084
       228.0004        167.0004
  -4483858.90449  -3448369.14049  24099314.2904   24099321.4954   24099313.6544
       211.0004        139.0004
 -17155652.52849 -13355395.03149  21449220.6674   21449225.9254   21449221.2424
       237.0004        192.0004
 11 10 14  8 26 30.0000000  0  9G31G25G04G12G14G02G30G09G29
 -10873285.79749  -8459925.43449  22871781.4684   22871786.9254   22871782.2334
       225.0004        171.0004
 -24365288.16049 -18710787.41749  20196838.6694   20196845.6304   20196838.6564
       251.0004        214.0004
   1385226.97249   1185295.97949  23903854.9054   23903862.0854   23903854.1244
       218.0004        146.0004
 -20064737.55649 -15611842.47549  21144313.9314   21144317.7424   21144314.1184
       241.0004        198.0004
 -10483733.27449  -8146986.46549  22301963.2274   22301968.1194   22301963.1884
       226.0004        168.0004
  -6840994.50949  -4957996.19549  22696290.1914   22696293.4454   22696289.9174
       229.0004        173.0004
 -11899926.60549  -9006196.65649  22254177.6064   22254182.9494   22254177.3434
       225.0004        166.0004
  -4362540.78449  -3353835.74249  24122398.7154   24122408.0194   24122399.0584
       207.0004        140.0004
 -17233673.08049 -13416190.24949  21434374.0074   21434378.9544   21434374.7114
       238.0004        193.0004
 11 10 14  8 27  0.0000000  0  9G31G25G04G12G14G02G30G09G29
 -10960291.25649  -8527721.89049  22855226.1424   22855230.4884   22855226.4204
       227.0004        173.0004
 -24368965.78749 -18713653.12149  20196138.9344   20196145.9454   20196138.8514
       251.0004        214.0004
   1444699.95049   1231638.52749  23915170.1524   23915179.5034   23915172.1164
       214.0004        144.0004
 -20006572.05249 -15566518.75449  21155382.1384   21155386.1484   21155382.0504
       240.0004        197.0004
 -10422519.53849  -8099287.52749  22313612.2264   22313616.8044   22313611.4004
       226.0004        168.0004
  -6863477.49649  -4975515.38849  22692012.5364   22692014.6484   22692012.7514
       230.0004        174.0004
 -11989460.83849  -9075963.57549  22237140.8624   22237145.1034   22237140.0964
       226.0004        164.0004
  -4241106.79749  -3259212.09949  24145506.7134   24145516.6354   24145508.5794
       206.0004        140.0004
 -17311295.54249 -13476675.26249  21419603.6634   21419607.5924   21419603.8364
       238.0004        193.0004
 11 10 14  8 27 30.0000000  0  9G31G25G04G12G14G02G30G09G29
 -11047050.86549  -8595326.77449  22838715.8654   22838720.6034   22838715.7994
       227.0004        171.0004
 -24372258.69749 -18716219.04549  20195512.5274   20195519.2554   20195512.7264
       252.0004        214.0004
   1504691.64749   1278385.29249  23926587.7704   23926595.5994   23926586.3844
       212.0004        141.0004
 -19948123.97549 -15520974.84549  21166504.6974   21166508.3464   21166504.6564
       241.0004        196.0004
 -10360821.79549  -8051211.45449  22325351.8824   22325357.4794   22325352.2214
       226.0004        168.0004
  -6885423.25249  -4992615.94349  22687835.7044   22687839.1364   22687835.1964
       229.0004        172.0004
 -12078789.50549  -9145570.31749  22220142.2104   22220146.8714   22220141.1924
       228.0004        168.0004
  -4119559.15949  -3164499.88049  24168637.1624   24168648.3314   24168637.4524
       206.0004        138.0004
 -17388517.79749 -13536848.42749  21404907.7424   21404913.1464   21404908.2784
       237.0004        193.0004
 11 10 14  8 28  0.0000000  0  9G31G25G04G12G14G02G30G09G29
 -11133562.48049  -8662738.42149  22822252.9904   22822257.4844   22822253.0274
       225.0004        171.0004
 -24375167.10049 -18718485.35349  20194959.2844   20194965.7424   20194959.0594
       252.0004        214.0004
   1565199.87949   1325534.54649  23938102.3014   23938109.2984   23938101.6774
       210.0004        139.0004
 -19889394.47349 -15475211.64449  21177680.6724   21177684.0684   21177680.7404
       241.0004        196.0004
 -10298642.65249  -8002760.24949  22337184.5214   22337190.4234   22337185.0584
       225.0004        168.0004
  -6906830.96849  -5009297.27849  22683761.6534   22683765.1614   22683761.6244
       229.0004        172.0004
 -12167911.67149  -9215016.13949  22203182.2594   22203186.5814   22203182.3154
       225.0004        167.0004
  -3997899.84149  -3069700.61249  24191788.9284   24191798.4564   24191787.3954
       207.0004        137.0004
 -17465338.82449 -13596708.93749  21390289.0974   21390294.5244   21390289.6674
       237.0004        193.0004
 11 10 14  8 28 30.0000000  0  9G31G25G04G12G14G02G30G09G29
 -11219824.41849  -8729955.50149  22805838.1824   22805842.5394   22805837.9514
       226.0004        171.0004
 -24377691.24049 -18720452.23749  20194478.2744   20194485.6314   20194478.9184
       252.0004        214.0004
   1626222.31549   1373084.46449  23949713.6884   23949720.7444   23949712.5274
       211.0004        139.0004
 -19830384.96849 -15429230.26749  21188909.1234   21188913.7594   21188909.7244
       240.0004        196.0004
 -10235984.88449  -7953936.11549  22349108.9824   22349113.1764   22349108.4954
       226.0004        167.0004
  -6927699.95449  -5025558.82049  22679791.4054   22679794.5264   22679789.9584
       230.0004        173.0004
 -12256826.21649  -9284300.17449  22186262.5614   22186266.9794   22186261.4664
       227.0004        167.0004
  -3876131.15249  -2974816.14249  24214960.5444   24214969.1344   24214962.0704
       206.0004        137.0004
 -17541757.31249 -13656255.78849  21375748.5174   21375752.5264   21375747.8874
       239.0004        193.0004
 11 10 14  8 29  0.0000000  0  9G31G25G04G12G14G02G30G09G29
 -11305834.22849  -8796976.12949  22789470.1804   22789474.6744   22789471.7334
       226.0004        173.0004
 -24379830.54449 -18722119.24349  20194071.5954   20194078.2784   20194071.7474
       252.0004        214.0004
   1687757.32649   1421033.83749  23961424.9634   23961432.4314   23961425.5834
       213.0004        141.0004
 -19771095.52449 -15383030.74849  21200191.4944   21200196.3454   21200192.1664
       240.0004        196.0004
 -10172850.16849  -7904740.30249  22361123.3354   22361127.9964   22361122.8794
       228.0004        168.0004
  -6948028.42349  -5041399.18449  22675922.3754   22675926.6494   22675923.0524
       230.0004        175.0004
 -12345531.32149  -9353421.02749  22169382.2434   22169387.2424   22169382.2304
       224.0004        168.0004
  -3754254.63449  -2879847.63049  24238153.9974   24238163.3344   24238156.1814
       207.0004        137.0004
 -17617771.22849 -13715487.38949  21361281.9394   21361287.4844   21361282.7094
       237.0004        193.0004
 11 10 14  8 29 30.0000000  0  9G31G25G04G12G14G02G30G09G29
 -11391588.87249  -8863797.91949  22773152.5084   22773157.9404   22773153.3194
       226.0004        174.0004
 -24381584.71549 -18723486.15449  20193738.0604   20193744.7274   20193738.4264
       252.0004        214.0004
   1749803.02649   1469381.10849  23973229.6024   23973239.2664   23973230.7444
       212.0004        139.0004
 -19711526.91449 -15336613.70249  21211527.6244   21211531.7924   21211527.6464
       241.0004        196.0004
 -10109240.77849  -7855174.61949  22373229.0214   22373231.1504   22373227.9104
       229.0004        168.0004
  -6967815.40749  -5056817.58449  22672157.7714   22672161.4774   22672156.7894
       230.0004        174.0004
 -12434025.50249  -9422377.50449  22152541.7244   22152548.1664   22152541.7914
       225.0004        167.0004
  -3632272.40749  -2784796.74149  24261367.5274   24261375.5244   24261365.6844
       207.0004        139.0004
 -17693378.92749 -13774402.46349  21346894.5294   21346899.6674   21346895.4504
       238.0004        194.0004
 11 10 14  8 30  0.0000000  0  9G31G25G04G12G14G02G30G09G29
 -11477087.25249  -8930420.00849  22756882.2394   22756887.3244   22756882.6964
       224.0004        173.0004
 -24382954.26749 -18724553.35549  20193477.0624   20193483.9864   20193477.5584
       251.0004        214.0004
   1812356.73349   1518124.26549  23985134.8884   23985142.2494   23985134.9414
       209.0004        140.0004
 -19651680.56749 -15289980.23149  21222915.7864   21222920.0794   21222915.8944
       240.0004        195.0004
 -10045159.83049  -7805241.48649  22385421.0004   22385425.9224   22385421.1464
       226.0004        165.0004
  -6987060.53349  -5071813.78549  22668494.7214   22668498.3864   22668494.3244
       231.0004        174.0004
 -12522307.84849  -9491168.92649  22135742.9064   22135747.8594   22135742.2264
       226.0004        167.0004
  -3510186.81449  -2689665.31749  24284598.1784   24284607.3934   24284598.4284
       209.0004        140.0004
 -17768579.32549 -13833000.14249  21332585.4144   21332589.6404   21332584.9994
       239.0004        194.0004
 11 10 14  8 30 30.0000000  0  9G31G25G04G12G14G02G30G09G29
 -11562326.76849  -8996840.39049  22740662.4094   22740665.9034   22740662.6084
       225.0004        174.0004
 -24383939.13349 -18725320.80049  20193290.0844   20193296.9184   20193289.8474
       252.0004        214.0004
   1875416.49449   1567261.75349  23997134.2454   23997142.8434   23997136.1684
       210.0004        136.0004
 -19591557.38649 -15243131.05149  21234357.1684   21234360.8644   21234357.1794
       240.0004        196.0004
  -9980609.85049  -7754942.87749  22397706.5894   22397710.3154   22397705.8344
       228.0004        167.0004
  -7005762.69749  -5086386.92649  22664936.1694   22664939.1594   22664936.0004
       229.0004        172.0004
 -12610376.99649  -9559794.20549  22118984.7754   22118988.4284   22118983.5514
       225.0004        167.0004
  -3387999.88349  -2594454.90449  24307850.6044   24307860.1444   24307848.9544
       213.0004        142.0004
 -17843370.55349 -13891279.01149  21318351.8014   21318357.2074   21318352.8124
       238.0004        194.0004
 11 10 14  8 31  0.0000000  0  9G31G25G04G12G14G02G30G09G29
 -11647304.93049  -9063057.13149  22724490.4284   22724495.7204   22724491.6954
       225.0004        172.0004
 -24384538.86749 -18725788.14949  20193175.5594   20193182.5424   20193175.8764
       252.0004        214.0004
   1938980.48449   1616792.11749  24009228.8934   24009236.0474   24009231.8334
       208.0004        136.0004
 -19531157.89149 -15196066.55849  21245850.3734   21245854.5524   21245851.0594
       240.0004        196.0004
  -9915592.87949  -7704280.37049  22410077.0924   22410082.8414   22410077.2704
       226.0004        166.0004
  -7023920.66849  -5100536.00249  22661480.2434   22661483.2214   22661480.4054
       230.0004        171.0004
 -12698231.23349  -9628252.02549  22102265.6814   22102269.9344   22102265.8974
       226.0004        167.0004
  -3265713.50349  -2499167.00149  24331121.3714   24331129.0094   24331121.5714
       211.0004        144.0004
 -17917750.99149 -13949237.78149  21304198.0904   21304203.0004   21304198.7174
       237.0004        194.0004
 11 10 14  8 31 30.0000000  0  9G31G25G04G12G14G02G30G09G29
 -11732019.54549  -9129068.51449  22708370.1374   22708375.0214   22708370.3734
       226.0004        173.0004
 -24384753.46649 -18725955.39849  20193135.4944   20193141.9614   20193135.4304
       253.0004        214.0004
   2003046.66749   1666713.76849  24021421.5334   24021429.8924   24021422.1194
       211.0004        138.0004
 -19470482.94249 -15148787.42049  21257396.6994   21257401.2374   21257396.9464
       240.0004        196.0004
  -9850111.45749  -7653255.95549  22422537.9374   22422543.2574   22422537.4054
       225.0004        165.0004
  -7041533.20349  -5114260.06549  22658129.1684   22658132.5794   22658128.2094
       230.0004        172.0004
 -12785869.31649  -9696541.41849  22085588.8954   22085593.1304   22085588.3394
       226.0004        167.0004
  -3143329.36249  -2403802.90849  24354409.6724   24354418.8534   24354409.1084
       212.0004        143.0004
 -17991719.45849 -14006875.52849  21290121.9184   21290127.6624   21290122.3464
       237.0004        193.0004
 11 10 14  8 32  0.0000000  0  9G31G25G04G12G14G02G30G09G29
 -11816469.29549  -9194873.50549  22692299.7394   22692304.6014   22692300.3494
       226.0004        174.0004
 -24384583.35949 -18725822.86049  20193167.4544   20193174.0744   20193167.4764
       252.0004        214.0004
   2067612.32149   1717024.63249  24033708.5414   24033716.0244   24033709.3504
       208.0004        137.0004
 -19409533.88549 -15101294.69949  21268995.1294   21268998.4204   21268995.4254
       240.0004        194.0004
  -9784168.36249  -7601871.79449  22435086.3544   22435091.8274   22435086.1334
       225.0004        165.0004
  -7058599.88349  -5127558.81649  22654881.4154   22654885.0044   22654880.9504
       231.0004        174.0004
 -12873290.28949  -9764661.65449  22068954.0014   22068957.1104   22068952.2214
       227.0004        168.0004
  -3020850.09749  -2308364.67449  24377716.0814   24377726.2734   24377717.2154
       210.0004        142.0004
 -18065274.70349 -14064191.29249  21276124.2294   21276130.0654   21276125.2554
       236.0004        193.0004
 11 10 14  8 32 30.0000000  0  9G31G25G04G12G14G02G30G09G29
 -11900651.84749  -9260470.27849  22676280.8784   22676285.3734   22676280.5334
       226.0004        176.0004
 -24384028.71449 -18725390.68449  20193273.2124   20193279.7404   20193273.1054
       253.0004        214.0004
   2132674.83349   1767722.66549  24046086.3864   24046097.1264   24046088.7724
       203.0004        134.0004
 -19348311.85049 -15053589.27049  21280644.5104   21280649.0574   21280645.3244
       238.0004        194.0004
  -9717766.52349  -7550130.16049  22447722.3814   22447727.4204   22447722.4364
       224.0004        164.0004
  -7075120.53449  -5140432.08349  22651736.3574   22651741.7394   22651736.8364
       230.0004        175.0004
 -12960493.04049  -9832611.81849  22052358.8414   22052364.1144   22052359.1794
       228.0004        169.0004
  -2898277.66849  -2212853.84849  24401041.7294   24401051.0044   24401040.5614
       209.0004        140.0004
 -18138415.60449 -14121184.20149  21262207.7144   21262211.7584   21262207.1424
       237.0004        194.0004
 11 10 14  8 33  0.0000000  0  9G31G25G04G12G14G02G30G09G29
 -11984563.97149  -9325856.33449  22660313.6004   22660317.4084   22660313.4614
       227.0004        175.0004
 -24383088.30349 -18724657.90949  20193452.9454   20193458.6034   20193452.4774
       253.0004        214.0004
   2198233.63549   1818807.34349  24058565.6174   24058572.4404   24058564.3614
       207.0004        132.0004
 -19286816.58649 -15005670.94049  21292347.4174   21292351.3054   21292347.4254
       239.0004        194.0004
  -9650907.40849  -7498032.22049  22460445.4454   22460450.7254   22460445.3864
       223.0004        165.0004
  -7091092.73949  -5152877.96949  22648698.8104   22648701.9114   22648698.0444
       232.0004        174.0004
 -13047474.93349  -9900389.90349  22035807.7644   22035811.3134   22035805.3444
       229.0004        168.0004
  -2775613.47049  -2117271.51849  24424382.3884   24424392.0814   24424382.3844
       208.0004        138.0004
 -18211139.65949 -14177852.27849  21248367.4574   21248373.1714   21248367.9014
       236.0004        193.0004
 11 10 14  8 33 30.0000000  0  9G31G25G04G12G14G02G30G09G29
 -12068204.08049  -9391030.43449  22644396.1754   22644401.3534   22644397.3034
       227.0004        176.0004
 -24381763.12949 -18723625.31449  20193704.8684   20193710.8844   20193704.4284
       253.0004        214.0004
   2264285.10449   1870275.90149  24071132.7954   24071141.3174   24071134.9494
       203.0004        131.0004
 -19225049.72949 -14957540.98049  21304101.6324   21304105.5824   21304101.8594
       239.0004        195.0004
  -9583594.22349  -7445580.47049  22473255.8964   22473259.5784   22473255.0184
       226.0004        165.0004
  -7106516.75249  -5164896.72449  22645762.4684   22645766.7754   22645762.7144
       231.0004        174.0004
 -13134235.76549  -9967995.72749  22019295.5764   22019300.4974   22019295.5084
       226.0004        168.0004
  -2652860.58449  -2021620.04749  24447743.0354   24447753.0614   24447743.4174
       208.0004        138.0004
 -18283446.22249 -14234195.04349  21234608.5764   21234613.5234   21234608.7974
       237.0004        193.0004
 11 10 14  8 34  0.0000000  0  9G31G25G04G12G14G02G30G09G29
 -12151569.39449  -9455990.41849  22628532.8124   22628537.2614   22628533.2294
       229.0004        176.0004
 -24380052.60949 -18722292.44949  20194030.5584   20194036.4834   20194030.0164
       253.0004        215.0004
   2330827.85149   1922127.25849  24083795.9014   24083803.4284   24083794.7814
       206.0004        132.0004
 -19163011.70849 -14909199.71249  21315906.2294   21315911.1544   21315906.6434
       239.0004        194.0004
  -9515829.05349  -7392776.49649  22486150.9904   22486155.3134   22486149.1774
       224.0004        163.0004
  -7121391.21449  -5176487.25849  22642932.5974   22642935.3284   22642931.9114
       229.0004        172.0004
 -13220773.49549 -10035427.71249  22002829.1764   22002833.8374   22002828.9794
       229.0004        169.0004
  -2530020.11949  -1925900.35949  24471118.4624   24471130.6064   24471118.9524
       204.0004        133.0004
 -18355333.35349 -14290210.98249  21220928.2744   21220933.6574   21220929.4174
       237.0004        194.0004
 11 10 14  8 34 30.0000000  0  9G31G25G04G12G14G02G30G09G29
 -12234658.47049  -9520735.13349  22612721.6634   22612726.0254   22612721.3014
       229.0004        177.0004
 -24377957.11549 -18720659.60449  20194429.2864   20194435.1784   20194428.6964
       253.0004        214.0004
   2397859.19049   1974359.31649  24096553.3734   24096562.4574   24096553.5204
       207.0004        133.0004
 -19100703.67249 -14860648.05349  21327764.2934   21327767.9984   21327764.2844
       240.0004        194.0004
  -9447615.04449  -7339622.78649  22499130.5434   22499137.3504   22499130.9214
       223.0004        163.0004
  -7135715.28149  -5187648.90949  22640206.7074   22640209.8134   22640206.3204
       230.0004        174.0004
 -13307087.12949 -10102685.07849  21986403.8184   21986409.0344   21986403.3264
       227.0004        170.0004
  -2407094.53749  -1830114.40749  24494510.4794   24494520.5824   24494510.0104
       202.0004        130.0004
 -18426800.07549 -14345899.32249  21207329.5844   21207334.2974   21207329.9564
       237.0004        194.0004
 11 10 14  8 35  0.0000000  0  9G31G25G04G12G14G02G30G09G29
 -12317469.17349  -9585262.93849  22596962.7924   22596968.0674   22596963.8724
       228.0004        177.0004
 -24375476.77749 -18718726.88949  20194901.0064   20194907.3284   20194900.8694
       252.0004        214.0004
   2465376.67149   2026970.21449  24109400.3744   24109408.8364   24109401.6154
       205.0004        134.0004
 -19038126.83249 -14811886.93449  21339672.2264   21339675.7044   21339672.2694
       240.0004        195.0004
  -9378954.94149  -7286121.49249  22512196.4794   22512202.1764   22512195.3684
       221.0004        162.0004
  -7149488.74249  -5198381.50549  22637586.2744   22637590.5184   22637585.4674
       230.0004        174.0004
 -13393175.45949 -10169766.86249  21970022.1174   21970026.1944   21970021.7834
       229.0004        171.0004
  -2284086.05649  -1734263.81249  24517919.0714   24517925.6984   24517917.1174
       192.0004        124.0004
 -18497844.93749 -14401258.93049  21193810.1514   21193814.9444   21193810.3924
       238.0004        194.0004
 11 10 14  8 35 30.0000000  0  9G31G25G04G12G14G02G30G09G29
 -12399998.95649  -9649571.83549  22581258.6914   22581262.7494   22581258.7974
       230.0004        177.0004
 -24372611.43049 -18716494.16649  20195445.8224   20195452.7994   20195445.8594
       252.0004        214.0004
   2533378.41949   2079958.40749  24122340.6054   24122350.1444   24122341.8784
       206.0004        130.0004
 -18975282.12049 -14762917.06749  21351630.4644   21351634.9114   21351631.4104
       240.0004        195.0004
  -9309851.14549  -7232274.46849  22525345.8544   22525352.1084   22525346.8584
       223.0004        164.0004
  -7162710.75349  -5208684.39749  22635068.9094   22635073.3834   22635069.6124
       230.0004        172.0004
 -13479036.98449 -10236671.92949  21953682.3044   21953687.8994   21953682.4664
       228.0004        170.0004
  -2160996.62249  -1638350.17449  24541343.7684   24541351.1084   24541343.2064
       194.0004        122.0004
 -18568466.43449 -14456288.65249  21180371.9874   21180376.2244   21180371.7144
       239.0004        195.0004
 11 10 14  8 36  0.0000000  0  9G31G25G04G12G14G02G30G09G29
 -12482245.00949  -9713659.67949  22565607.4014   22565611.0794   22565607.7184
       228.0004        177.0004
 -24369360.80649 -18713961.22849  20196064.9194   20196071.0324   20196064.6854
       252.0004        214.0004
   2601862.09049   2133322.09049  24135374.4454   24135380.2244   24135373.1344
       201.0004        130.0004
 -18912169.87349 -14713738.73949  21363640.0574   21363644.3744   21363640.5124
       238.0004        194.0004
  -9240305.92449  -7178083.46249  22538580.5594   22538586.1214   22538580.5074
       222.0004        163.0004
  -7175380.22649  -5218556.76449  22632658.5654   22632662.1864   22632658.4364
       230.0004        173.0004
 -13564670.06349 -10303398.99749  21937388.0424   21937392.2284   21937387.5734
       228.0004        170.0004
  -2037828.04349  -1542374.84849  24564779.1814                   24564779.6564
       190.0004        121.0004
 -18638662.91349 -14510987.17449  21167012.4504   21167017.6774   21167013.3194
       237.0004        195.0004
 11 10 14  8 36 30.0000000  0  9G31G25G04G12G14G02G30G09G29
 -12564205.95449  -9777525.33749  22550010.6424   22550014.9864   22550010.9054
       229.0004        178.0004
 -24365725.04349 -18711128.18349  20196755.9024   20196762.9274   20196756.1104
       252.0004        214.0004
   2670825.26349   2187059.43449  24148494.9524   24148506.5304   24148495.6394
       200.0004        127.0004
 -18848791.19149 -14664352.80649  21375701.1724   21375705.3364   21375701.3314
       240.0004        194.0004
  -9170322.18149  -7123550.74349  22551897.1714   22551902.1314   22551897.4594
       220.0004        160.0004
  -7187496.44649  -5227998.02149  22630353.5384   22630356.4974   22630353.1044
       231.0004        173.0004
 -13650073.46449 -10369947.08249  21921136.7134   21921140.4214   21921135.9594
       229.0004        172.0004
  -1914582.55949  -1446339.44049  24588231.8304                   24588225.1374
       188.0004        119.0004
 -18708433.44149 -14565353.79549  21153735.5924   21153740.8954   21153736.1814
       237.0004        195.0004
 11 10 14  8 37  0.0000000  0  9G31G25G04G12G14G02G30G09G29
 -12645879.30149  -9841166.88049  22534469.4234   22534473.9474   22534469.1464
       230.0004        178.0004
 -24361704.17249 -18707995.04249  20197521.6954   20197528.1654   20197521.6364
       252.0004        214.0004
   2740266.04949   2241168.97449  24161710.3734   24161721.0854   24161711.3594
       204.0004        130.0004
 -18785146.80949 -14614759.83449  21387811.6894   21387816.8014   21387812.4244
       238.0004        194.0004
  -9099902.67349  -7068678.49349  22565298.3934   22565303.9044   22565297.8874
       220.0004        161.0004
  -7199058.92749  -5237007.78149  22628152.6784   22628157.2994   22628153.3814
       231.0004        174.0004
 -13735245.78949 -10436315.11549  21904927.2554   21904933.2854   21904927.8014
       227.0004        173.0004
  -1791262.25449  -1350245.91459  24611704.3914   24611708.4054   24611705.3744
       196.0004        121.0004
 -18777776.53849 -14619387.34449  21140540.3854   21140545.7774   21140540.0424
       239.0004        195.0004
 11 10 14  8 37 30.0000000  0  9G31G25G04G12G14G02G30G09G29
 -12727263.59149  -9904583.20949  22518981.8544   22518986.1044   22518982.2154
       229.0004        177.0004
 -24357298.57749 -18704562.12949  20198360.2774   20198366.5084   20198359.6534
       252.0004        214.0004
   2810181.45649   2295648.35349  24175015.2134   24175024.2514   24175015.3774
       207.0004        132.0004
 -18721238.22549 -14564960.98349  21399973.5574   21399977.9474   21399973.8414
       240.0004        194.0004
  -9029050.34049  -7013468.96949  22578781.8284   22578786.6474   22578781.2764
       222.0004        161.0004
  -7210067.30849  -5245585.76749  22626058.0384   22626061.5374   22626057.7984
       231.0004        174.0004
 -13820186.06449 -10502502.34649  21888764.8974   21888769.7064   21888764.9034
       230.0004        173.0004
  -1667869.11849  -1254095.57949  24635183.5704                   24635180.4264
       193.0004        119.0004
 -18846691.28849 -14673087.12249  21127425.5254   21127431.7854   21127426.7164
       238.0004        196.0004
 11 10 14  8 38  0.0000000  0  9G31G25G04G12G14G02G30G09G29
 -12808355.24549  -9967771.49949  22503549.2164   22503554.4784   22503549.5544
       227.0004        176.0004
 -24352507.57649 -18700828.89049  20199271.3394   20199278.1604   20199271.4504
       252.0004        214.0004
   2880569.83049   2350496.26449  24188410.7734   24188415.4124   24188411.3374
       203.0004        132.0004
 -18657065.60949 -14514956.38949  21412185.7684   21412189.7584   21412185.5134
       240.0004        194.0004
  -8957767.18249  -6957923.73649  22592346.4424   22592350.2544   22592346.0704
       222.0004        162.0004
  -7220520.17449  -5253730.87649  22624069.0014   22624071.9694   22624069.7314
       232.0004        174.0004
 -13904892.14849 -10568507.05049  21872646.5934   21872650.7994   21872644.9844
       229.0004        174.0004
  -1544405.73749  -1157890.84549  24658675.2664
       186.0004        118.0004
 -18915175.54349 -14726451.43649  21114394.5424   21114399.2744   21114394.7994
       239.0004        196.0004
 11 10 14  8 38 30.0000000  0  9G31G25G04G12G14G02G30G09G29
 -12889152.82649 -10030730.64749  22488174.4454   22488179.0554   22488174.9844
       228.0004        176.0004
 -24347331.55349 -18696795.63349  20200257.5274   20200263.2974   20200256.8334
       253.0004        214.0004
   2951428.58749   2405710.67349  24201893.4734   24201903.3754   24201892.4914
       201.0004        131.0004
 -18592630.23749 -14464747.05449  21424446.9774   21424451.3684   21424447.6574
       240.0004        194.0004
  -8886056.21049  -6902045.13549  22605993.2154   22605997.9204   22605992.3374
       221.0004        161.0004
  -7230417.37149  -5261443.01849  22622185.5834   22622188.7144   22622185.5654
       230.0004        172.0004
 -13989363.12049 -10634328.58049  21856571.0224   21856576.5924   21856571.2394
       228.0004        174.0004
  -1420872.82949  -1061631.79349  24682182.3504                   24682186.4014
       181.0004        116.0004
 -18983228.47349 -14779479.66749  21101443.9274   21101449.2464   21101444.6104
       239.0004        197.0004
 11 10 14  8 39  0.0000000  0  9G31G25G04G12G14G02G30G09G29
 -12969654.02849 -10093458.85249  22472856.5014   22472861.3324   22472856.9934
       230.0004        177.0004
 -24341770.57449 -18692462.41049  20201315.1724   20201321.2754   20201314.7594
       252.0004        214.0004
   3022755.10349   2461289.58049  24215467.2584   24215476.4364   24215466.4744
       205.0004        129.0004
 -18527932.79649 -14414333.51149  21436758.5304   21436763.0924   21436759.0844
       240.0004        194.0004
  -8813920.40249  -6845835.50649  22619718.6494   22619724.8784   22619718.7054
       221.0004        160.0004
  -7239758.16349  -5268721.59649  22620407.6294   22620411.8894   22620408.5354
       230.0004        174.0004
 -14073597.57749 -10699965.80949  21840542.8064   21840548.0534   21840542.6174
       230.0004        174.0004
  -1297273.39349     76186.50249  24705704.1874
       185.0004         74.0004
 -19050848.89149 -14832170.87449  21088577.1584   21088581.5694   21088576.9384
       240.0004        197.0004
 11 10 14  8 39 30.0000000  0  9G31G25G04G12G14G02G30G09G29
 -13049856.37449 -10155954.17449  22457593.0134   22457598.5034   22457594.4934
       227.0004        176.0004
 -24335824.52049 -18687829.12849  20202446.1494   20202452.7694   20202446.3114
       252.0004        214.0004
   3094547.40449   2517231.47149  24229128.7184   24229137.4064   24229127.1794
       206.0004        132.0004
 -18462974.21049 -14363716.48649  21449120.1534   21449124.3174   21449120.1854
       240.0004        193.0004
  -8741362.12349  -6789296.67849  22633526.0144   22633532.5044   22633526.5364
       221.0004        161.0004
  -7248542.07849  -5275566.22649  22618737.6454   22618741.4494   22618737.3854
       232.0004        175.0004
 -14157593.97649 -10765417.51349  21824556.4614   21824563.0154   21824556.6254
       228.0004        173.0004
  -1173608.85549    172578.07549  24729236.3084
       185.0004        110.0004
 -19118035.19449 -14884523.80249  21075792.1974   21075796.7394   21075792.0764
       241.0004        198.0004
 11 10 14  8 40  0.0000000  0  9G31G25G04G12G14G02G30G09G29
 -13129757.57849 -10218214.84549  22442389.0624   22442394.4854   22442389.7254
       229.0004        178.0004
 -24329493.23849 -18682895.67649  20203651.4794   20203657.5124   20203651.3204
       252.0004        214.0004
   3166803.31849   2573534.60149  24242878.5534   24242886.2974   24242882.9244
       204.0004        130.0004
 -18397754.89549 -14312896.29649  21461531.2554   21461535.2074   21461531.2314
       240.0004        193.0004
  -8668383.78549  -6732430.52349  22647414.1854   22647420.3334   22647413.8094
       223.0004        161.0004
  -7256768.36549  -5281976.36249  22617171.7844   22617175.0834   22617172.4414
       233.0004        176.0004
 -14241350.72449 -10830682.50849  21808619.2964   21808624.8254   21808619.8474
       227.0004        173.0004
  -1049881.03559    269020.58359  24752778.3544
       172.0004        108.0004
 -19184786.17749 -14936537.53649  21063089.0914   21063094.2224   21063089.6524
       240.0004        198.0004
 11 10 14  8 40 30.0000000  0  9G31G25G04G12G14G02G30G09G29
 -13209356.01449 -10280239.59249  22427241.7814   22427246.3624   22427242.3634
       229.0004        178.0004
 -24322777.42049 -18677662.57849  20204928.8634   20204935.5804   20204929.2124
       252.0004        214.0004
   3239519.74649   2630196.63749  24256716.5924   24256724.5234   24256716.3364
       201.0004        129.0004
 -18332276.60149 -14261874.30149  21473990.5564   21473995.1684   21473990.8834
       239.0004        192.0004
  -8594989.07849  -6675239.91249  22661381.0264   22661386.4384   22661380.6264
       222.0004        161.0004
  -7264437.00049  -5287951.94549  22615711.7504   22615715.3844   22615712.5354
       230.0004        174.0004
 -14324867.12549 -10895760.19549  21792726.0404   21792732.0684   21792726.1714
       229.0004        174.0004
   -926093.13159     68360.79159  24776336.9144
       176.0004         74.0004
 -19251100.94049 -14988211.34749  21050469.9784   21050475.0154   21050469.9324
       239.0004        198.0004
 11 10 14  8 41  0.0000000  0  9G31G25G04G12G14G02G30G09G29
 -13288648.87949 -10342026.23449  22412153.7964   22412157.3914   22412154.3514
       230.0004        178.0004
 -24315676.46949 -18672129.38849  20206280.8884   20206287.1614   20206280.3834
       253.0004        214.0004
   3312694.71749   2687215.97449  24270641.4864   24270652.2554   24270644.0124
       200.0004        127.0004
 -18266539.63449 -14210650.74749  21486499.8184   21486504.3814   21486500.4514
       239.0004        192.0004
  -8521179.66849  -6617726.18449  22675425.7524   22675432.5834   22675426.0984
       220.0004        160.0004
  -7271546.85249  -5293492.11649  22614359.2614   22614363.4574   22614359.6754
       230.0004        175.0004
 -14408140.98549 -10960648.91049  21776880.6454   21776884.3604   21776879.1824
       232.0004        174.0004
   -802246.41449    164886.80349  24799910.4484
       176.0004        112.0004
 -19316977.72649 -15039543.87649  21037933.2544   21037939.1374   21037933.6594
       239.0004        197.0004
 11 10 14  8 41 30.0000000  0  9G31G25G04G12G14G02G30G09G29
 -13367634.07449 -10403573.12549  22397123.7834   22397127.4964   22397123.3224
       231.0004        179.0004
 -24308190.55849 -18666296.23049  20207705.2654   20207711.4334   20207704.9664
       252.0004        214.0004
   3386325.90049   2744590.77449  24284651.1264   24284661.7214   24284652.2754
       196.0004        124.0004
 -18200544.81549 -14159226.28049  21499059.3604   21499063.5264   21499058.9294
       239.0004        192.0004
  -8446958.97749  -6559891.97649  22689551.1384   22689555.8124   22689551.5234
       222.0004        160.0004
  -7278097.80449  -5298596.77749  22613112.8934   22613117.1834   22613112.0594
       231.0004        175.0004
 -14491171.19849 -11025347.76949  21761079.5524   21761085.0554   21761080.2404
       230.0004        174.0004
   -678342.77149    261460.63149  24823485.5574
       179.0004        113.0004
 -19382415.51549 -15090534.33249  21025481.2044   21025486.2554   21025481.8364
       239.0004        197.0004
 11 10 14  8 42  0.0000000  0  9G31G25G04G12G14G02G30G09G29
 -13446309.78249 -10464878.85449  22382151.8134   22382156.4994   22382151.6184
       231.0004        179.0004
 -24300320.14649 -18660163.45549  20209202.5724   20209209.2374   20209202.5934
       252.0004        214.0004
   3460410.40249   2802318.86149  24298749.8804   24298760.6954   24298752.3614
       197.0004        126.0004
 -18134293.57349 -14107601.99749  21511666.1664   21511670.7654   21511666.5254
       239.0004        193.0004
  -8372330.01349  -6501739.60349  22703751.6354   22703757.8474   22703752.0944
       222.0004        161.0004
  -7284089.38549  -5303265.57449  22611972.4564   22611976.0534   22611973.0844
       230.0004        174.0004
 -14573956.73649 -11089855.96949  21745327.0304   21745330.8994   21745326.2054
       231.0004        174.0004
   -554384.72259     60324.87459  24847072.6434
       174.0004         74.0004
 -19447413.43649 -15141182.01749  21013112.0734   21013117.7544   21013112.6284
       238.0004        198.0004
 11 10 14  8 42 30.0000000  0  9G31G25G04G12G14G02G30G09G29
 -13524673.27749 -10525941.31149  22367238.1064   22367244.1504   22367239.5964
       229.0004        180.0004
 -24292064.77949 -18653730.71049  20210773.4504   20210780.5754   20210773.4044
       252.0004        214.0004
   3534946.32349   2860398.66549  24312932.8084   24312946.0174   24312934.6134
       197.0004        125.0004
 -18067786.38949 -14055778.27849  21524322.3244   21524326.2314   21524322.3824
       238.0004        192.0004
  -8297295.23049  -6443271.01949  22718029.3554   22718036.8464   22718030.0514
       221.0004        160.0004
  -7289520.93549  -5307498.00949  22610938.9804   22610942.5824   22610938.3724
       229.0004        174.0004
 -14656495.61749 -11154171.97849  21729619.6404   21729623.8484   21729620.6244
       232.0004        174.0004
   -430374.14459    156920.48759  24870670.6114
       176.0004        110.0004
 -19511969.82149 -15191485.66349  21000828.4144   21000832.8934   21000828.5254
       240.0004        198.0004
 11 10 14  8 43  0.0000000  0  9G31G25G04G12G14G02G30G09G29
 -13602722.51949 -10586758.88249  22352387.3324   22352391.3814   22352387.6224
       231.0004        180.0004
 -24283424.48049 -18646998.02349  20212417.3634   20212424.4164   20212417.5964
       252.0004        213.0004
   3609931.25149   2918828.30449  24327201.7374   24327209.7614   24327204.1544
       198.0004        126.0004
 -18001023.92949 -14003755.64049  21537026.7724   21537030.9304   21537026.8784
       239.0004        191.0004
  -8221856.96449  -6384488.04149  22732386.4644   22732390.6974   22732386.4994
       221.0004        159.0004
  -7294392.03049  -5311293.68649  22610012.3294   22610015.6064   22610011.9444
       230.0004        175.0004
 -14738786.50349 -11218294.74449  21713961.1994   21713965.4234   21713960.8634
       232.0004        175.0004
   -306311.46559    253546.75559  24894276.2574
       162.0004        108.0004
 -19576083.51049 -15241444.34549  20988627.9284   20988632.4384   20988627.8814
       240.0004        198.0004
 11 10 14  8 43 30.0000000  0  8G31G25G04G12G14G02G30G29
 -13680455.28549 -10647329.86349  22337595.3654   22337599.1594   22337595.5814
       232.0004        180.0004
 -24274399.90549 -18639965.90249  20214135.4404   20214141.6864   20214135.1024
       252.0004        213.0004
   3685362.01549   2977605.37249  24341558.5024   24341564.1174   24341557.7504
       198.0004        124.0004
 -17934007.50149 -13951535.11449  21549779.4834   21549783.7954   21549779.5454
       238.0004        191.0004
  -8146018.92349  -6325393.55349  22746818.0784   22746823.2214   22746818.4094
       221.0004        160.0004
  -7298702.62649  -5314652.63149  22609191.4744   22609196.2564   22609191.9804
       230.0004        175.0004
 -14820828.54049 -11282223.60249  21698348.2484   21698353.9114   21698348.3024
       230.0004        175.0004
 -19639753.86549 -15291057.58849  20976511.8404   20976516.4024   20976512.3974
       241.0004        198.0004
 11 10 14  8 44  0.0000000  0  8G31G25G04G12G14G02G30G29
 -13757868.93749 -10707652.18849  22322862.9644   22322868.7514   22322863.9514
       231.0004        181.0004
 -24264990.46449 -18632633.87849  20215925.6344   20215932.3084   20215925.4484
       252.0004        213.0004
   3761236.64049   3036728.29349  24355996.8874   24356004.4334   24356000.1774
       198.0004        125.0004
 -17866737.55649 -13899117.04149  21562580.2214   21562584.5764   21562580.6974
       238.0004        190.0004
  -8069783.05749  -6265989.05649  22761326.2464   22761329.8524   22761324.2434
       221.0004        160.0004
  -7302451.87949  -5317574.15849  22608479.5164   22608481.3884   22608478.8134
       231.0004        173.0004
 -14902619.57149 -11345956.85849  21682785.0154   21682788.5714   21682784.4354
       232.0004        176.0004
 -19702978.88449 -15340323.80049  20964480.1254   20964484.9834   20964480.2914
       240.0004        198.0004
 11 10 14  8 44 30.0000000  0  8G31G25G04G12G14G02G30G29
 -13834962.21849 -10767724.86149  22308193.6564   22308198.1704   22308194.1404
       234.0004        183.0004
 -24255196.90249 -18625002.55749  20217788.9654   20217796.1134   20217789.1314
       252.0004        214.0004
   3837552.11449   3096194.72749  24370517.4304   24370531.2074   24370517.8144
       195.0004        125.0004
 -17799215.67249 -13846502.65449  21575429.6154   21575433.4864   21575429.6944
       237.0004        190.0004
  -7993153.09549  -6206277.47549  22775906.6874   22775912.5734   22775907.9874
       221.0004        160.0004
  -7305640.07849  -5320058.50949  22607870.4424   22607874.5824   22607870.8954
       229.0004        172.0004
 -14984158.91249 -11409494.00249  21667267.6624   21667273.2664   21667267.3294
       232.0004        176.0004
 -19765758.18449 -15389242.70049  20952533.9274   20952538.2914   20952533.6404
       240.0004        197.0004
 11 10 14  8 45  0.0000000  0  8G31G25G04G12G14G02G30G29
 -13911732.56149 -10827545.90249  22293583.8234   22293588.8784   22293584.6604
       230.0004        182.0004
 -24245018.94849 -18617071.70649  20219727.0454   20219732.7324   20219726.3584
       253.0004        214.0004
   3914306.43549   3156003.11249  24385125.0344   24385132.7714   24385126.3994
       197.0004        121.0004
 -17731442.12849 -13793692.16949  21588326.5624   21588330.6784   21588326.4024
       237.0004        190.0004
  -7916131.55949  -6146260.77249  22790564.1264   22790569.2774   22790564.0204
       220.0004        157.0004
  -7308266.49349  -5322105.07549  22607372.2214   22607374.7424   22607371.4124
       230.0004        172.0004
 -15065444.79249 -11472833.63649  21651798.8474   21651804.5284   21651799.3764
       231.0004        177.0004
 -19828090.24149 -15437813.10449  20940670.8654   20940676.8464   20940671.8854
       239.0004        197.0004
 11 10 14  8 45 30.0000000  0  8G31G25G04G12G14G02G30G29
 -13988176.84749 -10887112.86349  22279036.8864   22279042.4754   22279037.9714
       232.0004        181.0004
 -24234456.19349 -18608840.99349  20221736.0044   20221742.9694   20221735.8234
       252.0004        213.0004
   3991497.45049   3216151.75849  24399816.0024   24399823.9934   24399814.5774
       200.0004        123.0004
 -17663417.39949 -13740685.95549  21601270.9404   21601275.7354   21601271.1224
       237.0004        190.0004
  -7838720.53949  -6085940.56849  22805294.4814   22805299.1934   22805293.6514
       219.0004        155.0004
  -7310330.33649  -5323713.29749  22606978.4654   22606982.0974   22606979.9524
       230.0004        171.0004
 -15146475.28949 -11535974.27149  21636379.9944   21636384.5244   21636379.7414
       231.0004        176.0004
 -19889973.74649 -15486033.98449  20928895.6264   20928900.5494   20928896.3394
       239.0004        197.0004
 11 10 14  8 46  0.0000000  0  8G31G25G04G12G14G02G30G29
 -14064293.67949 -10946424.68249  22264552.8924   22264557.6364   22264553.5834
       232.0004        181.0004
 -24223509.05549 -18600310.78349  20223819.8984   20223826.1434   20223819.6194
       253.0004        214.0004
   4069122.22049   3276638.40049  24414585.3414   24414594.8354   24414588.2844
       194.0004        124.0004
 -17595142.99449 -13687485.19049  21614263.2394   21614267.7864   21614262.9854
       237.0004        190.0004
  -7760923.56749  -6025319.64449  22820099.5294   22820104.3354   22820099.0954
       220.0004        158.0004
  -7311831.61049  -5324883.14349  22606694.1784   22606696.5404   22606692.4514
       229.0004        173.0004
 -15227249.40149 -11598915.10749  21621008.5444   21621014.9484   21621008.1964
       231.0004        177.0004
 -19951407.77949 -15533904.63349  20917206.0154   20917210.2924   20917205.4064
       240.0004        198.0004
 11 10 14  8 46 30.0000000  0  8G31G25G04G12G14G02G30G29
 -14140081.08349 -11005479.78849  22250131.2534   22250136.3024   22250132.2344
       233.0004        182.0004
 -24212178.39149 -18591481.72049  20225975.6144   20225982.3384   20225975.4344
       252.0004        213.0004
   4147177.60149   3337460.58249  24429440.1594   24429450.0574   24429434.5984
       198.0004        123.0004
 -17526620.28249 -13634090.96449  21627302.8914   21627307.7534   21627303.4424
       237.0004        189.0004
  -7682744.31349  -5964400.83349  22834975.6084   22834982.1594   22834976.1944
       220.0004        158.0004
  -7312770.96649  -5325615.15249  22606515.2054   22606518.6654   22606515.4274
       231.0004        175.0004
 -15307766.31149 -11661655.56449  21605687.0684   21605692.1604   21605686.7604
       231.0004        176.0004
 -20012391.85849 -15581424.68149  20905600.1364   20905605.5224   20905601.0414
       240.0004        198.0004
 11 10 14  8 47  0.0000000  0  8G31G25G04G12G14G02G30G29
 -14215536.18049 -11064275.95549  22235771.9424   22235777.1384   22235772.6544
       231.0004        181.0004
 -24200463.43049 -18582353.20449  20228204.3894   20228211.7794   20228204.6254
       252.0004        213.0004
   4225662.02149   3398617.07249  24444375.5824   24444379.3134   24444375.6974
       199.0004        122.0004
 -17457849.49849 -13580503.39949  21640389.6274   21640393.8734   21640389.5344
       237.0004        189.0004
  -7604184.40749  -5903185.40549  22849926.6954   22849930.8284   22849926.1524
       221.0004        156.0004
  -7313147.39249  -5325908.46849  22606442.2104   22606446.9814   22606442.8144
       229.0004        174.0004
 -15388023.83549 -11724193.87149  21590415.0514   21590419.8264   21590415.0224
       232.0004        177.0004
 -20072924.08149 -15628592.62349  20894082.2444   20894086.2264   20894082.3754
       241.0004        199.0004
 11 10 14  8 47 30.0000000  0  8G31G25G04G12G14G02G30G29
 -14290657.03649 -11122811.68549  22221477.7084   22221481.6434   22221478.2804
       232.0004        181.0004
 -24188364.44149 -18572925.45449  20230507.4994   20230514.0204   20230507.3764
       253.0004        213.0004
   4304572.75949   3460105.85349  24459392.2674   24459396.3204   24459390.9284
       195.0004        124.0004
 -17388831.31949 -13526723.08249  21653523.3554   21653528.1244   21653523.9294
       237.0004        190.0004
  -7525247.19249  -5841675.97649  22864946.6674   22864951.5934   22864947.1684
       218.0004        154.0004
  -7312960.62049  -5325762.93749  22606479.4074   22606482.2354   22606479.5164
       232.0004        173.0004
 -15468020.64749 -11786529.02849  21575192.4684   21575196.7614   21575191.6804
       232.0004        177.0004
 -20133003.73649 -15675407.91449  20882649.9154   20882653.6434   20882649.5974
       242.0004        199.0004
 11 10 14  8 48  0.0000000  0  8G31G25G04G12G14G02G30G29
 -14365440.73249 -11181084.68549  22207246.9234   22207251.0314   22207247.1194
       233.0004        181.0004
 -24175880.89049 -18563198.03349  20232883.2784   20232889.2934   20232883.0414
       252.0004        213.0004
   4383907.56249   3521925.09149  24474485.5244   24474497.1594   24474484.8874
       197.0004        123.0004
 -17319566.21849 -13472750.34649  21666704.3614   21666709.2214   21666704.6154
       238.0004        190.0004
  -7445934.79849  -5779874.19449  22880039.8354   22880045.2184   22880039.9764
       218.0004        155.0004
  -7312209.88249  -5325177.96949  22606621.2814   22606625.1344   22606621.4884
       229.0004        173.0004
 -15547754.76549 -11848659.50849  21560019.0664   21560023.6864   21560019.4144
       233.0004        178.0004
 -20192628.94849 -15721869.09049  20871302.4574   20871307.2354   20871303.1894
       241.0004        199.0004
 11 10 14  8 48 30.0000000  0  8G31G25G04G12G14G02G30G29
 -14439885.91749 -11239093.91849  22193080.4894   22193084.5974   22193080.9914
       232.0004        183.0004
 -24163013.71949 -18553171.69049  20235331.4604   20235338.1964   20235331.4994
       252.0004        213.0004
   4463663.38349   3584072.33149  24489665.8044   24489673.5444   24489669.0744
       198.0004        124.0004
 -17250055.80149 -13418586.45349  21679931.4654   21679936.4984   21679931.9394
       238.0004        190.0004
  -7366250.90949  -5717782.94249  22895202.6234   22895208.0254   22895202.8154
       218.0004        156.0004
  -7310895.93449  -5324154.10849  22606871.6404   22606874.5754   22606871.9054
       229.0004        174.0004
 -15627225.58349 -11910584.80849  21544897.4874   21544900.6954   21544896.8804
       234.0004        178.0004
 -20251799.67849 -15767976.12249  20860042.4524   20860047.5054   20860042.9934
       241.0004        199.0004
 11 10 14  8 49  0.0000000  0  8G31G25G04G12G14G02G30G29
 -14513990.04849 -11296837.38249  22178978.1964   22178983.1394   22178978.8754
       230.0004        181.0004
 -24149762.72349 -18542846.26549  20237853.9474   20237859.6214   20237853.5044
       253.0004        213.0004
   4543837.68649   3646545.67649  24504923.3234   24504926.8974   24504923.0454
       197.0004        124.0004
 -17180300.66749 -13364231.87649  21693205.7894   21693210.5214   21693205.9154
       238.0004        190.0004
  -7286198.39149  -5655404.44749  22910435.5174   22910441.8654   22910436.2464
       217.0004        156.0004
  -7309018.07949  -5322690.84649  22607228.3324   22607232.8994   22607228.5234
       230.0004        172.0004
 -15706431.22949 -11972303.49149  21529824.9204   21529827.8814   21529823.3624
       233.0004        178.0004
 -20310514.27949 -15813727.72449  20848870.3724   20848874.7614   20848870.0844
       243.0004        200.0004
 11 10 14  8 49 30.0000000  0  8G31G25G04G12G14G02G30G29
 -14587751.96249 -11354314.16749  22164942.1774   22164946.6564   22164942.2564
       231.0004        180.0004
 -24136128.62349 -18532222.30749  20240447.2214   20240453.9414   20240447.4204
       252.0004        213.0004
   4624427.52049   3709342.86749  24520257.1514   24520264.1494   24520255.6564
       199.0004        124.0004
 -17110302.24449 -13309687.71549  21706525.3254   21706530.9724   21706525.4194
       237.0004        189.0004
  -7205780.52749  -5592741.28549  22925739.8954   22925744.7734   22925738.3794
       215.0004        154.0004
  -7306576.80849  -5320788.53449  22607694.8804   22607695.6414   22607693.9044
       231.0004        172.0004
 -15785370.90249 -12033814.90449  21514801.7004   21514806.2164   21514801.2684
       232.0004        178.0004
 -20368772.38849 -15859123.61849  20837783.3644   20837788.6274   20837783.6134
       241.0004        200.0004
 11 10 14  8 50  0.0000000  0  8G31G25G04G12G14G02G30G29
 -14661167.94249 -11411521.41949  22150972.1054   22150975.5454   22150972.2914
       232.0004        182.0004
 -24122110.82049 -18521299.37049  20243115.6904   20243121.6884   20243115.4084
       253.0004        213.0004
   4705431.00549   3772462.40349  24535672.7404   24535682.1094   24535667.3344
       197.0004        123.0004
 -17040060.75449 -13254954.16749  21719892.9234   21719897.8894   21719892.8844
       237.0004        189.0004
  -7124999.86249  -5529795.42649  22941110.3414   22941117.3804   22941110.8454
       216.0004        153.0004
  -7303571.58849  -5318446.78749  22608263.2774   22608269.4074   22608265.4204
       228.0004        173.0004
 -15864042.57949 -12095117.49749  21499831.0114   21499836.5354   21499830.5204
       231.0004        178.0004
 -20426572.59449 -15904162.71349  20826784.8514   20826789.1144   20826784.9934
       242.0004        200.0004
 11 10 14  8 50 30.0000000  0  8G31G25G04G12G14G02G30G29
 -14734236.40449 -11468457.86749  22137065.7634   22137071.6374   22137067.3054
       229.0004        182.0004
 -24107709.72949 -18510077.75949  20245855.8984   20245861.9374   20245855.5984
       253.0004        213.0004
   4786844.90249   3835901.76949  24551163.4244   24551178.0734   24551164.5374
       197.0004        124.0004
 -16969577.25749 -13200032.03949  21733304.6554   21733310.2454   21733305.3584
       237.0004        188.0004
  -7043859.38449  -5466569.15949  22956553.1414   22956557.7424   22956552.8914
       219.0004        153.0004
  -7300002.60549  -5315665.74249  22608944.7834   22608948.1154   22608944.6964
       230.0004        173.0004
 -15942445.01649 -12156210.29849  21484911.4974   21484916.9014   21484911.9344
       233.0004        179.0004
 -20483914.02649 -15948844.30849  20815872.8884   20815877.5614   20815873.2374
       242.0004        200.0004
 11 10 14  8 51  0.0000000  0  8G31G25G04G12G14G02G30G29
 -14806955.04149 -11525121.71549  22123228.5074   22123233.9244   22123229.0344
       231.0004        183.0004
 -24092925.16649 -18498557.35249  20248669.3884   20248675.2704   20248668.9984
       252.0004        213.0004
   4868667.30949   3899659.44749  24566733.4434   24566745.0764   24566734.2364
       196.0004        126.0004
 -16898852.43149 -13144921.86749  21746764.1924   21746768.4934   21746764.2094
       237.0004        188.0004
  -6962361.94649  -5403064.73349  22972061.1174   22972066.9374   22972061.2444
       215.0004        154.0004
  -7295869.40249  -5312445.04549  22609730.3754   22609734.7054   22609730.3944
       228.0004        174.0004
 -16020576.40549 -12217091.89549  21470044.5284   21470049.4294   21470044.0394
       233.0004        180.0004
 -20540795.42849 -15993167.44249  20805048.1344   20805052.9554   20805048.7494
       242.0004        201.0004
 11 10 14  8 51 30.0000000  0  8G31G25G04G12G14G02G30G29
 -14879321.33349 -11581511.02349  22109458.5244   22109462.8384   22109459.2044
       233.0004        184.0004
 -24077757.22249 -18486738.20549  20251555.5664   20251561.6714   20251555.4444
       252.0004        212.0004
   4950895.37149   3963733.20149  24582381.5594   24582393.4184   24582381.8794
       200.0004        129.0004
 -16827887.24449 -13089624.38749  21760267.2744   21760272.4054   21760268.5444
       237.0004        189.0004
  -6880510.24249  -5339284.28949  22987637.9474   22987644.1544   22987636.8294
       219.0004        153.0004
  -7291172.09449  -5308784.75249  22610625.1374   22610628.6274   22610624.3974
       228.0004        173.0004
 -16098435.35749 -12277761.20049  21455227.7414   21455232.7414   21455227.7374
       233.0004        180.0004
 -20597215.86449 -16037131.39349  20794311.9494   20794316.8304   20794312.7574
       242.0004        201.0004
 11 10 14  8 52  0.0000000  0  8G31G25G04G12G14G02G30G29
 -14951333.48349 -11637624.37449  22095755.4654   22095759.1934   22095755.5284
       233.0004        184.0004
 -24062206.46949 -18474620.75049  20254515.0034   20254520.8774   20254514.4544
       252.0004        212.0004
   5033526.08849   4028120.72049  24598105.9034   24598116.8614   24598105.0404
       202.0004        128.0004
 -16756682.53249 -13034140.26349  21773817.3764   21773822.7244   21773818.2554
       237.0004        189.0004
  -6798307.84649  -5275230.58649  23003278.8844   23003286.6684   23003279.9524
       215.0004        154.0004
  -7285910.53649  -5304684.80449  22611625.4234   22611628.6394   22611626.4014
       229.0004        172.0004
 -16176020.79549 -12338217.37349  21440463.6554   21440468.5864   21440463.1404
       232.0004        179.0004
 -20653174.79449 -16080735.71549  20783663.9034   20783668.2264   20783664.1194
       243.0004        202.0004
 11 10 14  8 52 30.0000000  0  8G31G25G04G12G14G02G30G29
 -15022988.82949 -11693459.69349  22082118.9604   22082123.6114   22082119.9004
       233.0004        183.0004
 -24046272.31249 -18462204.55449  20257546.3704   20257553.3644   20257546.7334
       251.0004        212.0004
   5116557.55349   4092820.51849  24613905.7074   24613916.6554   24613907.8864
       202.0004        129.0004
 -16685238.65149 -12978469.78349  21787413.4114   21787417.8484   21787413.7844
       237.0004        187.0004
  -6715756.92149  -5210905.28449  23018988.2604   23018994.8134   23018987.9724
       217.0004        153.0004
  -7280084.53749  -5300145.02449  22612734.6654   22612738.2904   22612733.6434
       229.0004        172.0004
 -16253330.54749 -12398458.72949  21425751.6174   21425757.5724   21425751.6864
       233.0004        180.0004
 -20708670.68849 -16123979.24349  20773103.3914   20773107.3674   20773103.5234
       244.0004        202.0004
 11 10 14  8 53  0.0000000  0  8G31G25G04G12G14G02G30G29
 -15094286.16649 -11749016.04449  22068551.7874   22068556.0374   22068552.5534
       235.0004        185.0004
 -24029955.93949 -18449490.52349  20260651.9034   20260658.2824   20260651.5004
       252.0004        212.0004
   5199986.00049   4157829.64349  24629783.2194   24629793.8554   24629785.0504
       196.0004        126.0004
 -16613558.02949 -12922614.80749  21801053.7004   21801058.2884   21801053.9594
       237.0004        187.0004
  -6632861.53749  -5146311.58249  23034765.0404   23034768.6104   23034763.7464
       217.0004        152.0004
  -7273694.93849  -5295166.07649  22613949.4074   22613954.6034   22613949.7094
       228.0004        172.0004
 -16330364.18449 -12458484.93249  21411092.8464   21411097.6794   21411092.2524
       232.0004        179.0004
 -20763703.30549 -16166861.77849  20762630.4624   20762635.3264   20762631.3484
       243.0004        202.0004
 11 10 14  8 53 30.0000000  0  8G31G25G04G12G14G02G30G29
 -15165222.06849 -11804290.77049  22055054.2714   22055057.7114   22055054.1054
       236.0004        186.0004
 -24013256.43049 -18436477.94249  20263829.0914   20263835.9134   20263829.2034
       251.0004        212.0004
   5283809.84249   4223146.84649  24645734.4724   24645741.9054   24645732.4554
       194.0004        122.0004
 -16541639.97149 -12866574.83849  21814739.8884   21814743.8804   21814739.5984
       237.0004        187.0004
  -6549623.39449  -5081450.78249  23050602.0684   23050609.2574   23050602.7044
       214.0004        151.0004
  -7266740.73949  -5289747.16849  22615273.6304   22615277.6814   22615273.4374
       229.0004        173.0004
 -16407119.15249 -12518293.99349  21396486.7814   21396491.5694   21396487.0114
       233.0004        180.0004
 -20818270.95149 -16209381.98349  20752247.0654   20752251.3984   20752246.6314
       242.0004        202.0004
 11 10 14  8 54  0.0000000  0  8G31G25G04G12G14G02G30G29
 -15235795.10149 -11859282.73949  22041623.9454   22041628.2214   22041624.3114
       234.0004        185.0004
 -23996174.68649 -18423167.51849  20267080.1594   20267086.6064   20267079.9114
       251.0004        212.0004
   5368025.79049   4288769.56749  24661760.0364   24661768.8504   24661756.9184
       192.0004        123.0004
 -16469485.68649 -12810350.78649  21828469.3734   21828474.4584   21828470.0404
       236.0004        188.0004
  -6466046.52249  -5016326.06449  23066506.2844   23066513.9934   23066505.9944
       214.0004        152.0004
  -7259222.82749  -5283889.01549  22616703.4164   22616708.5394   22616704.7364
       230.0004        173.0004
 -16483594.75549 -12577885.36449  21381933.8584   21381939.0024   21381933.8354
       232.0004        180.0004
 -20872373.50749 -16251539.79349  20741951.0894   20741956.3944   20741951.3664
       243.0004        202.0004
 11 10 14  8 54 30.0000000  0  8G31G25G04G12G14G02G30G29
 -15306003.04449 -11913990.20749  22028261.9644   22028267.5954   22028263.2154
       233.0004        185.0004
 -23978710.75549 -18409559.28149  20270403.0004   20270409.9044   20270403.1004
       250.0004        212.0004
   5452631.16349   4354695.81249  24677857.3714   24677872.3344   24677858.7674
       185.0004        123.0004
 -16397096.39549 -12753943.61349  21842245.4714   21842249.6714   21842245.3324
       237.0004        187.0004
  -6382133.77349  -4950939.62749  23082474.9764   23082480.6054   23082475.2404
       215.0004        153.0004
  -7251141.12049  -5277591.52749  22618243.0574   22618246.6254   22618241.7624
       229.0004        173.0004
 -16559789.53949 -12637257.90749  21367435.3424   21367440.5564   21367434.0534
       234.0004        181.0004
 -20926009.87549 -16293334.33349  20731744.2544   20731749.3554   20731744.5724
       242.0004        202.0004
 11 10 14  8 55  0.0000000  0  8G31G25G04G12G14G02G30G29
 -15375843.75349 -11968411.54349  22014973.3354   22014977.8074   22014974.4414
       235.0004        187.0004
 -23960864.79649 -18395653.37649  20273799.1284   20273805.9414   20273799.1804
       251.0004        212.0004
   5537623.59249   4420923.62249  24694033.0314                   24694026.1394
       192.0004        121.0004
 -16324473.08049 -12697354.08449  21856064.4674   21856068.9374   21856064.9594
       235.0004        185.0004
  -6297888.26949  -4885293.90349  23098506.9334   23098512.4644   23098507.0934
       216.0004        151.0004
  -7242495.80749  -5270854.90249  22619887.1764   22619891.8424   22619887.9464
       228.0004        173.0004
 -16635701.90049 -12696410.38549  21352989.0544   21352994.3844   21352988.4394
       234.0004        181.0004
 -20979179.27549 -16334765.01149  20721626.5684   20721631.4754   20721627.0464
       242.0004        202.0004
 11 10 14  8 55 30.0000000  0  8G31G25G04G12G14G02G30G29
 -15445314.71949 -12022544.78249  22001754.3314   22001757.8264   22001755.0364
       236.0004        188.0004
 -23942636.78349 -18381449.75849  20277267.8254   20277274.5984   20277267.7474
       251.0004        212.0004
   5623000.30949   4487450.78549  24710282.2504   24710287.4064   24710279.1724
       200.0004        121.0004
 -16251616.17449 -12640582.55849  21869929.1914   21869934.1834   21869929.8934
       235.0004        186.0004
  -6213312.72049  -4819390.98249  23114600.2834   23114605.8504   23114600.3444
       216.0004        151.0004
  -7233286.94749  -5263679.13649  22621639.0224   22621643.6094   22621639.1604
       227.0004        172.0004
 -16711330.29449 -12755341.59549  21338597.6934   21338603.6884   21338597.4094
       234.0004        181.0004
 -21031880.72349 -16375831.05149  20711597.6944   20711602.5084   20711598.5294
       242.0004        202.0004
 11 10 14  8 56  0.0000000  0  8G31G25G04G12G14G02G30G29
 -15514413.90349 -12076388.28049  21988603.5204   21988608.4684   21988604.1934
       233.0004        185.0004
 -23924026.51349 -18366948.26749  20280809.6864   20280816.1384   20280809.3674
       251.0004        212.0004
   5708758.94349   4554275.53149  24726599.7664   24726605.7934   24726600.8404
       198.0004        125.0004
 -16178526.31149 -12583629.50249  21883837.8794   21883842.5384   21883837.9644
       234.0004        185.0004
  -6128409.84949  -4753233.01849  23130758.2474   23130764.6314   23130757.2694
       216.0004        149.0004
  -7223514.19949  -5256063.98749  22623499.0694   22623503.4324   22623499.6884
       229.0004        172.0004
 -16786672.82449 -12814050.06449  21324260.3724   21324265.6384   21324259.6934
       234.0004        181.0004
 -21084112.96349 -16416531.46849  20701657.8664   20701663.0474   20701659.0864
       242.0004        203.0004
 11 10 14  8 56 30.0000000  0  8G31G25G04G12G14G02G30G29
 -15583139.07449 -12129940.36649  21975527.3164   21975530.8374   21975527.2234
       235.0004        186.0004
 -23905034.76549 -18352149.53149  20284423.6204   20284430.0914   20284423.4754
       251.0004        212.0004
   5794896.25849   4621395.39849  24742989.9354   24743002.0044   24742991.6424
       194.0004        123.0004
 -16105204.92449 -12526496.03849  21897789.9424   21897795.5814   21897790.6854
       235.0004        186.0004
  -6043183.07749  -4686822.67149  23146975.0944   23146981.6884   23146975.9794
       215.0004        151.0004
  -7213178.65449  -5248010.30749  22625466.3154   22625470.9914   22625465.7894
       229.0004        172.0004
 -16861728.58349 -12872535.06749  21309978.8744   21309982.6174   21309977.8504
       236.0004        181.0004
 -21135875.57249 -16456865.93849  20691809.2874   20691813.1714   20691809.4024
       243.0004        203.0004
 11 10 14  8 57  0.0000000  0  8G31G25G04G12G14G02G30G29
 -15651487.58349 -12183198.93449  21962520.1954   21962524.5024   21962520.9984
       235.0004        187.0004
 -23885661.28149 -18337053.32849  20288109.9064   20288116.6774   20288109.8284
       251.0004        211.0004
   5881410.05949   4688808.62449  24759453.5744   24759464.7544   24759458.1314
       191.0004        122.0004
 -16031652.64349 -12469182.65549  21911787.6844   21911791.5044   21911787.9444
       237.0004        185.0004
  -5957635.08849  -4620162.00049  23163256.5554   23163260.7884   23163255.2364
       218.0004        152.0004
  -7202279.78849  -5239517.67449  22627539.9934   22627543.6334   22627540.9324
       229.0004        172.0004
 -16936495.71049 -12930795.15949  21295751.1724   21295755.7124   21295750.3784
       236.0004        182.0004
 -21187167.64549 -16496833.74649  20682047.8764   20682052.8384   20682048.1274
       240.0004        202.0004
 11 10 14  8 57 30.0000000  0  8G31G25G04G12G14G02G30G29
 -15719458.01149 -12236162.89149  21949585.0994   21949590.1654   21949586.0294
       233.0004        186.0004
 -23865906.51849 -18321660.02049  20291869.1394   20291875.8054   20291868.9344
       250.0004        211.0004
   5968297.26049   4756512.80849  24775986.0434                   24775987.8704
       191.0004        121.0004
 -15957870.26349 -12411689.94749  21925826.3894   21925831.9204   21925827.6374
       235.0004        184.0004
  -5871769.42949  -4553253.83749  23179596.6164   23179600.8484   23179596.6614
       218.0004        151.0004
  -7190818.08549  -5230586.48149  22629720.8034   22629724.5224   22629721.6034
       229.0004        172.0004
 -17010973.02049 -12988829.42749  21281578.0114   21281581.9874   21281577.1184
       235.0004        182.0004
 -21237988.59849 -16536434.46349  20672377.2474   20672381.4554   20672377.0334
       240.0004        202.0004
 11 10 14  8 58  0.0000000  0  8G31G25G04G12G14G02G30G29
 -15787047.92149 -12288830.34249  21936723.8154   21936727.7934   21936723.9714
       234.0004        185.0004
 -23845770.79449 -18305969.86749  20295700.5414   20295707.5694   20295700.7434
       250.0004        211.0004
   6055555.08649   4824505.83649  24792593.6364   24792599.0784   24792593.7204
       194.0004        121.0004
 -15883858.76949 -12354018.73449  21939911.3844   21939915.8484   21939911.5624
       235.0004        184.0004
  -5785589.23049  -4486100.55449  23195994.8374   23196001.2944   23195994.8454
       214.0004        150.0004
  -7178793.77349  -5221216.89949  22632009.8244   22632012.4554   22632009.5464
       229.0004        171.0004
 -17085159.16049 -13046636.80549  21267460.4214   21267464.8544   21267459.8564
       234.0004        182.0004
 -21288337.56349 -16575667.38949  20662795.7594   20662800.4304   20662795.9904
       240.0004        203.0004
 11 10 14  8 58 30.0000000  0  8G31G25G04G12G14G02G30G29
 -15854254.84449 -12341199.37549  21923934.1944   21923939.0984   21923935.3314
       233.0004        186.0004
 -23825253.73949 -18289982.58449  20299605.2124   20299612.1104   20299605.1414
       250.0004        211.0004
   6143181.47549   4892786.02049  24809267.9464                   24809262.7964
       188.0004        120.0004
 -15809618.56349 -12296169.31349  21954038.2154   21954043.6964   21954038.6364
       233.0004        183.0004
  -5699096.70549  -4418703.91949  23212453.4964   23212459.6514   23212453.6484
       216.0004        149.0004
  -7166206.77149  -5211408.87749  22634403.7724   22634408.6604   22634403.8974
       227.0004        172.0004
 -17159052.07349 -13104215.69949  21253398.7594   21253403.3324   21253398.2704
       234.0004        182.0004
 -21338213.40949 -16614531.65549  20653304.2984   20653309.3604   20653305.1814
       240.0004        203.0004
 11 10 14  8 59  0.0000000  0  8G31G25G04G12G14G02G30G29
 -15921077.05949 -12393268.62349  21911219.4704   21911223.3064   21911219.4824
       235.0004        187.0004
 -23804355.79949 -18273698.50349  20303581.6064   20303588.7764   20303581.8314
       250.0004        212.0004
   6231173.37649   4961351.01349  24826011.4884                   24826020.7594
       185.0004        117.0004
 -15735150.21949 -12238142.11249  21968209.9434   21968214.7634   21968210.1654
       235.0004        183.0004
  -5612295.40649  -4351066.66949  23228972.2444   23228977.4214   23228971.4714
       217.0004        150.0004
  -7153057.95049  -5201163.07449  22636905.7144   22636910.9644   22636905.9494
       226.0004        172.0004
 -17232650.57649 -13161565.17849  21239393.1554   21239399.2334   21239393.7434
       234.0004        182.0004
 -21387615.66349 -16653026.88449  20643903.7794   20643908.1774   20643903.8274
       239.0004        202.0004
 11 10 14  8 59 30.0000000  0  8G31G25G04G12G14G02G30G29
 -15987512.06849 -12445036.15649  21898576.1524   21898581.6704   21898577.5224
       234.0004        187.0004
 -23783077.14449 -18257117.75749  20307631.3124   20307638.0804   20307630.9224
       250.0004        211.0004
   6319528.13549   5030198.76249  24842826.4634
       187.0004        119.0004
 -15660455.50049 -12179938.52049  21982423.7044   21982428.6184   21982424.0354
       235.0004        182.0004
  -5525188.38849  -4283191.19449  23245549.6984   23245554.4604   23245548.7314
       216.0004        148.0004
  -7139347.31649  -5190479.50949  22639515.4244   22639519.5474   22639515.1654
       230.0004        171.0004
 -17305953.06749 -13218683.98949  21225444.5554   21225450.1244   21225443.5054
       235.0004        182.0004
 -21436543.65949 -16691152.56149  20634593.1104   20634597.6304   20634593.4924
       241.0004        203.0004
 11 10 14  9  0  0.0000000  0  8G31G25G04G12G14G02G30G29
 -16053557.71649 -12496500.29249  21886008.9084   21886012.9114   21886009.5174
       235.0004        187.0004
 -23761418.05649 -18240240.57449  20311752.5394   20311759.9404   20311752.6174
       250.0004        212.0004
   6408242.89749      5228.87249  24859708.0784
       179.0004         74.0004
 -15585535.00849 -12121558.98849  21996680.3754   21996685.6924   21996680.3774
       235.0004        183.0004
  -5437778.59549  -4215079.80649  23262180.6144   23262188.2314   23262181.4314
       213.0004        149.0004
  -7125075.23449  -5179358.46749  22642232.0064   22642235.6864   22642231.2844
       229.0004        172.0004
 -17378958.21349 -13275571.13049  21211551.5724   21211557.0564   21211551.6434
       233.0004        182.0004
 -21484996.31249 -16728907.83749  20625373.0464   20625377.5824   20625373.2414
       240.0004        202.0004
 11 10 14  9  0 30.0000000  0  8G31G25G04G12G14G02G30G29
 -16119211.86549 -12547659.36749  21873515.6164   21873518.9294   21873516.0664
       235.0004        188.0004
 -23739378.75849 -18223067.13049  20315947.0124   20315953.6744   20315946.7054
       250.0004        212.0004
   6497314.89349     74638.80949  24876659.7674
       184.0004         98.0004
 -15510389.56949 -12063004.18649  22010979.7304   22010985.3034   22010980.5674
       234.0004        183.0004
  -5350069.38449  -4146735.13149  23278872.3354   23278877.9074   23278872.7694
       214.0004        148.0004
  -7110242.33149  -5167800.41149  22645054.1184   22645057.8854   22645054.6874
       228.0004        171.0004
 -17451664.52649 -13332225.39249  21197716.7934   21197720.7814   21197716.6144
       234.0004        183.0004
 -21532973.18449 -16766292.37849  20616242.7544   20616247.2304   20616242.9344
       240.0004        203.0004
 11 10 14  9  1  0.0000000  0  8G31G25G04G12G14G02G30G29
 -16184472.95349 -12598512.15849  21861095.3224   21861099.9404   21861096.2874
       234.0004        186.0004
 -23716959.49449 -18205597.59949  20320213.0714   20320219.9144   20320213.0434
       251.0004        212.0004
   6586741.40859    144335.15659  24893671.2804
       167.0004        110.0004
 -15435020.02449 -12004274.75249  22025323.0714   22025327.6424   22025323.6404
       235.0004        184.0004
  -5262063.78949  -4078159.49149  23295618.6594   23295624.9664   23295618.0044
       212.0004        147.0004
  -7094848.68249  -5155805.42949  22647983.6054   22647987.8614   22647984.3094
       228.0004        172.0004
 -17524070.64549 -13388645.73949  21183938.1304   21183942.6844   21183937.7394
       234.0004        183.0004
 -21580474.03049 -16803305.99949  20607204.0644   20607208.2654   20607204.5994
       241.0004        203.0004
 11 10 14  9  1 30.0000000  0  7G31G25G12G14G02G30G29
 -16249337.94649 -12649056.31249  21848753.0604   21848757.6444   21848753.6904
       235.0004        188.0004
 -23694160.12349 -18187831.89549  20324552.0224   20324558.5464   20324551.7194
       251.0004        212.0004
 -15359426.97349 -11945371.15249  22039708.1834   22039712.9264   22039707.8494
       235.0004        183.0004
  -5173764.67249  -4009355.13749  23312422.1754   23312426.7874   23312422.0324
       214.0004        147.0004
  -7078894.54449  -5143373.71149  22651021.1354   22651024.0754   22651020.0774
       229.0004        171.0004
 -17596174.60949 -13444830.65149  21170217.0054   21170223.1164   21170217.2844
       234.0004        184.0004
 -21627497.59249 -16839947.71649  20598256.0584   20598260.3264   20598255.8544
       241.0004        204.0004
 11 10 14  9  2  0.0000000  0  8G31G25G04G12G14G02G30G29
 -16313804.92249 -12699290.30649  21836485.5734   21836489.7354   21836485.7494
       236.0004        189.0004
 -23670980.74349 -18169770.06849  20328962.7104   20328969.4544   20328962.4444
       250.0004        212.0004
   6766647.50859     69636.72459  24927910.2844
       179.0004         99.0004
 -15283611.17049 -11886293.98149  22054134.8044   22054140.1004   22054134.9994
       234.0004        183.0004
  -5085174.70349  -3940324.11649  23329281.2894   23329286.1614   23329278.5994
       215.0004        147.0004
  -7062380.06149  -5130505.35449  22654162.5554   22654166.9314   22654162.2534
       228.0004        171.0004
 -17667974.91549 -13500778.92549  21156554.5544   21156559.9234   21156553.6564
       235.0004        184.0004
 -21674042.92449 -16876216.78549  20589397.6534   20589403.1324   20589398.4864
       240.0004        203.0004
 11 10 14  9  2 30.0000000  0  8G31G25G04G12G14G02G30G29
 -16377872.69549 -12749213.24549  21824293.6454   21824297.8714   21824294.2844
       236.0004        188.0004
 -23647422.66649 -18151413.15749  20333445.6034   20333452.4044   20333445.6374
       251.0004        212.0004
   6857121.27649    140159.81149  24945128.0474
       175.0004        108.0004
 -15207574.19649 -11827044.47549  22068603.9694   22068609.6614   22068603.7944
       234.0004        182.0004
  -4996298.15749  -3871069.82449  23346192.8684   23346198.9574   23346192.0474
       212.0004        146.0004
  -7045306.87949  -5117201.65749  22657410.3104   22657415.3864   22657410.6884
       227.0004        171.0004
 -17739471.08749 -13556490.22549  21142948.5134   21142954.1994   21142949.1044
       234.0004        185.0004
 -21720110.59449 -16912113.64749  20580632.1834   20580636.5714   20580632.0144
       241.0004        203.0004
 11 10 14  9  3  0.0000000  0  8G31G25G04G12G14G02G30G29
 -16441538.45149 -12798822.92549  21812178.9704   21812181.8394   21812178.9544
       237.0004        187.0004
 -23623485.37849 -18132760.75249  20338001.5584   20338007.5164   20338000.8454
       251.0004        212.0004
   6947938.33849    210950.40949  24962406.4204
       174.0004        110.0004
 -15131316.56149 -11767623.01449  22083116.1254   22083121.0794   22083116.3044
       234.0004        181.0004
  -4907137.53049  -3801594.15449  23363160.6564   23363164.4444   23363159.4354
       211.0004        146.0004
  -7027674.70149  -5103462.37449  22660766.7794   22660770.7494   22660766.7714
       227.0004        171.0004
 -17810660.94249 -13611962.83549  21129402.4374   21129407.2974   21129401.7234
       236.0004        184.0004
 -21765699.09849 -16947637.13949  20571955.2324   20571961.1534   20571956.1884
       240.0004        203.0004
 11 10 14  9  3 30.0000000  0  8G31G25G04G12G14G02G30G29
 -16504799.53349 -12848117.27149  21800141.1424   21800144.6144   21800140.4934
       237.0004        188.0004
 -23599168.87749 -18113812.86349  20342628.3294   20342634.9224   20342627.9504
       251.0004        211.0004
   7039096.54249     64545.34749  24979755.4254
       181.0004         91.0004
 -15054838.64049 -11708029.90649  22097668.7694   22097674.9074   22097669.2214
       233.0004        182.0004
  -4817695.77249  -3731899.43549  23380178.4074   23380185.9554   23380179.7364
       208.0004        145.0004
  -7009483.80649  -5089287.74649  22664228.9164   22664232.9604   22664228.2314
       228.0004        172.0004
 -17881542.73549 -13667195.39649  21115913.6414   21115918.4064   21115913.5324
       235.0004        184.0004
 -21810807.61449 -16982786.61449  20563372.5954   20563377.5054   20563372.7684
       241.0004        204.0004
 11 10 14  9  4  0.0000000  0  8G31G25G04G12G14G02G30G29
 -16567654.13449 -12897094.87649  21788179.4854   21788183.9974   21788180.1044
       237.0004        189.0004
 -23574473.29549 -18094569.57849  20347327.7434   20347334.3804   20347327.7004
       251.0004        211.0004
   7130593.04249    135877.23549  24997168.2114
       187.0004        109.0004
 -14978141.45349 -11648265.95449  22112265.1674   22112269.9884   22112264.9504
       233.0004        183.0004
  -4727975.70749  -3661987.80549  23397252.3154   23397259.0804   23397251.3874
       213.0004        146.0004
  -6990734.51949  -5074677.98649  22667796.7754   22667800.0264   22667795.7974
       229.0004        171.0004
 -17952114.79949 -13722186.60149  21102483.4084   21102489.0624   21102483.0034
       235.0004        184.0004
 -21855435.56149 -17017561.63249  20554880.0614   20554884.9674   20554880.3384
       241.0004        204.0004
 11 10 14  9  4 30.0000000  0  8G31G25G04G12G14G02G30G29
 -16630100.39749 -12945754.28749  21776296.7114   21776300.2114   21776296.7994
       237.0004        189.0004
 -23549399.28249 -18075031.41349  20352099.0784   20352105.6574   20352098.7274
       250.0004        211.0004
   7222424.86349    207470.40049  25014641.5304
       184.0004        109.0004
 -14901226.03049 -11588331.93949  22126900.1384   22126906.7094   22126901.2774
       233.0004        184.0004
  -4637981.05349  -3591862.24949  23414377.0374   23414385.3934   23414378.1944
       212.0004        146.0004
  -6971427.79749  -5059633.89149  22671469.8354   22671474.6384   22671470.5294
       228.0004        172.0004
 -18022376.13249 -13776935.68249  21089114.2454   21089119.4594   21089113.7934
       237.0004        185.0004
 -21899582.67249 -17051961.96149  20546478.6114   20546483.9494   20546479.4914
       241.0004        204.0004
 11 10 14  9  5  0.0000000  0  8G31G25G04G12G14G02G30G29
 -16692136.16049 -12994093.83949  21764491.9454   21764495.4454   21764492.1634
       238.0004        189.0004
 -23523946.87849 -18055198.39549  20356942.5614   20356949.3684   20356942.3874
       251.0004        211.0004
   7314589.39149     59243.17049  25032180.6464
       186.0004         74.0004
 -14824092.90149 -11528228.28749  22141579.1124   22141584.0974   22141579.1354
       233.0004        182.0004
  -4547714.42349  -3521524.74949  23431556.5434   23431561.8484   23431555.5264
       213.0004        146.0004
  -6951564.35049  -5044155.94849  22675250.1464   22675254.9324   22675250.2714
       228.0004        172.0004
 -18092325.07449 -13831441.34249  21075803.5544   21075808.4294   21075802.9874
       237.0004        186.0004
 -21943248.35649 -17085987.14549  20538170.1274   20538174.8364   20538170.2244
       242.0004        204.0004
 11 10 14  9  5 30.0000000  0  8G31G25G04G12G14G02G30G29
 -16753759.50049 -13042112.04449  21752765.1794   21752768.5654   21752765.6404
       237.0004        189.0004
 -23498116.81649 -18035071.10549  20361858.5334   20361864.4784   20361858.1124
       251.0004        211.0004
   7407083.44449    131229.52649  25049784.7444
       190.0004        109.0004
 -14746743.69749 -11467956.28049  22156297.3604   22156303.1804   22156297.8254
       230.0004        180.0004
  -4457179.55849  -3450978.23049  23448784.0404   23448791.0654   23448782.9344
       210.0004        145.0004
  -6931144.99249  -5028244.84549  22679136.6284   22679140.1614   22679136.0464
       230.0004        173.0004
 -18161960.47049 -13885702.69249  21062551.8234   21062556.9054   21062551.4174
       236.0004        185.0004
 -21986432.28049 -17119636.95149  20529952.5694   20529957.1304   20529953.1704
       242.0004        205.0004
 11 10 14  9  6  0.0000000  0  8G31G25G04G12G14G02G30G29
 -16814967.30549 -13089806.43449  21741116.6634   21741121.6134   21741117.2784
       236.0004        189.0004
 -23471908.28049 -18014648.88749  20366844.8914   20366851.8774   20366844.6344
       250.0004        211.0004
   7499905.02949    203469.57249  25067447.1474
       184.0004        111.0004
 -14669178.13549 -11407515.66349  22171057.5894   22171064.1344   22171058.4854
       231.0004        179.0004
  -4366378.53049  -3380224.31849  23466061.7134   23466069.6864   23466062.7664
       210.0004        145.0004
  -6910169.28649  -5011900.20849  22683128.2594   22683133.1404   22683128.3854
       229.0004        173.0004
 -18231279.90349 -13939717.82149  21049360.4814   21049365.7024   21049359.9624
       235.0004        185.0004
 -22029132.91949 -17152910.15649  20521827.6094   20521831.5214   20521827.7244
       243.0004        206.0004
 11 10 14  9  6 30.0000000  0  8G31G25G04G12G14G02G30G29
 -16875758.48649 -13137176.17249  21729549.1674   21729553.8314   21729549.7194
       237.0004        191.0004
 -23445322.35949 -17993932.60649  20371903.9184   20371910.8214   20371904.2234
       250.0004        211.0004
   7593050.62259     53914.76859  25085169.3684
       170.0004         74.0004
 -14591397.96149 -11346907.83149  22185859.8534   22185865.0474   22185860.2534
       232.0004        179.0004
  -4275315.39849  -3309266.18449  23483392.4254   23483398.2814   23483391.6424
       213.0004        146.0004
  -6888638.56649  -4995123.09049  22687225.2854   22687229.4854   22687224.9114
       230.0004        172.0004
 -18300282.64449 -13993486.17749  21036229.2914   21036235.1134   21036229.2784
       236.0004        185.0004
 -22071350.69749 -17185807.10349  20513793.0854   20513797.9054   20513793.4204
       242.0004        206.0004
 11 10 14  9  7  0.0000000  0  8G31G25G04G12G14G02G30G29
 -16936131.05749 -13184219.74749  21718061.4064   21718064.4364   21718061.3434
       236.0004        189.0004
 -23418359.34049 -17972922.47749  20377034.9504   20377041.8454   20377034.7104
       250.0004        211.0004
   7686517.64259    126745.37359  25102954.2934
       177.0004        110.0004
 -14513404.03749 -11286133.42049  22200700.4074   22200706.5284   22200700.8354
       231.0004        178.0004
  -4183993.10049  -3238106.07849  23500770.6624   23500776.5284   23500771.0294
       215.0004        145.0004
  -6866553.49949  -4977913.99049  22691427.7864   22691431.3734   22691427.3424
       229.0004        171.0004
 -18368967.22449 -14047006.61849  21023160.3674   21023165.3374   21023159.7714
       238.0004        186.0004
 -22113084.90749 -17218327.25349  20505851.8134   20505855.8034   20505852.4034
       243.0004        206.0004
 11 10 14  9  7 30.0000000  0  8G31G25G04G12G14G02G30G29
 -16996082.48049 -13230935.14649  21706652.4444   21706655.8414   21706652.5264
       237.0004        188.0004
 -23391018.99249 -17951618.33149  20382237.5144   20382244.5014   20382237.4324
       250.0004        211.0004
   7780303.46149    199824.49249  25120806.7854
       179.0004        107.0004
 -14435196.14849 -11225192.30049  22215585.0954   22215589.0974   22215584.8324
       234.0004        178.0004
  -4092414.50449  -3166746.25549  23518196.8924   23518204.0284   23518195.4634
       211.0004        145.0004
  -6843914.28749  -4960273.10949  22695736.2964   22695739.6174   22695736.5644
       229.0004        171.0004
 -18437331.61249 -14100277.56449  21010152.4074   21010154.7934   21010150.5544
       238.0004        186.0004
 -22154334.76649 -17250469.97449  20498002.9354   20498006.2714   20498002.5114
       244.0004        206.0004
 11 10 14  9  8  0.0000000  0  8G31G25G04G12G14G02G30G29
 -17055610.99049 -13277321.00349  21695324.1584   21695329.0264   21695325.0914
       236.0004        190.0004
 -23363302.01549 -17930020.72349  20387512.0414   20387518.8604   20387511.9864
       250.0004        210.0004
   7874405.03659     48287.27159  25138708.3294
       171.0004         74.0004
 -14356776.21049 -11164085.93749  22230506.4574   22230511.2794   22230507.1314
       232.0004        178.0004
  -4000582.91649  -3095189.28949  23535672.2144   23535678.9394   23535672.5874
       213.0004        146.0004
  -6820722.06749  -4942201.29449  22700149.5594   22700152.9464   22700149.6194
       227.0004        171.0004
 -18505374.76249 -14153298.19249  20997202.7674   20997207.2654   20997202.2364
       238.0004        186.0004
 -22195100.17949 -17282235.22549  20490244.0234   20490249.1564   20490245.0664
       243.0004        206.0004
 11 10 14  9  8 30.0000000  0  7G31G25G12G14G02G30G29
 -17114714.22349 -13323375.46449  21684077.2594   21684081.8754   21684077.9624
       236.0004        190.0004
 -23335208.23549 -17908129.49249  20392858.3514   20392864.9394   20392858.2844
       251.0004        211.0004
 -14278144.39849 -11102814.48549  22245470.3944   22245475.0834   22245469.8934
       233.0004        178.0004
  -3908501.39649  -3023437.58749  23553193.6954   23553201.1834   23553193.5784
       210.0004        141.0004
  -6796976.80849  -4923698.53449  22704667.2864   22704672.0504   22704667.1564
       228.0004        172.0004
 -18573094.77349 -14206067.03249  20984315.3184   20984320.6994   20984315.1794
       237.0004        185.0004
 -22235380.22149 -17313622.24849  20482579.5394   20482583.7384   20482579.5684
       243.0004        206.0004
 11 10 14  9  9  0.0000000  0  7G31G25G12G14G02G30G29
 -17173390.43349 -13369097.20749  21672912.7374   21672915.3924   21672912.1734
       238.0004        190.0004
 -23306738.38149 -17885945.21849  20398275.7654   20398282.9264   20398275.7134
       251.0004        211.0004
 -14199302.29149 -11041379.17549  22260472.6274   22260478.9084   22260473.6624
       231.0004        178.0004
  -3816173.15649  -2951493.63749  23570764.8294   23570770.8194   23570764.0674
       211.0004        140.0004
  -6772680.15649  -4904766.12249  22709292.2154   22709295.7514   22709292.2164
       230.0004        172.0004
 -18640490.59649 -14258583.24649  20971490.9244   20971496.0054   20971490.2164
       238.0004        186.0004
 -22275174.87749 -17344631.05349  20475006.3564   20475010.9694   20475006.6234
       242.0004        206.0004
 11 10 14  9  9 30.0000000  0  7G31G25G12G14G02G30G29
 -17231637.59649 -13414484.59349  21661826.4264   21661831.6334   21661827.6294
       234.0004        189.0004
 -23277892.59549 -17863468.00149  20403764.5234   20403772.0834   20403764.5644
       250.0004        211.0004
 -14120250.21249 -10979780.24649  22275515.6744   22275521.2724   22275515.7184
       230.0004        177.0004
  -3723601.40549  -2879359.92249  23588382.6084   23588386.5734   23588379.7194
       210.0004        142.0004
  -6747832.50449  -4885404.32949  22714019.7104   22714023.3284   22714019.6344
       231.0004        174.0004
 -18707560.51649 -14310845.50749  20958727.4954   20958732.5214   20958726.6264
       237.0004        187.0004
 -22314483.50549 -17375261.13749  20467526.5224   20467530.6564   20467527.0434
       243.0004        206.0004
 11 10 14  9 10  0.0000000  0  7G31G25G12G14G02G30G29
 -17289453.11449 -13459535.64549  21650826.6794   21650829.6154   21650826.5544
       238.0004        191.0004
 -23248670.88749 -17840697.86849  20409325.8324   20409332.6124   20409325.8384
       251.0004        211.0004
 -14040988.78649 -10918018.19449  22290599.2124   22290605.0784   22290599.4414
       231.0004        178.0004
  -3630788.98049  -2807038.65749  23606044.9204   23606047.5214   23606041.5484
       211.0004        143.0004
  -6722434.38649  -4865613.59649  22718852.8504   22718856.5534   22718852.5374
       229.0004        172.0004
 -18774302.84249 -14362852.50049  20946026.8334   20946031.7804   20946026.3624
       237.0004        186.0004
 -22353305.60849 -17405512.10149  20460139.5194   20460143.1574   20460138.6274
       242.0004        206.0004
 11 10 14  9 10 30.0000000  0  7G31G25G12G14G02G30G29
 -17346835.66849 -13504249.33949  21639906.9254   21639909.9844   21639906.5684
       236.0004        190.0004
 -23219074.26549 -17817635.59249  20414958.0004   20414964.8014   20414957.8454
       251.0004        211.0004
 -13961519.70849 -10856094.33649  22305721.2194   22305727.4704   22305722.2264
       231.0004        177.0004
  -3537739.77949  -2734532.90449  23623749.1334   23623754.5634   23623748.9624
       210.0004        142.0004
  -6696487.17149  -4845395.01749  22723790.2674   22723794.6144   22723790.1284
       229.0004        173.0004
 -18840716.71849 -14414603.57049  20933389.0784   20933393.5334   20933389.0384
       238.0004        186.0004
 -22391641.50049 -17435384.21749  20452842.7904   20452847.8714   20452843.7504
       241.0004        206.0004
 11 10 14  9 11  0.0000000  0  7G31G25G12G14G02G30G29
 -17403782.10949 -13548623.17549  21629069.3064   21629072.9444   21629069.8454
       237.0004        189.0004
 -23189101.71749 -17794280.37949  20420661.6394   20420668.2174   20420661.7034
       251.0004        211.0004
 -13881842.50849 -10794008.30449  22320884.5314   22320889.4974   22320884.6994
       232.0004        176.0004
  -3444455.72149  -2661844.11649  23641501.3324   23641508.1114   23641500.2344
       211.0004        143.0004
  -6669990.55049  -4824748.30149  22728832.5504   22728836.7964   22728833.2434
       227.0004        171.0004
 -18906799.39049 -14466096.55349  20920813.4874   20920818.7214   20920813.3014
       238.0004        186.0004
 -22429489.13849 -17464875.85549  20445642.3844   20445645.8244   20445642.0994
       244.0004        207.0004
 11 10 14  9 11 30.0000000  0  7G31G25G12G14G02G30G29
 -17460291.60949 -13592656.56549  21618316.7524   21618320.0494   21618317.1134
       236.0004        190.0004
 -23158754.89149 -17770633.52649  20426436.1174   20426443.3584   20426435.8934
       251.0004        211.0004
 -13801959.31649 -10731761.76249  22336085.2154   22336090.9954   22336085.5424
       231.0004        176.0004
  -3350941.39649  -2588975.93749  23659295.3004   23659301.0114   23659295.3784
       207.0004        143.0004
  -6642946.85549  -4803675.29749  22733978.3984   22733983.0064   22733978.4924
       229.0004        171.0004
 -18972550.63949 -14517331.28649  20908301.4274   20908306.3774   20908301.0074
       237.0004        185.0004
 -22466849.63149 -17493987.91349  20438531.4574   20438536.5894   20438532.1584
       242.0004        207.0004
 11 10 14  9 12  0.0000000  0  7G31G25G12G14G02G30G29
 -17516361.06949 -13636347.04949  21607646.0094   21607650.9154   21607646.7514
       235.0004        191.0004
 -23128032.83949 -17746694.29349  20432283.0894   20432289.3384   20432282.7924
       251.0004        210.0004
 -13721869.84549 -10669354.48249  22351326.1754   22351331.3584   22351326.3824
       231.0004        176.0004
  -3257198.34849  -2515929.52249  23677137.9064   23677140.9764   23677136.7944
       214.0004        141.0004
  -6615355.50849  -4782175.55249  22739230.2964   22739232.8124   22739229.6814
       229.0004        171.0004
 -19037967.74849 -14568305.64849  20895852.7374   20895858.3674   20895852.5874
       237.0004        186.0004
 -22503721.57849 -17522719.28349  20431515.7314   20431519.9804   20431515.9814
       243.0004        207.0004
 11 10 14  9 12 30.0000000  0  7G31G25G12G14G02G30G29
 -17571989.76149 -13679694.06849  21597060.4234   21597065.7604   21597061.6974
       237.0004        192.0004
 -23096936.90449 -17722463.72449  20438200.4354   20438206.6264   20438199.9634
       251.0004        210.0004
 -13641575.88749 -10606787.85749  22366605.9364   22366612.0094   22366605.6644
       232.0004        177.0004
  -3163230.98049  -2442708.30049  23695014.5214   23695022.7344   23695016.0334
       206.0004        139.0004
  -6587218.25749  -4760250.44049  22744582.8424   22744588.5304   22744584.0064
       227.0004        171.0004
 -19103050.23249 -14619019.26349  20883468.2544   20883473.7384   20883467.8834
       238.0004        187.0004
 -22540105.40949 -17551070.29949  20424592.0544   20424596.2074   20424592.2354
       242.0004        207.0004
 11 10 14  9 13  0.0000000  0  7G31G25G12G14G02G30G29
 -17627174.68349 -13722695.30449  21586559.1634   21586563.2664   21586560.1784
       237.0004        190.0004
 -23065466.58149 -17697941.41549  20444188.5334   20444195.4824   20444188.3884
       251.0004        210.0004
 -13561077.19249 -10544061.70549  22381923.5604   22381930.1824   22381924.4354
       230.0004        176.0004
  -3069041.45349  -2369313.97849  23712942.0754   23712945.7824   23712941.9014
       213.0004        141.0004
  -6558534.93049  -4737899.79749  22750042.2274   22750046.1834   22750042.4224
       228.0004        171.0004
 -19167795.76849 -14669470.32949  20871148.0794   20871152.9764   20871147.4434
       239.0004        187.0004
 -22576000.16949 -17579040.22349  20417761.1344   20417765.8544   20417761.8654
       242.0004        208.0004
 11 10 14  9 13 30.0000000  0  7G31G25G12G14G02G30G29
 -17681914.65749 -13765349.83849  21576143.3554   21576146.4174   21576143.6654
       237.0004        191.0004
 -23033623.06249 -17673128.30749  20450248.1224   20450255.2224   20450248.1104
       250.0004        210.0004
 -13480375.79049 -10481177.61749  22397281.1634   22397287.0774   22397281.1184
       229.0004        177.0004
  -2974634.04449  -2295749.87149  23730904.8664   23730912.0754   23730904.3034
       211.0004        141.0004
  -6529307.66749  -4715125.31949  22755603.4974   22755607.4474   22755604.0064
       227.0004        172.0004
 -19232203.74349 -14719658.35049  20858891.5824   20858896.0854   20858890.9234
       239.0004        188.0004
 -22611406.42549 -17606629.48949  20411023.9844   20411028.3924   20411024.0024
       242.0004        208.0004
 11 10 14  9 14  0.0000000  0  7G31G25G12G14G02G30G29
 -17736206.62549 -13807655.27149  21565811.7554   21565815.4794   21565811.4014
       237.0004        191.0004
 -23001405.64649 -17648023.85549  20456379.0514   20456386.1394   20456378.9654
       251.0004        210.0004
 -13399471.49049 -10418135.40849  22412676.8844   22412682.0424   22412676.5234
       230.0004        176.0004
  -2880010.82549  -2222017.60849  23748911.6454   23748917.2384   23748911.0364
       210.0004        139.0004
  -6499536.64049  -4691927.11249  22761268.7164   22761272.8984   22761268.1134
       228.0004        171.0004
 -19296271.65149 -14769581.38949  20846700.0954   20846704.4414   20846699.4034
       239.0004        188.0004
 -22646322.86649 -17633837.09949  20404378.2164   20404383.4764   20404379.6054
       241.0004        207.0004
 11 10 14  9 14 30.0000000  0  7G31G25G12G14G02G30G29
 -17790049.87549 -13849611.03749  21555565.4074   21555569.8024   21555565.7084
       237.0004        193.0004
 -22968815.88749 -17622629.26749  20462580.3294   20462587.7334   20462580.5304
       250.0004        210.0004
 -13318366.32849 -10354936.68549  22428110.2654   22428115.8364   22428111.1824
       229.0004        175.0004
  -2785176.26649  -2148120.67049  23766957.5864   23766963.1014   23766956.8344
       210.0004        138.0004
  -6469223.70249  -4668306.66049  22767036.7554   22767041.0324   22767036.3514
       228.0004        170.0004
 -19359999.16349 -14819239.18149  20834571.8914   20834577.3614   20834571.6064
       238.0004        187.0004
 -22680750.17449 -17660663.55749  20397828.7384   20397832.4764   20397828.3894
       243.0004        208.0004
 11 10 14  9 15  0.0000000  0  7G31G25G12G14G02G30G29
 -17843441.34449 -13891214.78649  21545405.4404   21545409.1494   21545406.3014
       237.0004        193.0004
 -22935852.84349 -17596943.80649  20468853.8924   20468860.2754   20468853.4474
       251.0004        210.0004
 -13237059.77049 -10291581.03049  22443580.8954   22443587.8504   22443582.2124
       226.0004        173.0004
  -2690132.06649  -2074060.37249  23785045.6554   23785051.8394   23785045.8644
       209.0004        138.0004
  -6438368.59549  -4644263.71149  22772909.2924   22772913.6204   22772909.0494
       230.0004        171.0004
 -19423383.54149 -14868629.60449  20822510.8874   20822515.7084   20822511.0624
       239.0004        188.0004
 -22714686.94249 -17687107.77349  20391369.4434   20391374.2244   20391369.8034
       241.0004        207.0004
 11 10 14  9 15 30.0000000  0  7G31G25G12G14G02G30G29
 -17896380.53749 -13932466.10849  21535331.1664   21535335.2844   21535331.4424
       237.0004        192.0004
 -22902518.34049 -17570968.90249  20475196.8404   20475203.4744   20475196.5914
       250.0004        210.0004
 -13155554.15449 -10228070.26649  22459092.8574   22459097.8634   22459093.0524
       229.0004        174.0004
  -2594882.94549  -1999840.38649  23803166.3714   23803175.7054   23803167.2934
       205.0004        139.0004
  -6406973.68749  -4619800.17949  22778882.5194   22778886.7244   22778884.1774
       227.0004        171.0004
 -19486424.79849 -14917752.65749  20810515.0294   20810519.2634   20810514.5904
       240.0004        190.0004
 -22748134.47049 -17713170.77749  20385004.2134   20385009.3344   20385005.2114
       240.0004        207.0004
 11 10 14  9 16  0.0000000  0  7G31G25G12G14G02G30G29
 -17948863.19349 -13973361.68249  21525345.3174   21525348.7174   21525345.3574
       239.0004        193.0004
 -22868810.48849 -17544703.07249  20481611.3244   20481617.8714   20481611.1554
       251.0004        209.0004
 -13073848.03249 -10164403.25449  22474641.6834   22474646.8544   22474642.5534
       230.0004        175.0004
  -2499429.85249  -1925461.48049  23821331.8504   23821340.4624   23821332.9604
       204.0004        138.0004
  -6375038.16049  -4594915.37049  22784961.2754   22784963.9174   22784959.9694
       228.0004        170.0004
 -19549119.10549 -14966605.35749  20798584.5044   20798589.3014   20798584.1844
       240.0004        190.0004
 -22781090.19449 -17738850.55349  20378733.9714   20378738.1874   20378733.8694
       241.0004        207.0004
 11 10 14  9 16 30.0000000  0  7G31G25G12G14G02G30G29
 -18000889.00849 -14013901.28349  21515444.4084   21515448.0254   21515444.9914
       238.0004        194.0004
 -22834731.26349 -17518147.87049  20488096.4004   20488102.9614   20488096.0644
       250.0004        209.0004
 -12991944.05549 -10100582.07649  22490227.0474   22490233.0894   22490227.5034
       230.0004        177.0004
  -2403777.53949  -1850927.36449  23839534.6574   23839542.2674   23839534.7044
       203.0004        138.0004
  -6342564.37149  -4569611.16049  22791139.4774   22791143.4024   22791140.3364
       229.0004        169.0004
 -19611466.63949 -15015187.85049  20786720.2134   20786725.2194   20786719.6734
       241.0004        190.0004
 -22813555.66549 -17764148.32549  20372555.0304   20372560.2224   20372556.0974
       241.0004        207.0004
 11 10 14  9 17  0.0000000  0  7G31G25G12G14G02G30G29
 -18052456.07349 -14054083.41049  21505629.9234   21505634.5384   21505630.8904
       237.0004        192.0004
 -22800280.81349 -17491303.38849  20494651.5384   20494658.8614   20494651.8024
       250.0004        209.0004
 -12909843.08149 -10036607.40549  22505850.5594   22505856.2934   22505851.2914
       230.0004        177.0004
  -2307928.86449  -1776240.21949  23857775.4334   23857782.1754   23857774.9834
       208.0004        138.0004
  -6309552.96249  -4543887.99949  22797421.7694   22797426.1524   22797422.5964
       229.0004        169.0004
 -19673465.78649 -15063498.86149  20774921.5154   20774927.0694   20774921.0174
       239.0004        190.0004
 -22845530.22249 -17789063.55949  20366471.9534   20366475.2964   20366472.2324
       242.0004        208.0004
 11 10 14  9 17 30.0000000  0  7G31G25G12G14G02G30G29
 -18103561.77049 -14093906.03749  21495905.4924   21495909.6274   21495906.5774
       238.0004        193.0004
 -22765459.02749 -17464169.56249  20501278.1094   20501285.8414   20501278.0694
       250.0004        209.0004
 -12827545.07349  -9972479.19049  22521510.8984   22521516.6914   22521511.2554
       231.0004        177.0004
  -2211886.92649  -1701402.46749  23876050.4674   23876059.1164   23876050.6294
       209.0004        138.0004
  -6276004.64949  -4517746.48249  22803804.2584   22803809.9434   22803805.7774
       226.0004        168.0004
 -19735114.53249 -15111536.83749  20763190.2864   20763195.7304   20763189.9494
       241.0004        190.0004
 -22877013.37049 -17813595.88149  20360479.6004   20360484.5564   20360480.0894
       240.0004        208.0004
 11 10 14  9 18  0.0000000  0  7G31G25G12G14G02G30G29
 -18154204.60049 -14133367.98749  21486269.4894   21486273.0944   21486269.4454
       239.0004        193.0004
 -22730266.63949 -17436746.95249  20507974.4994   20507982.5274   20507975.0054
       249.0004        209.0004
 -12745051.19549  -9908198.35949  22537210.2904   22537214.8454   22537210.5424
       230.0004        175.0004
  -2115655.26249  -1626416.88049  23894364.1724   23894372.6434   23894362.7354
       209.0004        138.0004
  -6241920.98049  -4491187.81449  22810292.6184   22810296.3814   22810292.4314
       229.0004        170.0004
 -19796411.65049 -15159300.82049  20751526.2284   20751530.6654   20751525.5074
       241.0004        189.0004
 -22908005.28249 -17837745.43849  20354582.6234   20354587.2634   20354583.4464
       241.0004        208.0004
 11 10 14  9 18 30.0000000  0  7G31G25G12G14G02G30G29
 -18204382.02949 -14172467.27349  21476719.6304   21476725.0694   21476720.7554
       237.0004        193.0004
 -22694703.35349 -17409035.32849  20514742.3634   20514749.9224   20514742.4964
       249.0004        209.0004
 -12662362.22349  -9843765.51649  22552943.7744   22552949.5094   22552943.9924
       226.0004        172.0004
  -2019236.11149  -1551285.17849  23912711.9134   23912720.1114   23912707.8634
       207.0004        139.0004
  -6207302.59249  -4464212.48549  22816878.7054   22816882.4874   22816879.8284
       228.0004        169.0004
 -19857355.08149 -15206789.21449  20739929.5264   20739933.5074   20739929.1674
       241.0004        190.0004
 -22938505.04549 -17861511.47949  20348779.7154   20348783.1414   20348779.2074
       242.0004        209.0004
 11 10 14  9 19  0.0000000  0  7G31G25G12G14G02G30G29
 -18254094.06349 -14211203.92249  21467260.9044   21467264.4444   21467260.6634
       238.0004        192.0004
 -22658771.18949 -17381036.26549  20521580.4174   20521587.3064   20521579.8994
       249.0004        209.0004
 -12579480.12149  -9779182.17749  22568716.1274   22568722.0854   22568716.9114
       229.0004        172.0004
  -1922634.08449  -1476011.01449  23931094.0744   23931101.9274   23931095.2984
       207.0004        138.0004
  -6172152.06049  -4436822.48949  22823568.2534   22823573.0094   22823568.3604
       227.0004        170.0004
 -19917944.90849 -15254002.07049  20728399.5954   20728403.6494   20728398.6704
       241.0004        189.0004
 -22968514.24849 -17884895.27849  20343066.7824   20343072.3134   20343068.6724
       240.0004        209.0004
 11 10 14  9 19 30.0000000  0  7G31G25G12G14G02G30G29
 -18303336.89349 -14249574.97049  21457890.8244   21457893.6994   21457891.0284
       240.0004        193.0004
 -22622468.62749 -17352748.58349  20528488.4044   20528495.4724   20528488.3824
       249.0004        208.0004
 -12496404.04449  -9714447.69849  22584526.4424   22584531.2344   22584526.2504
       229.0004        172.0004
  -1825850.72849  -1400595.53349  23949510.1754   23949517.4724   23949510.3344
       202.0004        137.0004
  -6136468.73649  -4409017.36349  22830358.8544   22830363.3414   22830358.9374
       229.0004        169.0004
 -19978177.88049 -15300936.84649  20716936.6304   20716941.9094   20716936.3904
       238.0004        190.0004
 -22998031.00549 -17907895.33749  20337452.6054   20337455.6964   20337452.3384
       243.0004        210.0004
 11 10 14  9 20  0.0000000  0  7G31G25G12G14G02G30G29
 -18352109.47149 -14287579.59449  21448608.9494   21448612.4214   21448609.3154
       238.0004        192.0004
 -22585796.91649 -17324173.25149  20535466.7404   20535473.8884   20535466.4584
       249.0004        208.0004
 -12413135.52349  -9649563.23749  22600370.2684   22600376.7664   22600371.5874
       227.0004        171.0004
  -1728890.18449  -1325041.96349  23967961.4804   23967971.7874   23967963.3454
       205.0004        136.0004
  -6100254.60049  -4380798.59949  22837250.2614   22837253.8934   22837250.7984
       228.0004        169.0004
 -20038053.16749 -15347592.90549  20705542.8634   20705548.4814   20705542.5834
       240.0004        190.0004
 -23027055.90749 -17930512.13949  20331927.7234   20331932.7524   20331928.3194
       241.0004        209.0004
 11 10 14  9 20 30.0000000  0  7G31G25G12G14G02G30G29
 -18400409.54349 -14325215.99849  21439417.2804   21439422.2174   21439417.4384
       238.0004        193.0004
 -22548756.33649 -17295310.48949  20542515.6484   20542522.6204   20542515.4154
       249.0004        208.0004
 -12329675.59249  -9584529.62749  22616253.6064   22616259.3664   22616252.8674
       227.0004        172.0004
  -1631755.37449  -1249352.64149  23986446.7034   23986453.9994   23986444.9174
       206.0004        135.0004
  -6063510.73849  -4352167.05349  22844242.3204   22844246.4054   22844241.7434
       227.0004        167.0004
 -20097569.35649 -15393969.15949  20694217.4574   20694223.2734   20694217.7714
       240.0004        191.0004
 -23055588.68649 -17952745.47549  20326498.8554   20326503.3674   20326499.3444
       243.0004        210.0004
 11 10 14  9 21  0.0000000  0  7G31G25G12G14G02G30G29
 -18448235.20549 -14362482.75649  21430316.7244   21430320.6804   21430317.6484
       239.0004        192.0004
 -22511346.88249 -17266160.29449  20549634.0284   20549641.6474   20549634.0604
       249.0004        208.0004
 -12246024.19449  -9519346.83449  22632170.9714   22632177.8734   22632172.2354
       226.0004        171.0004
  -1534448.93549  -1173529.57349  24004962.2864   24004970.7314   24004963.4764
       203.0004        135.0004
  -6026237.77549  -4323123.22549  22851335.9844   22851339.3704   22851336.3004
       227.0004        168.0004
 -20156724.47249 -15440064.04749  20682961.3614   20682965.9104   20682960.9024
       239.0004        191.0004
 -23083628.92149 -17974594.99949  20321162.6784   20321167.2004   20321162.6104
       242.0004        209.0004
 11 10 14  9 21 30.0000000  0  7G31G25G12G14G02G30G29
 -18495584.56549 -14399378.38149  21421306.8424   21421310.1214   21421306.8454
       238.0004        193.0004
 -22473568.97949 -17236723.00149  20556822.8514   20556830.4514   20556823.3614
       249.0004        209.0004
 -12162182.61549  -9454015.86549  22648126.5774   22648132.3374   22648126.1574
       227.0004        172.0004
  -1436974.24549  -1097575.38149  24023511.2504   24023520.5534   24023509.9344
       203.0004        137.0004
  -5988437.07549  -4293668.19849  22858527.6464   22858533.0124   22858527.3464
       227.0004        167.0004
 -20215517.10749 -15485876.48949  20671772.7524   20671777.4324   20671772.0194
       238.0004        190.0004
 -23111176.53449 -17996060.68649  20315918.4624   20315924.7454   20315920.3494
       240.0004        209.0004
 11 10 14  9 22  0.0000000  0  7G31G25G12G14G02G30G29
 -18542456.95049 -14435902.31049  21412386.8834   21412391.2774   21412387.2364
       238.0004        192.0004
 -22435423.96349 -17206999.64149  20564082.2394   20564089.2984   20564082.1094
       250.0004        208.0004
 -12078152.65949  -9388538.10649  22664116.1544   22664122.7014   22664116.8504
       225.0004        171.0004
  -1339335.32249  -1021493.24849  24042093.5344   24042101.5124   24042093.9594
       206.0004        136.0004
  -5950110.89749  -4263803.68549  22865821.4254   22865826.2794   22865820.9024
       225.0004        168.0004
 -20273946.62349 -15531405.97549  20660654.3774   20660658.9074   20660654.2344
       239.0004        191.0004
 -23138232.46049 -18017143.22149  20310772.2014   20310776.3144   20310772.4614
       243.0004        210.0004
 11 10 14  9 22 30.0000000  0  7G31G25G12G14G02G30G29
 -18588849.61049 -14472052.43949  21403558.9824   21403563.4864   21403559.4144
       238.0004        193.0004
 -22396911.52349 -17176989.97849  20571410.6634   20571418.2284   20571410.7874
       250.0004        209.0004
 -11993934.13149  -9322913.38549  22680142.5854   22680148.6624   22680143.1434
       226.0004        171.0004
  -1241534.85549   -945285.22949  24060702.1664   24060711.8664   24060702.7314
       199.0004        136.0004
  -5911259.75449  -4233530.09149  22873214.3984   22873218.2874   22873213.7344
       225.0004        167.0004
 -20332010.94849 -15576650.90449  20649604.8994   20649609.7764   20649604.4514
       238.0004        191.0004
 -23164795.69049 -18037841.83849  20305716.4514   20305721.4854   20305717.3054
       242.0004        210.0004
 11 10 14  9 23  0.0000000  0  7G31G25G12G14G02G30G29
 -18634760.33149 -14507827.02749  21394822.7044   21394825.8034   21394822.7414
       238.0004        193.0004
 -22358031.65649 -17146694.01049  20578809.3464   20578816.5424   20578809.5484
       249.0004        208.0004
 -11909527.81249  -9257142.33549  22696205.6554   22696210.2234   22696205.0754
       227.0004        170.0004
  -1143575.58849   -868953.45049  24079344.3584   24079353.5424   24079343.3764
       204.0004        134.0004
  -5871884.41649  -4202848.07449  22880706.6114   22880711.8624   22880707.9134
       225.0004        168.0004
 -20389708.03749 -15621609.66849  20638625.0124   20638630.4614   20638625.0694
       238.0004        191.0004
 -23190866.09849 -18058156.42749  20300756.1364   20300760.0634   20300756.0364
       243.0004        209.0004
 11 10 14  9 23 30.0000000  0  7G31G25G12G14G02G30G29
 -18680187.93649 -14543225.15649  21386177.0854   21386180.8764   21386177.5724
       237.0004        192.0004
 -22318785.29049 -17116112.45649  20586277.6034   20586284.9564   20586277.4364
       249.0004        208.0004
 -11824935.03149  -9191226.00949  22712300.8364   22712307.9744   22712301.5454
       223.0004        169.0004
  -1045460.90449   -792500.61449  24098015.8084   24098022.4714   24098014.3914
       205.0004        134.0004
  -5831986.99949  -4171759.22349  22888300.1184   22888303.6364   22888298.2854
       226.0004        167.0004
 -20447037.08249 -15666281.63849  20627716.2714   20627721.5694   20627715.6414
       239.0004        192.0004
 -23216444.11649 -18078087.34849  20295887.4224   20295893.3884   20295888.3654
       241.0004        210.0004
 11 10 14  9 24  0.0000000  0  7G31G25G12G14G02G30G29
 -18725130.86149 -14578245.61549  21377625.1404   21377629.3854   21377625.4814
       238.0004        193.0004
 -22279172.96549 -17085245.74449  20593815.6554   20593822.9104   20593815.2844
       249.0004        208.0004
 -11740156.45449  -9125164.90449  22728435.8374   22728441.6614   22728435.3614
       226.0004        169.0004
   -947194.21149   -715929.30449  24116717.5504   24116722.3664   24116716.3264
       205.0004        135.0004
  -5791568.56649  -4140264.39249  22895991.5774   22895995.2884   22895991.9224
       227.0004        170.0004
 -20503996.62249 -15710665.70049  20616877.1734   20616882.0294   20616876.5954
       239.0004        192.0004
 -23241529.80949 -18097634.64749  20291114.5144   20291119.4484   20291115.5864
       242.0004        210.0004
 11 10 14  9 24 30.0000000  0  7G31G25G12G14G02G30G29
 -18769586.61849 -14612886.45949  21369165.5034   21369170.3304   21369166.0934
       237.0004        194.0004
 -22239194.53849 -17054093.75349  20601423.2964   20601430.7964   20601422.7784
       248.0004        208.0004
 -11655192.62149  -9058959.45249  22744604.0384   22744609.8424   22744604.3484
       225.0004        170.0004
   -848778.15449   -639241.61849  24135443.1904   24135452.5854   24135442.6334
       202.0004        134.0004
  -5750630.13249  -4108364.34649  22903781.4554   22903785.6534   22903780.8144
       226.0004        167.0004
 -20560584.61449 -15754760.23849  20606108.7534   20606113.5164   20606108.4374
       240.0004        192.0004
 -23266122.79949 -18116798.01049  20286435.1704   20286439.2144   20286435.7754
       243.0004        211.0004
 11 10 14  9 25  0.0000000  0  8G31G25G21G12G14G02G30G29
 -18813554.01949 -14647146.77349  21360798.5294   21360802.9294   21360799.0834
       238.0004        193.0004
 -22198850.77249 -17022657.10749  20609100.0964   20609107.7724   20609100.5564
       248.0004        208.0004
    -90191.97049    -53189.94749  25207202.4734
       206.0004         74.0004
 -11570044.51049  -8992610.41249  22760806.6834   22760813.1094   22760806.8044
       227.0004        170.0004
   -750216.38749   -562440.42749  24154200.4264   24154206.9404   24154200.0734
       203.0004        136.0004
  -5709173.01049  -4076060.16149  22911669.4314   22911674.8874   22911670.0684
       225.0004        167.0004
 -20616799.98949 -15798564.42749  20595411.3734   20595415.9404   20595410.7324
       239.0004        193.0004
 -23290223.29849 -18135577.62249  20281849.3964   20281853.2744   20281849.8614
       243.0004        211.0004
 11 10 14  9 25 30.0000000  0  7G31G25G12G14G02G30G29
 -18857031.46249 -14681025.29649  21352525.5314   21352529.1324   21352525.9044
       238.0004        192.0004
 -22158142.38449 -16990936.32149  20616846.7124   20616854.2764   20616846.7544
       249.0004        208.0004
 -11484713.66549  -8926118.97249  22777045.5064   22777050.7494   22777046.1224
       227.0004        169.0004
   -651512.18449   -485528.22649  24172983.4144   24172989.8844   24172983.5644
       204.0004        134.0004
  -5667199.19549  -4043353.33649  22919659.6304   22919661.9624   22919659.2814
       227.0004        167.0004
 -20672641.44349 -15842077.24549  20584785.0384   20584789.8854   20584784.9574
       240.0004        193.0004
 -23313831.54749 -18153973.64949  20277356.6914   20277360.8194   20277356.9844
       244.0004        211.0004
 11 10 14  9 26  0.0000000  0  8G31G25G21G12G14G02G30G29
 -18900016.98049 -14714520.50949  21344346.1674   21344350.2044   21344346.4584
       238.0004        194.0004
 -22117069.20349 -16958931.28749  20624662.9584   20624670.2314   20624663.1114
       248.0004        207.0004
   -292255.00849   -210632.13749  25168753.9384
       204.0004        112.0004
 -11399199.93949  -8859485.03349  22793317.9054   22793324.8104   22793318.4034
       226.0004        170.0004
   -552668.10749   -408507.04149  24191793.8114   24191800.3404   24191790.9094
       204.0004        134.0004
  -5624709.28749  -4010244.37949  22927743.0614   22927747.5384   22927743.1304
       225.0004        166.0004
 -20728107.00949 -15885297.16649  20574230.3284   20574235.6154   20574230.0334
       241.0004        193.0004
 -23336947.18149 -18171985.83149  20272957.5684   20272962.0774   20272958.2414
       243.0004        211.0004
 11 10 14  9 26 30.0000000  0  7G31G25G12G14G02G30G29
 -18942508.73549 -14747630.94549  21336258.9034   21336264.3604   21336259.6524
       237.0004        194.0004
 -22075631.93149 -16926642.53849  20632548.5274   20632555.5144   20632548.4554
       249.0004        207.0004
 -11313504.58449  -8792709.56749  22809625.6024   22809631.9524   22809626.3774
       226.0004        170.0004
   -453687.51549   -331379.50249  24210625.3074   24210634.9854   24210628.2844
       202.0004        134.0004
  -5581705.09749  -3976734.66049  22935926.7714   22935930.8054   22935926.7424
       225.0004        167.0004
 -20783195.33949 -15928223.13849  20563747.4914   20563752.1084   20563747.3964
       240.0004        194.0004
 -23359570.36249 -18189614.27949  20268653.0984   20268656.9874   20268653.2984
       244.0004        211.0004
 11 10 14  9 27  0.0000000  0  7G31G25G12G14G02G30G29
 -18984504.59449 -14780354.99049  21328268.5724   21328271.9594   21328268.7294
       238.0004        194.0004
 -22033830.64549 -16894070.14349  20640503.7094   20640509.7894   20640503.3934
       249.0004        207.0004
 -11227628.05349  -8725792.91449  22825967.6174   22825973.1924   22825967.5934
       226.0004        170.0004
   -354573.22749   -254147.79949  24229488.6774   24229498.0804   24229486.7444
       201.0004        134.0004
  -5538187.74949  -3942825.08449  22944207.7094   22944212.5874   22944207.9634
       225.0004        167.0004
 -20837904.72249 -15970853.82649  20553336.9914   20553341.2574   20553336.3474
       240.0004        194.0004
 -23381700.80749 -18206858.77849  20264441.9454   20264445.8084   20264441.6964
       244.0004        212.0004
 11 10 14  9 27 30.0000000  0  7G31G25G12G14G02G30G29
 -19026003.14749 -14812691.52249  21320371.3454   21320374.9014   21320371.4564
       238.0004        194.0004
 -21991665.73049 -16861214.38949  20648526.7744   20648533.8744   20648526.8624
       248.0004        207.0004
 -11141571.08749  -8658735.65349  22842343.3554   22842349.0604   22842343.2724
       225.0004        169.0004
   -255328.35949   -176814.34749  24248375.9414   24248382.5284   24248376.0184
       203.0004        134.0004
  -5494158.52949  -3908516.65849  22952587.5574   22952591.7284   22952588.2794
       226.0004        168.0004
 -20892233.60349 -16013188.01849  20542997.8354   20543002.8604   20542997.6924
       240.0004        194.0004
 -23403338.58149 -18223719.38249  20260324.2184   20260328.2604   20260324.6244
       244.0004        212.0004
 11 10 14  9 28  0.0000000  0  7G31G25G12G14G02G30G29
 -19067003.19049 -14844639.60749  21312568.9234   21312573.5214   21312569.6094
       238.0004        194.0004
 -21949138.34049 -16828076.20249  20656619.3294   20656627.0254   20656619.2604
       247.0004        206.0004
 -11055335.01749  -8591538.86449  22858753.2194   22858760.1894   22858753.6504
       225.0004        169.0004
   -155956.60449    -99382.01649  24267282.2054   24267295.5944   24267281.5774
       201.0004        132.0004
  -5449619.60449  -3873811.06749  22961062.9764   22961066.5034   22961061.1664
       225.0004        165.0004
 -20946181.14649 -16055225.06649  20532732.6234   20532737.3254   20532731.7704
       241.0004        195.0004
 -23424484.66949 -18240196.86249  20256299.3224   20256304.5264   20256299.6164
       242.0004        212.0004
 11 10 14  9 28 30.0000000  0  7G31G25G12G14G02G30G29
 -19107503.30049 -14876198.12249  21304862.0494   21304866.5094   21304862.5664
       238.0004        194.0004
 -21906248.84249 -16794655.84849  20664780.7254   20664788.3684   20664780.7854
       248.0004        207.0004
 -10968920.97549  -8524203.36349  22875197.6664   22875203.8594   22875197.1974
       224.0004        166.0004
    -56461.33149    -21853.43549  24286218.8574   24286225.6714   24286217.8204
       203.0004        131.0004
  -5404572.26549  -3838709.31749  22969634.3474   22969639.3494   22969635.1024
       225.0004        165.0004
 -20999745.84949 -16096963.78949  20522538.7464   20522544.0634   20522538.4554
       240.0004        194.0004
 -23445138.87849 -18256291.06149  20252368.8774   20252374.0064   20252369.9564
       242.0004        212.0004
 11 10 14  9 29  0.0000000  0  7G31G25G12G14G02G30G29
 -19147500.62249 -14907364.86549  21297251.2884   21297254.9814   21297251.7754
       239.0004        195.0004
 -21862996.75549 -16760952.96349  20673012.1894   20673019.0684   20673012.1244
       248.0004        207.0004
 -10882328.84749  -8456729.10749  22891675.8134   22891681.7304   22891676.5914
       224.0004        167.0004
     43155.35849     55769.75749  24305175.1244   24305182.5234   24305174.5184
       205.0004        132.0004
  -5359017.03049  -3803211.78049  22978303.2614   22978308.7344   22978303.3504
       223.0004        164.0004
 -21052925.30649 -16138402.32549  20512419.4044   20512424.0944   20512419.4754
       240.0004        195.0004
 -23465300.46649 -18272001.38949  20248533.2874   20248537.2924   20248533.2764
       244.0004        212.0004
 11 10 14  9 29 30.0000000  0  7G31G25G12G14G02G30G29
 -19186993.77849 -14938138.75649  21289735.0074   21289739.5764   21289735.7804
       238.0004        193.0004
 -21819382.89549 -16726968.17549  20681311.3684   20681318.6014   20681311.4584
       248.0004        207.0004
 -10795559.71149  -8389116.92349  22908186.5184   22908193.7684   22908186.6574
       223.0004        166.0004
    142890.00849    133484.83949  24324152.5314   24324160.8994   24324152.5314
       198.0004        132.0004
  -5312955.62049  -3767319.84349  22987067.3424   22987072.6534   22987068.4784
       223.0004        164.0004
 -21105718.41049 -16179539.79949  20502373.2754   20502377.9184   20502372.9694
       240.0004        194.0004
 -23484969.91849 -18287328.24349  20244789.5584   20244794.4024   20244790.1934
       243.0004        212.0004
 11 10 14  9 30  0.0000000  0  8G31G25G21G12G14G02G30G29
 -19225982.05249 -14968519.21849  21282316.3154   21282320.7744   21282317.0214
       238.0004        195.0004
 -21775408.44749 -16692702.40849  20689679.7634   20689686.7374   20689679.7464
       250.0004        207.0004
    -47162.32949    -21737.02149  25014833.1754
       207.0004         74.0004
 -10708614.97149  -8321367.89649  22924733.2934   22924739.2874   22924733.0434
       225.0004        167.0004
    242738.88649    211288.92549  24343153.7164   24343164.0104   24343155.4854
       205.0004        131.0004
  -5266390.42849  -3731035.33549  22995930.3294   22995934.2494   22995929.1184
       225.0004        164.0004
 -21158124.40249 -16220375.62249  20492401.0464   20492405.3284   20492400.4264
       240.0004        193.0004
 -23504148.19249 -18302272.36149  20241140.8344   20241144.9274   20241141.1414
       244.0004        213.0004
 11 10 14  9 30 30.0000000  0  7G31G25G12G14G02G30G29
 -19264463.38549 -14998504.66949  21274994.4884   21274998.2884   21274994.6154
       239.0004        196.0004
 -21731073.49749 -16658155.72649  20698116.6164   20698123.2274   20698116.3474
       250.0004        206.0004
 -10621495.41549  -8253482.66549  22941310.3404   22941318.1774   22941311.0164
       224.0004        168.0004
    342699.09949    289179.80549  24362177.2824   24362184.0614   24362176.8834
       203.0004        131.0004
  -5219322.64149  -3694359.20549  23004886.9884   23004890.4614   23004886.0034
       223.0004        164.0004
 -21210141.45549 -16260908.38749  20482502.2384   20482507.1174   20482501.4174
       240.0004        194.0004
 -23522835.10449 -18316833.60049  20237585.0774   20237588.7874   20237584.8754
       244.0004        213.0004
 11 10 14  9 31  0.0000000  0  7G31G25G12G14G02G30G29
 -19302435.39049 -15028093.23949  21267768.1774   21267771.7644   21267768.2184
       238.0004        195.0004
 -21686377.68349 -16623327.86249  20706621.1394   20706628.7984   20706621.2834
       249.0004        206.0004
 -10534200.87149  -8185461.06649  22957922.8834   22957929.3294   22957922.3374
       225.0004        167.0004
    442768.59449    367155.79949  24381218.3924   24381224.3914   24381219.1094
       198.0004        130.0004
  -5171753.13349  -3657292.14149  23013939.0264   23013943.5594   23013938.9104
       222.0004        166.0004
 -21261767.24849 -16301136.27949  20472678.1824   20472682.8574   20472678.2434
       241.0004        195.0004
 -23541029.87449 -18331011.35349  20234121.9704   20234126.5334   20234122.7104
       244.0004        213.0004
 11 10 14  9 31 30.0000000  0  7G31G25G12G14G02G30G29
 -19339897.81549 -15057284.74149  21260638.6764   21260642.5234   21260639.1444
       237.0004        194.0004
 -21641322.78449 -16588220.18649  20715195.1684   20715202.1884   20715194.9284
       250.0004        205.0004
 -10446733.30649  -8117304.66049  22974567.4474   22974573.4744   22974568.5914
       223.0004        166.0004
    542942.64849    445213.30449  24400279.8524   24400287.4274   24400282.4424
       198.0004        128.0004
  -5123684.50249  -3619836.12549  23023084.5154   23023091.4524   23023085.2694
       221.0004        166.0004
 -21313001.60949 -16341059.14349  20462929.0044   20462933.3004   20462928.4044
       241.0004        194.0004
 -23558733.83149 -18344806.65249  20230753.6584   20230757.8084   20230753.7384
       245.0004        213.0004
 11 10 14  9 32  0.0000000  0  7G31G25G12G14G02G30G29
 -19376848.30849 -15086077.33649  21253607.7724   21253611.9874   21253608.3994
       238.0004        196.0004
 -21595908.50649 -16552832.46949  20723836.4364   20723844.4564   20723836.6554
       249.0004        205.0004
 -10359092.83849  -8049013.53249  22991243.3834   22991251.2384   22991244.7974
       221.0004        164.0004
    643219.00249    523350.57249  24419362.3604   24419371.1294   24419363.1204
       198.0004        130.0004
  -5075117.59649  -3581991.88549  23032327.9604   23032333.4044   23032328.7114
       222.0004        167.0004
 -21363842.34149 -16380675.30149  20453253.7284   20453258.4974   20453253.7954
       240.0004        194.0004
 -23575946.85349 -18358219.41449  20227476.5224   20227481.9064   20227478.0744
       243.0004        213.0004
 11 10 14  9 32 30.0000000  0  8G31G25G12G14G02G30G23G29
 -19413285.15249 -15114469.66949  21246673.7894   21246677.6884   21246673.6494
       238.0004        196.0004
 -21550135.34849 -16517165.11149  20732546.9854   20732554.9234   20732546.8394
       248.0004        205.0004
 -10271280.66649  -7980588.59849  23007954.7274   23007960.7504   23007956.0294
       222.0004        164.0004
    743594.68849    601565.15549  24438465.6514   24438474.0204   24438461.8414
       197.0004        128.0004
  -5026053.91149  -3543760.51349  23041665.7534   23041669.2374   23041664.5414
       224.0004        167.0004
 -21414287.99049 -16419983.58749  20443654.6934   20443659.1614   20443654.6394
       240.0004        195.0004
   -135089.15549    -88169.39649  25382012.3194
       204.0004        110.0004
 -23592669.18049 -18371249.79649  20224296.3844   20224299.6824   20224296.1024
       245.0004        213.0004
 11 10 14  9 33  0.0000000  0  8G31G25G12G14G02G30G23G29
 -19449207.58349 -15142461.18049  21239838.0444   21239841.9674   21239838.1894
       239.0004        196.0004
 -21504004.27149 -16481218.86749  20741325.2834   20741333.5454   20741325.3514
       248.0004        205.0004
 -10183297.99849  -7912030.79649  23024697.8954   23024703.6724   23024698.0864
       222.0004        166.0004
    844065.89049    679854.26149  24457582.0534   24457589.6224   24457585.5144
       197.0004        127.0004
  -4976495.36049  -3505143.53249  23051094.7534   23051100.4514   23051095.6574
       221.0004        164.0004
 -21464337.66349 -16458983.32049  20434130.5504   20434134.9994   20434129.7104
       241.0004        195.0004
   -202025.83949   -140331.87049  25369275.9994
       207.0004        114.0004
 -23608901.33449 -18383898.24749  20221206.2554   20221211.0154   20221206.5464
       244.0004        213.0004
 11 10 14  9 33 30.0000000  0  8G31G25G12G14G02G30G23G29
 -19484613.11349 -15170049.92449  21233101.4874   21233104.1034   21233101.7334
       239.0004        196.0004
 -21457514.93849 -16444993.45349  20750172.5704   20750180.0484   20750172.4844
       248.0004        205.0004
 -10095144.57849  -7843339.95249  23041472.3804   23041479.5934   23041472.7714
       220.0004        162.0004
    944630.52649    758216.19049  24476721.3534   24476731.8974   24476720.7304
       201.0004        132.0004
  -4926443.09349  -3466141.86549  23060620.4954   23060624.6054   23060620.1964
       222.0004        166.0004
 -21513988.93649 -16497672.62249  20424681.6914   20424686.8594   20424681.5474
       240.0004        194.0004
   -268530.94949    -31520.42749  25356619.5334
       204.0004         74.0004
 -23624642.66249 -18396164.23049  20218210.9734   20218215.7964   20218211.4974
       244.0004        213.0004
 11 10 14  9 34  0.0000000  0  8G31G25G12G14G02G30G23G29
 -19519501.03749 -15197235.32349  21226460.6574   21226466.5154   21226461.7324
       238.0004        196.0004
 -21410668.27649 -16408489.59849  20759086.7524   20759094.7514   20759086.5824
       248.0004        204.0004
 -10006821.77449  -7774517.14649  23058278.9494   23058286.4344   23058278.8364
       218.0004        161.0004
   1045284.94549    836648.05349  24495872.8174   24495882.5754   24495874.5394
       197.0004        131.0004
  -4875899.11449  -3426757.05449  23070238.0374   23070242.3464   23070238.4344
       222.0004        163.0004
 -21563240.90349 -16536050.77949  20415309.5194   20415314.2294   20415309.1864
       240.0004        194.0004
   -334603.06149    -83005.46249  25344047.6804
       204.0004        127.0004
 -23639894.13749 -18408048.51349  20215308.1894   20215313.5074   20215309.0974
       244.0004        213.0004
 11 10 14  9 34 30.0000000  0  7G31G25G12G14G02G30G29
 -19553868.92449 -15224015.49749  21219921.7134   21219925.8984   21219921.7254
       238.0004        195.0004
 -21363464.50949 -16371707.48049  20768069.6304   20768077.1304   20768069.4484
       248.0004        204.0004
  -9918330.05149  -7705562.69349  23075119.5234   23075126.5104   23075120.2204
       219.0004        163.0004
   1146026.05649    915147.54749  24515041.9194   24515054.5604   24515045.4194
       191.0004        127.0004
  -4824864.95149  -3386990.27149  23079950.2824   23079954.7034   23079950.2274
       222.0004        162.0004
 -21612091.73749 -16574116.36049  20406013.6264   20406018.1874   20406013.2014
       241.0004        194.0004
 -23654655.44249 -18419550.84249  20212500.1454   20212504.4864   20212500.6154
       245.0004        214.0004
 11 10 14  9 35  0.0000000  0  8G31G25G12G14G02G30G23G29
 -19587716.08849 -15250389.91749  21213481.2954   21213484.6064   21213481.8414
       240.0004        196.0004
 -21315904.74349 -16334647.96349  20777119.7124   20777127.2774   20777119.7704
       248.0004        204.0004
  -9829670.98149  -7636477.82849  23091989.4644   23091997.1704   23091990.6054
       222.0004        165.0004
   1246850.68449    993712.12149  24534230.2534   24534241.5084   24534230.3484
       202.0004        129.0004
  -4773342.76449  -3346843.20349  23089754.0754   23089758.0904   23089754.3104
       221.0004        163.0004
 -21660540.68749 -16611868.78749  20396794.3894   20396799.0554   20396793.7654
       241.0004        195.0004
   -465439.31049   -184955.80249  25319147.3394   25319153.3144
       199.0004        129.0004
 -23668927.57749 -18430671.99549  20209785.7634   20209788.5774   20209784.9034
       246.0004        214.0004
 11 10 14  9 35 30.0000000  0  8G31G25G12G14G02G30G23G29
 -19621041.03849 -15276357.42849  21207139.1654   21207143.0614   21207139.7314
       238.0004        195.0004
 -21267989.21849 -16297311.23549  20786238.1234   20786245.5624   20786238.0374
       248.0004        204.0004
  -9740844.82749  -7567262.78649  23108894.5524   23108901.9054   23108894.4064
       222.0004        164.0004
   1347755.97549   1072339.54349  24553436.2984   24553440.3644   24553434.7424
       200.0004        134.0004
  -4721333.62649  -3306316.72849  23099650.9194   23099656.1134   23099651.0624
       223.0004        163.0004
 -21708586.01249 -16649306.69849  20387651.3054   20387656.3574   20387650.5824
       240.0004        195.0004
   -530199.32849   -235418.17449  25306826.7404   25306829.6414   25306824.2144
       200.0004        127.0004
 -23682710.53449 -18441411.97249  20207160.7674   20207165.5594   20207161.1464
       244.0004        214.0004
 11 10 14  9 36  0.0000000  0  8G31G25G12G14G02G30G23G29
 -19653842.22649 -15301916.79049  21200896.5624   21200901.5384   21200897.6404
       238.0004        196.0004
 -21219718.52649 -16259697.74749  20795423.4394   20795430.9914   20795423.5524
       249.0004        204.0004
  -9651853.15649  -7497918.76049  23125828.0354   23125835.6044   23125828.5774
       222.0004        164.0004
   1448738.78849   1151027.31149  24572647.4334   24572656.6344   24572649.5814
       188.0004        125.0004
  -4668839.47349  -3265412.30149  23109640.2414   23109644.4924   23109641.8404
       225.0004        165.0004
 -21756226.39449 -16686429.06749  20378585.3514   20378590.3274   20378585.3324
       239.0004        195.0004
   -594517.49249   -285536.27849  25294584.9374   25294592.7414   25294586.6904
       196.0004        124.0004
 -23696005.00549 -18451771.30949  20204630.8914   20204635.8824   20204632.0654
       244.0004        214.0004
 11 10 14  9 36 30.0000000  0  8G31G25G12G14G02G30G23G29
 -19686118.13949 -15327066.86449  21194756.6394   21194760.2374   21194756.4024
       239.0004        196.0004
 -21171093.09749 -16221807.84149  20804676.9854   20804684.3674   20804676.8474
       249.0004        204.0004
  -9562696.38549  -7428446.08349  23142795.9394   23142802.8024   23142795.4794
       226.0004        166.0004
   1549795.57549   1229772.75349  24591878.8774   24591886.7234   24591878.8354
       196.0004        126.0004
  -4615861.77849  -3224131.09549  23119723.1354   23119726.5334   23119723.0774
       225.0004        166.0004
 -21803460.26949 -16723234.68249  20369597.3824   20369602.3374   20369596.9274
       240.0004        195.0004
   -658391.88149   -335308.54949  25282432.1294   25282439.7294   25282432.2654
       196.0004        125.0004
 -23708811.10849 -18461750.09349  20202194.8784   20202199.0014   20202194.8264
       245.0004        213.0004
 11 10 14  9 37  0.0000000  0  9G31G25G12G14G02G30G23G21G29
 -19717866.95849 -15351806.20749  21188714.3334   21188717.8464   21188714.2984
       239.0004        195.0004
 -21122113.01549 -16183641.59449  20813997.9144   20814005.3654   20813997.8884
       249.0004        204.0004
  -9473374.93049  -7358845.04849  23159792.8264   23159798.0964   23159792.5904
       224.0004        164.0004
   1650923.96549   1308574.12449  24611122.1484   24611133.7084   24611123.5244
       201.0004        131.0004
  -4562402.13849  -3182474.34349  23129895.0284   23129900.6014   23129894.8184
       224.0004        166.0004
 -21850285.78549 -16759722.09349  20360686.8714   20360691.5514   20360686.1634
       240.0004        196.0004
   -721819.81649   -384732.99349  25270361.4754   25270366.4804   25270361.1794
       192.0004        121.0004
    -37283.49149     -5939.10249  24745560.7004
       208.0004         74.0004
 -23721128.42349 -18471348.00249  20199850.5004   20199855.1414   20199851.0794
       245.0004        214.0004
 11 10 14  9 37 30.0000000  0  9G31G25G12G14G02G30G23G21G29
 -19749087.79049 -15376134.13949  21182772.5374   21182776.1174   21182772.5554
       238.0004        195.0004
 -21072779.25549 -16145199.74849  20823385.6374   20823392.5604   20823385.3804
       248.0004        203.0004
  -9383889.91249  -7289116.60449  23176821.5524   23176827.9424   23176821.9814
       224.0004        161.0004
   1752120.49149   1387428.43049  24630380.2304   24630392.2254   24630380.0214
       192.0004        128.0004
  -4508462.54549  -3140443.59849  23140159.3584   23140163.6094   23140159.4854
       223.0004        165.0004
 -21896701.93149 -16795890.50849  20351853.5864   20351858.8564   20351853.3394
       240.0004        195.0004
   -784799.69049   -433808.28949  25258376.0774                   25258381.7664
       187.0004        120.0004
   -138208.36349    -84581.67649  24726354.3674
       208.0004        115.0004
 -23732958.01349 -18480565.87549  20197599.5044   20197603.8864   20197599.8674
       245.0004        214.0004
 11 10 14  9 38  0.0000000  0  9G31G25G12G14G02G30G23G21G29
 -19779779.23749 -15400049.56849  21176932.7054   21176936.6864   21176933.7404
       239.0004        197.0004
 -21023092.61249 -16106482.92249  20832841.4114   20832847.8804   20832841.2724
       250.0004        204.0004
  -9294242.60549  -7219261.69749  23193880.0774   23193887.5204   23193880.7554
       223.0004        163.0004
   1853381.76949   1466333.12149  24649648.2534   24649658.1204   24649650.7154
       199.0004        129.0004
  -4454045.12649  -3098040.52749  23150514.6494   23150520.6314   23150515.8814
       224.0004        166.0004
 -21942707.62449 -16831739.09749  20343099.1204   20343104.4384   20343098.7034
       239.0004        195.0004
   -847329.58049   -482532.90249  25246476.6214                   25246480.3084
       188.0004        120.0004
   -239101.67849   -163199.70749  24707156.0954
       208.0004        128.0004
 -23744300.45049 -18489404.16349  20195440.8344   20195445.3904   20195441.7604
       244.0004        213.0004
 11 10 14  9 38 30.0000000  0  9G31G25G12G14G02G30G23G21G29
 -19809939.28749 -15423550.91049  21171193.3124   21171197.4494   21171193.5924
       237.0004        195.0004
 -20973052.79149 -16067490.87949  20842363.6684   20842370.6714   20842363.0604
       250.0004        204.0004
  -9204432.73449  -7149280.11449  23210971.0224   23210977.4214   23210972.0524
       221.0004        162.0004
   1954705.53249   1545286.59749  24668931.8374   24668941.1714   24668933.9264
       200.0004        129.0004
  -4399150.63449  -3055265.70149  23160961.9274   23160967.4064   23160960.9904
       223.0004        163.0004
 -21988300.51649 -16867266.01749  20334423.6704   20334427.7304   20334423.7204
       240.0004        196.0004
   -909406.44249   -530904.46749  25234664.9744                   25234664.2724
       191.0004        122.0004
   -339961.16749   -241791.41749  24687961.4444   24687965.8344
       207.0004        130.0004
 -23755155.22149 -18497862.42649  20193376.6774   20193379.9124   20193376.0124
       246.0004        214.0004
 11 10 14  9 39  0.0000000  0  9G31G25G12G14G02G30G23G21G29
 -19839567.27049 -15446637.64749  21165554.9594   21165558.9304   21165555.4124
       238.0004        195.0004
 -20922660.95149 -16028224.56049  20851952.7924   20851959.8644   20851952.5704
       249.0004        204.0004
  -9114462.02249  -7079173.19849  23228091.1414   23228098.7504   23228092.5444
       221.0004        164.0004
   2056087.99549   1624285.87149  24688226.9144   24688234.9564   24688223.9174
       197.0004        128.0004
  -4343781.91949  -3012121.37249  23171497.1764   23171502.0814   23171497.2964
       224.0004        164.0004
 -22033479.89649 -16902470.71649  20325825.9584   20325830.6774   20325825.4674
       240.0004        196.0004
   -971028.97749   -578922.04249  25222940.7864                   25222939.5524
       197.0004        122.0004
   -440784.41849   -320354.93149  24668774.9524   24668782.1144   24668772.3994
       206.0004        132.0004
 -23765523.46949 -18505941.58049  20191402.3744   20191406.7864   20191402.5574
       244.0004        214.0004
 11 10 14  9 39 30.0000000  0  9G31G25G12G14G02G30G23G21G29
 -19868662.22049 -15469309.05649  21160019.0114   21160022.6824   21160019.3624
       238.0004        196.0004
 -20871917.87849 -15988684.54249  20861608.3854   20861615.7824   20861608.2904
       249.0004        204.0004
  -9024331.22949  -7008941.55749  23245242.3934   23245249.2094   23245242.2334
       219.0004        159.0004
   2157526.31749   1703328.52249  24707530.1724   24707539.2814   24707526.0624
       198.0004        128.0004
  -4287940.18449  -2968608.43649  23182123.8614   23182128.7684   23182124.0514
       225.0004        163.0004
 -22078244.54949 -16937352.26349  20317308.0064   20317312.2774   20317307.4314
       240.0004        196.0004
  -1032195.31149    -13088.14449  25211300.5194
       193.0004         74.0004
   -541569.46649   -398888.63949  24649594.7274   24649602.9014   24649594.8824
       205.0004        131.0004
 -23775405.97549 -18513642.24749  20189521.7474   20189526.2464   20189522.6384
       245.0004        214.0004
 11 10 14  9 40  0.0000000  0  9G31G25G12G14G02G30G23G21G29
 -19897221.59749 -15491563.11849  21154583.6964   21154588.0134   21154584.2924
       238.0004        195.0004
 -20820823.34349 -15948870.66949  20871331.7294   20871338.8614   20871331.5194
       249.0004        203.0004
  -8934041.02149  -6938585.69549  23262424.9254   23262431.7304   23262424.7704
       218.0004        158.0004
   2259017.64749   1782412.44849  24726841.0474   24726847.5994   24726840.6814
       201.0004        130.0004
  -4231626.91249  -2924728.07149  23192840.0864   23192845.2514   23192839.9554
       223.0004        162.0004
 -22122592.42249 -16971909.03849  20308869.1294   20308873.0804   20308867.9994
       241.0004        196.0004
  -1092902.60349    -60444.92149  25199748.2184
       190.0004        106.0004
   -642313.52049   -477390.45149  24630427.7504   24630434.2164   24630424.7344
       211.0004        132.0004
 -23784802.19749 -18520963.99349  20187734.2594   20187738.2954   20187734.6304
       245.0004        214.0004
 11 10 14  9 40 30.0000000  0  9G31G25G12G14G02G30G23G21G29
 -19925244.60749 -15513399.23149  21149251.2604   21149255.4534   21149251.2494
       238.0004        196.0004
 -20769378.21749 -15908783.61049  20881121.1154   20881128.1814   20881121.1064
       248.0004        203.0004
  -8843592.14049  -6868106.19649  23279634.7764   23279644.7054   23279635.3724
       214.0004        158.0004
   2360558.87749   1861535.39349  24746165.3434   24746170.4604   24746162.5904
       193.0004        127.0004
  -4174844.28349  -2880481.96449  23203645.7904   23203650.7824   23203644.8944
       223.0004        164.0004
 -22166522.24349 -17006140.07149  20300508.6534   20300513.7834   20300508.1254
       240.0004        196.0004
  -1153148.93949   -107511.25549  25188281.5634
       192.0004        110.0004
   -743014.30549   -555858.56349  24611261.5874   24611269.9144   24611259.7024
       207.0004        133.0004
 -23793712.98549 -18527907.48349  20186038.9654   20186042.5114   20186039.1824
       246.0004        214.0004
 11 10 14  9 41  0.0000000  0  9G31G25G12G14G02G30G23G21G29
 -19952730.26249 -15534816.63549  21144020.5284   21144024.7964   21144021.4754
       239.0004        195.0004
 -20717583.27449 -15868423.95849  20890977.6554   20890984.8264   20890977.3544
       249.0004        203.0004
  -8752985.46749  -6797503.74849  23296877.9114   23296885.7144   23296876.9054
       216.0004        157.0004
   2462146.94049   1940694.75249  24765496.0754   24765507.3924   24765491.5404
       196.0004        126.0004
  -4117594.01749  -2835871.45949  23214541.0084   23214545.9174   23214541.0794
       225.0004        166.0004
 -22210032.96549 -17040044.52549  20292229.2484   20292233.8934   20292229.0154
       241.0004        197.0004
  -1212932.86549     -8878.15249  25176904.7944
       188.0004         74.0004
   -843670.12449   -634291.57749  24592107.3094   24592114.6364   24592102.6944
       203.0004        131.0004
 -23802139.02749 -18534473.23249  20184435.7114   20184439.3774   20184435.6554
       247.0004        214.0004
 11 10 14  9 41 30.0000000  0  9G31G25G12G14G02G30G23G21G29
 -19979676.95049 -15555814.06849  21138893.5654   21138896.7964   21138893.6844
       238.0004        195.0004
 -20665438.80449 -15827791.95249  20900900.2764   20900907.3234   20900900.3274
       249.0004        203.0004
  -8662222.09149  -6726779.19749  23314149.6224   23314157.4284   23314150.9174
       214.0004        155.0004
   2563778.98349   2019888.26749  24784837.7924   24784844.0314   24784836.4414
       200.0004        130.0004
  -4059878.16149  -2790898.17949  23225522.7914   23225527.8234   23225523.4044
       222.0004        165.0004
 -22253122.85249 -17073621.05749  20284029.8824   20284033.8014   20284029.5064
       241.0004        197.0004
  -1272251.84749    -55116.07349  25165620.4874
       186.0004        107.0004
   -944278.60949   -712687.76949  24572962.7934   24572970.9014   24572960.3834
       206.0004        130.0004
 -23810080.40349 -18540661.33049  20182923.2584   20182927.9584   20182924.1804
       245.0004        214.0004
 11 10 14  9 42  0.0000000  0  9G31G25G12G14G02G30G23G21G29
 -20006083.41949 -15576390.54149  21133867.4654   21133872.5384   21133868.4034
       238.0004        196.0004
 -20612945.42949 -15786888.07949  20910889.4564   20910897.0994   20910889.2264
       248.0004        203.0004
  -8571302.66949  -6655933.04649  23331451.3724   23331459.0084   23331450.9094
       215.0004        155.0004
   2665451.67149   2099113.52949  24804184.4344   24804192.9354   24804187.0044
       201.0004        129.0004
  -4001698.27049  -2745563.28949  23236593.8774   23236600.0924   23236594.5104
       224.0004        163.0004
 -22295790.56949 -17106868.62349  20275909.7164   20275915.4274   20275909.4984
       240.0004        197.0004
  -1331104.20749   -101018.94549  25154422.7704
       188.0004        109.0004
  -1044837.16849   -791045.13349  24553825.3934   24553834.2234   24553826.2104
       204.0004        133.0004
 -23817537.77149 -18546472.27549  20181505.0544   20181508.9314   20181505.1314
       246.0004        214.0004
 11 10 14  9 42 30.0000000  0  9G31G25G12G14G02G30G23G21G29
 -20031949.01349 -15596545.55149  21128946.2534   21128950.8304   21128946.4924
       238.0004        196.0004
 -20560104.05749 -15745713.04549  20920945.3824   20920952.2704   20920944.9934
       248.0004        202.0004
  -8480227.94149  -6584965.87649  23348781.3394   23348790.5784   23348783.1984
       216.0004        156.0004
   2767161.83149   2178368.00749  24823539.6314   24823548.6874   24823538.2604
       199.0004        127.0004
  -3943056.89249  -2699868.79249  23247754.3434   23247758.2914   23247753.9624
       224.0004        163.0004
 -22338035.06249 -17139786.40149  20267870.7754   20267875.9354   20267870.4764
       240.0004        197.0004
  -1389488.22849     -4926.13849  25143311.7034
       184.0004         74.0004
  -1145344.19349   -869362.21149  24534697.4454   24534708.6814   24534699.9724
       201.0004        133.0004
 -23824511.75649 -18551906.55749  20180177.6574   20180182.0904   20180177.9594
       246.0004        214.0004
 11 10 14  9 43  0.0000000  0  9G31G25G12G14G02G30G23G21G29
 -20057271.50749 -15616277.37849  21124127.8394   21124131.1504   21124128.3044
       239.0004        196.0004
 -20506914.44149 -15704266.63849  20931066.9704   20931074.2314   20931066.7004
       248.0004        203.0004
  -8388998.57849  -6513878.21849  23366143.2114   23366150.7014   23366144.2284
       217.0004        161.0004
   2868907.06949   2257649.76549  24842903.1484   24842908.0184   24842899.5164
       200.0004        128.0004
  -3883954.92449  -2653815.39449  23259000.6814   23259005.9454   23259000.0184
       222.0004        161.0004
 -22379854.22349 -17172372.74649  20259912.5494   20259917.5614   20259912.4564
       240.0004        196.0004
  -1447401.17649    -50069.07149  25132287.3534
       187.0004         98.0004
  -1245796.60549   -947636.70649  24515582.5094   24515592.7944   24515584.2304
       204.0004        134.0004
 -23831002.29249 -18556964.12449  20178942.5534   20178946.8974   20178942.9684
       246.0004        215.0004
 11 10 14  9 43 30.0000000  0  9G31G25G12G14G02G30G23G21G29
 -20082050.35049 -15635585.57449  21119411.8964   21119416.2014   21119411.6574
       238.0004        195.0004
 -20453378.04849 -15662550.02649  20941254.1964   20941261.4644   20941254.2144
       248.0004        202.0004
  -8297616.21649  -6442671.32549  23383533.3234   23383539.7324   23383532.2964
       217.0004        159.0004
   2970683.66649   2336955.94949  24862270.0624   24862281.2324   24862267.2194
       199.0004        130.0004
  -3824394.85749  -2607405.03549  23270333.7464   23270339.4414   23270333.5804
       220.0004        160.0004
 -22421247.49349 -17204627.24749  20252036.1934   20252041.0974   20252035.9474
       240.0004        196.0004
  -1504841.66049    -94888.02849  25121361.5164
       184.0004        111.0004
  -1346192.77149  -1025867.49649  24496478.9774   24496487.6914   24496481.9684
       203.0004        132.0004
 -23837010.29449 -18561645.70349  20177799.5184   20177803.7324   20177799.7304
       245.0004        215.0004
 11 10 14  9 44  0.0000000  0  9G31G25G12G14G02G30G23G21G29
 -20106284.14249 -15654469.06949  21114800.7654   21114805.1354   21114801.5954
       240.0004        197.0004
 -20399495.01549 -15620563.31349  20951507.9294   20951515.6054   20951507.9494
       247.0004        202.0004
  -8206080.63749  -6371345.08749  23400952.8334   23400959.1954   23400953.2624
       220.0004        160.0004
   3072489.12949   2416284.64549  24881644.3844   24881648.7054   24881641.6474
       202.0004        128.0004
  -3764378.17849  -2560638.87849  23281754.8514   23281759.9244   23281755.7914
       220.0004        161.0004
 -22462213.04349 -17236548.45249  20244240.9634   20244245.7724   20244240.0824
       240.0004        197.0004
  -1561807.52149     -1083.61849  25110514.8714
       186.0004         74.0004
  -1446530.05549  -1104052.28149  24477386.0964   24477394.1194   24477386.6574
       199.0004        135.0004
 -23842536.11249 -18565951.54549  20176747.6814   20176751.9764   20176747.9034
       245.0004        214.0004
 11 10 14  9 44 30.0000000  0  9G31G25G12G14G02G30G23G21G29
 -20129971.37449 -15672926.65549  21110293.1674   21110297.3064   21110293.5554
       239.0004        196.0004
 -20345265.67549 -15578306.72949  20961827.5884   20961834.8784   20961827.4434
       247.0004        202.0004
  -8114393.16649  -6299900.45549  23418398.5644   23418406.5584   23418400.2494
       218.0004        158.0004
   3174320.59649   2495633.61749  24901019.5774   24901029.3944   24901019.4744
       201.0004        129.0004
  -3703906.42749  -2513518.09449  23293262.8594   23293267.2404   23293263.1944
       221.0004        162.0004
 -22502749.35149 -17268135.16749  20236526.6074   20236531.3884   20236526.2944
       240.0004        197.0004
  -1618296.54949    -45080.76049  25099769.3814
       188.0004        101.0004
  -1546806.17649  -1182189.34249  24458303.2354   24458313.1434   24458305.7614
       206.0004        137.0004
 -23847580.31949 -18569882.09849  20175788.0004   20175792.0884   20175788.2424
       246.0004        215.0004
 11 10 14  9 45  0.0000000  0  9G31G25G12G14G02G30G23G21G29
 -20153111.65749 -15690958.04749  21105889.7964   21105893.8264   21105889.8704
       239.0004        196.0004
 -20290691.11749 -15535781.16249  20972212.7034   20972220.4144   20972212.6754
       247.0004        202.0004
  -8022554.87549  -6228338.31349  23435875.5684   23435882.8544   23435876.8154
       220.0004        158.0004
   3276174.72249   2575000.23149  24920400.8704   24920408.8044   24920402.2104
       200.0004        128.0004
  -3642982.48349  -2466044.95949  23304855.7914   23304862.3044   23304856.0754
       218.0004        159.0004
 -22542855.42849 -17299386.65049  20228895.5714   20228899.8594   20228894.6444
       241.0004        197.0004
  -1674307.29149    -88613.69649  25089110.1164
       188.0004        111.0004
  -1647019.05449  -1260277.20349  24439235.5154   24439243.2054   24439235.0434
       205.0004        137.0004
 -23852143.70849 -18573437.99749  20174918.9544   20174923.7404   20174919.7244
       245.0004        215.0004
 11 10 14  9 45 30.0000000  0  8G31G25G12G14G02G30G21G29
 -20175703.70549 -15708562.24549  21101589.9774   21101594.9544   21101590.7334
       239.0004        196.0004
 -20235772.19549 -15492987.25149  20982663.9894   20982671.0314   20982663.4264
       247.0004        202.0004
  -7930566.67049  -6156659.34749  23453379.8164   23453388.1224   23453379.8234
       218.0004        158.0004
   3378048.11749   2654381.86249  24939789.6484   24939797.1014   24939785.1754
       201.0004        128.0004
  -3581608.56849  -2418221.21349  23316534.1684   23316540.9734   23316535.8134
       218.0004        159.0004
 -22582530.23849 -17330302.07549  20221344.5644   20221350.1194   20221344.0654
       240.0004        197.0004
  -1747166.83949  -1338314.32749  24420176.4944   24420184.3594   24420176.0304
       204.0004        132.0004
 -23856227.33449 -18576620.04949  20174142.9254   20174146.6864   20174143.1004
       246.0004        215.0004
 11 10 14  9 46  0.0000000  0  9G31G25G12G14G02G30G23G21G29
 -20197746.21349 -15725738.24449  21097396.4934   21097400.5264   21097396.9054
       239.0004        198.0004
 -20180509.14149 -15449925.19449  20993179.4174   20993187.2814   20993179.6234
       246.0004        201.0004
  -7838429.14049  -6084864.03249  23470913.8944   23470921.2014   23470914.0944
       221.0004        159.0004
   3479938.25249   2733776.49349  24959177.5934   24959184.0864   24959173.0204
       202.0004        128.0004
  -3519786.00549  -2370047.84749  23328299.9964   23328305.5354   23328300.5734
       220.0004        158.0004
 -22621772.10049 -17360880.14749  20213877.8084   20213882.6644   20213877.3524
       241.0004        197.0004
  -1784886.87749    -40397.21749  25068066.0534
       187.0004         88.0004
  -1847247.12349  -1416298.83649  24401131.8484   24401140.6324   24401129.7604
       206.0004        138.0004
 -23859831.14949 -18579428.22049  20173456.8114   20173461.1354   20173456.6054
       246.0004        215.0004
 11 10 14  9 46 30.0000000  0  9G31G25G12G14G02G30G23G21G29
 -20219237.99649 -15742485.09249  21093304.9104   21093310.4644   21093306.2844
       238.0004        197.0004
 -20124902.19349 -15406595.16449  21003761.5414   21003768.8354   21003761.1854
       246.0004        201.0004
  -7746142.71149  -6012952.68249  23488475.1924   23488483.6294   23488476.0834
       220.0004        159.0004
   3581842.44649   2813182.21349  24978568.1794   24978578.0974   24978570.1784
       197.0004        127.0004
  -3457516.30649  -2321526.06849  23340149.8004   23340155.5764   23340149.7644
       220.0004        158.0004
 -22660579.19749 -17391119.43849  20206492.6464   20206497.5814   20206492.4124
       241.0004        197.0004
  -1839451.33449    -82914.41849  25057685.2164
       189.0004        110.0004
  -1947257.28249  -1494228.65149  24382102.5524   24382109.9624   24382101.2764
       210.0004        141.0004
 -23862955.29749 -18581862.63149  20172861.7764   20172866.4964   20172862.4534
       246.0004        215.0004
 11 10 14  9 47  0.0000000  0  9G31G25G12G14G02G30G23G21G29
 -20240177.56649 -15758801.65049  21089322.4244   21089325.3814   21089322.5864
       240.0004        197.0004
 -20068952.13049 -15362997.77249  21014407.9264   21014415.6194   21014407.8304
       245.0004        200.0004
  -7653708.62249  -5940926.27949  23506066.0554   23506073.3514   23506066.1064
       219.0004        157.0004
   3683757.49949   2892596.40849  24997963.0634   24997970.7944   24997962.7484
       202.0004        127.0004
  -3394801.63449  -2272657.58349  23352082.3804   23352089.4184   23352082.6374
       215.0004        158.0004
 -22698950.41549 -17421019.08049  20199191.1764   20199196.0434   20199190.9534
       241.0004        198.0004
  -1893529.81149   -125052.89149  25047394.5554
       185.0004        108.0004
  -2047195.10549  -1572102.14649  24363084.8074   24363089.2504   24363082.1354
       205.0004        135.0004
 -23865600.73649 -18583924.01449  20172358.9024   20172363.2384   20172359.1524
       246.0004        215.0004
 11 10 14  9 47 30.0000000  0  9G31G25G12G14G02G30G23G21G29
 -20260564.22449 -15774687.36549  21085442.3064   21085446.4354   21085442.4074
       239.0004        197.0004
 -20012659.72349 -15319133.62149  21025120.5194   21025128.1764   21025120.1444
       245.0004        201.0004
  -7561127.40349  -5868785.24349  23523682.6274   23523690.6594   23523682.8004
       216.0004        156.0004
   3785680.59249   2972016.91649  25017356.9304   25017370.1214   25017360.2614
       192.0004        126.0004
  -3331644.16249  -2223444.03249  23364102.8134   23364108.3274   23364101.7954
       218.0004        157.0004
 -22736884.66349 -17450578.22949  20191973.3734   20191977.4574   20191972.7964
       242.0004        198.0004
  -1947120.63649    -36529.30149  25037192.2324
       175.0004         77.0004
  -2147058.32349  -1649917.48449  24344082.7714   24344087.8214   24344080.3794
       214.0004        136.0004
 -23867768.18549 -18585612.94349  20171946.1184   20171950.6894   20171946.8554
       246.0004        215.0004
 11 10 14  9 48  0.0000000  0  9G31G25G12G14G02G30G23G21G29
 -20280397.00749 -15790141.48849  21081668.1574   21081672.6954   21081668.3214
       239.0004        197.0004
 -19956025.63349 -15275003.21449  21035896.7984   21035905.2624   21035897.0764
       244.0004        200.0004
  -7468400.57949  -5796530.73949  23541328.4544   23541336.6744   23541328.8104
       216.0004        156.0004
   3887608.68949   3051441.38049  25036752.4794   25036761.9024   25036753.0504
       190.0004        124.0004
  -3268046.02949  -2173887.08249  23376204.0644   23376209.6304   23376204.6584
       217.0004        155.0004
 -22774380.55749 -17479795.80049  20184837.1574   20184842.0744   20184836.4364
       241.0004        197.0004
  -2000222.05249    -78008.10149  25027093.9504
       188.0004        107.0004
  -2246845.02749  -1727673.27449  24325095.1104   24325099.0464   24325091.4154
       213.0004        142.0004
 -23869458.19549 -18586929.83249  20171625.0944   20171628.9214   20171625.1094
       246.0004        215.0004
 11 10 14  9 48 30.0000000  0  9G31G25G12G14G02G30G23G21G29
 -20299674.57249 -15805162.97049  21077999.4534   21078003.8074   21077999.9524
       239.0004        197.0004
 -19899050.15349 -15230606.81349  21046739.5894   21046747.5664   21046739.5654
       246.0004        201.0004
  -7375528.29449  -5724162.90449  23559002.4724   23559009.7814   23559002.8794
       217.0004        155.0004
   3989538.93149   3130867.51649  25056149.2704   25056160.3914   25056147.1334
       191.0004        126.0004
  -3204008.97749  -2123988.14549  23388391.3314   23388395.3674   23388390.0874
       221.0004        158.0004
 -22811436.51249 -17508670.56949  20177785.9174   20177790.9324   20177785.4324
       242.0004        198.0004
  -2052831.53259   -119103.58259  25017076.1584
       175.0004        111.0004
  -2346552.62049  -1805367.30949  24306119.2914   24306125.8784   24306116.8424
       212.0004        140.0004
 -23870671.18649 -18587875.02649  20171393.5444   20171397.9954   20171393.8364
       245.0004        214.0004
 11 10 14  9 49  0.0000000  0  9G31G25G12G14G02G30G23G21G29
 -20318396.67149 -15819751.63349  21074437.5134   21074441.0254   21074437.4924
       239.0004        197.0004
 -19841734.63649 -15185945.43249  21057647.1184   21057654.5474   21057646.8284
       246.0004        201.0004
  -7282512.04149  -5651682.88849  23576702.3674   23576709.6194   23576702.3054
       215.0004        152.0004
   4091467.88049   3210292.64049  25075549.0864   25075560.0064   25075548.3014
       200.0004        129.0004
  -3139535.43349  -2073749.10149  23400659.7094   23400665.2254   23400660.8924
       220.0004        158.0004
 -22848051.80749 -17537201.96749  20170817.7984   20170823.0054   20170817.5594
       242.0004        198.0004
  -2104948.65949    -32098.53349  25007159.3444
       179.0004         74.0004
  -2446179.29949  -1882998.31349  24287160.0904   24287167.0664   24287158.6674
       213.0004        140.0004
 -23871408.41149 -18588449.49749  20171253.7844   20171257.9654   20171254.2684
       246.0004        215.0004
 11 10 14  9 49 30.0000000  0  9G31G25G12G14G02G30G23G21G29
 -20336562.01949 -15833906.45049  21070979.6684   21070984.6194   21070980.6054
       239.0004        197.0004
 -19784079.41049 -15141019.34449  21068617.8394   21068626.2014   21068618.2004
       245.0004        201.0004
  -7189352.61249  -5579091.27249  23594430.1204   23594438.7604   23594430.2264
       217.0004        156.0004
   4193392.68649   3289714.61749  25094943.0444   25094949.6344   25094941.2184
       194.0004        127.0004
  -3074627.19149  -2023171.33949  23413010.5614   23413016.1184   23413009.4434
       217.0004        155.0004
 -22884224.93549 -17565388.82049  20163934.4644   20163939.6624   20163934.1524
       242.0004        199.0004
  -2156570.50849    -72258.65849  24997339.9504
       182.0004        111.0004
  -2545722.58949  -1960564.49449  24268214.9514   24268225.1124   24268217.5774
       209.0004        138.0004
 -23871670.50549 -18588653.72549  20171203.7764   20171208.2924   20171203.8134
       245.0004        215.0004
 11 10 14  9 50  0.0000000  0  9G31G25G12G14G02G30G23G21G29
 -20354168.61649 -15847625.88649  21067629.4644   21067634.3814   21067630.0784
       239.0004        197.0004
 -19726084.28649 -15095828.40749  21079654.3064   21079662.0534   21079654.2314
       245.0004        201.0004
  -7096049.70149  -5506387.87049  23612185.6714   23612192.1644   23612186.3034
       217.0004        155.0004
   4295311.30049   3369131.78949  25114335.7774   25114349.8874   25114340.3064
       195.0004        127.0004
  -3009285.52649  -1972255.83649  23425443.9614   23425451.8114   23425444.9994
       218.0004        157.0004
 -22919953.80749 -17593229.50249  20157135.2444   20157140.6064   20157135.3024
       243.0004        199.0004
  -2207695.48359   -112028.09759  24987609.5634
       183.0004        112.0004
  -2645179.85749  -2038063.56449  24249289.2934   24249298.7824   24249290.7764
       206.0004        141.0004
 -23871456.91249 -18588487.29749  20171244.0314   20171248.6384   20171245.0544
       246.0004        215.0004
 11 10 14  9 50 30.0000000  0  9G31G25G12G14G02G30G23G21G29
 -20371216.62649 -15860910.05849  21064385.8554   21064390.0394   21064386.2714
       239.0004        198.0004
 -19667750.75749 -15050373.77849  21090754.6144   21090762.2424   21090755.1134
       245.0004        200.0004
  -7002605.23649  -5433574.18449  23629967.4854   23629974.2664   23629968.0874
       215.0004        154.0004
   4397219.61649   3448540.93149  25133731.3204   25133739.2084   25133731.6274
       194.0004        124.0004
  -2943513.39949  -1921004.88849  23437962.9744   23437967.7994   23437962.3524
       219.0004        157.0004
 -22955237.87049 -17620723.58449  20150421.9534   20150425.7854   20150421.6164
       244.0004        200.0004
  -2258322.64859    -27923.75259  24977977.0024
       176.0004         74.0004
  -2744549.27149  -2115494.11849  24230380.9284   24230390.3704   24230380.9644
       209.0004        142.0004
 -23870769.21449 -18587951.41949  20171375.7774   20171379.5344   20171375.7174
       246.0004        215.0004
 11 10 14  9 51  0.0000000  0  9G31G25G12G14G02G30G23G21G29
 -20387705.04049 -15873758.17249  21061247.8584   21061252.1264   21061247.9554
       239.0004        197.0004
 -19609079.51449 -15004655.99149  21101919.7934   21101927.2644   21101919.5224
       246.0004        200.0004
  -6909020.18249  -5360650.92549  23647775.3904   23647784.1044   23647777.1554
       214.0004        152.0004
   4499115.38849   3527940.26449  25153119.8734   25153129.4994   25153121.9954
       189.0004        123.0004
  -2877312.71449  -1869419.99849  23450559.4914   23450563.3074   23450558.6884
       216.0004        155.0004
 -22990075.85749 -17647870.05849  20143791.5514   20143796.8134   20143791.0294
       242.0004        198.0004
  -2308449.68349    -66992.42949  24968436.3744
       179.0004        110.0004
  -2843828.48549  -2192854.48849  24211486.4174   24211494.3254   24211488.9814
       208.0004        139.0004
 -23869608.17749 -18587046.71549  20171595.4144   20171600.6684   20171596.0504
       245.0004        215.0004
 11 10 14  9 51 30.0000000  0  9G31G25G12G14G02G30G23G21G29
 -20403632.34949 -15886169.08649  21058217.0164   21058221.2384   21058217.7624
       240.0004        197.0004
 -19550070.56049 -14958675.06049  21113148.5964   21113156.6074   21113148.8764
       245.0004        200.0004
  -6815294.53449  -5287618.14249  23665611.7704   23665620.0944   23665610.6264
       212.0004        151.0004
   4600995.87549   3607327.65649  25172508.8534                   25172511.4144
       187.0004        118.0004
  -2810685.12949  -1817502.48149  23463236.3414   23463243.8994   23463236.9084
       215.0004        155.0004
 -23024465.90649 -17674667.50749  20137247.2934   20137252.3684   20137247.4474
       243.0004        199.0004
  -2358074.46049   -105671.09749  24958990.4454
       178.0004        111.0004
  -2943014.77949  -2270142.48349  24192610.9224   24192620.6894   24192613.1544
       203.0004        138.0004
 -23867974.01749 -18585773.36549  20171907.3424   20171911.3404   20171907.4554
       246.0004        214.0004
 11 10 14  9 52  0.0000000  0  9G31G25G12G14G02G30G23G21G29
 -20418997.97049 -15898142.30349  21055293.6484   21055297.6494   21055293.7044
       240.0004        198.0004
 -19490725.22349 -14912431.99349  21124441.7304   21124449.5634   21124441.9544
       245.0004        200.0004
  -6721430.05149  -5214477.16049  23683472.9434   23683481.5154   23683473.3114
       213.0004        151.0004
   4702857.56949   3686700.41549  25191891.0374
       174.0004        114.0004
  -2743633.37949  -1765254.44349  23475997.5284   23476002.6124   23475997.0334
       218.0004        156.0004
 -23058407.42349 -17701115.44449  20130789.7494   20130793.1104   20130788.5874
       243.0004        199.0004
  -2407196.05959    -23858.42959  24949639.2614
       168.0004         74.0004
  -3042106.71749  -2347356.87049  24173756.6174   24173767.1074   24173756.8214
       209.0004        143.0004
 -23865868.24949 -18584132.50549  20172307.6794   20172312.0814   20172308.0034
       246.0004        214.0004
 11 10 14  9 52 30.0000000  0  9G31G25G12G14G02G30G23G21G29
 -20433801.13549 -15909677.24849  21052476.5104   21052480.5794   21052476.6734
       240.0004        198.0004
 -19431043.82149 -14865927.06349  21135798.9724   21135806.6384   21135798.4514
       245.0004        198.0004
  -6627426.87149  -5141228.10649  23701363.7754   23701370.2054   23701362.4094
       215.0004        149.0004
   4804697.88149   3766056.54849  25211267.9004
       171.0004        113.0004
  -2676159.00749  -1712677.07049  23488837.3144   23488842.8114   23488837.1664
       220.0004        157.0004
 -23091898.85549 -17727212.66049  20124415.3184   20124420.2974   20124414.8954
       243.0004        199.0004
  -2455812.51549    -61822.50349  24940400.9184
       183.0004        111.0004
  -3141101.55849  -2424495.63649  24154920.2684   24154926.7294   24154919.3904
       211.0004        143.0004
 -23863290.85249 -18582124.15149  20172797.8354   20172802.7874   20172798.7984
       246.0004        214.0004
 11 10 14  9 53  0.0000000  0  9G31G25G12G14G02G30G23G21G29
 -20448040.63649 -15920772.97649  21049766.0224   21049771.1114   21049767.0874
       240.0004        197.0004
 -19371026.94549 -14819160.74049  21147220.2864   21147227.6464   21147220.1274
       246.0004        199.0004
  -6533286.08849  -5067871.82449  23719275.8004   23719284.5574   23719276.3004
       213.0004        149.0004
   4906513.93359     35064.72159  25230643.5804
       164.0004         74.0004
  -2608264.25749  -1659772.15749  23501758.3964   23501763.3834   23501757.4864
       219.0004        158.0004
 -23124938.81049 -17752958.09149  20118128.3294   20118133.4284   20118128.2084
       243.0004        199.0004
  -2503921.94849    -99414.11149  24931247.3324
       185.0004        109.0004
  -3239997.07549  -2501557.04249  24136099.7734   24136107.5634   24136098.5964
       208.0004        135.0004
 -23860242.95249 -18579749.16649  20173378.2894   20173382.5504   20173378.4394
       246.0004        214.0004
 11 10 14  9 53 30.0000000  0  8G31G25G12G02G30G23G21G29
 -20461715.83849 -15931428.99349  21047165.0954   21047168.8004   21047165.4344
       241.0004        199.0004
 -19310675.44449 -14772133.66549  21158703.9164   21158712.2324   21158703.8764
       243.0004        198.0004
  -6439008.33049  -4994408.82849  23737215.8504   23737224.1524   23737217.3934
       212.0004        148.0004
  -2539951.13849  -1606541.24949  23514756.6434   23514763.4334   23514756.3534
       216.0004        157.0004
 -23157526.09349 -17778350.78149  20111927.4504   20111932.0594   20111927.3644
       243.0004        200.0004
  -2551523.30659    -20073.57759  24922174.4784
       172.0004         74.0004
  -3338791.15149  -2578539.41949  24117299.8644   24117308.2594   24117300.1604
       213.0004        142.0004
 -23856725.15949 -18577008.04049  20174046.6174   20174051.9894   20174047.9484
       245.0004        214.0004
 11 10 14  9 54  0.0000000  0  8G31G25G12G02G30G23G21G29
 -20474826.24549 -15941644.89949  21044669.3624   21044673.7084   21044670.1264
       240.0004        198.0004
 -19249990.02349 -14724846.40349  21170252.5114   21170259.9294   21170252.6084
       245.0004        198.0004
  -6344594.57949  -4920839.85949  23755182.3704   23755190.5414   23755184.5324
       213.0004        146.0004
  -2471221.77749  -1552986.00049  23527835.5664   23527840.7984   23527834.8154
       216.0004        153.0004
 -23189659.59749 -17803389.88149  20105812.6184   20105816.8754   20105812.0894
       243.0004        200.0004
  -2598614.83559    -56763.21559  24913220.3884
       181.0004        108.0004
  -3437481.68249  -2655441.06049  24098520.5144   24098528.1124   24098518.7484
       210.0004        142.0004
 -23852738.26749 -18573901.37649  20174807.0124   20174810.7124   20174807.2564
       247.0004        215.0004
 11 10 14  9 54 30.0000000  0  8G31G25G12G02G30G23G21G29
 -20487370.87649 -15951419.94349  21042282.0804   21042286.6814   21042282.3724
       239.0004        198.0004
 -19188971.39549 -14677299.48549  21181863.8564   21181871.8194   21181864.0304
       243.0004        197.0004
  -6250046.46149  -4847166.17049  23773176.7344   23773184.1324   23773175.9114
       214.0004        146.0004
  -2402078.50949  -1499108.19449  23540993.2964   23540999.2864   23540994.2024
       217.0004        155.0004
 -23221338.07949 -17828074.41049  20099783.4124   20099788.9454   20099783.2474
       243.0004        200.0004
  -2645194.79849    -93051.99949  24904358.3344
       178.0004        112.0004
  -3536066.04449  -2732259.98249  24079757.8784   24079766.6254   24079757.6894
       206.0004        141.0004
 -23848283.09049 -18570429.81449  20175654.1184   20175658.4374   20175654.1744
       245.0004        215.0004
 11 10 14  9 55  0.0000000  0  8G31G25G12G02G30G23G21G29
 -20499349.14949 -15960753.66849  21040003.0784   21040007.3804   21040003.7294
       240.0004        198.0004
 -19127620.49349 -14629493.65649  21193539.3514   21193546.1324   21193538.6224
       244.0004        197.0004
  -6155364.49749  -4773388.19449  23791194.1074   23791200.7764   23791194.3824
       213.0004        143.0004
  -2332523.68449  -1444909.67949  23554230.5154   23554234.1714   23554229.4024
       219.0004        157.0004
 -23252560.57949 -17852403.63349  20093842.5834   20093847.6804   20093842.2084
       243.0004        200.0004
  -2691262.07249    -16397.58249  24895594.7344
       183.0004         74.0004
  -3634542.79349  -2808995.06549  24061021.5724   24061026.8444   24061021.0724
       212.0004        141.0004
 -23843360.64249 -18566594.15249  20176590.4264   20176595.1864   20176591.4004
       246.0004        215.0004
 11 10 14  9 55 30.0000000  0  8G31G25G12G02G30G23G21G29
 -20510759.53549 -15969644.90549  21037831.9544   21037835.8574   21037831.9404
       240.0004        198.0004
 -19065937.18349 -14581428.81649  21205276.4494   21205284.4594   21205276.4174
       243.0004        197.0004
  -6060548.69349  -4699505.96449  23809236.1174   23809243.2694   23809236.6534
       212.0004        143.0004
  -2262558.49749  -1390391.43849  23567540.8604   23567549.4194   23567541.8504
       215.0004        157.0004
 -23283325.08549 -17876375.98549  20087988.8744   20087993.2304   20087988.3134
       244.0004        200.0004
  -2736814.18659    -51835.73459  24886919.5484
       179.0004        107.0004
  -3732908.29049  -2885643.47249  24042301.2274   24042310.0634   24042301.8414
       209.0004        143.0004
 -23837970.94949 -18562394.40649  20177616.6224   20177620.8474   20177617.0644
       246.0004        215.0004
 11 10 14  9 56  0.0000000  0  8G31G25G12G02G30G23G21G29
 -20521601.72849 -15978093.37049  21035768.5364   21035773.1214   21035768.8724
       241.0004        199.0004
 -19003922.50749 -14533105.77649  21217077.8914   21217085.4514   21217077.3384
       242.0004        196.0004
  -5965600.16149  -4625520.27149  23827304.1994   23827313.2384   23827304.6044
       208.0004        140.0004
  -2192185.52549  -1335555.45749  23580935.7434   23580940.5034   23580935.4014
       218.0004        157.0004
 -23313630.61449 -17899990.68949  20082221.7384   20082226.0574   20082221.3704
       242.0004        200.0004
  -2781849.77849    -86835.84049  24878355.9194
       184.0004        108.0004
  -3831160.83449  -2962203.74449  24023603.2954   24023612.3754   24023603.5494
       210.0004        141.0004
 -23832115.22049 -18557831.51049  20178731.0854   20178735.0554   20178731.4874
       246.0004        215.0004
 11 10 14  9 56 30.0000000  0  8G31G25G12G02G30G23G21G29
 -20531875.08849 -15986098.60449  21033814.7544   21033817.8934   21033814.6224
       241.0004        198.0004
 -18941577.54049 -14484525.34749  21228942.1224   21228949.2374   21228941.6324
       244.0004        196.0004
  -5870520.36049  -4551432.30149  23845397.0474   23845405.1184   23845396.7194
       207.0004        140.0004
  -2121407.38649  -1280403.75149  23594404.0974   23594408.2584   23594405.2634
       221.0004        155.0004
 -23343476.42549 -17923247.17049  20076542.5854   20076546.6664   20076541.9534
       242.0004        201.0004
  -2826367.79849    -13532.95049  24869882.1644
       170.0004         74.0004
  -3929298.66949  -3038674.66749  24004931.7604   24004938.3154   24004931.7184
       213.0004        142.0004
 -23825794.47749 -18552906.26049  20179933.6484   20179938.1514   20179933.8404
       245.0004        214.0004
 11 10 14  9 57  0.0000000  0  8G31G25G12G02G30G23G21G29
 -20541578.70149 -15993659.88749  21031967.4894   21031970.7554   21031967.8344
       240.0004        198.0004
 -18878902.55949 -14435687.77649  21240867.9224   21240876.1434   21240868.1894
       242.0004        196.0004
  -5775309.21749  -4477241.96649  23863516.6914   23863523.5864   23863514.9124
       209.0004        140.0004
  -2050225.93749  -1224937.77549  23607948.9484   23607954.7224   23607949.0214
       218.0004        153.0004
 -23372860.87749 -17946144.14949  20070950.9184   20070955.1954   20070950.0124
       242.0004        200.0004
  -2870366.69659    -47871.10559  24861506.8144
       177.0004        108.0004
  -4027319.11749  -3115054.16249  23986277.9984   23986282.7864   23986276.9104
       212.0004        141.0004
 -23819009.19549 -18547619.04649  20181224.6404   20181229.2234   20181224.9414
       245.0004        214.0004
 11 10 14  9 57 30.0000000  0  8G31G25G12G02G30G23G21G29
 -20550711.92149 -16000776.68949  21030228.5714   21030233.5614   21030229.0694
       239.0004        198.0004
 -18815898.44049 -14386593.72849  21252857.0944   21252865.5874   21252857.2364
       241.0004        196.0004
  -5679968.62549  -4402950.75649  23881657.1394   23881667.4614   23881655.9804
       205.0004        137.0004
  -1978643.05049  -1169159.00249  23621570.6604   23621576.1484   23621571.4334
       216.0004        153.0004
 -23401782.89049 -17968680.78449  20065446.5934   20065451.5874   20065446.4494
       242.0004        200.0004
  -2913845.01849    -81847.35349  24853233.5644
       172.0004        107.0004
  -4125220.06749  -3191340.41049  23967648.2444   23967654.3974   23967646.1784
       212.0004        142.0004
 -23811760.46549 -18541970.69849  20182604.8024   20182608.6644   20182604.9434
       246.0004        215.0004
 11 10 14  9 58  0.0000000  0  8G31G25G12G02G30G23G21G29
 -20559274.53549 -16007448.87249  21028599.6814   21028604.4304   21028600.1234
       240.0004        199.0004
 -18752566.12149 -14337243.94749  21264909.2614   21264917.3494   21264909.3404
       242.0004        195.0004
  -5584499.06349  -4328559.09949  23899825.0974   23899834.3074   23899825.8234
       202.0004        135.0004
  -1906661.36149  -1113069.45649  23635269.4414   23635273.9454   23635267.9194
       218.0004        155.0004
 -23430241.55649 -17990856.37049  20060031.1214   20060035.5184   20060030.8394
       241.0004        200.0004
  -2956801.29549    -10305.91949  24845061.1294
       184.0004         74.0004
  -4222999.42649  -3267531.94449  23949043.4224   23949048.3164   23949040.0684
       219.0004        147.0004
 -23804049.14949 -18535961.88949  20184071.9924   20184076.0304   20184072.1634
       246.0004        214.0004
 11 10 14  9 58 30.0000000  0  8G31G25G12G02G30G23G21G29
 -20567265.88149 -16013675.91149  21027078.8754   21027083.3404   21027079.7334
       241.0004        199.0004
 -18688906.27649 -14287638.95149  21277023.8534   21277031.7134   21277023.6554
       242.0004        196.0004
  -5488901.58149  -4254067.77549  23918017.7324   23918025.1214   23918020.7264
       202.0004        135.0004
  -1834283.13649  -1056670.93249  23649041.4084   23649046.5654   23649042.1914
       219.0004        156.0004
 -23458235.60549 -18012669.91849  20054704.1474   20054708.7274   20054703.6684
       241.0004        200.0004
  -2999234.25859    -43423.27859  24836989.2914
       178.0004        106.0004
  -4320654.80049  -3343626.88049  23930459.3574   23930463.7394   23930456.8134
       217.0004        145.0004
 -23795876.13949 -18529593.32049  20185626.9614   20185631.3834   20185627.1084
       246.0004        214.0004
 11 10 14  9 59  0.0000000  0  8G31G25G12G02G30G23G21G29
 -20574684.63449 -16019456.77849  21025667.8344   21025671.4314   21025667.6994
       241.0004        199.0004
 -18624919.09249 -14237778.88449  21289199.9824   21289207.8774   21289200.2764
       244.0004        196.0004
  -5393176.34749  -4179476.86149  23936234.6294   23936243.8404   23936234.7584
       199.0004        132.0004
  -1761509.92649   -999964.63449  23662890.1714   23662895.3834   23662890.6634
       217.0004        154.0004
 -23485763.31549 -18034120.07549  20049465.7654   20049470.0764   20049464.9694
       241.0004        199.0004
  -3041140.97159    -76190.16559  24829001.4264
       173.0004        108.0004
  -4418183.47649  -3419623.10349  23911897.8024   23911905.3974   23911897.4074
       215.0004        145.0004
 -23787241.92649 -18522865.37549  20187269.9434   20187274.4724   20187270.1374
       245.0004        214.0004
 11 10 14  9 59 30.0000000  0  8G31G25G12G02G30G23G21G29
 -20581530.58649 -16024791.30049  21024364.5494   21024368.5224   21024364.9254
       241.0004        199.0004
 -18560605.68549 -14187664.62149  21301438.5514   21301446.9724   21301438.4084
       243.0004        197.0004
  -5297324.72049  -4104787.48749  23954476.2374   23954482.2274   23954473.3554
       197.0004        133.0004
  -1688344.30849   -942952.55249  23676813.5954   23676818.5684   23676813.3194
       216.0004        152.0004
 -23512823.98349 -18055206.30249  20044315.8284   20044321.1324   20044315.6744
       241.0004        200.0004
  -3082522.19749     -7214.31649  24821137.0694
       186.0004         74.0004
  -4515583.86549  -3495519.30349  23893360.5984   23893370.9374   23893362.3894
       213.0004        148.0004
 -23778147.59649 -18515778.90149  20189000.7254   20189005.0454   20189001.0014
       245.0004        214.0004
 11 10 14 10  0  0.0000000  0  8G31G25G12G02G30G23G21G29
 -20587803.26549 -16029679.12449  21023170.9114   21023175.2044   21023171.5284
       240.0004        199.0004
 -18495966.75349 -14137296.71249  21313739.0794   21313746.8944   21313739.1164
       244.0004        196.0004
  -5201347.28349  -4030000.03649  23972735.2984   23972746.9014   23972737.8784
       203.0004        135.0004
  -1614788.68549   -885636.58349  23690810.6114   23690816.0264   23690809.6574
       219.0004        154.0004
 -23539416.33349 -18075927.60949  20039255.3654   20039260.5174   20039254.9424
       241.0004        200.0004
  -3123375.86249    -39042.86349  24813364.0724
       184.0004        104.0004
  -4612853.75849  -3571313.87049  23874852.4814   23874859.5294   23874852.8964
       212.0004        145.0004
 -23768593.89149 -18508334.47549  20190818.1034   20190822.7454   20190818.9264
       245.0004        213.0004
 11 10 14 10  0 30.0000000  0  8G31G25G12G02G30G23G21G29
 -20593501.89849 -16034119.63149  21022086.4774   21022090.8174   21022086.9884
       240.0004        199.0004
 -18431002.92349 -14086675.61649  21326101.1484   21326109.5524   21326101.2524
       243.0004        196.0004
  -5105245.32049  -3955115.58149  23991027.8334   23991035.3944   23991025.7964
       203.0004        135.0004
  -1540844.93449   -828018.16549  23704881.7254   23704887.3794   23704881.5484
       220.0004        155.0004
 -23565539.17649 -18096283.07049  20034285.0014   20034289.7864   20034284.5544
       242.0004        200.0004
  -3163700.21649    -70450.03849  24805687.7054
       188.0004        107.0004
  -4709990.29549  -3647004.50649  23856367.1384   23856374.6034   23856367.4004
       213.0004        143.0004
 -23758581.78949 -18500532.84249  20192724.6814   20192728.2974   20192724.8214
       247.0004        214.0004
 11 10 14 10  1  0.0000000  0  8G31G25G12G02G30G23G21G29
 -20598626.41649 -16038112.78449  21021111.4214   21021115.3974   21021111.7634
       240.0004        198.0004
 -18365715.40249 -14035802.30549  21338525.9054   21338532.8124   21338525.0074
       244.0004        196.0004
  -5009019.86049  -3880134.89349  24009338.8434   24009345.7834   24009336.7884
       204.0004        136.0004
  -1466515.57249   -770099.29349  23719025.9984   23719031.7264   23719025.9844
       219.0004        154.0004
 -23591191.82149 -18116272.12849  20029403.0214   20029408.0564   20029402.7684
       241.0004        200.0004
  -3203494.51949     -4393.20449  24798114.2394
       182.0004         74.0004
  -4806992.14849  -3722590.25749  23837909.9854   23837916.8274   23837909.3494
       214.0004        147.0004
 -23748112.61249 -18492375.03949  20194716.0564   20194720.3744   20194716.1084
       245.0004        214.0004
 11 10 14 10  1 30.0000000  0  8G31G25G12G02G30G23G21G29
 -20603175.55249 -16041657.58949  21020246.1264   21020249.5134   21020246.5444
       241.0004        199.0004
 -18300104.34749 -13984676.90249  21351010.9084   21351018.7494   21351010.6094
       243.0004        196.0004
  -4912671.12749  -3805058.12149  24027670.3584   24027679.1054   24027672.2824
       203.0004        135.0004
  -1391802.67349   -711881.55249  23733242.6244   23733250.5254   23733243.0474
       216.0004        153.0004
 -23616372.51849 -18135893.44649  20024611.3874   20024616.7984   20024610.8774
       241.0004        200.0004
  -3242756.81849    -34980.07449  24790649.7484
       182.0004        107.0004
  -4903856.20449  -3798068.59649  23819476.3594   23819483.9824   23819474.5474
       213.0004        147.0004
 -23737186.68149 -18483861.34049  20196794.6184   20196799.5484   20196795.3284
       245.0004        214.0004
 11 10 14 10  2  0.0000000  0  8G31G25G12G02G30G23G21G29
 -20607149.14949 -16044753.90949  21019489.5094   21019493.6114   21019489.7644
       240.0004        198.0004
 -18234170.67549 -13933300.09649  21363557.4974   21363565.6434   21363557.2014
       243.0004        195.0004
  -4816200.23949  -3729886.19549  24046028.7524   24046036.6634   24046031.1374
       201.0004        133.0004
  -1316708.20849   -653366.48149  23747535.0794   23747538.5784   23747533.1874
       220.0004        152.0004
 -23641080.28749 -18155146.24449  20019909.9294   20019914.8994   20019909.6464
       242.0004        200.0004
  -3281486.36059    -65135.56059  24783276.9304
       178.0004        108.0004
  -5000580.53249  -3873438.06049  23801073.6924   23801077.3664   23801070.5324
       220.0004        146.0004
 -23725805.07249 -18474992.55849  20198961.3334   20198965.4934   20198961.5624
       245.0004        213.0004
 11 10 14 10  2 30.0000000  0  8G31G25G12G02G30G23G21G29
 -20610546.94149 -16047401.56249  21018842.8444   21018847.2104   21018843.4774
       240.0004        198.0004
 -18167915.05449 -13881672.42249  21376166.1524   21376173.2694   21376165.6334
       244.0004        196.0004
  -4719607.87249  -3654619.55449  24064408.8034   24064421.2124   24064410.1464
       197.0004        134.0004
  -1241234.54049   -594555.93449  23761896.2994   23761900.7504   23761895.3534
       220.0004        154.0004
 -23665314.03649 -18174029.67849  20015298.3514   20015303.0434   20015298.0584
       241.0004        201.0004
  -3319681.36559     -1719.72259  24776005.7274
       177.0004         74.0004
  -5097162.97349  -3948697.02049  23782693.1174   23782697.6844   23782691.7704
       219.0004        146.0004
 -23713968.66449 -18465769.39149  20201213.3234   20201217.6774   20201213.7634
       245.0004        213.0004
 11 10 14 10  3  0.0000000  0  8G31G25G12G02G30G23G21G29
 -20613368.69049 -16049600.34449  21018305.8974   21018310.2024   21018306.0124
       240.0004        198.0004
 -18101338.72549 -13829794.85349  21388835.2984   21388842.5694   21388834.9164
       244.0004        195.0004
  -4622895.33849  -3579259.31349  24082814.0354   24082824.4764   24082815.9584
       200.0004        134.0004
  -1165384.47649   -535452.09449  23776330.9814   23776335.8304   23776330.0204
       221.0004        154.0004
 -23689073.08449 -18192543.21449  20010776.5314   20010781.8704   20010776.0924
       240.0004        200.0004
  -3357341.12549    -31073.51849  24768832.5224
       184.0004        101.0004
  -5193601.78549  -4023844.07349  23764339.7364   23764347.9924   23764339.6714
       218.0004        149.0004
 -23701678.84549 -18456192.92349  20203552.6154   20203556.3714   20203552.6464
       245.0004        213.0004
 11 10 14 10  3 30.0000000  0  8G31G25G12G02G30G23G21G29
 -20615613.18649 -16051349.32649  21017879.5914   21017883.0944   21017879.8784
       241.0004        199.0004
 -18034441.90949 -13777667.53849  21401564.6384   21401572.7404   21401564.5624
       243.0004        195.0004
  -4526063.19249  -3503805.87449  24101242.3894   24101247.4904   24101241.4124
       200.0004        131.0004
  -1089159.57149   -476056.18349  23790835.4684   23790840.0434   23790835.1444
       220.0004        153.0004
 -23712355.81149 -18210685.59049  20006346.8344   20006351.3924   20006346.2974
       242.0004        201.0004
  -3394464.01449    -60039.99349  24761776.6364
       180.0004        112.0004
  -5289893.95749  -4098876.81849  23746015.9914   23746023.7004   23746016.1154
       217.0004        149.0004
 -23688936.11049 -18446263.52549  20205977.1184   20205981.4504   20205977.8404
       245.0004        213.0004
 11 10 14 10  4  0.0000000  0  7G31G25G12G02G30G21G29
 -20617280.30849 -16052648.40849  21017561.8794   21017566.1864   21017562.0774
       241.0004        198.0004
 -17967225.36349 -13725291.09449  21414355.4384   21414364.0084   21414355.4694
       243.0004        195.0004
  -4429112.23449  -3428259.81149  24119689.6634   24119697.1054   24119689.6764
       200.0004        126.0004
  -1012562.28749   -416370.09049  23805411.7514   23805417.5404   23805411.1144
       218.0004        150.0004
 -23735161.03049 -18228455.89049  20002006.2334   20002011.8154   20002006.2674
       241.0004        201.0004
  -5386037.27949  -4173793.61349  23727719.7694   23727726.6824   23727720.6604
       216.0004        147.0004
 -23675741.14449 -18435981.74949  20208487.5204   20208492.5054   20208487.8064
       245.0004        213.0004
 11 10 14 10  4 30.0000000  0  8G31G25G12G02G30G23G21G29
 -20618369.81249 -16053497.38649  21017354.9084   21017358.7724   21017354.8594
       240.0004        199.0004
 -17899690.15849 -13672666.34049  21427207.3544   21427215.3734   21427207.2924
       242.0004        194.0004
  -4332043.37549  -3352621.88049  24138162.1434   24138168.5144   24138163.0904
       195.0004        127.0004
   -935595.09949   -356395.75949  23820057.3924   23820062.0104   23820056.6884
       216.0004        149.0004
 -23757488.05549 -18245853.55449  19997758.5724   19997762.9264   19997757.9164
       242.0004        201.0004
  -3467094.06349    -27420.38249  24747963.5024
       185.0004         94.0004
  -5482029.86149  -4248592.96349  23709452.9074   23709460.9794   23709453.2024
       214.0004        146.0004
 -23662095.38749 -18425348.69949  20211084.6954   20211088.9904   20211085.1014
       245.0004        213.0004
 11 10 14 10  5  0.0000000  0  8G31G25G12G02G30G23G21G29
 -20618881.63049 -16053896.22349  21017256.3484   21017261.2634   21017257.1804
       240.0004        198.0004
 -17831837.20349 -13619793.97849  21440120.0634   21440127.2114   21440119.5094
       244.0004        195.0004
  -4234857.43949  -3276892.71249  24156655.8884   24156666.1934   24156656.2774
       194.0004        129.0004
   -858260.32649   -296134.99149  23834772.6574   23834779.1184   23834774.0234
       215.0004        150.0004
 -23779335.90949 -18262877.84349  19993600.2894   19993605.3594   19993600.0484
       242.0004        201.0004
  -3502599.38249    -55211.34649  24741200.1024
       191.0004        111.0004
  -5577869.64049  -4323273.18049  23691217.1524   23691222.3594   23691215.4464
       217.0004        149.0004
 -23647999.95049 -18414365.25449  20213767.3094   20213771.2534   20213767.0764
       245.0004        213.0004
 11 10 14 10  5 30.0000000  0  8G31G25G12G02G30G23G21G29
 -20618815.15749 -16053844.45549  21017269.9204   21017273.9694   21017270.3144
       240.0004        198.0004
 -17763667.06149 -13566674.47449  21453091.6424   21453099.8284   21453091.6664
       242.0004        193.0004
  -4137555.98049  -3201073.54949  24175171.2204   24175178.3214   24175173.4124
       195.0004        128.0004
   -780560.04749   -235589.43049  23849559.6944   23849564.7764   23849559.7854
       216.0004        151.0004
 -23800703.34249 -18279527.79049  19989534.2724   19989539.4534   19989533.9604
       242.0004        201.0004
  -3537562.80749    -82580.02049  24734548.3184
       188.0004        107.0004
  -5673554.19849  -4397832.46549  23673009.3604   23673014.4194   23673008.4014
       216.0004        149.0004
 -23633455.60649 -18403032.01849  20216534.3054   20216539.1374   20216534.9074
       245.0004        213.0004
 11 10 14 10  6  0.0000000  0  8G31G25G12G02G30G23G21G29
 -20618169.77549 -16053341.58549  21017392.3474   21017396.5994   21017393.0504
       240.0004        198.0004
 -17695180.39449 -13513308.31249  21466124.6074   21466131.8424   21466124.5304
       243.0004        193.0004
  -4040139.30249  -3125164.59049  24193709.2864   24193719.4744   24193711.8894
       196.0004        127.0004
   -702496.50149   -174760.80649  23864414.8224   23864420.7374   23864415.1274
       216.0004        151.0004
 -23821589.17349 -18295802.46049  19985559.5934   19985564.8564   19985559.6554
       241.0004        201.0004
  -3571983.87859    -24362.34259  24727982.4354
       179.0004         90.0004
  -5769081.21349  -4472268.98649  23654830.6464   23654834.3054   23654829.1764
       214.0004        145.0004
 -23618462.97349 -18391349.45949  20219388.3384   20219391.9614   20219388.3434
       246.0004        213.0004
 11 10 14 10  6 30.0000000  0  8G31G25G12G02G30G23G21G29
 -20616945.41049 -16052387.54349  21017625.1704   21017629.6194   21017625.6544
       240.0004        198.0004
 -17626378.11749 -13459696.22249  21479217.4724   21479224.8824   21479216.7784
       241.0004        192.0004
  -3942608.22949  -3049166.47749  24212270.2034   24212276.1534   24212268.0104
       190.0004        126.0004
   -624072.11449   -113651.01649  23879339.5994   23879345.3734   23879339.7804
       217.0004        151.0004
 -23841992.49749 -18311701.14449  19981677.1464   19981681.9614   19981676.9414
       242.0004        201.0004
  -3605861.31649    -50750.95949  24721556.1734
       180.0004        110.0004
  -5864448.64449  -4546581.14349  23636680.5914   23636687.6314   23636680.6044
       215.0004        148.0004
 -23603023.65649 -18379318.83749  20222324.8164   20222330.0964   20222325.3274
       244.0004        213.0004
 11 10 14 10  7  0.0000000  0  8G31G25G12G02G30G23G21G29
 -20615141.62249 -16050982.01949  21017969.2194   21017972.8204   21017969.7004
       241.0004        199.0004
 -17557260.45949 -13405838.37549  21492369.4514   21492377.7574   21492369.6844
       242.0004        192.0004
  -3844963.06649  -2973079.52249  24230853.2424   24230858.6714   24230853.9004
       194.0004        126.0004
   -545288.76749    -52261.49849  23894331.4754   23894336.7574   23894329.3624
       215.0004        149.0004
 -23861911.68549 -18327222.58749  19977886.5974   19977891.7024   19977886.2074
       241.0004        201.0004
  -3639193.59159    -76714.82459  24715207.9844
       177.0004        112.0004
  -5959653.27049  -4620766.43449  23618562.8694   23618571.6424   23618563.4794
       213.0004        151.0004
 -23587137.82949 -18366940.29049  20225349.1824   20225353.1774   20225349.4914
       246.0004        213.0004
 11 10 14 10  7 30.0000000  0  8G31G25G12G02G30G23G21G29
 -20612757.96749 -16049124.64249  21018422.8944   21018426.5424   21018423.2754
       241.0004        199.0004
 -17487828.84649 -13351735.88349  21505583.1994   21505590.1634   21505582.0764
       241.0004        192.0004
  -3747205.43659  -2896904.90359  24249447.3454   24249461.4734   24249451.9424
       178.0004        126.0004
   -466149.17849      9405.57449  23909390.7114   23909396.3814   23909390.1834
       215.0004        151.0004
 -23881346.33149 -18342366.47249  19974189.0994   19974193.5594   19974188.6614
       242.0004        202.0004
  -3671980.06959    -21038.03759  24708961.8134
       179.0004         74.0004
  -6054693.75749  -4694823.81049  23600474.2654   23600485.4604   23600476.5764
       211.0004        146.0004
 -23570807.10549 -18354215.06549  20228456.5764   20228460.5514   20228456.4484
       245.0004        212.0004
 11 10 14 10  8  0.0000000  0  8G31G25G12G02G30G23G21G29
 -20609795.08049 -16046815.92749  21018986.8064   21018990.4964   21018987.0974
       241.0004        199.0004
 -17418084.60449 -13297389.80149  21518854.6874   21518862.4274   21518854.0474
       241.0004        192.0004
  -3649336.75249  -2820643.70949  24268075.6524   24268085.4424   24268077.5604
       192.0004        127.0004
   -386655.95349     71348.22849  23924517.1444   23924525.2434   23924516.7294
       215.0004        151.0004
 -23900296.01249 -18357132.46149  19970582.4004   19970587.5304   19970581.8834
       242.0004        201.0004
  -3704219.99149    -46173.49049  24702835.6154
       187.0004        112.0004
  -6149568.43349  -4768752.01649  23582422.9514   23582430.9324   23582422.9164
       214.0004        147.0004
 -23554033.02749 -18341144.37549  20231648.1254   20231652.6144   20231649.3234
       245.0004        213.0004
 11 10 14 10  8 30.0000000  0  8G31G25G12G02G30G23G21G29
 -20606251.98049 -16044055.09349  21019660.2104   21019664.7974   21019660.8034
       240.0004        198.0004
 -17348027.57549 -13242799.98949  21532185.0374   21532193.7164   21532185.8534
       240.0004        191.0004
  -3551357.17149  -2744296.15149  24286724.9644   24286729.5844   24286719.7114
       194.0004        128.0004
   -306811.01349    133564.94249  23939711.1894   23939716.4864   23939711.0634
       214.0004        149.0004
 -23918758.70449 -18371518.96949  19967068.5514   19967073.9484   19967068.3944
       241.0004        201.0004
  -3735911.61259    -70882.04959  24696797.0934
       172.0004        111.0004
  -6244274.21849  -4842548.61149  23564403.9564   23564410.1854   23564403.3564
       218.0004        150.0004
 -23536815.76649 -18327728.34049  20234924.9834   20234929.0814   20234925.0424
       245.0004        212.0004
 11 10 14 10  9  0.0000000  0  8G31G25G12G02G30G23G21G29
 -20602128.78949 -16040842.23549  21020445.6244   21020449.3354   21020445.9364
       240.0004        198.0004
 -17277658.92349 -13187967.33149  21545576.9784   21545584.4564   21545576.4214
       241.0004        191.0004
  -3453267.54649  -2667862.83449  24305385.2934   24305398.8574   24305388.6164
       185.0004        129.0004
   -226616.48949    196054.03549  23954972.3114   23954978.7454   23954972.2664
       215.0004        150.0004
 -23936733.72849 -18385525.48249  19963649.5144   19963653.5334   19963648.9964
       243.0004        202.0004
  -3767054.26659    -17977.63059  24690876.9544
       174.0004         74.0004
  -6338809.36449  -4916212.20249  23546412.5184   23546418.9344   23546411.4774
       216.0004        152.0004
 -23519156.58349 -18313967.95249  20238284.7024   20238289.5874   20238285.4114
       244.0004        212.0004
 11 10 14 10  9 30.0000000  0  8G31G25G12G02G30G23G21G29
 -20597425.10949 -16037177.04049  21021339.9564   21021344.4394   21021340.5554
       241.0004        198.0004
 -17206979.15349 -13132892.25749  21559025.6704   21559035.2324   21559026.1194
       239.0004        191.0004
  -3355068.28849  -2591344.11549  24324074.8154   24324086.8674   24324073.6164
       191.0004        126.0004
   -146074.58749    258813.84049  23970297.9734   23970304.7274   23970299.4964
       212.0004        149.0004
 -23954219.88849 -18399151.06449  19960320.9214   19960325.9134   19960320.3894
       242.0004        201.0004
  -3797646.65649    -41894.51449  24685055.5904
       181.0004        108.0004
  -6433171.19549  -4989740.75949  23528455.5554   23528462.4524   23528455.2374
       218.0004        150.0004
 -23501056.33749 -18299863.88049  20241730.2084   20241734.1124   20241730.2184
       245.0004        212.0004
 11 10 14 10 10  0.0000000  0  9G31G25G10G12G02G30G23G21G29
 -20592140.90049 -16033059.50049  21022346.3464   21022350.0364   21022346.7534
       240.0004        199.0004
 -17135989.59649 -13077575.80749  21572535.3514   21572543.6314   21572535.1984
       239.0004        192.0004
      6089.15949      1197.37649  25013778.1694
       204.0004         74.0004
  -3256761.31349  -2514741.46349  24342783.0744   24342790.4474   24342777.5574
       182.0004        122.0004
    -65188.41049    321841.86849  23985691.6154   23985698.0374   23985691.9384
       216.0004        151.0004
 -23971216.64849 -18412395.30049  19957087.1354   19957091.4834   19957086.8364
       244.0004        201.0004
  -3827688.31449    -65390.83049  24679342.0544
       186.0004        111.0004
  -6527357.98849  -5063132.97749  23510531.8064   23510538.9134   23510533.7084
       216.0004        149.0004
 -23482516.59749 -18285417.34849  20245257.2274   20245262.2964   20245257.6014
       244.0004        212.0004
 11 10 14 10 10 30.0000000  0  8G31G25G12G02G30G23G21G29
 -20586276.31749 -16028489.70649  21023462.4124   21023465.8694   21023462.9264
       241.0004        198.0004
 -17064691.26449 -13022018.72349  21586102.6144   21586111.1464   21586102.6144
       239.0004        190.0004
  -3158347.37049  -2438055.45249  24361511.1574   24361520.1094   24361514.9704
       187.0004        123.0004
     16039.88949    385136.50249  24001149.6484   24001155.4714   24001149.6594
       218.0004        151.0004
 -23987723.23349 -18425257.57649  19953946.6644   19953950.2574   19953945.8054
       243.0004        202.0004
  -3857178.53849    -15483.39449  24673723.3654
       184.0004         74.0004
  -6621367.71649  -5136387.17049  23492641.6964   23492650.6414   23492642.9404
       218.0004        154.0004
 -23463538.38649 -18270629.13249  20248868.7434   20248873.3424   20248869.3154
       244.0004        212.0004
 11 10 14 10 11  0.0000000  0  8G31G25G12G02G30G23G21G29
 -20579830.97249 -16023467.37849  21024688.9174   21024692.4394   21024688.9834
       241.0004        198.0004
 -16993084.35849 -12966221.21349  21599729.3864   21599737.4604   21599729.0504
       241.0004        190.0004
  -3059826.92849  -2361286.48249  24380252.1864                   24380260.2584
       172.0004        119.0004
     97608.47949    448696.27549  24016671.7954   24016677.0974   24016671.0044
       217.0004        152.0004
 -24003738.07649 -18437736.68249  19950897.2584   19950903.0424   19950897.2064
       242.0004        201.0004
  -3886115.85649    -38101.84949  24668219.8634
       194.0004        111.0004
  -6715197.46649  -5209501.11249  23474789.4924   23474794.3584   23474788.6204
       221.0004        154.0004
 -23444122.39149 -18255499.79649  20252564.1514   20252568.0434   20252564.0304
       245.0004        212.0004
 11 10 14 10 11 30.0000000  0  8G31G25G12G02G30G23G21G29
 -20572804.52849 -16017992.24449  21026025.4514   21026029.6924   21026026.1134
       241.0004        198.0004
 -16921169.78149 -12910183.95349  21613413.8264   21613422.7124   21613413.7334
       239.0004        190.0004
  -2961200.67949  -2284435.05249  24399030.7234   24399035.4434   24399023.4724
       192.0004        124.0004
    179515.15449    512519.47349  24032257.0204   24032264.3364   24032256.6884
       215.0004        150.0004
 -24019260.31049 -18449831.93949  19947945.1794   19947949.2394   19947944.4454
       243.0004        202.0004
  -3914499.61249    -60302.66849  24662812.5764
       182.0004        104.0004
  -6808845.12849  -5282473.19449  23456969.6654   23456973.7264   23456968.7754
       222.0004        153.0004
 -23424269.70049 -18240030.18649  20256341.0734   20256346.0374   20256341.7514
       244.0004        212.0004
 11 10 14 10 12  0.0000000  0  8G31G25G12G02G30G23G21G29
 -20565197.11349 -16012064.40049  21027473.0844   21027477.5984   21027473.6954
       240.0004        198.0004
 -16848948.36149 -12853907.60649  21627157.2164   21627166.1304   21627157.4644
       239.0004        189.0004
  -2862469.64049  -2207501.98749  24417816.0154                   24417815.2274
       189.0004        119.0004
    261757.17749    576604.01049  24047908.7084   24047914.4374   24047907.1714
       216.0004        150.0004
 -24034289.02549 -18461542.63049  19945084.2404   19945089.4614   19945083.9054
       242.0004        202.0004
  -3942328.52049    -12774.68049  24657518.1534
       176.0004         74.0004
  -6902308.85149  -5355301.93849  23439183.2114   23439188.0964   23439181.2604
       222.0004        153.0004
 -23403981.25849 -18224221.02649  20260202.6894   20260206.7894   20260202.8874
       244.0004        212.0004
 11 10 14 10 12 30.0000000  0  8G31G25G12G02G30G23G21G29
 -20557009.10549 -16005684.15049  21029030.6094   21029035.7854   21029031.3684
       239.0004        199.0004
 -16776421.50049 -12797393.23349  21640958.9634   21640967.3334   21640959.1254
       239.0004        189.0004
  -2763635.41159  -2130488.52059  24436615.9934                   24436620.6154
       179.0004        121.0004
    344331.82349    640947.71849  24063620.6504   24063627.8154   24063621.0854
       215.0004        149.0004
 -24048823.76849 -18472868.41149  19942318.0004   19942323.6264   19942318.3204
       243.0004        202.0004
  -3969602.30249    -33984.46549  24652330.5474
       180.0004        107.0004
  -6995586.65149  -5427985.82849  23421431.2394   23421437.5934   23421431.2264
       219.0004        154.0004
 -23383258.99049 -18208073.82149  20264145.6434   20264150.2104   20264145.8704
       244.0004        211.0004
 11 10 14 10 13  0.0000000  0  8G31G25G12G02G30G23G21G29
 -20548239.98149 -15998851.07949  21030699.1164   21030704.1304   21030699.9814
       240.0004        198.0004
 -16703589.59049 -12740641.17849  21654818.7044   21654826.9434   21654818.5904
       239.0004        189.0004
  -2664698.21249  -2053394.84149  24455448.7024                   24455448.9654
       184.0004        119.0004
    427236.88249    705548.90349  24079397.9864   24079404.7134   24079397.8024
       216.0004        151.0004
 -24062863.21649 -18483808.26049  19939648.3104   19939652.1004   19939647.6224
       244.0004        203.0004
  -3996320.02349    -54746.73849  24647247.9664
       184.0004        109.0004
  -7088675.92049  -5500522.77249  23403715.2404   23403723.8784   23403716.5094
       216.0004        153.0004
 -23362103.34649 -18191588.93049  20268171.5444   20268176.0684   20268172.0294
       244.0004        211.0004
 11 10 14 10 13 30.0000000  0  8G31G25G12G02G30G23G21G29
 -20538889.80449 -15991565.24849  21032479.7664   21032483.5484   21032480.0934
       241.0004        198.0004
 -16630453.48049 -12683652.08449  21668736.2114   21668744.4814   21668736.4254
       239.0004        190.0004
  -2565659.03749      3281.60949  24474300.3054
       191.0004         74.0004
    510470.68449    770406.23249  24095235.5614   24095242.6484   24095236.5984
       216.0004        150.0004
 -24076406.42249 -18494361.41949  19937069.8054   19937075.2134   19937069.1374
       242.0004        202.0004
  -4022480.66049    -10324.74449  24642269.9434
       188.0004         74.0004
  -7181574.59849  -5572911.24849  23386036.6754   23386044.3734   23386037.7674
       216.0004        151.0004
 -23340515.31149 -18174767.10049  20272279.4594   20272284.2024   20272279.6524
       243.0004        211.0004
 11 10 14 10 14  0.0000000  0  8G31G25G12G02G30G23G21G29
 -20528959.26749 -15983827.19049  21034368.9574   21034373.3674   21034369.7394
       241.0004        198.0004
 -16557014.49349 -12626426.97849  21682711.8534   21682719.5054   21682711.0024
       240.0004        190.0004
  -2466519.16349     80529.67449  24493158.6284
       174.0004         96.0004
    594030.06649    835517.25349  24111138.4624   24111144.3434   24111137.5244
       218.0004        149.0004
 -24089453.09649 -18504527.67349  19934587.0224   19934592.1514   19934587.0804
       243.0004        202.0004
  -4048083.85649    -30255.65349  24637396.0384
       190.0004        111.0004
  -7274280.84249  -5645149.78949  23368398.0844   23368405.1084   23368397.8054
       220.0004        154.0004
 -23318496.71849 -18157609.78149  20276469.2364   20276474.0424   20276470.0294
       243.0004        211.0004
 11 10 14 10 14 30.0000000  0  8G31G25G12G02G30G23G21G29
 -20518447.18449 -15975635.97149  21036368.8314   21036373.5914   21036369.6994
       240.0004        198.0004
 -16483272.59549 -12568965.82749  21696743.5524   21696752.4404   21696743.8654
       239.0004        191.0004
  -2367278.63759    157841.91659  24512045.5084
       184.0004        112.0004
    677913.37549    900880.70549  24127100.0154   24127105.8654   24127099.9544
       214.0004        147.0004
 -24102001.26449 -18514305.48049  19932199.7624   19932204.2304   19932199.1134
       242.0004        202.0004
  -4073128.23849    -49741.37249  24632632.7324
       196.0004        113.0004
  -7366791.69949  -5717236.06049  23350792.9894   23350798.0884   23350792.1944
       218.0004        154.0004
 -23296047.92549 -18140117.23749  20280740.9824   20280745.9784   20280741.4384
       243.0004        210.0004
 11 10 14 10 15  0.0000000  0  7G31G25G02G30G23G21G29
 -20507354.88249 -15966992.62449  21038479.8324   21038484.8014   21038480.7674
       240.0004        198.0004
 -16409229.67549 -12511270.11749  21710834.1384   21710842.2784   21710833.4644
       240.0004        189.0004
    762117.47349    966494.11349  24143123.4444   24143129.1644   24143123.5134
       212.0004        143.0004
 -24114051.26049 -18523695.09149  19929905.7644   19929910.9864   19929905.6234
       243.0004        202.0004
  -4097613.74949     -8055.08949  24627970.1774
       189.0004         74.0004
  -7459105.78849  -5789169.02249  23333225.8274   23333232.0504   23333225.0464
       219.0004        152.0004
 -23273170.79549 -18122290.92249  20285094.1664   20285099.3494   20285094.7464
       242.0004        211.0004
 11 10 14 10 15 30.0000000  0  8G31G25G12G02G30G23G21G29
 -20495681.35549 -15957896.38949  21040701.6264   21040705.8594   21040702.0304
       240.0004        198.0004
 -16334885.68949 -12453339.81849  21724981.0634   21724989.1184   21724980.4144
       239.0004        188.0004
  -2168502.62859     74252.59859  24549870.0894
       164.0004         92.0004
    846640.95249   1032356.40149  24159209.0734   24159214.1684   24159207.4304
       212.0004        141.0004
 -24125601.22949 -18532695.08149  19927709.1034   19927713.1274   19927708.0864
       244.0004        202.0004
  -4121539.03049    -26655.50949  24623419.5734
       193.0004        110.0004
  -7551220.31449  -5860946.51949  23315697.2534   23315703.7384   23315697.7564
       219.0004        154.0004
 -23249865.64349 -18104131.08949  20289530.2394   20289534.0074   20289530.4334
       244.0004        211.0004
 11 10 14 10 16  0.0000000  0  7G31G25G02G30G23G21G29
 -20483427.67549 -15948348.08249  21043033.1854   21043037.3574   21043034.1004
       240.0004        198.0004
 -16260242.33649 -12395176.23749  21739185.0104   21739193.4754   21739185.3144
       239.0004        188.0004
    931480.64049   1098465.04849  24175353.5854   24175360.3714   24175353.8094
       212.0004        142.0004
 -24136651.11249 -18541305.39449  19925606.0984   19925610.5504   19925605.7354
       243.0004        202.0004
  -4144904.10149    -44788.90449  24618972.9534
       197.0004        109.0004
  -7643133.79949  -5932567.36049  23298206.9794   23298212.3824   23298205.6904
       218.0004        155.0004
 -23226134.18849 -18085639.06249  20294045.5514   20294049.9894   20294045.6984
       244.0004        210.0004
 11 10 14 10 16 30.0000000  0  7G31G25G02G30G23G21G29
 -20470593.74849 -15938347.63449  21045475.2894   21045479.9974   21045475.5344
       239.0004        198.0004
 -16185300.17949 -12336779.83749  21753446.5154   21753454.6464   21753446.2384
       238.0004        187.0004
   1016634.09049   1164818.24249  24191556.6644   24191562.6154   24191557.5644
       210.0004        142.0004
 -24147199.84449 -18549525.19749  19923597.8744   19923603.4344   19923597.9104
       243.0004        202.0004
  -4167707.91349     -6043.04049  24614637.0724
       196.0004         74.0004
  -7734843.59149  -6004029.44949  23280753.8694   23280761.1084   23280755.0424
       218.0004        156.0004
 -23201977.55649 -18066815.74849  20298641.7394   20298647.0274   20298642.5564
       242.0004        210.0004
 11 10 14 10 17  0.0000000  0  7G31G25G02G30G23G21G29
 -20457179.18949 -15927894.73349  21048027.7824   21048032.7644   21048028.1634
       239.0004        198.0004
 -16110059.63649 -12278150.91749  21767762.8294   21767772.7624   21767763.1144
       236.0004        187.0004
   1102099.66949   1231414.63649  24207820.1804   24207827.9534   24207819.1574
       207.0004        139.0004
 -24157246.12149 -18557353.47549  19921686.9754   19921691.8164   19921686.5194
       243.0004        202.0004
  -4189949.60449    -23359.79649  24610400.6394
       201.0004        105.0004
  -7826347.15449  -6075330.89249  23263343.7224   23263346.9434   23263342.5404
       221.0004        155.0004
 -23177396.45849 -18047661.66349  20303320.3794   20303325.0614   20303320.5704
       243.0004        210.0004
 11 10 14 10 17 30.0000000  0  7G31G25G02G30G23G21G29
 -20443184.33249 -15916989.66549  21050692.1974   21050696.1354   21050692.6764
       241.0004        199.0004
 -16034521.92649 -12219290.43949  21782138.1114   21782146.8264   21782138.1834
       238.0004        187.0004
   1187874.72249   1298252.14749  24224143.5154   24224152.0904   24224143.9774
       206.0004        136.0004
 -24166789.43249 -18564789.83349  19919870.4604   19919875.4904   19919870.3394
       243.0004        202.0004
  -4211628.72649    -40223.97149  24606276.0074
       199.0004        108.0004
  -7917643.10149  -6146470.56549  23245969.3944   23245974.3444   23245969.4444
       221.0004        154.0004
 -23152392.11949 -18028177.78849  20308077.8774   20308082.7834   20308078.3894
       242.0004        210.0004
 11 10 14 10 18  0.0000000  0  7G31G25G02G30G23G21G29
 -20428609.32149 -15905632.52549  21053465.2724   21053469.4734   21053465.4004
       239.0004        198.0004
 -15958687.87249 -12160199.05349  21796569.8654   21796577.9264   21796569.0364
       238.0004        188.0004
   1273956.63149   1365328.77049  24240524.1344   24240531.0354   24240525.7784
       206.0004        137.0004
 -24175828.96249 -18571833.62549  19918150.4174   19918155.1964   19918149.8734
       243.0004        202.0004
  -4232744.64449     -4213.47449  24602257.9674
       200.0004         74.0004
  -8008728.66549  -6217446.26949  23228635.6974   23228642.7914   23228635.5994
       220.0004        155.0004
 -23126965.85049 -18008365.13549  20312917.0264   20312921.3214   20312917.1854
       243.0004        210.0004
 11 10 14 10 18 30.0000000  0  7G31G25G02G30G23G21G29
 -20413455.22549 -15893824.15849  21056348.8624   21056352.8294   21056349.3044
       239.0004        198.0004
 -15882558.75549 -12100877.75249  21811055.9794   21811064.9994   21811056.3834
       237.0004        187.0004
   1360342.90049   1432642.57049  24256964.0254   24256969.0354   24256964.2234
       208.0004        135.0004
 -24184364.22749 -18578484.49349  19916526.8644   19916531.0894   19916526.2834
       244.0004        203.0004
  -4253297.31249    -20228.42449  24598345.0434
       201.0004        122.0004
  -8099602.26949  -6288256.82449  23211342.1294   23211350.3054   23211343.9744
       221.0004        158.0004
 -23101119.06849 -17988224.81149  20317835.2884   20317839.7474   20317835.5794
       243.0004        210.0004
 11 10 14 10 19  0.0000000  0  7G31G25G02G30G23G21G29
 -20397721.28049 -15881563.94949  21059341.9404   21059346.8434   21059342.9644
       238.0004        197.0004
 -15806134.98849 -12041326.85149  21825598.7124   21825607.8894   21825598.7584
       236.0004        186.0004
   1447031.76049   1500192.17049  24273459.6784   24273465.4114   24273460.0044
       203.0004        135.0004
 -24192393.98849 -18584741.45149  19914998.0844   19915003.2084   19914997.7164
       243.0004        202.0004
  -4273285.46549    -35803.58949  24594543.0884
       200.0004        125.0004
  -8190261.28949  -6358900.18749  23194090.8304   23194096.6974   23194090.7384
       219.0004        156.0004
 -23074852.65549 -17967757.50349  20322833.9144   20322838.2374   20322834.2784
       243.0004        210.0004
 11 10 14 10 19 30.0000000  0  7G31G25G02G30G23G21G29
 -20381409.01049 -15868853.10349  21062446.4044   21062451.2694   21062446.8924
       239.0004        197.0004
 -15729418.56549 -11981547.90649  21840197.8244   21840206.5394   21840197.5954
       236.0004        186.0004
   1534019.51749   1567974.64049  24290012.6414   24290021.3124   24290012.6614
       203.0004        134.0004
 -24199918.59349 -18590604.78549  19913566.7174   19913571.4904   19913566.4544
       244.0004        203.0004
  -4292709.89049    -50939.57649  24590844.6474   24590852.1474
       201.0004        126.0004
  -8280704.64749  -6429375.48949  23176881.2114   23176887.0274   23176881.4684
       225.0004        157.0004
 -23048168.56949 -17946964.73349  20327911.4774   20327916.3694   20327911.6784
       243.0004        210.0004
 11 10 14 10 20  0.0000000  0  7G31G25G02G30G23G21G29
 -20364517.16849 -15855690.64149  21065661.3764   21065666.2214   21065661.5234
       239.0004        198.0004
 -15652409.02549 -11921540.56249  21854852.9074   21854860.8364   21854852.2904
       237.0004        186.0004
   1621305.06849   1635989.13149  24306622.9234   24306628.6964   24306624.7704
       201.0004        130.0004
 -24206935.87049 -18596072.79849  19912230.8124   19912235.9974   19912230.7284
       243.0004        202.0004
  -4311568.58849    -65634.71749  24587256.8074   24587262.2284   24587255.0684
       198.0004        126.0004
  -8370928.68849  -6499679.90149  23159713.1124   23159719.0924   23159712.8174
       225.0004        161.0004
 -23021067.01349 -17925846.65849  20333069.2294   20333073.4054   20333069.2334
       243.0004        210.0004
 11 10 14 10 20 30.0000000  0  7G31G25G02G30G23G21G29
 -20347047.15049 -15842077.65049  21068985.7724   21068990.7264   21068986.5654
       239.0004        198.0004
 -15575107.73149 -11861305.86149  21869562.4944   21869571.0104   21869562.8184
       236.0004        186.0004
   1708885.53849   1704233.45549  24323291.3054   24323295.8434   24323292.2734
       197.0004        128.0004
 -24213445.55549 -18601145.27949  19910992.5344   19910997.3614   19910992.1794
       244.0004        203.0004
  -4329861.31349    -79888.76749  24583777.2614   24583784.2384   24583774.3064
       201.0004        125.0004
  -8460931.22649  -6569811.68649  23142584.5154   23142591.9124   23142584.3794
       222.0004        160.0004
 -22993549.34049 -17904404.32849  20338305.0734   20338309.7214   20338305.4454
       243.0004        210.0004
 11 10 14 10 21  0.0000000  0  7G31G25G02G30G23G21G29
 -20328998.24949 -15828013.58649  21072419.5604   21072424.8014   21072420.3024
       239.0004        198.0004
 -15497515.28949 -11800844.29749  21884327.5794   21884336.7884   21884327.0994
       236.0004        185.0004
   1796759.12349   1772706.17249  24340010.0994   24340015.5224   24340009.7624
       196.0004        127.0004
 -24219446.64649 -18605821.45649  19909850.5094   19909855.0784   19909849.8194
       243.0004        202.0004
  -4347587.56749    -93701.48049  24580403.0784   24580410.8184   24580403.6864
       197.0004        127.0004
  -8550711.09049  -6639769.95349  23125498.7814   23125506.4234   23125499.5854
       222.0004        156.0004
 -22965616.81349 -17882638.74349  20343620.1604   20343625.1334   20343620.9024
       242.0004        210.0004
 11 10 14 10 21 30.0000000  0  7G31G25G02G30G23G21G29
 -20310372.45149 -15813500.00149  21075964.5154   21075968.7634   21075965.0794
       239.0004        198.0004
 -15419633.55649 -11740157.33649  21899148.9784   21899156.7944   21899148.2754
       239.0004        185.0004
   1884922.11049   1841404.42249  24356787.9544   24356793.6544   24356787.0974
       197.0004        127.0004
 -24224939.35949 -18610101.49149  19908804.6584   19908809.9504   19908804.6654
       243.0004        203.0004
  -4364748.11949   -107073.39149  24577136.3284   24577140.1314   24577136.1444
       196.0004        128.0004
  -8640266.49349  -6709553.33949  23108460.4544   23108464.7474   23108458.9514
       227.0004        161.0004
 -22937271.47949 -17860551.49049  20349014.1714   20349019.3064   20349014.4864
       242.0004        210.0004
 11 10 14 10 22  0.0000000  0  7G31G25G02G30G23G21G29
 -20291169.29049 -15798536.51449  21079619.0954   21079623.5214   21079619.7054
       240.0004        198.0004
 -15341463.29549 -11679245.51549  21914024.2364   21914031.5954   21914023.2754
       239.0004        184.0004
   1973372.62049   1910326.73349  24373618.5174   24373623.8044   24373619.4394
       197.0004        127.0004
 -24229922.78749 -18613984.67949  19907857.6044   19907861.7824   19907856.9374
       244.0004        203.0004
  -4381341.99349   -120003.68749  24573979.5314   24573984.2964   24573976.7814
       199.0004        129.0004
  -8729594.73749  -6779159.71149  23091460.8834   23091466.1794   23091459.7764
       225.0004        161.0004
 -22908514.11349 -17838143.16449  20354486.6004   20354491.1964   20354487.0544
       242.0004        209.0004
 11 10 14 10 22 30.0000000  0  7G31G25G02G30G23G21G29
 -20271388.81949 -15783123.18849  21083383.3454   21083388.1704   21083383.7194
       239.0004        198.0004
 -15263004.90749 -11618109.20549  21928953.7594   21928962.9254   21928954.1374
       237.0004        185.0004
   2062108.87649   1979471.67749  24390505.6514   24390512.9904   24390505.6324
       196.0004        127.0004
 -24234395.70449 -18617470.08049  19907005.1704   19907010.5474   19907005.1274
       243.0004        202.0004
  -4397368.42349   -132491.83649  24570932.1404   24570936.2044   24570933.3254
       201.0004        129.0004
  -8818693.48449  -6848587.20949  23074502.9204   23074511.3864   23074503.2924
       220.0004        159.0004
 -22879345.54849 -17815414.42649  20360037.5284   20360042.3474   20360038.0934
       243.0004        209.0004
 11 10 14 10 23  0.0000000  0  7G31G25G02G30G23G21G29
 -20251031.02749 -15767260.00049  21087256.8564   21087261.6004   21087257.2804
       238.0004        198.0004
 -15184259.07549 -11556748.91749  21943938.8104   21943947.5394   21943938.4774
       237.0004        185.0004
   2151128.63249   2048837.61549  24407443.2744   24407456.7804   24407441.3044
       195.0004        125.0004
 -24238357.12849 -18620556.90549  19906251.8244   19906256.7474   19906251.2804
       244.0004        202.0004
  -4412826.62949   -144537.23349  24567987.9644   24567994.1634   24567985.9844
       202.0004        130.0004
  -8907560.55149  -6917834.25949  23057591.7184   23057599.2564   23057593.1744
       221.0004        158.0004
 -22849766.77349 -17792366.04549  20365666.0974   20365670.8114   20365666.4684
       242.0004        209.0004
 11 10 14 10 23 30.0000000  0  7G31G25G02G30G23G21G29
 -20230097.57949 -15750948.23649  21091239.8594   21091245.0034   21091240.7274
       239.0004        198.0004
 -15105227.27949 -11495165.78949  21958978.2594   21958987.2854   21958978.0874
       236.0004        184.0004
   2240428.66249   2118421.88949  24424440.4644   24424446.6654   24424438.5284
       198.0004        126.0004
 -24241807.07149 -18623245.17549  19905595.5394   19905600.3174   19905595.2064
       243.0004        203.0004
  -4427717.15749   -156140.27149  24565155.4964   24565162.4934   24565156.7214
       201.0004        130.0004
  -8996194.30049  -6986899.49449  23040729.2694   23040733.1734   23040728.3994
       225.0004        159.0004
 -22819779.53149 -17768999.37749  20371372.5184   20371377.1464   20371372.9284
       242.0004        209.0004
 11 10 14 10 24  0.0000000  0  7G31G25G02G30G23G21G29
 -20208588.10149 -15734187.63449  21095334.0454   21095337.9104   21095334.2544
       239.0004        198.0004
 -15025910.06449 -11433360.26449  21974070.5924   21974080.4074   21974071.1484
       234.0004        183.0004
   2330007.16149   2188223.17449  24441487.0284   24441490.6014   24441485.5954
       195.0004        125.0004
 -24244744.45249 -18625534.04549  19905035.6754   19905041.0974   19905035.7064
       243.0004        202.0004
  -4442039.10249   -167300.29149  24562427.9754   24562436.6604   24562428.0064
       205.0004        133.0004
  -9084592.17549  -7055780.87849  23023907.0514   23023912.5184   23023904.8394
       224.0004        161.0004
 -22789384.64849 -17745315.05749  20377157.4424   20377160.8444   20377157.1574
       243.0004        209.0004
 11 10 14 10 24 30.0000000  0  7G31G25G02G30G23G21G29
 -20186503.83449 -15716979.14449  21099536.3904   21099540.7274   21099537.0854
       239.0004        198.0004
 -14946309.11849 -11371333.65249  21989219.6584   21989228.5194   21989219.2034
       236.0004        183.0004
   2419861.10549   2258239.07549  24458583.5504   24458593.0264   24458581.8304
       191.0004        124.0004
 -24247169.23949 -18627423.49749  19904575.1724   19904579.8304   19904574.7414
       244.0004        203.0004
  -4455792.80249   -178017.52249  24559814.1324   24559818.3284   24559813.3654
       204.0004        133.0004
  -9172752.50749  -7124477.17249  23007129.4844   23007135.5564   23007128.9854
       222.0004        161.0004
 -22758583.99949 -17721314.56349  20383017.5904   20383022.3304   20383017.7024
       242.0004        209.0004
 11 10 14 10 25  0.0000000  0  7G31G25G02G30G23G21G29
 -20163845.05549 -15699322.96749  21103847.9314   21103852.8564   21103848.3244
       239.0004        198.0004
 -14866424.92949 -11309086.32049  22004421.1834   22004428.8474   22004420.8844
       236.0004        182.0004
   2509988.50049   2328468.05549  24475736.2304   24475743.8944   24475735.0344
       190.0004        124.0004
 -24249080.46249 -18628912.75949  19904211.2844   19904215.9034   19904210.8844
       243.0004        203.0004
  -4468977.48849   -188291.34849  24557302.8904   24557308.0604   24557302.3084
       202.0004        134.0004
  -9260673.08349  -7192986.66249  22990397.8224   22990403.5664   22990398.1744
       223.0004        160.0004
 -22727378.21949 -17696998.38149  20388955.4984   20388960.5424   20388956.2744
       244.0004        209.0004
 11 10 14 10 25 30.0000000  0  7G31G25G02G30G23G21G29
 -20140611.91949 -15681219.24549  21108269.1464   21108274.0884   21108269.5264
       239.0004        198.0004
 -14786258.49449 -11246619.05649  22019675.9704   22019685.0894   22019675.5554
       235.0004        182.0004
   2600386.72149   2398908.07549  24492937.9824   24492943.8134   24492939.4194
       193.0004        126.0004
 -24250477.55749 -18630001.40349  19903944.7374   19903950.4694   19903944.6244
       244.0004        203.0004
  -4481593.34349   -198121.90949  24554899.7554   24554906.3914   24554899.9804
       201.0004        132.0004
  -9348351.75649  -7261307.64049  22973713.2104   22973719.2284   22973712.6414
       222.0004        160.0004
 -22695769.46849 -17672368.19349  20394971.3344   20394975.5374   20394971.3994
       244.0004        208.0004
 11 10 14 10 26  0.0000000  0  7G31G25G02G30G23G21G29
 -20116804.87349 -15662668.33049  21112800.2814   21112804.1684   21112800.4854
       240.0004        199.0004
 -14705810.39849 -11183932.32449  22034984.7144   22034993.2244   22034984.9354
       233.0004        180.0004
   2691053.98749   2469557.79949  24510191.8394   24510198.3654   24510195.2524
       198.0004        125.0004
 -24251359.39249 -18630688.55749  19903778.6204   19903782.3454   19903777.9424
       244.0004        203.0004
  -4493639.44449   -207508.52549  24552610.4474   24552614.7694   24552610.9284
       203.0004        135.0004
  -9435785.98549  -7329438.13549  22957075.6274   22957082.5824   22957075.7484
       223.0004        162.0004
 -22663757.91149 -17647424.12649  20401062.2564   20401067.1794   20401062.9214
       244.0004        209.0004
 11 10 14 10 26 30.0000000  0  7G31G25G02G30G23G21G29
 -20092424.55249 -15643670.71149  21117439.8894   21117443.3714   21117439.9624
       240.0004        197.0004
 -14625081.66449 -11121026.91849  22050347.1924   22050355.7034   22050346.9564
       235.0004        181.0004
   2781987.46949   2540414.90949  24527496.5144   24527499.0114   24527495.5584
       198.0004        126.0004
 -24251725.57149 -18630973.89649  19903707.7334   19903712.6004   19903707.4074
       243.0004        203.0004
  -4505116.00449   -216451.36349  24550426.0134   24550432.6534   24550427.3024
       206.0004        137.0004
  -9522973.71449  -7397376.54949  22940484.4034   22940491.1104   22940483.3714
       221.0004        162.0004
 -22631344.89949 -17622167.23349  20407231.1924   20407235.3074   20407231.3294
       245.0004        209.0004
 11 10 14 10 27  0.0000000  0  7G31G25G02G30G23G21G29
 -20067472.70349 -15624227.74949  21122187.6464   21122191.6804   21122187.7704
       239.0004        197.0004
 -14544074.64149 -11057904.66649  22065762.8344   22065771.3844   22065762.4904
       235.0004        182.0004
   2873183.60649   2611476.73049  24544847.4134   24544856.6304   24544848.8784
       193.0004        127.0004
 -24251576.84049 -18630858.00349  19903736.0364   19903740.9034   19903735.7474
       244.0004        202.0004
  -4516023.78349   -224950.96549  24548352.0904   24548358.0904   24548349.9424
       206.0004        136.0004
  -9609914.44749  -7465122.51749  22923939.6414   22923946.4804   22923939.2364
       224.0004        162.0004
 -22598533.07849 -17596599.58449  20413473.7004   20413479.1494   20413474.3624
       243.0004        208.0004
 11 10 14 10 27 30.0000000  0  7G31G25G02G30G23G21G29
 -20041948.65649 -15604338.90449  21127043.1444   21127049.2234   21127044.3264
       238.0004        197.0004
 -14462788.77349 -10994565.12749  22081230.9054   22081240.8104   22081230.4354
       234.0004        182.0004
   2964641.55549   2682742.55649  24562254.5264   24562261.3544   24562253.7114
       191.0004        126.0004
 -24250911.05549 -18630339.21049  19903863.3824   19903867.7344   19903863.0234
       244.0004        203.0004
  -4526361.25049   -233006.17249  24546383.3164   24546388.7394   24546384.1634
       208.0004        136.0004
  -9696604.45649  -7532673.11649  22907442.8014   22907450.7124   22907444.7334
       224.0004        162.0004
 -22565322.32249 -17570721.07649  20419794.6354   20419798.8504   20419795.2664
       244.0004        208.0004
 11 10 14 10 28  0.0000000  0  7G31G25G02G30G23G21G29
 -20015853.26149 -15584004.86449  21132009.8594   21132014.7424   21132010.6274
       238.0004        197.0004
 -14381225.32349 -10931009.30449  22096752.1504   22096761.0624   22096751.8494
       234.0004        182.0004
   3056358.78449   2754210.36249  24579708.0024   24579714.3054   24579704.9744
       198.0004        128.0004
 -24249728.03249 -18629417.36649  19904088.0724   19904093.0114   19904087.3164
       244.0004        203.0004
  -4536128.73749   -240617.22149  24544524.3984   24544530.4204   24544525.0374
       208.0004        137.0004
  -9783041.85749  -7600026.87249  22890996.0924   22891002.1524   22890994.7404
       227.0004        164.0004
 -22531714.09249 -17544532.84149  20426190.6274   20426194.2144   20426190.2224
       244.0004        208.0004
 11 10 14 10 28 30.0000000  0  7G31G25G02G30G23G21G29
 -19989187.56749 -15563226.44149  21137084.9374   21137088.7784   21137084.9914
       240.0004        197.0004
 -14299385.61449 -10867238.20849  22112325.3624   22112334.6284   22112325.5484
       234.0004        182.0004
   3148332.13449   2825877.75749  24597208.4304   24597218.0074   24597208.4134
       194.0004        127.0004
 -24248027.55149 -18628092.31549  19904412.2134   19904416.4684   19904411.6604
       245.0004        203.0004
  -4545326.54049   -247784.38649  24542774.9144   24542778.6264   24542775.8424
       205.0004        136.0004
  -9869225.11149  -7667182.55049  22874595.7974   22874601.6224   22874594.3054
       227.0004        163.0004
 -22497710.08749 -17518036.21749  20432659.6774   20432664.7814   20432660.1394
       242.0004        207.0004
 11 10 14 10 29  0.0000000  0  7G31G25G02G30G23G21G29
 -19961952.66149 -15542004.49249  21142267.7234   21142271.3024   21142268.0194
       238.0004        196.0004
 -14217270.93349 -10803252.84449  22127951.6064   22127960.5244   22127951.5444
       234.0004        182.0004
   3240559.28049   2897742.94449  24614758.0594   24614765.6254   24614758.2034
       195.0004        126.0004
 -24245809.38249 -18626363.87649  19904833.8694   19904838.3804   19904833.2984
       244.0004        203.0004
  -4553954.70949   -254507.67849  24541134.9384   24541138.5164   24541134.6734
       210.0004        139.0004
  -9955152.20249  -7734138.66449  22858241.6234   22858249.1224   22858241.9364
       225.0004        162.0004
 -22463311.72849 -17491232.31449  20439206.3834   20439210.5894   20439207.1084
       243.0004        207.0004
 11 10 14 10 29 30.0000000  0  8G31G25G05G02G30G23G21G29
 -19934148.51549 -15520338.96249  21147558.0934   21147562.2484   21147558.6674
       239.0004        196.0004
 -14134881.51449 -10739053.39549  22143630.5904   22143638.5324   22143630.0924
       235.0004        181.0004
    -13363.76149     -2455.85749  24375498.8244
       206.0004         74.0004
   3333038.24849   2969804.34149  24632355.5064   24632365.5214   24632355.7534
       191.0004        122.0004
 -24243072.26549 -18624231.06349  19905354.0014   19905359.4004   19905353.9374
       244.0004        202.0004
  -4562012.40049   -260786.42549  24539598.9834   24539604.6564   24539598.7904
       208.0004        140.0004
 -10040820.62949  -7800893.22149  22841940.1484   22841946.2674   22841939.6744
       226.0004        164.0004
 -22428519.83049 -17464121.74049  20445827.1254   20445831.4814   20445826.8534
       243.0004        207.0004
 11 10 14 10 30  0.0000000  0  7G31G25G02G30G23G21G29
 -19905775.81049 -15498230.41049  21152957.0954   21152961.3714   21152957.3284
       238.0004        196.0004
 -14052218.34449 -10674640.63449  22159360.2884   22159368.6914   22159359.8164
       234.0004        182.0004
   3425766.86949   3042060.31849  24650001.3844   24650013.1684   24650003.4224
       190.0004        122.0004
 -24239815.78149 -18621693.54949  19905975.2674   19905979.1444   19905974.5324
       245.0004        203.0004
  -4569499.85149   -266620.85049  24538173.8864   24538181.0254   24538174.0804
       208.0004        139.0004
 -10126227.95449  -7867444.30649  22825689.0704   22825694.5184   22825687.7774
       226.0004        165.0004
 -22393335.50849 -17436705.40049  20452520.6184   20452526.8864   20452521.6064
       240.0004        206.0004
 11 10 14 10 30 30.0000000  0  7G31G25G02G30G23G21G29
 -19876835.94749 -15475679.91249  21158464.7044   21158468.9844   21158464.8924
       240.0004        196.0004
 -13969283.03549 -10610015.82949  22175141.7884   22175151.8194   22175142.1034
       234.0004        182.0004
   3518742.02549   3114508.31249  24667694.5914   24667702.6004   24667695.5254
       193.0004        121.0004
 -24236039.91949 -18618751.31949  19906692.8524   19906697.6394   19906692.5104
       243.0004        203.0004
  -4576417.47049   -272011.24649  24536859.8334   24536863.5324   24536858.0964
       208.0004        140.0004
 -10211373.22449  -7933791.16049  22809486.5004   22809492.5924   22809484.9814
       227.0004        166.0004
 -22357760.56149 -17408984.67849  20459291.8054   20459296.5494   20459292.5014
       242.0004        207.0004
 11 10 14 10 31  0.0000000  0  8G31G25G05G02G30G23G21G29
 -19847329.40249 -15452687.85149  21164079.7164   21164083.8974   21164080.2664
       239.0004        196.0004
 -13886076.62249 -10545179.75749  22190976.0304   22190985.3194   22190976.1194
       235.0004        180.0004
   -135792.42349    -97854.72949  24352202.8224   24352204.7034
       205.0004        135.0004
   3611961.26649   3187146.57249  24685435.0744                   24685433.1224
       191.0004        120.0004
 -24231744.24549 -18615404.04549  19907510.2994   19907514.7594   19907510.0524
       243.0004        203.0004
  -4582765.38549   -276957.70549  24535650.6344   24535655.5314   24535649.7774
       208.0004        139.0004
 -10296254.32649  -7999932.20149  22793333.8024   22793339.8564   22793332.5294
       228.0004        165.0004
 -22321796.57349 -17380960.78849  20466135.1674   20466140.2334   20466135.6944
       242.0004        207.0004
 11 10 14 10 31 30.0000000  0  8G31G25G05G02G30G23G21G29
 -19817256.64349 -15429254.58049  21169802.8254   21169806.7594   21169803.0854
       239.0004        196.0004
 -13802599.60749 -10480132.82849  22206860.6124   22206870.1624   22206860.7994
       234.0004        179.0004
   -175630.22449   -128896.99149  24344617.5904   24344630.7914   24344617.3824
       202.0004        136.0004
   3705422.76149   3259973.63549  24703220.7574                   24703222.4024
       185.0004        120.0004
 -24226927.84749 -18611651.01049  19908426.5734   19908431.6874   19908426.2684
       244.0004        203.0004
  -4588543.02749   -281459.81149  24534550.6744   24534557.2244   24534550.9414
       203.0004        139.0004
 -10380868.56049  -8065865.29449  22777231.8324   22777237.2004   22777232.3204
       227.0004        166.0004
 -22285444.11849 -17352634.22349  20473051.9674   20473058.0454   20473053.1064
       241.0004        206.0004
 11 10 14 10 32  0.0000000  0  8G31G25G05G02G30G23G21G29
 -19786618.73849 -15405380.92749  21175631.8484   21175636.6934   21175632.6254
       238.0004        196.0004
 -13718853.21049 -10414875.98849  22222797.6314   22222806.5214   22222797.5014
       235.0004        178.0004
   -214978.99749   -159558.24549  24337132.9434   24337139.5034   24337131.8924
       207.0004        137.0004
   3799123.74349   3332987.28749  24721047.7954                   24721052.8044
       187.0004        118.0004
 -24221590.45249 -18607491.99649  19909441.7544   19909447.2674   19909441.6164
       243.0004        203.0004
  -4593750.77049   -285517.83049  24533559.6914   24533566.7084   24533559.0264
       207.0004        136.0004
 -10465214.15949  -8131589.03249  22761181.6224   22761186.7334   22761180.1784
       225.0004        166.0004
 -22248704.93249 -17324006.29249  20480044.8344   20480049.0474   20480045.0114
       242.0004        206.0004
 11 10 14 10 32 30.0000000  0  8G31G25G05G02G30G23G21G29
 -19755416.54049 -15381067.57249  21181569.7374   21181574.3084   21181570.4444
       237.0004        196.0004
 -13634838.45249 -10349410.03349  22238784.6914   22238794.5524   22238785.0904
       235.0004        181.0004
   -253837.23149   -189837.30349  24329736.3874   24329746.3604   24329736.2564
       202.0004        135.0004
   3893062.05159     22649.84159  24738924.5364
       180.0004         74.0004
 -24215731.64949 -18602926.70249  19910558.0034   19910562.1094   19910557.7874
       245.0004        203.0004
  -4598388.79249   -289131.92149  24532679.2054   24532683.4744   24532677.9264
       207.0004        138.0004
 -10549288.78649  -8197101.63349  22745183.0374   22745187.8554   22745181.4684
       227.0004        166.0004
 -22211579.96949 -17295077.75749  20487108.5794   20487113.7214   20487109.0984
       241.0004        206.0004
 11 10 14 10 33  0.0000000  0  8G31G25G05G02G30G23G21G29
 -19723651.09849 -15356315.32949  21187613.5014   21187619.3774   21187615.2634
       236.0004        196.0004
 -13550556.62449 -10283735.99149  22254824.0024   22254832.7324   22254823.5814
       235.0004        182.0004
   -292202.61749   -219732.34649  24322435.8354   24322446.2834   24322436.0954
       201.0004        134.0004
   3987234.98349     96025.79849  24756847.5114
       180.0004        104.0004
 -24209351.36749 -18597955.05749  19911771.2434   19911776.4434   19911771.1694
       244.0004        203.0004
  -4602457.49449   -292302.38049  24531902.4384   24531909.7814   24531904.1014
       202.0004        137.0004
 -10633091.02649  -8262401.96449  22729235.5704   22729240.1824   22729235.3694
       227.0004        167.0004
 -22174071.03449 -17265850.03249  20494247.0204   20494251.5364   20494247.4494
       242.0004        206.0004
 11 10 14 10 33 30.0000000  0  8G31G25G05G02G30G23G21G29
 -19691322.86649 -15331124.54549  21193766.8134   21193771.4364   21193767.2714
       238.0004        195.0004
 -13466008.14249 -10217854.15049  22270912.9444   22270921.6664   22270912.6594
       233.0004        180.0004
   -330072.76849   -249241.43149  24315229.3484   24315237.9214   24315231.7854
       206.0004        139.0004
   4081640.79359    169576.92559  24774807.4794
       165.0004        111.0004
 -24202448.53549 -18592576.23349  19913085.3424   19913090.0084   19913084.8104
       245.0004        204.0004
  -4605956.31849   -295028.78349  24531235.9124   24531243.0424   24531235.7854
       201.0004        139.0004
 -10716618.25849  -8327488.02149  22713340.5184   22713346.4534   22713340.2894
       227.0004        166.0004
 -22136178.96749 -17236323.75349  20501457.8384   20501461.9234   20501457.5294
       242.0004        206.0004
