     2.11           OBSERVATION DATA    G (GPS)             RINEX VERSION / TYPE
teqc  2012Jun6                          20151118 02:04:18UTCPGM / RUN BY / DATE
OSX ker:10.8.0|Core 2 Duo|gcc 4.2 -m64|OSX ker:10.8.0+|=+   COMMENT
Linux 2.4.21-27.ELsmp|Opteron|gcc -static|Linux x86_64|=+   COMMENT
HEADER CHANGED BY EPN CB ON 2011-10-15                      COMMENT
TO BE CONFORM WITH THE INFORMATION IN                       COMMENT
ftp://epncb.oma.be/pub/station/log/brus.log                 COMMENT
                                                            COMMENT
teqc  2010Oct21                         20111015 00:01:18UTCCOMMENT
teqc  2010Oct21                         20111015 00:01:03UTCCOMMENT
teqc  2010Oct21                         20111014 01:01:02UTCCOMMENT
BIT 2 OF LLI FLAGS DATA COLLECTED UNDER A/S CONDITION       COMMENT
 SNR is mapped to RINEX snr flag value [0-9]                COMMENT
  L1 & L2: min(max(int(snr_dBHz/6), 0), 9)                  COMMENT
pseudorange smoothing corrections not applied               COMMENT
COORDINATES IN ETRF2000                                     COMMENT
Forced Modulo Decimation to 30 seconds                      COMMENT
BRUS                                                        MARKER NAME
13101M004                                                   MARKER NUMBER
Carine Bruyninx     ROB                                     OBSERVER / AGENCY
RT919994505         ASHTECH Z-XII3T     1L01-1D04           REC # / TYPE / VERS
CR519994604         ASH701945B_M    NONE                    ANT # / TYPE
  4027894.0130   307045.5980  4919474.9120                  APPROX POSITION XYZ
        3.9702        0.0000        0.0000                  ANTENNA: DELTA H/E/N
     1     1                                                WAVELENGTH FACT L1/2
     7    L1    L2    C1    P2    P1    S1    S2            # / TYPES OF OBSERV
    30.0000                                                 INTERVAL
teqc windowed: start @ 2011 Oct 14 12:00:00.000             COMMENT
teqc windowed: delta = 14400.000 sec                        COMMENT
  2011    10    14    12     0    0.0000000     GPS         TIME OF FIRST OBS
                                                            END OF HEADER
 11 10 14 12  0  0.0000000  0  9G31G05G16G03G06G18G30G21G29
  -7110950.81749  -5528249.76349  23587742.3854   23587748.6124   23587741.9954
       218.0004        157.0004
   1407520.42349   1104729.65749  24645876.8744   24645889.1384   24645878.8754
       195.0004        131.0004
 -14892821.30449 -11562498.72549  21592859.5254   21592864.3394   21592859.2954
       236.0004        185.0004
  -7181432.85149  -5319731.03349  22672170.1054   22672177.0174   22672169.6784
       215.0004        153.0004
 -12762778.58649  -9922798.27549  21994235.6394   21994241.9124   21994235.2334
       230.0004        176.0004
   -925446.57349   -488679.69349  24243025.4774   24243035.7564   24243023.7704
       202.0004        135.0004
 -15373790.14649 -11713109.16749  21593127.7874   21593134.8934   21593127.4544
       233.0004        183.0004
 -19616181.88149 -15262204.14449  21019803.0584   21019806.6124   21019802.7994
       239.0004        198.0004
 -11008843.16149  -8565680.40949  22618923.9264   22618930.7384   22618924.8574
       224.0004        172.0004
 11 10 14 12  0 30.0000000  0  9G31G05G16G03G06G18G30G21G29
  -7009448.02349  -5449156.78649  23607055.4854   23607062.2124   23607056.5714
       213.0004        153.0004
   1465156.11749   1149640.54549  24656849.3374   24656857.1634   24656850.5054
       202.0004        134.0004
 -14959709.38549 -11614619.26049  21580130.8534   21580135.3344   21580130.6704
       233.0004        184.0004
  -7279676.15249  -5396284.16649  22653474.2964   22653483.6154   22653474.2434
       217.0004        154.0004
 -12834493.39949  -9978679.85849  21980587.6464   21980594.2524   21980588.3734
       229.0004        178.0004
  -1014461.63949   -558041.90249  24226086.4724   24226095.3844   24226086.1814
       207.0004        135.0004
 -15283154.46249 -11642484.02949  21610375.5504   21610382.6084   21610375.2404
       234.0004        182.0004
 -19629852.84049 -15272856.81049  21017202.2294   21017205.2954   21017201.5604
       240.0004        199.0004
 -10924692.84349  -8500108.79749  22634938.2314   22634944.6464   22634938.5824
       224.0004        171.0004
 11 10 14 12  1  0.0000000  0  9G31G05G16G03G06G18G30G21G29
  -6907771.30849  -5369928.32549  23626406.6104   23626414.0834   23626406.2154
       218.0004        160.0004
   1523277.31049   1194929.74949  24667908.9914   24667917.5534   24667910.0874
       202.0004        138.0004
 -15026237.59749 -11666459.35649  21567469.4744   21567475.7664   21567469.2664
       232.0004        183.0004
  -7377745.77049  -5472701.96749  22634813.7534   22634820.1794   22634812.4624
       218.0004        155.0004
 -12905968.94049 -10034374.99849  21966986.2924   21966993.0224   21966986.4974
       230.0004        177.0004
  -1103353.12349   -627307.76849  24209171.0254   24209181.3914   24209170.8414
       207.0004        136.0004
 -15192149.10149 -11571570.83249  21627693.4844   21627699.9694   21627693.7984
       234.0004        182.0004
 -19643057.73049 -15283146.31049  21014688.4224   21014692.4854   21014688.4074
       239.0004        199.0004
 -10840383.85049  -8434413.55549  22650982.8104   22650988.1494   22650982.9094
       226.0004        172.0004
 11 10 14 12  1 30.0000000  0  9G31G05G16G03G06G18G30G21G29
  -6805922.86449  -5290566.03149  23645787.2354   23645793.6104   23645786.8534
       216.0004        155.0004
   1581882.12849   1240595.79849  24679060.1334   24679071.1114   24679059.1744
       200.0004        136.0004
 -15092403.80549 -11718017.39349  21554880.5724   21554884.3104   21554880.2844
       235.0004        186.0004
  -7475639.26149  -5548982.48849  22616183.6664   22616192.4384   22616184.2574
       217.0004        156.0004
 -12977203.88649 -10089882.68049  21953431.6474   21953438.0994   21953431.7994
       231.0004        179.0004
  -1192117.15949   -696474.37049  24192278.1794   24192286.9514   24192277.8274
       207.0004        135.0004
 -15100775.76749 -11500370.88949  21645081.7014   21645088.0234   21645081.1684
       234.0004        182.0004
 -19655796.38949 -15293072.51449  21012264.9494   21012268.7954   21012264.7904
       240.0004        199.0004
 -10755917.02149  -8368595.29649  22667055.7244   22667062.3734   22667056.2954
       226.0004        171.0004
 11 10 14 12  2  0.0000000  0  9G31G05G16G03G06G18G30G21G29
  -6703905.56949  -5211072.17849  23665198.5364   23665205.2194   23665199.5254
       209.0004        152.0004
   1640968.57649   1286637.13849  24690304.6714   24690312.0044   24690305.2604
       201.0004        135.0004
 -15158206.16549 -11769291.91649  21542358.0924   21542362.6764   21542358.1134
       234.0004        186.0004
  -7573356.06449  -5625125.33649  22597589.1214   22597597.8404   22597590.1624
       219.0004        160.0004
 -13048197.29849 -10145202.12149  21939921.3614   21939928.5794   21939921.3514
       229.0004        178.0004
  -1280751.54849   -765539.91149  24175413.4404   24175421.1654   24175410.7784
       200.0004        133.0004
 -15009036.42049 -11428885.75449  21662539.2034   21662545.4334   21662538.7294
       233.0004        182.0004
 -19668069.23149 -15302635.73449  21009928.7114   21009933.2684   21009928.5154
       239.0004        199.0004
 -10671293.29349  -8302654.79049  22683158.6154   22683165.3024   22683158.6514
       223.0004        170.0004
 11 10 14 12  2 30.0000000  0  9G31G05G16G03G06G18G30G21G29
  -6601722.58749  -5131449.17649  23684645.6914   23684652.0744   23684645.4844
       217.0004        156.0004
   1700534.94249   1333052.42949  24701639.7834   24701647.2364   24701639.3814
       201.0004        132.0004
 -15223642.79149 -11820281.42849  21529904.9634   21529910.6354   21529904.9004
       233.0004        185.0004
  -7670894.43049  -5701129.16049  22579027.8904   22579035.6054   22579028.3044
       217.0004        155.0004
 -13118948.59149 -10200332.92449  21926458.0784   21926464.6284   21926458.5864
       231.0004        178.0004
  -1369253.65549   -834502.33249  24158571.2314   24158582.4554   24158568.7644
       202.0004        132.0004
 -14916932.91649 -11357116.85549  21680064.8954   21680071.3854   21680065.5974
       233.0004        181.0004
 -19679876.16849 -15311835.92649  21007682.6374   21007686.0844   21007682.2084
       239.0004        199.0004
 -10586513.41349  -8236592.63949  22699293.4464   22699298.6334   22699292.6724
       224.0004        170.0004
 11 10 14 12  3  0.0000000  0  9G31G05G16G03G06G18G30G21G29
  -6499376.66449  -5051699.26649  23704119.7934   23704129.7374   23704119.2734
       213.0004        156.0004
   1760579.06749   1379840.00149  24713065.7604   24713076.4064   24713066.4904
       200.0004        131.0004
 -15288711.30649 -11870984.11649  21517522.9524   21517528.0334   21517523.3424
       234.0004        185.0004
  -7768253.35349  -5776993.14549  22560501.1914   22560509.0344   22560500.5774
       219.0004        156.0004
 -13189456.97349 -10255274.42649  21913040.2954   21913047.2974   21913040.4724
       231.0004        179.0004
  -1457621.05549   -903359.82149  24141756.6984   24141762.0134   24141754.8064
       203.0004        132.0004
 -14824467.32749 -11285065.80849  21697661.5964   21697667.9154   21697660.7084
       233.0004        180.0004
 -19691217.15549 -15320673.02549  21005523.6654   21005527.9294   21005523.6094
       238.0004        199.0004
 -10501578.83249  -8170409.90749  22715454.2724   22715460.4834   22715454.6564
       223.0004        169.0004
 11 10 14 12  3 30.0000000  0  9G31G05G16G03G06G18G30G21G29
  -6396870.69149  -4971824.64749  23723625.0154   23723634.0924   23723627.0664
       211.0004        151.0004
   1821098.85749   1426998.22749  24724582.0434   24724590.2314   24724581.4724
       196.0004        132.0004
 -15353410.18649 -11921398.79449  21505211.7584   21505216.0464   21505211.8984
       235.0004        186.0004
  -7865431.64049  -5852716.35349  22542008.0654   22542017.7674   22542007.7064
       216.0004        159.0004
 -13259721.89249 -10310026.23649  21899669.1814   21899676.4874   21899669.3064
       230.0004        179.0004
  -1545851.02849   -972110.22249  24124963.1844   24124973.1284   24124964.1904
       204.0004        133.0004
 -14731641.82549 -11212734.30749  21715325.8544   21715331.8444   21715325.4094
       232.0004        181.0004
 -19702092.58249 -15329147.36149  21003455.3904   21003458.3714   21003454.5754
       239.0004        199.0004
 -10416490.58649  -8104107.43749  22731645.7914   22731653.7244   22731647.1264
       224.0004        170.0004
 11 10 14 12  4  0.0000000  0  9G31G05G16G03G06G18G30G21G29
  -6294207.33849  -4891827.34749  23743163.0364   23743170.2954   23743162.9764
       215.0004        152.0004
   1882092.82649   1474525.94149  24736186.8904   24736195.6494   24736185.4334
       193.0004        129.0004
 -15417736.61049 -11971523.22549  21492970.2744   21492975.7634   21492970.1614
       234.0004        187.0004
  -7962427.91549  -5928297.73449  22523549.1064   22523560.1064   22523549.8884
       217.0004        160.0004
 -13329742.00349 -10364587.28849  21886344.8334   21886351.4564   21886345.6944
       231.0004        179.0004
  -1633940.15449  -1040750.84849  24108203.4994   24108211.3444   24108202.9754
       208.0004        138.0004
 -14638457.87849 -11140123.50549  21733057.0954   21733064.8224   21733056.9814
       232.0004        179.0004
 -19712502.23049 -15337258.75749  21001473.4484   21001477.5444   21001473.5534
       238.0004        199.0004
 -10331249.10449  -8037685.59849  22747868.7124   22747875.1564   22747868.5734
       224.0004        171.0004
 11 10 14 12  4 30.0000000  0  9G31G05G16G03G06G18G30G21G29
  -6191389.42049  -4811709.59249  23762728.9044   23762737.5574   23762730.1254
       213.0004        153.0004
   1943558.43349   1522421.13849  24747887.4834   24747894.3124   24747886.2234
       204.0004        134.0004
 -15481689.14249 -12021356.30749  21480800.9694   21480805.8414   21480800.5104
       235.0004        187.0004
  -8059240.35649  -6003735.87149  22505126.9084   22505134.1834   22505127.1924
       217.0004        155.0004
 -13399516.68049 -10418957.07049  21873067.4354   21873072.7734   21873067.2544
       230.0004        179.0004
  -1721886.35849  -1109280.10449  24091466.8304   24091475.3984   24091466.6694
       207.0004        139.0004
 -14544917.56049 -11067235.00149  21750858.3334   21750864.7024   21750857.4784
       231.0004        179.0004
 -19722446.57349 -15345007.56649  20999581.8574   20999585.3864   20999581.4194
       240.0004        199.0004
 -10245855.88949  -7971145.50449  22764116.5294   22764123.9044   22764117.5644
       222.0004        169.0004
 11 10 14 12  5  0.0000000  0  9G31G05G16G03G06G18G30G21G29
  -6088420.21249  -4731474.08749  23782321.5304   23782332.2814   23782322.1514
       210.0004        151.0004
   2005493.46449   1570682.13749  24759671.5404   24759681.1554   24759672.3474
       200.0004        135.0004
 -15545265.94149 -12070896.62549  21468703.3504   21468707.2364   21468702.9484
       237.0004        187.0004
  -8155868.38349  -6079030.31349  22486740.1554   22486748.6964   22486740.9314
       218.0004        160.0004
 -13469045.63349 -10473135.39349  21859835.6814   21859841.8194   21859836.0274
       229.0004        178.0004
  -1809687.06249  -1177696.01749  24074757.3164   24074766.2044   24074758.1204
       208.0004        139.0004
 -14451023.33949 -10994070.73549  21768726.4604   21768731.6754   21768725.5894
       231.0004        179.0004
 -19731925.93749 -15352394.06349  20997777.5284   20997781.1614   20997776.8994
       239.0004        199.0004
 -10160312.32049  -7904488.25649  22780394.7784   22780402.8474   22780395.9174
       222.0004        168.0004
 11 10 14 12  5 30.0000000  0  9G31G05G16G03G06G18G30G21G29
  -5985302.39749  -4651122.60249  23801947.2744   23801954.6484   23801946.9824
       215.0004        152.0004
   2067896.40349   1619307.75449  24771544.4054   24771553.9204   24771548.4084
       201.0004        132.0004
 -15608464.61849 -12120142.30049  21456677.3824   21456681.0614   21456676.5164
       237.0004        188.0004
  -8252310.34549  -6154179.73249  22468388.8634   22468397.3734   22468388.7144
       220.0004        161.0004
 -13538327.33849 -10527121.04649  21846652.0424   21846659.0204   21846652.2754
       230.0004        179.0004
  -1897339.37149  -1245996.28349  24058079.0154   24058086.4234   24058078.0094
       209.0004        141.0004
 -14356776.69549 -10920631.84449  21786659.3424   21786667.2074   21786659.6184
       230.0004        179.0004
 -19740939.99349 -15359417.98349  20996062.8054   20996065.5654   20996062.6254
       240.0004        199.0004
 -10074618.67449  -7837714.06649  22796704.0034   22796709.4304   22796702.8134
       224.0004        167.0004
 11 10 14 12  6  0.0000000  0  9G31G05G16G03G06G18G30G21G29
  -5882039.36049  -4570658.08849  23821593.4394   23821604.2184   23821596.5844
       210.0004        150.0004
   2130764.81749   1668296.08649  24783510.8564   24783515.5904   24783510.6324
       198.0004        131.0004
 -15671283.79349 -12169092.24749  21444721.7594   21444726.8394   21444721.5014
       236.0004        187.0004
  -8348565.39649  -6229183.52749  22450070.6044   22450080.0774   22450071.8644
       220.0004        162.0004
 -13607361.87949 -10580914.11149  21833515.9974   21833522.3974   21833515.7924
       232.0004        180.0004
  -1984841.07849  -1314179.16349  24041427.1074   24041435.0714   24041428.4614
       210.0004        141.0004
 -14262180.33549 -10846920.44649  21804661.1564   21804667.5604   21804660.2624
       230.0004        178.0004
 -19749489.82749 -15366080.16749  20994435.2654   20994438.6514   20994434.8504
       238.0004        199.0004
  -9988776.64949  -7770824.25949  22813037.9314   22813044.7044   22813037.8594
       222.0004        166.0004
 11 10 14 12  6 30.0000000  0  9G31G05G16G03G06G18G30G21G29
  -5778632.47249  -4490081.40349  23841273.3734   23841283.6504   23841273.5914
       213.0004        152.0004
   2194097.50149   1717646.12649  24795561.3794   24795571.3494   24795560.5024
       200.0004        129.0004
 -15733719.73849 -12217743.57949  21432841.2224   21432846.1224   21432841.1214
       237.0004        189.0004
  -8444630.88349  -6304039.62249  22431790.2874   22431798.2214   22431790.6444
       221.0004        161.0004
 -13676147.04549 -10634512.87149  21820425.3724   21820430.9614   21820425.6514
       230.0004        180.0004
  -2072187.64349  -1382241.09349  24024807.0894   24024813.6504   24024804.1784
       212.0004        139.0004
 -14167234.72449 -10772936.91949  21822730.0234   21822734.5414   21822729.0414
       230.0004        177.0004
 -19757574.19849 -15372379.66649  20992896.7434   20992900.1694   20992896.5734
       239.0004        199.0004
  -9902785.50349  -7703818.23049  22829401.3074   22829407.9224   22829402.0634
       223.0004        166.0004
 11 10 14 12  7  0.0000000  0  9G31G05G16G03G06G18G30G21G29
  -5675086.28749  -4409396.22349  23860978.2734   23860985.9244   23860978.1894
       213.0004        154.0004
   2257890.85949   1767355.17749  24807700.3064   24807711.6144   24807703.3224
       200.0004        131.0004
 -15795772.68649 -12266096.47249  21421033.8664   21421037.0844   21421033.0564
       238.0004        190.0004
  -8540507.01749  -6378748.16049  22413543.6304   22413554.2894   22413546.1574
       220.0004        161.0004
 -13744683.45749 -10687917.79149  21807383.5384   21807389.9524   21807384.1324
       232.0004        180.0004
  -2159378.61749  -1450181.82749  24008214.5554   24008223.8724   24008213.9984
       210.0004        138.0004
 -14071943.63449 -10698684.16649  21840860.9644   21840868.8694   21840860.7294
       226.0004        177.0004
 -19765194.64149 -15378317.65549  20991446.4524   20991450.4484   20991446.4854
       239.0004        199.0004
  -9816648.60549  -7636698.64049  22845793.4254   22845799.7284   22845793.8614
       222.0004        167.0004
 11 10 14 12  7 30.0000000  0  9G31G05G16G03G06G18G30G21G29
  -5571403.04549  -4328604.20349  23880708.7714   23880714.6084   23880709.8454
       216.0004        149.0004
   2322143.79049   1817422.35649  24819927.1394   24819934.4754   24819928.7674
       199.0004        132.0004
 -15857439.92049 -12314148.80549  21409297.6074   21409301.5964   21409297.0104
       237.0004        187.0004
  -8636192.10249  -6453307.83949  22395337.9144   22395346.3014   22395337.6474
       223.0004        164.0004
 -13812969.81149 -10741127.85749  21794389.1474   21794395.2564   21794388.9664
       230.0004        180.0004
  -2246410.56649  -1517998.66349  23991650.9074   23991661.0214   23991651.4204
       208.0004        139.0004
 -13976308.45749 -10624163.30049  21859060.4924   21859067.7334   21859060.4454
       229.0004        177.0004
 -19772351.05449 -15383894.05549  20990085.2724   20990088.3354   20990084.6534
       240.0004        199.0004
  -9730365.90349  -7569465.43649  22862211.9024   22862218.3014   22862212.9804
       223.0004        168.0004
 11 10 14 12  8  0.0000000  0  9G31G05G16G03G06G18G30G21G29
  -5467585.51349  -4247707.58149  23900466.8134   23900472.9244   23900466.0544
       216.0004        153.0004
   2386854.29849   1867846.13549  24832242.3504   24832252.0224   24832243.8274
       200.0004        135.0004
 -15918718.90949 -12361898.60749  21397636.1394   21397641.1244   21397636.4934
       236.0004        188.0004
  -8731684.17549  -6527717.10849  22377164.8504   22377173.7534   22377166.3024
       223.0004        163.0004
 -13881005.08049 -10794142.27349  21781442.6784   21781448.3994   21781442.2204
       231.0004        180.0004
  -2333280.53149  -1585689.25849  23975120.7534   23975127.9504   23975120.1084
       209.0004        139.0004
 -13880330.85249 -10549375.62549  21877325.1874   21877331.6714   21877324.5164
       228.0004        176.0004
 -19779043.27349 -15389108.75149  20988811.4694   20988814.7414   20988811.1074
       239.0004        199.0004
  -9643938.16849  -7502119.23349  22878659.5244   22878666.2894   22878660.2164
       223.0004        170.0004
 11 10 14 12  8 30.0000000  0  9G31G05G16G03G06G18G30G21G29
  -5363636.54149  -4166708.50249  23920246.9344   23920254.7454   23920247.2174
       218.0004        159.0004
   2452019.92349   1918624.53549  24844641.8094   24844651.4294   24844642.5074
       198.0004        133.0004
 -15979608.02249 -12409344.62149  21386050.7684   21386054.2594   21386050.1684
       238.0004        190.0004
  -8826982.47349  -6601975.41049  22359030.0334   22359038.0394   22359030.2604
       220.0004        159.0004
 -13948788.65749 -10846960.58349  21768544.1834   21768549.3654   21768543.7724
       232.0004        181.0004
  -2419986.00149  -1653251.66449  23958621.7264   23958628.0844   23958621.4414
       214.0004        139.0004
 -13784013.14849 -10474322.92349  21895654.4034   21895661.2124   21895653.1114
       230.0004        177.0004
 -19785271.76349 -15393962.10449  20987626.0264   20987629.4624   20987625.9724
       239.0004        199.0004
  -9557366.42349  -7434660.81949  22895132.5054   22895140.3964   22895133.5854
       222.0004        167.0004
 11 10 14 12  9  0.0000000  0  9G31G05G16G03G06G18G30G21G29
  -5259558.68949  -4085609.10849  23940048.9544   23940060.4074   23940051.8024
       213.0004        152.0004
   2517638.90049   1969756.14649  24857130.5194   24857139.1664   24857129.3424
       203.0004        133.0004
 -16040105.15049 -12456485.17549  21374537.0954   21374542.1574   21374537.0064
       237.0004        189.0004
  -8922085.17849  -6676081.30649  22340933.0714   22340942.1464   22340933.3724
       222.0004        162.0004
 -14016319.48049 -10899581.92849  21755692.6534   21755698.6964   21755692.6004
       231.0004        181.0004
  -2506524.29049  -1720683.80349  23942152.5574   23942160.2014   23942152.1444
       210.0004        139.0004
 -13687357.20249 -10399006.65849  21914046.8624   21914052.8584   21914046.2054
       229.0004        175.0004
 -19791036.51049 -15398454.09549  20986529.9364   20986532.9584   20986528.9254
       240.0004        199.0004
  -9470651.75549  -7367091.02549  22911632.8124   22911640.7754   22911634.2374
       220.0004        167.0004
 11 10 14 12  9 30.0000000  0  9G31G05G16G03G06G18G30G21G29
  -5155355.27349  -4004411.71449  23959881.8104   23959888.8534   23959881.2414
       216.0004        149.0004
   2583708.43049   2021238.85149  24869702.8354   24869711.9954   24869703.4994
       202.0004        133.0004
 -16100208.07849 -12503318.56749  21363100.2704   21363104.2264   21363099.9404
       237.0004        188.0004
  -9016991.01149  -6750033.77949  22322873.0654   22322881.5784   22322872.9314
       221.0004        164.0004
 -14083596.91549 -10952005.83249  21742890.2044   21742896.3204   21742890.5264
       232.0004        181.0004
  -2592892.74249  -1787983.61549  23925716.9664   23925725.9634   23925716.8264
       211.0004        140.0004
 -13590365.17649 -10323428.51149  21932503.0364   21932510.2234   21932502.6934
       229.0004        175.0004
 -19796338.28249 -15402585.32449  20985519.7574   20985523.7584   20985519.7004
       238.0004        199.0004
  -9383795.28149  -7299410.70749  22928161.6154   22928168.9894   22928162.5804
       220.0004        166.0004
 11 10 14 12 10  0.0000000  0  9G31G05G16G03G06G18G30G21G29
  -5051029.10749  -3923118.76949  23979735.4084   23979742.3724   23979735.7424
       219.0004        155.0004
   2650226.60749   2073071.15749  24882359.9144   24882368.1174   24882361.4474
       198.0004        130.0004
 -16159915.24049 -12549843.58049  21351738.3064   21351742.6914   21351739.0164
       238.0004        189.0004
  -9111699.39549  -6823832.38549  22304850.8174   22304858.5454   22304850.7274
       223.0004        163.0004
 -14150620.40449 -11004231.86049  21730135.9654   21730142.8554   21730136.0764
       232.0004        182.0004
  -2679088.76949  -1855149.11049  23909315.7334   23909323.4154   23909315.0724
       212.0004        142.0004
 -13493039.22349 -10247590.17649  21951024.8674   21951031.1234   21951023.2904
       229.0004        175.0004
 -19801177.40949 -15406356.05549  20984599.3794   20984603.4004   20984599.4164
       239.0004        200.0004
  -9296797.88849  -7231620.60749  22944717.0814   22944724.0074   22944716.8554
       221.0004        167.0004
 11 10 14 12 10 30.0000000  0  9G31G05G16G03G06G18G30G21G29
  -4946582.90649  -3841732.29849  23999610.1524   23999618.5954   23999609.5564
       212.0004        150.0004
   2717191.64949   2125251.65949  24895106.6094   24895110.8574   24895102.8864
       199.0004        129.0004
 -16219224.48949 -12596058.51149  21340452.7834   21340456.5124   21340452.1054
       238.0004        190.0004
  -9206208.19449  -6897475.49949  22286866.3274   22286872.8174   22286866.2724
       222.0004        162.0004
 -14217388.71549 -11056259.04649  21717429.8704   21717436.5234   21717430.5914
       231.0004        182.0004
  -2765109.49549  -1922177.96649  23892944.1604   23892953.1214   23892944.0904
       211.0004        141.0004
 -13395381.10149 -10171493.00349  21969608.1384   21969614.7124   21969607.0434
       228.0004        175.0004
 -19805553.87949 -15409766.27149  20983766.9224   20983770.0164   20983766.2474
       239.0004        199.0004
  -9209660.31449  -7163721.26449  22961299.0104   22961306.0654   22961299.5644
       222.0004        167.0004
 11 10 14 12 11  0.0000000  0  9G31G05G16G03G06G18G30G21G29
  -4842020.06449  -3760254.96649  24019507.9134   24019515.2934   24019507.7094
       215.0004        152.0004
   2784600.58449   2177778.06049  24907932.3634   24907940.5464   24907929.6864
       195.0004        130.0004
 -16278134.32949 -12641962.22449  21329242.1074   21329246.1204   21329241.5404
       237.0004        189.0004
  -9300516.91649  -6970962.72649  22268919.2324   22268926.3804   22268919.6084
       223.0004        162.0004
 -14283901.67149 -11108087.26149  21704773.4814   21704779.8674   21704773.4554
       232.0004        183.0004
  -2850952.84349  -1989068.66649  23876610.7464   23876616.1044   23876609.9624
       212.0004        140.0004
 -13297393.50549 -10095139.09149  21988253.4274   21988260.8454   21988253.2724
       228.0004        174.0004
 -19809468.43049 -15412816.54749  20983022.4014   20983024.9474   20983021.4094
       241.0004        199.0004
  -9122384.10049  -7095713.89649  22977907.6084   22977914.5574   22977907.6864
       223.0004        167.0004
 11 10 14 12 11 30.0000000  0  9G31G05G16G03G06G18G30G21G29
  -4737342.16049  -3678687.86949  24039425.9784   24039431.6914   24039424.7844
       210.0004        142.0004
   2852452.22849   2230649.43949  24920843.9964   24920853.9434   24920842.6624
       204.0004        132.0004
 -16336641.72349 -12687552.33549  21318108.2324   21318112.2924   21318107.9134
       238.0004        190.0004
  -9394622.81749  -7044291.86949  22251012.7264   22251019.3394   22251012.5814
       224.0004        165.0004
 -14350157.30949 -11159714.95349  21692165.6424   21692172.4674   21692165.3404
       232.0004        183.0004
  -2936614.55449  -2055817.81149  23860307.5124   23860316.9934   23860307.2704
       212.0004        142.0004
 -13199077.40349 -10018529.21049  22006964.8824   22006969.2904   22006963.1504
       229.0004        175.0004
 -19812920.55749 -15415506.49549  20982364.0194   20982368.0504   20982363.6764
       238.0004        199.0004
  -9034969.21049  -7027598.45849  22994543.1604   22994549.4454   22994543.1904
       223.0004        167.0004
 11 10 14 12 12  0.0000000  0  9G31G05G16G03G06G18G30G21G29
  -4632552.97549  -3597034.16749  24059367.2154   24059378.1044   24059368.1984
       207.0004        151.0004
   2920744.06749   2283863.73949  24933837.5984   24933847.1414   24933840.0224
       200.0004        132.0004
 -16394745.66949 -12732828.08949  21307051.8414   21307055.8644   21307051.9464
       238.0004        190.0004
  -9488525.27049  -7117462.48749  22233142.7524   22233150.1464   22233142.6174
       223.0004        163.0004
 -14416155.92049 -11211142.37649  21679606.1114   21679612.5314   21679606.3444
       232.0004        183.0004
  -3022093.51249  -2122424.52749  23844041.1914   23844050.4004   23844040.3634
       211.0004        142.0004
 -13100435.78049  -9941665.67649  22025734.3104   22025740.8334   22025733.2854
       228.0004        175.0004
 -19815911.27849 -15417836.91749  20981795.9134   20981798.5674   20981795.7944
       240.0004        199.0004
  -8947417.46249  -6959376.41649  23011201.9584   23011209.0094   23011202.0314
       221.0004        166.0004
 11 10 14 12 12 30.0000000  0  9G31G05G16G03G06G18G30G21G29
  -4527655.31049  -3515296.02749  24079329.8394   24079337.8404   24079330.4444
       213.0004        151.0004
   2989473.33049   2337418.89149  24946915.8234   24946925.1284   24946918.8024
       195.0004        130.0004
 -16452443.94649 -12777787.73349  21296071.2044   21296076.5914   21296071.7034
       237.0004        190.0004
  -9582223.04149  -7190473.63549  22215313.6424   22215319.5194   22215312.7644
       224.0004        163.0004
 -14481896.33749 -11262368.59749  21667097.3594   21667101.9474   21667096.1094
       234.0004        184.0004
  -3107386.48449  -2188886.38549  23827810.9094   23827819.8744   23827811.1464
       211.0004        141.0004
 -13001470.43049  -9864549.87449  22044566.6224   22044573.5644   22044566.1874
       227.0004        174.0004
 -19818441.06649 -15419808.16349  20981313.9414   20981317.6564   20981313.3574
       239.0004        199.0004
  -8859729.45849  -6891048.17649  23027889.6844   23027895.2494   23027890.0864
       224.0004        168.0004
 11 10 14 12 13  0.0000000  0  9G31G05G16G03G06G18G30G21G29
  -4422652.67049  -3433475.91549  24099312.1354   24099316.6504   24099311.3324
       212.0004        143.0004
   3058637.42749   2391312.96549  24960078.7804   24960088.2294   24960077.6364
       198.0004        132.0004
 -16509735.20049 -12822430.20049  21285170.0004   21285174.4984   21285168.9874
       236.0004        192.0004
  -9675715.54249  -7263324.82349  22197520.2134   22197528.6744   22197521.4754
       223.0004        163.0004
 -14547378.34949 -11313393.46649  21654635.1714   21654641.3844   21654635.5964
       232.0004        184.0004
  -3192491.65649  -2255201.88549  23811615.6464   23811624.5414   23811615.1844
       211.0004        143.0004
 -12902183.99349  -9787183.89749  22063460.0784   22063467.7274   22063460.2994
       228.0004        173.0004
 -19820510.52249 -15421420.71449  20980920.3614   20980923.9314   20980919.9154
       239.0004        200.0004
  -8771906.82849  -6822615.02349  23044602.5414   23044608.5594   23044601.7324
       222.0004        166.0004
 11 10 14 12 13 30.0000000  0  9G31G05G16G03G06G18G30G21G29
  -4317546.89749  -3351575.51949  24119307.3674   24119322.4994   24119309.9134
       201.0004        142.0004
   3128235.09349   2445544.88049  24973322.6024   24973333.1564   24973324.3664
       199.0004        131.0004
 -16566616.72949 -12866753.42049  21274345.2984   21274349.5414   21274345.6914
       236.0004        191.0004
  -9769000.31249  -7336014.13949  22179769.9224   22179777.0154   22179769.9704
       221.0004        166.0004
 -14612600.39249 -11364215.75249  21642222.9394   21642230.2714   21642223.9124
       231.0004        184.0004
  -3277405.38749  -2321368.22249  23795457.8844   23795466.4004   23795457.6914
       212.0004        141.0004
 -12802577.91849  -9709568.85349  22082416.0704   22082422.6524   22082415.1864
       228.0004        173.0004
 -19822119.29749 -15422674.29549  20980613.7154   20980617.3864   20980613.6734
       239.0004        199.0004
  -8683949.85849  -6754077.19049  23061338.8884   23061346.2244   23061339.0934
       223.0004        167.0004
 11 10 14 12 14  0.0000000  0  9G31G05G16G03G06G18G30G21G29
  -4212340.62749  -3269596.88149  24139332.1864   24139341.4514   24139332.4014
       210.0004        152.0004
   3198264.21049   2500112.90749  24986650.2704   24986657.4824   24986648.5714
       199.0004        132.0004
 -16623085.96849 -12910755.37649  21263599.6724   21263603.4094   21263599.2104
       237.0004        191.0004
  -9862075.47849  -7408540.12549  22162059.0064   22162065.1354   22162058.3924
       222.0004        165.0004
 -14677561.13049 -11414834.43649  21629863.0744   21629868.7784   21629863.2364
       235.0004        185.0004
  -3362124.46149  -2387382.87049  23779334.1204   23779343.4594   23779335.6214
       207.0004        141.0004
 -12702653.70949  -9631705.91349  22101429.8974   22101436.8824   22101429.5434
       227.0004        173.0004
 -19823267.32649 -15423568.85349  20980396.4384   20980399.0814   20980396.1514
       240.0004        199.0004
  -8595858.92049  -6685434.97549  23078102.3004   23078110.0844   23078102.8244
       222.0004        166.0004
 11 10 14 12 14 30.0000000  0  9G31G05G16G03G06G18G30G21G29
  -4107037.77249  -3187542.93249  24159370.0854   24159379.3824   24159367.9794
       204.0004        144.0004
   3268721.69949   2555014.75049  25000058.3354   25000064.2684   25000056.6204
       204.0004        131.0004
 -16679142.27449 -12954435.56349  21252932.2544   21252936.5184   21252931.9304
       236.0004        192.0004
  -9954941.30449  -7480902.99449  22144386.4394   22144391.8084   22144385.6944
       222.0004        163.0004
 -14742261.13349 -11465249.93349  21617551.8664   21617556.1224   21617550.5984
       235.0004        184.0004
  -3446647.58149  -2453244.80149  23763252.7224   23763260.2884   23763252.2294
       212.0004        142.0004
 -12602414.80849  -9553597.75849  22120505.3324   22120511.4854   22120504.7754
       228.0004        173.0004
 -19823956.51549 -15424105.87849  20980264.6444   20980267.3694   20980264.4944
       239.0004        200.0004
  -8507635.90149  -6616689.84749  23094891.2954   23094898.0964   23094891.1554
       224.0004        166.0004
 11 10 14 12 15  0.0000000  0  9G31G05G16G03G06G18G30G21G29
  -4001640.24949  -3105415.26949  24179424.6464   24179432.4994   24179424.7194
       200.0004        135.0004
   3339605.64849   2610248.87249  25013545.3084   25013551.1624   25013547.0454
       200.0004        130.0004
 -16734783.32249 -12997792.16249  21242343.7784   21242349.0984   21242343.5134
       236.0004        192.0004
 -10047595.37849  -7553100.85249  22126755.2094   22126761.5604   22126754.8674
       223.0004        164.0004
 -14806698.75049 -11515460.98349  21605287.8274   21605294.2884   21605288.5324
       234.0004        185.0004
  -3530971.21649  -2518951.29849  23747204.1704   23747212.3634   23747204.0284
       213.0004        142.0004
 -12501862.60249  -9475245.46449  22139638.5364   22139646.4464   22139639.0904
       226.0004        172.0004
 -19824186.40049 -15424284.98749  20980221.6264   20980224.4624   20980220.6844
       240.0004        200.0004
  -8419281.55049  -6547842.36349  23111704.4344   23111711.9364   23111705.0214
       222.0004        166.0004
 11 10 14 12 15 30.0000000  0  9G31G05G16G03G06G18G30G21G29
  -3896150.74349  -3023215.85049  24199504.1344   24199511.0394   24199503.4114
       213.0004        152.0004
   3410914.80749   2665814.34949  25027114.8384   25027125.0214   25027115.5564
       199.0004        134.0004
 -16790006.24949 -13040822.96749  21231835.9524   21231839.5874   21231835.5754
       237.0004        193.0004
 -10140035.56549  -7625132.06349  22109163.6634   22109171.2064   22109165.2044
       224.0004        165.0004
 -14870872.67949 -11565466.56549  21593076.2494   21593081.9384   21593076.6374
       234.0004        184.0004
  -3615092.07049  -2584499.81649  23731196.0784   23731204.5784   23731195.8244
       211.0004        143.0004
 -12400998.43749  -9396650.08149  22158833.1924   22158840.0114   22158832.8224
       226.0004        171.0004
 -19823956.86949 -15424106.12849  20980263.9044   20980268.0884   20980263.8464
       238.0004        199.0004
  -8330796.26749  -6478892.85849  23128542.2364   23128548.4364   23128542.3054
       221.0004        165.0004
 11 10 14 12 16  0.0000000  0  9G31G05G16G03G06G18G30G21G29
  -3790573.32449  -2940947.99749  24219592.0634   24219603.4514   24219592.6564
       203.0004        149.0004
   3482645.04149   2721707.97549  25040763.8284   25040774.2404   25040763.8174
       194.0004        132.0004
 -16844810.65149 -13083527.64449  21221405.8164   21221410.4144   21221405.8334
       236.0004        191.0004
 -10232261.98249  -7696996.69549  22091614.3114   22091621.8564   22091614.1074
       223.0004        166.0004
 -14934783.69849 -11615267.27649  21580915.3334   21580919.7344   21580914.8004
       234.0004        186.0004
  -3699009.09049  -2649889.50649  23715229.0854   23715235.4484   23715228.0314
       212.0004        142.0004
 -12299826.13249  -9317814.59349  22178085.9404   22178091.7324   22178086.5534
       226.0004        171.0004
 -19823269.97649 -15423570.87449  20980395.7394   20980398.9054   20980395.0224
       240.0004        200.0004
  -8242182.01349  -6409842.88849  23145405.0574   23145412.0104   23145404.4584
       217.0004        162.0004
 11 10 14 12 16 30.0000000  0  9G31G05G16G03G06G18G30G21G29
  -3684909.65549  -2858613.06949  24239697.4624   24239705.6944   24239700.1544
       206.0004        139.0004
   3554794.54349   2777928.29349  25054494.5584   25054504.5404   25054494.7814
       198.0004        131.0004
 -16899193.90749 -13125904.14349  21211057.4324   21211061.6024   21211057.2654
       236.0004        192.0004
 -10324273.11649  -7768693.56049  22074104.8724   22074110.3414   22074105.3634
       222.0004        165.0004
 -14998429.98349 -11664861.70449  21568802.1284   21568808.9474   21568803.0604
       232.0004        186.0004
  -3782718.68249  -2715117.54549  23699297.8924   23699306.3664   23699297.7794
       210.0004        142.0004
 -12198346.85249  -9238739.89449  22197395.3144   22197402.1874   22197395.4174
       225.0004        170.0004
 -19822125.21949 -15422678.84049  20980612.6564   20980616.4054   20980612.2104
       239.0004        200.0004
  -8153438.91749  -6340692.51249  23162291.9854   23162298.7114   23162293.1114
       221.0004        163.0004
 11 10 14 12 17  0.0000000  0  9G31G05G16G03G06G18G30G21G29
  -3579163.20249  -2776213.36049  24259826.3044   24259829.9594   24259824.9094
       215.0004        145.0004
   3627361.41849   2834473.82649  25068303.8194   25068311.7084   25068304.0904
       199.0004        131.0004
 -16953153.81249 -13167950.78149  21200790.1034   21200793.9094   21200789.5714
       238.0004        193.0004
 -10416067.13649  -7840221.26949  22056637.5614   22056642.9354   22056635.6694
       223.0004        165.0004
 -15061810.70749 -11714249.20349  21556742.0544   21556747.5994   21556742.2664
       234.0004        186.0004
  -3866218.11749  -2780181.78749  23683408.8564   23683417.0474   23683408.9944
       212.0004        144.0004
 -12096562.49349  -9159427.49049  22216765.5364   22216772.3714   22216764.8934
       228.0004        170.0004
 -19820522.88649 -15421430.25849  20980918.4244   20980921.3564   20980917.7184
       239.0004        200.0004
  -8064567.73749  -6271442.29049  23179203.4434   23179211.0984   23179203.3264
       218.0004        160.0004
 11 10 14 12 17 30.0000000  0  9G31G05G16G03G06G18G30G21G29
  -3473337.06249  -2693751.68049  24279959.0754   24279972.8814   24279959.3524
       204.0004        147.0004
   3700342.70649   2891342.29249  25082191.7964   25082201.5584   25082192.4224
       200.0004        132.0004
 -17006689.38949 -13209666.75849  21190602.0724   21190606.4484   21190601.8404
       238.0004        193.0004
 -10507643.28349  -7911579.19049  22039210.3634   22039216.5334   22039210.7074
       224.0004        165.0004
 -15124925.86149 -11763429.77349  21544730.7294   21544737.4414   21544731.1684
       232.0004        186.0004
  -3949505.67349  -2845080.99249  23667560.3484   23667567.3114   23667558.8184
       212.0004        143.0004
 -11994476.18649  -9079879.81149  22236193.0554   22236199.8234   22236192.5184
       228.0004        169.0004
 -19818463.97049 -15419825.89649  20981309.4054   20981312.9644   20981309.2974
       239.0004        200.0004
  -7975570.42349  -6202093.82649  23196140.8184   23196146.9384   23196140.8244
       221.0004        164.0004
 11 10 14 12 18  0.0000000  0  9G31G05G16G03G06G18G30G21G29
  -3367432.83049  -2611229.32449  24300114.3914   24300124.7964   24300114.3234
       211.0004        149.0004
   3773737.30249   2948532.80649  25096158.3974   25096167.0254   25096158.8484
       199.0004        134.0004
 -17059797.86449 -13251049.94249  21180494.9994   21180499.6524   21180495.1084
       236.0004        193.0004
 -10598998.95049  -7982765.30849  22021826.2574   22021832.5764   22021825.7734
       225.0004        167.0004
 -15187773.36349 -11812401.76749  21532771.5304   21532777.3484   21532772.0764
       233.0004        186.0004
  -4032577.46749  -2909812.03249  23651753.2474   23651759.2344   23651750.9134
       212.0004        143.0004
 -11892088.87649  -9000097.55449  22255675.6404   22255682.2034   22255676.0094
       225.0004        169.0004
 -19815948.34649 -15417865.64849  20981788.7104   20981792.0794   20981788.0814
       240.0004        200.0004
  -7886446.74449  -6132646.89549  23213098.4124   23213106.4044   23213099.3834
       218.0004        164.0004
 11 10 14 12 18 30.0000000  0  9G31G05G16G03G06G18G30G21G29
  -3261454.64349  -2528649.16549  24320282.6744   24320288.1564   24320282.9034
       215.0004        146.0004
   3847541.54649   3006042.53149  25110203.6654   25110210.8544   25110200.4444
       201.0004        130.0004
 -17112477.29549 -13292098.80849  21170471.5034   21170474.6284   21170471.2114
       238.0004        192.0004
 -10690133.60749  -8053779.21349  22004484.1284   22004489.7434   22004482.9934
       226.0004        167.0004
 -15250353.38849 -11861165.35749  21520862.9394   21520868.9434   21520863.2994
       233.0004        187.0004
  -4115431.66149  -2974373.54349  23635983.8044   23635991.4244   23635982.4464
       212.0004        144.0004
 -11789403.44549  -8920083.01449  22275214.7654   22275223.7314   22275215.0604
       226.0004        169.0004
 -19812977.10549 -15415550.38049  20982353.7354   20982357.5984   20982353.4894
       239.0004        200.0004
  -7797198.00249  -6063102.52549  23230082.8574   23230089.9244   23230084.3494
       217.0004        161.0004
 11 10 14 12 19  0.0000000  0  9G31G05G16G03G06G18G30G21G29
  -3155404.34649  -2446012.75049  24340463.0284   24340474.4324   24340461.6244
       206.0004        142.0004
   3921754.13049   3063870.44549  25124325.4804   25124334.2714   25124327.4134
       203.0004        132.0004
 -17164725.96149 -13332812.01849  21160528.9864   21160533.0674   21160528.6834
       239.0004        194.0004
 -10781045.25849  -8124619.36349  21987182.3854   21987189.2294   21987182.6744
       223.0004        166.0004
 -15312664.48049 -11909719.37049  21509005.2394   21509011.1654   21509005.4284
       233.0004        186.0004
  -4198065.07549  -3038763.03149  23620260.8474   23620267.1184   23620261.5034
       212.0004        143.0004
 -11686421.48649  -8839837.40649  22294813.6314   22294819.6384   22294813.7904
       228.0004        169.0004
 -19809550.30749 -15412880.13149  20983006.3364   20983009.3154   20983005.2964
       240.0004        199.0004
  -7707825.07849  -5993461.36649  23247091.1044   23247096.6624   23247091.6504
       217.0004        159.0004
 11 10 14 12 19 30.0000000  0  9G31G05G16G03G06G18G30G21G29
  -3049285.58949  -2363323.22549  24360655.9524   24360666.4714   24360656.9704
       210.0004        151.0004
   3996372.12949   3122014.29149  25138523.8254   25138533.4014   25138525.8264
       202.0004        132.0004
 -17216542.78749 -13373188.71949  21150667.5324   21150672.8124   21150667.4834
       237.0004        193.0004
 -10871733.60349  -8195285.49249  21969925.0364   21969931.8034   21969925.8954
       223.0004        168.0004
 -15374706.61149 -11958063.81549  21497199.5834   21497205.6824   21497199.4484
       234.0004        187.0004
  -4280475.70749  -3102978.93949  23604578.4824   23604584.8384   23604578.0184
       215.0004        146.0004
 -11583145.92749  -8759363.00749  22314466.5774   22314473.8824   22314465.2734
       228.0004        168.0004
 -19805669.13749 -15409855.83149  20983744.3834   20983748.2384   20983744.5324
       240.0004        200.0004
  -7618329.28849  -5923724.46649  23264119.3984   23264128.3884   23264120.4224
       212.0004        154.0004
 11 10 14 12 20  0.0000000  0  9G31G05G16G03G06G18G30G21G29
  -2943100.76549  -2280582.11649  24380863.2634   24380872.1394   24380865.2044
       213.0004        150.0004
   4071392.95649   3180472.03149  25152797.6384   25152811.4004   25152801.3334
       196.0004        129.0004
 -17267925.03249 -13413226.79849  21140890.9544   21140894.4554   21140890.8384
       239.0004        194.0004
 -10962196.53149  -8265775.95549  21952711.9414   21952718.0174   21952710.4894
       227.0004        168.0004
 -15436478.41649 -12006197.62449  21485444.9344   21485450.4064   21485445.0754
       233.0004        187.0004
  -4362660.43549  -3167018.79949  23588940.7634   23588946.0594   23588938.1604
       215.0004        146.0004
 -11479578.26149  -8678661.00049  22334173.1594   22334182.3394   22334172.5494
       224.0004        168.0004
 -19801333.75949 -15406477.58349  20984569.6494   20984572.7844   20984568.5114
       239.0004        199.0004
  -7528711.29149  -5853892.37449  23281174.4454   23281182.4414   23281175.0124
       215.0004        155.0004
 11 10 14 12 20 30.0000000  0  9G31G05G16G03G06G18G30G21G29
  -2836852.54349  -2197791.53649  24401079.1464   24401088.5544   24401079.3894
       203.0004        137.0004
   4146814.54649   3239242.02049  25167153.0204   25167162.0304   25167154.2324
       197.0004        127.0004
 -17318871.08949 -13452924.99149  21131196.2424   21131199.7494   21131195.3864
       238.0004        193.0004
 -11052432.49949  -8336089.58049  21935540.3994   21935545.2334   21935540.1974
       227.0004        168.0004
 -15497979.17849 -12054120.22749  21473741.6684   21473747.0614   21473741.1894
       235.0004        187.0004
  -4444616.63749  -3230880.61749  23573340.9304   23573350.0164   23573341.2814
       214.0004        145.0004
 -11375720.86949  -8597733.25449  22353937.8774   22353944.0194   22353936.4464
       226.0004        169.0004
 -19796544.73149 -15402745.86649  20985480.6474   20985483.7704   20985480.8514
       240.0004        199.0004
  -7438971.86949  -5783965.66049  23298251.2934   23298259.2124   23298251.9994
       213.0004        154.0004
 11 10 14 12 21  0.0000000  0  9G31G05G16G03G06G18G30G21G29
  -2730544.11549  -2114954.15549  24421310.6954   24421321.5444   24421312.5744
       211.0004        148.0004
   4222634.28449   3298322.28049  25181580.5394   25181588.3544   25181581.3884
       192.0004        127.0004
 -17369379.24349 -13492281.95849  21121583.8894   21121588.2094   21121584.1514
       238.0004        194.0004
 -11142440.42249  -8406225.52149  21918412.5344   21918417.3984   21918411.9354
       228.0004        168.0004
 -15559208.48149 -12101831.31349  21462090.5384   21462095.6524   21462090.3484
       235.0004        188.0004
  -4526342.01849  -3294562.59849  23557790.4494   23557797.2844   23557791.0154
       214.0004        145.0004
 -11271576.17149  -8516581.62949  22373755.8014   22373762.6304   22373756.0384
       225.0004        166.0004
 -19791302.93649 -15398661.32449  20986478.8174   20986481.9184   20986477.8354
       239.0004        199.0004
  -7349112.29949  -5713945.30949  23315350.7454   23315357.8404   23315351.0114
       214.0004        152.0004
 11 10 14 12 21 30.0000000  0  9G31G05G16G03G06G18G30G21G29
  -2624178.43949  -2032072.13549  24441553.3724   24441562.5504   24441554.0544
       210.0004        148.0004
   4298849.74949   3357710.91449  25196083.3314   25196093.6784   25196084.0224
       196.0004        128.0004
 -17419447.73449 -13531296.32749  21112055.9314   21112060.8404   21112056.1524
       238.0004        194.0004
 -11232219.35349  -8476183.00049  21901327.5754   21901332.8244   21901326.8434
       227.0004        170.0004
 -15620165.37649 -12149330.12349  21450491.4264   21450495.9094   21450490.3554
       236.0004        188.0004
  -4607834.01449  -3358062.69949  23542282.6624   23542289.3974   23542281.1204
       215.0004        149.0004
 -11167146.28949  -8435207.77149  22393627.4454   22393636.2074   22393627.9004
       224.0004        167.0004
 -19785608.74749 -15394224.27949  20987561.6444   20987564.7974   20987561.6584
       240.0004        199.0004
  -7259132.85949  -5643831.54049  23332473.7654   23332480.9444   23332474.0804
       214.0004        151.0004
 11 10 14 12 22  0.0000000  0  9G31G05G16G03G06G18G30G21G29
  -2517757.47449  -1949147.03549  24461801.9994   24461812.6394   24461801.7254
       204.0004        137.0004
   4375458.91549   3417406.29149  25210662.0174   25210673.0304   25210664.1854
       199.0004        130.0004
 -17469074.23849 -13569966.29049  21102613.2154   21102616.6114   21102612.4464
       239.0004        194.0004
 -11321767.42349  -8545960.61349  21884286.9304   21884293.4684   21884287.2514
       226.0004        170.0004
 -15680848.76949 -12196615.81149  21438941.8394   21438947.9624   21438942.2684
       233.0004        187.0004
  -4689089.52449  -3421378.55949  23526822.3924   23526827.6904   23526820.5184
       216.0004        148.0004
 -11062433.05849  -8353613.12849  22413555.4374   22413561.9674   22413554.5134
       226.0004        168.0004
 -19779462.61649 -15389435.05449  20988731.5234   20988734.8264   20988730.9974
       239.0004        199.0004
  -7169034.96349  -5573625.46949  23349619.3554   23349627.3244   23349620.0104
       214.0004        150.0004
 11 10 14 12 22 30.0000000  0  9G31G05G16G03G06G18G30G21G29
  -2411284.04349  -1866181.02049  24482063.4384   24482076.1664   24482065.7984
       205.0004        138.0004
   4452459.25549   3477406.50949  25225315.9974   25225324.2424   25225316.4574
       202.0004        133.0004
 -17518256.76749 -13608290.30849  21093254.0594   21093257.4764   21093253.5164
       239.0004        193.0004
 -11411082.69549  -8615556.79749  21867290.7934   21867297.6364   21867289.7424
       225.0004        170.0004
 -15741257.56049 -12243687.53849  21427447.0524   21427452.5004   21427446.7034
       235.0004        188.0004
  -4770105.86549  -3484508.06349  23511403.0484   23511410.8404   23511403.6254
       212.0004        149.0004
 -10957438.41149  -8271799.19049  22433533.8164   22433540.6884   22433532.7854
       224.0004        166.0004
 -19772864.85749 -15384293.91949  20989986.5554   20989989.9374   20989986.4084
       239.0004        199.0004
  -7078818.90349  -5503327.30449  23366786.8364   23366794.4604   23366786.4374
       210.0004        147.0004
 11 10 14 12 23  0.0000000  0  9G31G05G16G03G06G18G30G21G29
  -2304762.01849  -1783177.16349  24502335.9984   24502345.0724   24502335.9954
       204.0004        142.0004
   4529847.73149   3537709.19049  25240042.7444   25240049.6854   25240043.1494
       199.0004        133.0004
 -17566994.39149 -13646267.62949  21083978.7554   21083983.1954   21083978.9084
       238.0004        194.0004
 -11500164.94749  -8684971.43149  21850339.1374   21850344.7164   21850338.6494
       227.0004        170.0004
 -15801391.95949 -12290545.44949  21416003.4104   21416009.3974   21416003.5284
       235.0004        189.0004
  -4850881.06349  -3547449.65549  23496033.3674   23496039.4764   23496031.0814
       216.0004        149.0004
 -10852165.47449  -8189768.41749  22453566.3024   22453574.0454   22453565.6424
       224.0004        165.0004
 -19765816.97649 -15378802.04049  20991327.1894   20991331.2824   20991327.2084
       238.0004        199.0004
  -6988486.54149  -5432938.55949  23383976.0934   23383984.1744   23383977.8464
       209.0004        145.0004
 11 10 14 12 23 30.0000000  0  9G31G05G16G03G06G18G30G21G29
  -2198192.93249  -1700136.71049  24522613.4124   24522626.6364   24522615.4054
       202.0004        139.0004
   4607622.81649   3598313.12349  25254842.0634   25254850.2304   25254840.5374
       196.0004        132.0004
 -17615284.28349 -13683896.07949  21074790.5634   21074794.1754   21074789.9924
       238.0004        195.0004
 -11589011.42149  -8754202.33949  21833431.0494   21833438.4164   21833431.3604
       225.0004        171.0004
 -15861249.89949 -12337187.94049  21404613.5734   21404618.8584   21404613.3634
       236.0004        189.0004
  -4931411.60049  -3610200.62149  23480707.4514   23480714.8494   23480707.4214
       214.0004        148.0004
 -10746615.28049  -8107521.58949  22473653.2924   22473661.0284   22473652.1854
       225.0004        164.0004
 -19758318.59149 -15372959.11749  20992754.3234   20992758.3044   20992754.5394
       238.0004        199.0004
  -6898037.66449  -5362459.02449  23401187.8314   23401194.1074   23401188.8014
       206.0004        141.0004
 11 10 14 12 24  0.0000000  0  9G31G05G16G03G06G18G30G21G29
  -2091580.29349  -1617062.24249  24542905.0684   24542909.9144   24542905.4494
       206.0004        137.0004
   4685781.74449   3659216.15549  25269714.2104   25269725.1874   25269714.0374
       198.0004        131.0004
 -17663125.07449 -13721174.57249  21065686.3934   21065690.1144   21065685.6824
       238.0004        195.0004
 -11677621.03849  -8823248.67449  21816570.6054   21816576.4594   21816570.4304
       227.0004        172.0004
 -15920831.38749 -12383615.01449  21393274.6534   21393280.8674   21393274.7564
       235.0004        189.0004
  -5011695.42249  -3672759.31549  23465428.7954   23465437.4054   23465429.7224
       212.0004        149.0004
 -10640790.63649  -8025060.90849  22493790.8024   22493798.3174   22493791.0164
       225.0004        166.0004
 -19750371.36849 -15366766.45049  20994267.7034   20994270.4534   20994266.7774
       239.0004        199.0004
  -6807473.67549  -5291889.73149  23418421.6264   23418427.5904   23418422.7994
       208.0004        140.0004
 11 10 14 12 24 30.0000000  0  9G31G05G16G03G06G18G30G21G29
  -1984927.38349  -1533956.31149  24563202.7284   24563211.5554   24563201.0404
       199.0004        136.0004
   4764321.35149   3720415.81649  25284661.7894   25284669.8534   25284660.3804
       202.0004        132.0004
 -17710515.77149 -13758102.34249  21056667.6274   21056671.8164   21056667.7624
       238.0004        195.0004
 -11765993.34149  -8892110.08249  21799753.0844   21799760.8994   21799752.4274
       226.0004        172.0004
 -15980136.13749 -12429826.45049  21381989.5684   21381994.6624   21381989.6214
       236.0004        188.0004
  -5091730.42249  -3735124.11949  23450202.1874   23450207.5864   23450199.3894
       216.0004        147.0004
 -10534694.29749  -7942388.50249  22513978.2464   22513986.4984   22513979.0434
       223.0004        164.0004
 -19741975.97849 -15360224.55649  20995863.6764   20995868.1424   20995863.7784
       238.0004        199.0004
  -6716795.65449  -5221231.65449  23435678.2394   23435684.2754   23435678.7724
       204.0004        142.0004
 11 10 14 12 25  0.0000000  0  9G31G05G16G03G06G18G30G21G29
  -1878236.33649  -1450820.84349  24583502.6834   24583513.5134   24583501.8004
       197.0004        139.0004
   4843239.80649   3781910.67649  25299677.1284   25299687.3424   25299678.2064
       198.0004        132.0004
 -17757453.68149 -13794677.30249  21047736.2794   21047740.1594   21047735.7544
       239.0004        195.0004
 -11854126.14149  -8960784.87749  21782981.7494   21782987.4584   21782982.5194
       226.0004        171.0004
 -16039162.67749 -12475821.10649  21370757.7414   21370762.6364   21370756.8534
       237.0004        188.0004
  -5171513.17849  -3797292.36249  23435019.5864   23435024.9524   23435018.3544
       215.0004        148.0004
 -10428327.78549  -7859505.59649  22534222.4174   22534228.6794   22534221.6444
       225.0004        165.0004
 -19733132.05849 -15353333.16949  20997547.8174   20997551.1314   20997547.1594
       239.0004        198.0004
  -6626004.37349  -5150485.28849  23452954.8234   23452961.4154   23452954.0794
       205.0004        139.0004
 11 10 14 12 25 30.0000000  0  9G31G05G16G03G06G18G30G21G29
  -1771510.10349  -1367657.88649  24603812.2934   24603821.7724   24603812.7244
       205.0004        142.0004
   4922534.30349   3843698.55649  25314765.1214   25314777.2074   25314764.6994
       198.0004        132.0004
 -17803937.12349 -13830898.12349  21038889.9114   21038894.4144   21038889.7284
       238.0004        196.0004
 -11942018.32549  -9029272.17949  21766256.0554   21766263.4334   21766256.2834
       226.0004        170.0004
 -16097910.27249 -12521598.39949  21359578.8714   21359583.6074   21359578.5994
       238.0004        189.0004
  -5251041.36849  -3859262.23149  23419881.1904   23419890.2314   23419883.0004
       213.0004        147.0004
 -10321693.41249  -7776413.95049  22554512.8514   22554520.3514   22554510.9664
       224.0004        165.0004
 -19723841.15949 -15346093.47649  20999315.8064   20999318.9164   20999315.2284
       239.0004        199.0004
  -6535100.80949  -5079651.44249  23470253.8104   23470261.9374   23470254.2374
       201.0004        138.0004
 11 10 14 12 26  0.0000000  0  9G31G05G16G03G06G18G30G21G29
  -1664750.79349  -1284469.07349  24624125.1114   24624137.9214   24624126.9984
       195.0004        133.0004
   5002203.21549   3905778.17549  25329927.8614   25329937.9694   25329928.7564
       205.0004        136.0004
 -17849964.11149 -13866763.26849  21030131.2324   21030135.4404   21030131.3364
       239.0004        196.0004
 -12029667.95049  -9097570.46549  21749576.8474   21749583.1614   21749575.9094
       227.0004        172.0004
 -16156377.58749 -12567157.29149  21348452.1284   21348457.0384   21348451.8124
       238.0004        190.0004
  -5330312.03549  -3921031.45449  23404800.7314   23404806.2404   23404799.2294
       216.0004        149.0004
 -10214792.91149  -7693114.95449  22574855.1894   22574862.6064   22574855.6454
       222.0004        164.0004
 -19714103.11249 -15338505.36349  21001168.3324   21001172.0894   21001168.2314
       239.0004        199.0004
  -6444085.03449  -5008730.17249  23487572.9904   23487581.5814   23487571.1974
       198.0004        135.0004
 11 10 14 12 26 30.0000000  0  9G31G05G16G03G06G18G30G21G29
  -1557962.28049  -1201257.50249  24644444.5594   24644460.4114   24644446.6794
       200.0004        138.0004
   5082243.11149   3968146.85649  25345159.6204   25345168.3464   25345161.2094
       201.0004        138.0004
 -17895533.51549 -13902271.86249  21021459.9224   21021463.6814   21021459.2384
       239.0004        195.0004
 -12117074.38249  -9165679.25749  21732944.5474   21732951.1004   21732944.3324
       227.0004        174.0004
 -16214564.74149 -12612497.89149  21337379.3724   21337384.9084   21337379.5864
       238.0004        191.0004
  -5409323.31849  -3982598.50849  23389763.5704   23389771.4274   23389763.4674
       215.0004        147.0004
 -10107629.35349  -7609610.96949  22595248.9584   22595255.4684   22595247.7034
       223.0004        165.0004
 -19703919.17449 -15330569.80249  21003106.6494   21003109.6374   21003105.8034
       239.0004        198.0004
  -6352958.93049  -4937722.90249  23504913.0564   23504920.9844   23504911.5044
       201.0004        135.0004
 11 10 14 12 27  0.0000000  0  9G31G05G16G03G06G18G30G21G29
  -1451146.28149  -1118024.59949  24664774.7494   24664786.6244   24664776.3674
       204.0004        147.0004
   5162652.18349   4030803.25949  25360459.8714   25360469.3044   25360458.0304
       200.0004        135.0004
 -17940642.93449 -13937422.02049  21012875.8294   21012879.7044   21012875.6794
       239.0004        196.0004
 -12204235.58549  -9233596.96249  21716356.9244   21716363.2754   21716357.0304
       226.0004        173.0004
 -16272470.30449 -12657619.05949  21326359.8014   21326365.3474   21326360.3384
       237.0004        190.0004
  -5488071.90349  -4043960.89549  23374777.8004   23374785.1424   23374777.9014
       215.0004        149.0004
 -10000204.22349  -7525903.16449  22615691.0654   22615698.3974   22615690.0954
       223.0004        163.0004
 -19693289.86449 -15322287.20149  21005129.6054   21005132.4364   21005129.0924
       240.0004        199.0004
  -6261722.61549  -4866629.79349  23522276.6104   23522282.7184   23522277.8824
       199.0004        133.0004
 11 10 14 12 27 30.0000000  0  9G31G05G16G03G06G18G30G21G29
  -1344305.92449  -1034772.66549  24685107.2664   24685117.3974   24685106.8564
       207.0004        141.0004
   5243427.64849   4093745.19549  25375831.9774   25375839.9094   25375832.8984
       202.0004        134.0004
 -17985290.74549 -13972212.48849  21004379.7954   21004384.1924   21004379.5554
       240.0004        197.0004
 -12291150.29549  -9301322.60349  21699817.4584   21699824.0344   21699818.1804
       226.0004        173.0004
 -16330093.61249 -12702520.29449  21315395.0684   21315400.1194   21315394.9884
       237.0004        190.0004
  -5566555.34349  -4105116.63649  23359841.1624   23359850.8794   23359842.7924
       213.0004        148.0004
  -9892519.95949  -7441993.43949  22636182.4584   22636188.9804   22636181.3024
       221.0004        160.0004
 -19682215.82649 -15313658.05449  21007236.5734   21007239.7384   21007235.6354
       239.0004        198.0004
  -6170377.09949  -4795451.49149  23539660.1174   23539664.3704   23539658.7314
       202.0004        131.0004
 11 10 14 12 28  0.0000000  0  9G31G05G16G03G06G18G30G21G29
  -1237444.14849   -951504.08249  24705442.1434   24705453.3384   24705442.9344
       208.0004        139.0004
   5324566.62449   4156970.35949  25391272.2034   25391280.9114   25391271.7644
       201.0004        135.0004
 -18029475.55849 -14006642.18949  20995971.7104   20995975.5574   20995971.5314
       240.0004        197.0004
 -12377817.48549  -9368855.36849  21683327.4744   21683332.3104   21683326.0304
       228.0004        174.0004
 -16387434.23349 -12747201.24649  21304482.8814   21304488.6004   21304482.7154
       237.0004        190.0004
  -5644771.58549  -4166064.19849  23344960.5084   23344966.2654   23344960.2674
       215.0004        150.0004
  -9784579.20049  -7357883.84949  22656723.0564   22656729.7524   22656722.3534
       221.0004        163.0004
 -19670698.22049 -15304683.28149  21009427.9604   21009431.5084   21009427.9484
       239.0004        198.0004
  -6078923.43849  -4724189.01349  23557060.2934   23557072.3834   23557063.8894
       199.0004        130.0004
 11 10 14 12 28 30.0000000  0  9G31G05G16G03G06G18G30G21G29
  -1130564.34749   -868221.33149  24725780.0014   24725790.6414   24725782.1164
       209.0004        140.0004
   5406066.49849   4220476.74449  25406780.3334   25406789.7004   25406779.5344
       202.0004        135.0004
 -18073195.89649 -14040709.95949  20987650.8214   20987655.9304   20987651.5374
       239.0004        197.0004
 -12464235.72449  -9436194.13349  21666880.7754   21666887.1684   21666881.2414
       228.0004        174.0004
 -16444491.59249 -12791661.48749  21293625.5754   21293631.0044   21293625.0494
       237.0004        190.0004
  -5722718.18949  -4226801.59849  23330126.7424   23330132.8624   23330125.9354
       215.0004        149.0004
  -9676384.28349  -7273576.22049  22677311.1854   22677319.8664   22677311.4164
       219.0004        162.0004
 -19658738.44449 -15295363.95449  21011704.4574   21011707.4824   21011703.5284
       239.0004        198.0004
  -5987362.98749  -4652843.29049  23574485.6594   23574491.0064   23574483.0544
       195.0004        128.0004
 11 10 14 12 29  0.0000000  0  9G31G05G16G03G06G18G30G21G29
  -1023668.02649   -784925.75649  24746122.8654   24746134.2924   24746123.6204
       206.0004        144.0004
   5487925.64549   4284263.08749  25422358.9514   25422369.7834   25422359.6484
       205.0004        137.0004
 -18116449.41149 -14074413.97149  20979420.8894   20979424.9144   20979420.7204
       240.0004        197.0004
 -12550403.12349  -9503337.47049  21650484.3304   21650489.8204   21650484.2594
       229.0004        175.0004
 -16501264.12249 -12835899.77149  21282821.4654   21282827.4734   21282821.5664
       234.0004        189.0004
  -5800391.79449  -4287326.32149  23315345.7024   23315351.2374   23315345.6564
       216.0004        151.0004
  -9567936.62149  -7189071.63849  22697947.8484   22697955.9504   22697947.9414
       220.0004        162.0004
 -19646335.91749 -15285699.62849  21014063.7884   21014067.4564   21014063.6184
       239.0004        198.0004
  -5895695.54449  -4581414.24649  23591927.2074   23591936.6394   23591926.2544
       197.0004        127.0004
 11 10 14 12 29 30.0000000  0  9G31G05G16G03G06G18G30G21G29
   -916758.88349   -701620.26949  24766463.5344   24766478.8364   24766467.0314
       201.0004        145.0004
   5570140.57749   4348326.67549  25438002.3514   25438012.1264   25438003.9034
       203.0004        135.0004
 -18159234.50549 -14107752.98549  20971279.8394   20971283.5444   20971279.3764
       241.0004        198.0004
 -12636318.57049  -9570284.47349  21634134.8694   21634140.8244   21634135.1534
       229.0004        176.0004
 -16557751.55749 -12879915.90349  21272072.5364   21272078.1584   21272072.8514
       235.0004        190.0004
  -5877790.39849  -4347636.71349  23300616.9554   23300624.4094   23300616.3224
       217.0004        151.0004
  -9459239.08149  -7104372.35749  22718632.4004   22718641.0974   22718632.7304
       219.0004        161.0004
 -19633492.05449 -15275691.40449  21016507.8964   21016511.8574   21016507.5804
       238.0004        198.0004
  -5803922.83549  -4509903.14249  23609393.2524   23609398.4544   23609392.2824
       196.0004        129.0004
 11 10 14 12 30  0.0000000  0  9G31G05G16G03G06G18G30G21G29
   -809839.16049   -618306.49749  24786813.7774   24786823.8684   24786814.3974
       208.0004        141.0004
   5652709.53749   4412666.15249  25453713.5744   25453721.5284   25453713.1024
       198.0004        129.0004
 -18201549.26249 -14140725.49549  20963227.2734   20963230.7574   20963226.8764
       241.0004        198.0004
 -12721980.35049  -9637033.80649  21617833.1644   21617840.0364   21617832.9804
       228.0004        175.0004
 -16613952.81549 -12923709.04349  21261377.9694   21261383.4834   21261377.9344
       235.0004        189.0004
  -5954911.35949  -4407730.78149  23285940.6914   23285947.9384   23285939.7844
       217.0004        151.0004
  -9350293.53149  -7019479.81749  22739364.6774   22739372.8314   22739363.6244
       218.0004        160.0004
 -19620207.79149 -15265340.01849  21019036.3084   21019039.1494   21019036.2154
       239.0004        198.0004
  -5712045.24849  -4438310.29149  23626874.3974   23626879.8174   23626876.1434
       191.0004        126.0004
 11 10 14 12 30 30.0000000  0  9G31G05G16G03G06G18G30G21G29
   -702911.41449   -534986.36049  24807162.4144   24807172.1974   24807161.9484
       206.0004        139.0004
   5735630.07649   4477279.55149  25469494.5204   25469502.1654   25469491.6604
       201.0004        129.0004
 -18243392.00549 -14173330.20749  20955264.7434   20955268.1944   20955264.7124
       241.0004        199.0004
 -12807386.69049  -9703584.11049  21601582.4054   21601587.2224   21601581.6444
       230.0004        176.0004
 -16669866.74149 -12967278.28049  21250737.0764   21250743.1674   21250737.6184
       235.0004        190.0004
  -6031751.49249  -4467606.05349  23271318.9014   23271324.6654   23271318.3924
       218.0004        150.0004
  -9241101.90149  -6934395.53249  22760142.8284   22760149.7974   22760142.7144
       222.0004        162.0004
 -19606483.44749 -15254645.69749  21021647.6984   21021651.0474   21021647.1314
       238.0004        198.0004
  -5620063.40849  -4366636.29649  23644379.2804   23644386.5314   23644380.6244
       192.0004        124.0004
 11 10 14 12 31  0.0000000  0  9G31G05G16G03G06G18G30G21G29
   -595978.64549   -451662.38749  24827511.1944   24827524.0964   24827512.4324
       207.0004        137.0004
   5818898.90349   4542164.34049  25485340.8624   25485350.3044   25485340.5244
       202.0004        129.0004
 -18284761.56249 -14205566.21249  20947392.2804   20947395.9924   20947392.2044
       240.0004        198.0004
 -12892537.03349  -9769934.93349  21585378.2254   21585384.2654   21585377.2074
       230.0004        175.0004
 -16725493.33349 -13010623.63749  21240152.4354   21240157.8534   21240152.3714
       235.0004        190.0004
  -6108309.25649  -4527261.27349  23256749.4044   23256756.3644   23256749.5424
       216.0004        151.0004
  -9131667.22949  -6849121.87449  22780967.5924   22780976.6534   22780967.5084
       220.0004        159.0004
 -19592320.05649 -15243609.28549  21024342.3964   21024346.7614   21024342.3034
       238.0004        198.0004
  -5527978.49749  -4294881.88049  23661905.5054   23661907.3464   23661908.1354
       190.0004        121.0004
 11 10 14 12 31 30.0000000  0 10G31G05G16G03G06G19G18G30G21G29
   -489043.16449   -368336.42749  24847859.9714   24847871.2924   24847860.4924
       205.0004        141.0004
   5902514.38949   4607319.28549  25501251.6914   25501259.1424   25501252.0164
       206.0004        132.0004
 -18325655.71349 -14237431.75449  20939610.3324   20939614.5264   20939609.7044
       239.0004        198.0004
 -12977429.19249  -9836084.58549  21569223.8794   21569229.0624   21569223.8024
       230.0004        176.0004
 -16780831.08649 -13053743.90749  21229622.1224   21229627.3834   21229621.3614
       235.0004        190.0004
    -96195.96249    -36871.44449  24735223.1344
       205.0004         74.0004
  -6184581.17049  -4586693.74049  23242236.1924   23242242.9494   23242234.2654
       218.0004        152.0004
  -9021990.96149  -6763659.94749  22801839.5444   22801845.7864   22801838.9094
       223.0004        159.0004
 -19577718.00949 -15232231.04949  21027121.2654   21027124.9474   21027120.9254
       239.0004        198.0004
  -5435791.15349  -4223047.68149  23679442.8704   23679448.3384   23679443.2864
       188.0004        125.0004
 11 10 14 12 32  0.0000000  0  9G31G05G16G03G06G18G30G21G29
   -382108.68049   -285011.12649  24868209.5764   24868219.5794   24868209.0554
       203.0004        137.0004
   5986472.99749   4672741.56249  25517227.8234   25517238.8224   25517229.3044
       199.0004        131.0004
 -18366073.36249 -14268926.00649  20931918.9824   20931923.1464   20931918.8924
       240.0004        198.0004
 -13062062.11649  -9902032.22549  21553118.3164   21553124.6724   21553117.6714
       229.0004        177.0004
 -16835879.92149 -13096639.06149  21219146.2664   21219151.9714   21219146.4924
       235.0004        191.0004
  -6260565.39449  -4645902.06049  23227777.1874   23227783.1054   23227775.0954
       218.0004        151.0004
  -8912076.03249  -6678012.06349  22822755.1264   22822762.3404   22822754.2134
       219.0004        159.0004
 -19562678.33949 -15220511.81949  21029983.3164   21029986.9034   21029983.2374
       239.0004        198.0004
  -5343502.72049  -4151134.78149  23697004.9634   23697019.3414   23697004.7914
       186.0004        124.0004
 11 10 14 12 32 30.0000000  0  9G31G05G16G03G06G18G30G21G29
   -275176.99049   -201687.96249  24888554.6534   24888567.8194   24888556.6664
       194.0004        131.0004
   6070772.59249   4738429.53149  25533269.4244   25533278.6584   25533269.5564
       199.0004        129.0004
 -18406012.35149 -14300047.26949  20924319.2824   20924322.7804   20924318.6884
       240.0004        198.0004
 -13146434.10449  -9967776.54649  21537063.4744   21537068.5254   21537062.8474
       229.0004        177.0004
 -16890638.21649 -13139307.80349  21208726.3394   21208731.8254   21208726.2914
       236.0004        192.0004
  -6336258.98649  -4704883.92249  23213372.3944   23213378.1364   23213372.1284
       221.0004        152.0004
  -8801924.09949  -6592179.49149  22843716.9584   22843723.9234   22843717.6524
       220.0004        158.0004
 -19547202.42149 -15208452.65149  21032928.7194   21032931.7044   21032928.2474
       239.0004        198.0004
  -5251113.38449  -4079143.18849  23714587.0344   23714597.7234   23714595.1904
       186.0004        125.0004
 11 10 14 12 33  0.0000000  0 10G31G05G16G03G06G19G18G30G21G29
   -168251.17849   -118369.47349  24908902.5434   24908915.0244   24908903.1564
       198.0004        128.0004
   6155410.78849   4804381.37449  25549374.7384   25549388.1434   25549376.8574
       192.0004        126.0004
 -18445471.32849 -14330794.49749  20916809.5924   20916814.2544   20916809.5724
       240.0004        198.0004
 -13230544.37649 -10033316.93449  21521057.0024   21521062.7724   21521056.6104
       229.0004        177.0004
 -16945105.84249 -13181750.06849  21198360.5414   21198366.4424   21198361.3984
       235.0004        191.0004
   -394554.29449   -269358.33049  24678448.0564   24678459.2804   24678447.6374
       212.0004        135.0004
  -6411659.97849  -4763637.78249  23199022.2884   23199030.2544   23199022.6134
       215.0004        151.0004
  -8691537.88949  -6506164.39149  22864722.1134   22864729.6584   22864722.2904
       220.0004        159.0004
 -19531290.87849 -15196054.04049  21035956.2374   21035959.3944   21035956.2344
       239.0004        198.0004
  -5158624.40649  -4007073.97949  23732192.0124   23732195.6304   23732191.5164
       199.0004        130.0004
 11 10 14 12 33 30.0000000  0 10G31G05G16G03G06G19G18G30G21G29
    -61334.28249    -35057.91049  24929252.6144   24929261.7354   24929251.7574
       205.0004        138.0004
   6240384.67049   4870594.79949  25565547.5834   25565556.8634   25565549.5844
       192.0004        125.0004
 -18484448.70349 -14361166.44649  20909393.3544   20909397.0114   20909393.2654
       241.0004        198.0004
 -13314391.41749 -10098652.21149  21505101.9204   21505107.6664   21505101.4944
       231.0004        178.0004
 -16999282.03249 -13223965.23249  21188051.9584   21188057.3074   21188052.1584
       237.0004        192.0004
   -493858.27849   -346738.19949  24659550.7934   24659557.4254   24659551.2644
       200.0004        140.0004
  -6486765.44549  -4822161.35149  23184731.7874   23184738.2214   23184730.3484
       219.0004        152.0004
  -8580919.70349  -6419968.49149  22885771.6654   22885781.1554   22885772.9624
       219.0004        158.0004
 -19514944.69549 -15183316.75049  21039067.0724   21039070.4344   21039066.7044
       239.0004        198.0004
  -5066036.73749  -3934927.85449  23749808.1774   23749816.6834   23749806.3144
       197.0004        131.0004
 11 10 14 12 34  0.0000000  0 10G31G05G16G03G06G19G18G30G21G29
     45571.24949     48244.80549  24949595.9424   24949605.5804   24949597.6554
       199.0004        136.0004
   6325691.68449   4937067.84949  25581780.8154   25581790.8314   25581784.3714
       194.0004        126.0004
 -18522942.49049 -14391161.57449  20902068.2244   20902071.3584   20902067.5504
       240.0004        198.0004
 -13397973.48349 -10163781.00749  21489195.3994   21489201.6324   21489195.6944
       229.0004        177.0004
 -17053165.74149 -13265952.48849  21177798.8304   21177803.4134   21177798.2564
       237.0004        193.0004
   -593086.43949   -424058.65049  24640663.9844   24640671.0304   24640665.2084
       191.0004        133.0004
  -6561572.90649  -4880452.71149  23170494.9374   23170502.3194   23170496.9044
       219.0004        154.0004
  -8470071.47749  -6333593.37049  22906865.7654   22906873.6534   22906865.0144
       219.0004        157.0004
 -19498164.45349 -15170241.23149  21042259.6234   21042263.6444   21042259.4134
       238.0004        198.0004
  -4973350.64249  -3862705.06249  23767444.5144   23767454.9164   23767445.0534
       201.0004        135.0004
 11 10 14 12 34 30.0000000  0 10G31G05G16G03G06G19G18G30G21G29
    152463.18449    131536.87949  24969936.9344   24969948.9174   24969933.4234
       199.0004        130.0004
   6411329.72149   5003798.87249  25598077.0694   25598086.7444   25598073.4044
       193.0004        123.0004
 -18560951.05649 -14420778.60549  20894834.8134   20894838.9574   20894834.8124
       240.0004        198.0004
 -13481288.76849 -10228701.93849  21473341.7414   21473347.5434   21473341.2924
       229.0004        178.0004
 -17106756.02149 -13307711.09549  21167600.1944   21167605.6984   21167600.2414
       237.0004        193.0004
   -692237.16149   -501318.78149  24621803.6044   24621812.3374   24621801.0264
       210.0004        144.0004
  -6636079.84549  -4938509.93849  23156318.2274   23156322.9794   23156316.9714
       221.0004        156.0004
  -8358995.24849  -6247040.57949  22928003.9514   22928010.8754   22928002.0684
       218.0004        156.0004
 -19480950.58849 -15156827.82849  21045535.8214   21045538.9814   21045535.5964
       239.0004        198.0004
  -4880567.10249  -3790406.32549  23785103.1994   23785110.7834   23785102.4534
       202.0004        135.0004
 11 10 14 12 35  0.0000000  0 10G31G05G16G03G06G19G18G30G21G29
    259338.38149    214815.94149  24990272.3504   24990282.2074   24990273.8944
       197.0004        126.0004
   6497295.84049   5070785.48349  25614434.3594                   25614434.6814
       190.0004        121.0004
 -18598473.02549 -14450016.46949  20887694.6924   20887698.7074   20887694.2674
       239.0004        198.0004
 -13564335.98749 -10293413.96749  21457536.7334   21457545.2634   21457536.9064
       228.0004        179.0004
 -17160052.20549 -13349240.54449  21157458.3504   21157463.5774   21157458.5724
       237.0004        193.0004
   -791310.19449   -578518.63549  24602948.0844   24602958.6014   24602946.4114
       205.0004        134.0004
  -6710284.01749  -4996331.23049  23142198.1204   23142202.0614   23142196.7684
       219.0004        153.0004
  -8247693.70549  -6160312.23249  22949183.9444   22949191.1234   22949182.9984
       218.0004        154.0004
 -19463304.61049 -15143077.71549  21048893.3504   21048897.2074   21048893.2404
       239.0004        198.0004
  -4787687.29549  -3718032.57549  23802775.4634   23802784.4164   23802776.3504
       197.0004        135.0004
 11 10 14 12 35 30.0000000  0 10G31G05G16G03G06G19G18G30G21G29
    366193.85449    298079.71049  25010606.9834   25010618.5094   25010608.7354
       202.0004        133.0004
   6583587.17649   5138025.42849  25630855.2654                   25630855.1824
       187.0004        120.0004
 -18635507.48549 -14478874.46949  20880647.2154   20880651.5874   20880647.4014
       240.0004        198.0004
 -13647114.27849 -10357916.44749  21441785.2804   21441792.2424   21441785.7334
       229.0004        179.0004
 -17213054.03049 -13390540.60949  21147372.3524   21147377.8614   21147371.9654
       237.0004        193.0004
   -890305.43549   -655657.83449  24584106.6724   24584113.3254   24584108.1684
       196.0004        132.0004
  -6784182.96549  -5053914.68949  23128132.0464   23128140.3714   23128132.9584
       218.0004        152.0004
  -8136169.40349  -6073410.29549  22970405.1714   22970414.0914   22970404.3714
       216.0004        155.0004
 -19445227.63049 -15128991.75649  21052333.4054   21052336.9904   21052333.1094
       239.0004        198.0004
  -4694712.11349  -3645584.51549  23820467.9474   23820477.0004   23820468.4464
       201.0004        131.0004
 11 10 14 12 36  0.0000000  0 10G31G05G16G03G06G19G18G30G21G29
    473027.85749    381326.66449  25030936.7964   25030948.8754   25030936.7694
       194.0004        133.0004
   6670202.27249   5205517.72449  25647335.5084                   25647336.3454
       185.0004        120.0004
 -18672051.66049 -14507350.41149  20873691.9974   20873697.0254   20873692.5084
       238.0004        198.0004
 -13729620.92149 -10422207.26749  21426084.5984   21426091.8014   21426084.9794
       228.0004        179.0004
 -17265759.77549 -13431609.97149  21137341.9244   21137348.4364   21137342.4604
       236.0004        193.0004
   -989220.53749   -732734.32749  24565287.6654   24565296.2994   24565286.9924
       209.0004        146.0004
  -6857773.47949  -5111257.83749  23114132.2504   23114137.0314   23114131.1834
       222.0004        155.0004
  -8024423.73349  -5986335.88449  22991669.1524   22991678.2424   22991668.9534
       215.0004        156.0004
 -19426719.67249 -15114569.97049  21055855.5474   21055859.1074   21055855.2654
       239.0004        198.0004
  -4601641.63949  -3573062.15449  23838182.1844   23838189.4624   23838179.3204
       202.0004        132.0004
 11 10 14 12 36 30.0000000  0 10G31G05G16G03G06G19G18G30G21G29
    579837.10949    464554.23849  25051262.4534   25051274.5414   25051261.6254
       190.0004        127.0004
   6757137.57759   5273259.53959  25663878.3884
       174.0004        116.0004
 -18708104.54349 -14535443.55149  20866833.3354   20866836.4674   20866832.8534
       241.0004        198.0004
 -13811855.45349 -10486286.05449  21410435.7674   21410442.8884   21410436.3724
       230.0004        181.0004
 -17318169.17549 -13472448.42249  21127369.0584   21127374.9194   21127369.4294
       238.0004        193.0004
  -1088055.25049   -809748.32449  24546476.4394   24546488.3344   24546476.4874
       197.0004        139.0004
  -6931053.93349  -5168359.36349  23100185.2674   23100190.7794   23100185.8124
       220.0004        154.0004
  -7912459.39949  -5899091.08349  23012976.9034   23012984.5294   23012975.1604
       219.0004        155.0004
 -19407782.34649 -15099813.61549  21059459.3414   21059462.5944   21059458.8024
       239.0004        198.0004
  -4508477.18249  -3500466.61049  23855906.9634   23855917.6964   23855908.3814
       195.0004        131.0004
 11 10 14 12 37  0.0000000  0 11G31G22G05G16G03G06G19G18G30G21G29
    686618.86949    547760.44949  25071584.5184   25071593.7614   25071587.6924
       200.0004        129.0004
    -93994.74649    -54602.67149  24826985.4414
       206.0004         74.0004
   6844390.67559   5341248.99659  25680483.2964
       179.0004        115.0004
 -18743664.55849 -14563152.62949  20860065.8394   20860069.2224   20860065.0324
       239.0004        197.0004
 -13893816.52149 -10550151.75049  21394840.9774   21394845.5914   21394840.4474
       232.0004        181.0004
 -17370281.51249 -13513055.40049  21117453.0424   21117457.8494   21117453.0594
       238.0004        194.0004
  -1186809.03449   -886699.28549  24527684.8204   24527693.7534   24527686.3794
       202.0004        134.0004
  -7004021.32049  -5225216.94949  23086299.6544   23086305.5014   23086299.1794
       220.0004        154.0004
  -7800278.74749  -5811677.73849  23034325.6554   23034332.4454   23034324.6484
       219.0004        157.0004
 -19388416.50749 -15084723.35549  21063144.4294   21063148.1864   21063144.2084
       239.0004        198.0004
  -4415219.53049  -3427798.46149  23873655.3234   23873661.7274   23873655.4034
       196.0004        129.0004
 11 10 14 12 37 30.0000000  0 11G31G22G05G16G03G06G19G18G30G21G29
    793370.59349    630943.38449  25091894.9694   25091910.6994   25091895.3934
       198.0004        127.0004
   -197865.37649   -135540.57949  24807220.0094
       206.0004        127.0004
   6931959.30049     42573.11549  25697147.3584
       174.0004         74.0004
 -18778730.19649 -14590476.47449  20853392.0504   20853396.7854   20853392.5044
       240.0004        198.0004
 -13975502.19849 -10613802.85049  21379295.3734   21379301.5414   21379295.0314
       231.0004        180.0004
 -17422095.74649 -13553430.08949  21107592.8214   21107598.1044   21107592.9204
       237.0004        193.0004
  -1285480.55949   -963586.16749  24508910.7734   24508916.5074   24508909.8804
       203.0004        140.0004
  -7076673.13149  -5281828.62249  23072474.1454   23072480.4164   23072473.5334
       218.0004        154.0004
  -7687883.88949  -5724097.43849  23055713.3624   23055720.1744   23055712.7194
       220.0004        156.0004
 -19368622.59049 -15069299.52849  21066911.0724   21066914.4804   21066910.7834
       239.0004        198.0004
  -4321869.35049  -3355058.21449  23891416.7624   23891428.8174   23891420.5284
       198.0004        134.0004
 11 10 14 12 38  0.0000000  0 11G31G22G05G16G03G06G19G18G30G21G29
    900089.37249    714100.52149  25112205.2664   25112217.3414   25112207.5094
       196.0004        127.0004
   -301743.31449   -216484.29949  24787453.1344   24787460.3374
       210.0004        138.0004
   7019840.32249    111071.66949  25713870.9824
       178.0004        107.0004
 -18813300.20749 -14617414.12149  20846814.6874   20846818.3404   20846814.1604
       240.0004        198.0004
 -14056911.34349 -10677238.48249  21363803.8444   21363809.9504   21363804.3314
       233.0004        181.0004
 -17473611.55949 -13593572.24949  21097790.3174   21097794.7714   21097790.4314
       238.0004        193.0004
  -1384069.64549  -1040408.56149  24490150.0484   24490154.4164   24490148.4474
       207.0004        141.0004
  -7149007.68249  -5338193.11149  23058711.0374   23058716.0824   23058711.1894
       221.0004        158.0004
  -7575277.41549  -5636352.28749  23077142.5554   23077148.8774   23077140.7204
       218.0004        156.0004
 -19348402.39949 -15053543.52449  21070759.0064   21070762.1094   21070758.4644
       239.0004        198.0004
  -4228427.70549  -3282246.71449  23909202.8984   23909209.7594   23909203.3564
       203.0004        138.0004
 11 10 14 12 38 30.0000000  0 11G31G22G05G16G03G06G19G18G30G21G29
   1006772.77249    797229.98949  25132508.4124   25132519.4794   25132509.0834
       195.0004        130.0004
   -405625.79049   -297431.33749  24767681.2104   24767692.9114   24767681.4914
       201.0004        137.0004
   7108031.79349    179817.63049  25730655.6124
       183.0004        108.0004
 -18847372.53549 -14643963.96749  20840330.7274   20840334.8614   20840330.3004
       240.0004        199.0004
 -14138042.50049 -10740457.50849  21348365.8124   21348371.1634   21348365.3434
       234.0004        181.0004
 -17524827.71449 -13633480.90249  21088043.3764   21088048.5944   21088042.9464
       237.0004        193.0004
  -1482574.83649  -1117165.80349  24471404.8684   24471413.6294   24471405.5954
       209.0004        141.0004
  -7221022.12449  -5394308.14349  23045005.2454   23045012.5724   23045004.6964
       217.0004        156.0004
  -7462461.37349  -5548443.81249  23098609.7304   23098617.2274   23098609.6454
       219.0004        155.0004
 -19327756.35449 -15037455.70149  21074687.9684   21074691.0484   21074687.6594
       240.0004        199.0004
  -4134895.37049  -3209364.48749  23926998.5654   23927005.9044   23926998.2224
       200.0004        138.0004
 11 10 14 12 39  0.0000000  0 11G31G22G05G16G03G06G19G18G30G21G29
   1113418.48249    880330.15749  25152803.4234   25152813.5344   25152803.3724
       200.0004        132.0004
   -509510.04949   -378379.63149  24747915.9524   24747924.4584   24747912.8824
       205.0004        139.0004
   7196531.21749     37348.87149  25747495.2834
       178.0004         74.0004
 -18880945.61949 -14670124.79849  20833941.6724   20833945.7834   20833941.4124
       240.0004        198.0004
 -14218893.91949 -10803458.54149  21332979.5434   21332984.9914   21332978.6874
       232.0004        181.0004
 -17575743.29349 -13673155.34049  21078354.2334   21078359.2474   21078354.6814
       236.0004        192.0004
  -1580995.30449  -1193856.96949  24452669.9924   24452681.0854   24452671.3044
       194.0004        137.0004
  -7292713.24249  -5450171.24849  23031364.5694   23031369.6964   23031363.3174
       221.0004        156.0004
  -7349437.70149  -5460373.55049  23120116.4934   23120125.0164   23120117.1524
       218.0004        155.0004
 -19306685.13049 -15021036.56649  21078697.5534   21078700.6624   21078696.9704
       240.0004        198.0004
  -4041272.58149  -3136411.81849  23944815.2064   23944824.0974   23944815.6764
       204.0004        137.0004
 11 10 14 12 39 30.0000000  0 11G31G22G05G16G03G06G19G18G30G21G29
   1220023.28349    963398.43349  25173088.5774   25173099.9694   25173088.2534
       202.0004        133.0004
   -613393.99549   -459327.74849  24728142.7954   24728153.9944   24728143.6154
       204.0004        137.0004
   7285335.46859    106518.02759  25764394.8694
       180.0004        109.0004
 -18914018.47049 -14695895.82349  20827648.4094   20827652.1874   20827647.8654
       240.0004        198.0004
 -14299464.66149 -10866240.87649  21317647.4744   21317653.2004   21317647.6434
       234.0004        181.0004
 -17626358.06449 -13712595.37949  21068722.2524   21068728.3834   21068722.4654
       237.0004        193.0004
  -1679330.61449  -1270481.59849  24433963.6984   24433972.6274   24433963.1534
       212.0004        142.0004
  -7364079.63749  -5505781.31249  23017783.3054   23017789.8364   23017784.1974
       220.0004        159.0004
  -7236209.20649  -5372143.70349  23141662.2764   23141671.8334   23141662.8694
       215.0004        153.0004
 -19285190.21549 -15004287.28549  21082787.4754   21082791.3064   21082787.6744
       239.0004        198.0004
  -3947560.80549  -3063389.80449  23962649.5604   23962654.9384   23962649.9974
       209.0004        139.0004
 11 10 14 12 40  0.0000000  0 11G31G22G05G16G03G06G19G18G30G21G29
   1326584.95549   1046433.10449  25193366.3364   25193381.7174   25193366.1424
       196.0004        131.0004
   -717274.41449   -540273.14249  24708376.7674   24708386.0174   24708375.2524
       203.0004        138.0004
   7374442.57449    175910.63949  25781347.7754
       178.0004        108.0004
 -18946589.20749 -14721275.59949  20821450.5644   20821453.9914   20821450.4974
       240.0004        198.0004
 -14379752.87049 -10928803.04849  21302368.4304   21302373.7354   21302368.3734
       233.0004        180.0004
 -17676670.75649 -13751800.03249  21059149.0664   21059153.6264   21059148.6194
       239.0004        193.0004
  -1777579.49649  -1347039.16349  24415266.0064   24415273.1224   24415266.1024
       203.0004        139.0004
  -7435118.50249  -5561136.19749  23004265.3764   23004271.4254   23004265.7224
       222.0004        158.0004
  -7122777.94849  -5283755.85849  23163249.3944   23163256.8854   23163249.1094
       216.0004        152.0004
 -19263272.35849 -14987208.43049  21086958.9394   21086961.8354   21086958.6964
       239.0004        198.0004
  -3853760.62149  -2990298.87549  23980497.7874   23980504.9484   23980498.4554
       204.0004        137.0004
 11 10 14 12 40 30.0000000  0 11G31G22G05G16G03G06G19G18G30G21G29
   1433100.88449   1129432.11949  25213635.6864   25213650.2584   25213636.4004
       201.0004        129.0004
   -821148.79749   -621213.69549  24688609.8014   24688620.8984   24688609.1014
       206.0004        141.0004
   7463849.38159     31855.75859  25798363.5934
       167.0004         74.0004
 -18978656.13849 -14746262.80049  20815347.4314   20815351.8414   20815347.3824
       239.0004        198.0004
 -14459756.76349 -10991143.68549  21287144.8864   21287149.9454   21287145.3734
       234.0004        181.0004
 -17726680.50049 -13790768.62549  21049631.9014   21049637.3634   21049631.9734
       238.0004        194.0004
  -1875741.24649  -1423528.56149  24396588.7914   24396593.4124   24396587.4404
       208.0004        147.0004
  -7505827.26949  -5616233.85449  22990809.8904   22990815.8564   22990807.9644
       221.0004        157.0004
  -7009145.96849  -5195211.59949  23184873.3734   23184880.1684   23184872.4244
       216.0004        154.0004
 -19240932.35849 -14969800.63949  21091209.6094   21091212.8224   21091209.7044
       238.0004        197.0004
  -3759872.52249  -2917139.43449  23998362.6864   23998372.1524   23998364.2204
       200.0004        136.0004
 11 10 14 12 41  0.0000000  0 10G31G22G16G03G06G19G18G30G21G29
   1539568.12249   1212393.25049  25233897.1584   25233908.1884   25233896.3624
       200.0004        127.0004
   -925014.93249   -702147.91449  24668843.4104   24668853.3214   24668844.2484
       204.0004        135.0004
 -19010218.58349 -14770856.89349  20809342.2624   20809345.3984   20809341.9554
       241.0004        199.0004
 -14539475.30749 -11053261.96549  21271974.8294   21271980.3654   21271974.6614
       232.0004        182.0004
 -17776386.94549 -13829500.87949  21040173.7374   21040178.4494   21040173.7264
       238.0004        195.0004
  -1973815.07249  -1499949.45249  24377924.5564   24377932.2184   24377923.4224
       209.0004        144.0004
  -7576203.87549  -5671072.66249  22977415.0364   22977423.4564   22977415.9074
       219.0004        156.0004
  -6895315.86449  -5106512.96049  23206532.5904   23206542.8064   23206533.6594
       213.0004        152.0004
 -19218171.41349 -14952064.83349  21095541.4364   21095544.5764   21095541.0234
       240.0004        198.0004
  -3665897.35649  -2843912.19549  24016248.7624   24016257.1914   24016249.4944
       199.0004        135.0004
 11 10 14 12 41 30.0000000  0 10G31G22G16G03G06G19G18G30G21G29
   1645984.23949   1295314.47049  25254146.6884   25254160.1644   25254146.1914
       198.0004        130.0004
  -1028870.27949   -783073.68049  24649078.0914   24649088.6774   24649077.2794
       204.0004        133.0004
 -19041274.63349 -14795056.39349  20803432.2094   20803435.8524   20803432.2214
       239.0004        199.0004
 -14618906.95149 -11115156.68149  21256858.8414   21256864.6314   21256858.9474
       231.0004        181.0004
 -17825789.22749 -13867996.12549  21030772.5454   21030777.8304   21030772.9174
       239.0004        195.0004
  -2071800.03449  -1576301.28549  24359277.1994   24359283.5744   24359276.2614
       204.0004        134.0004
  -7646245.68449  -5725650.60849  22964089.6044   22964093.6654   22964088.9474
       222.0004        158.0004
  -6781289.94149  -5017661.74149  23228231.6874   23228240.3704   23228230.7784
       214.0004        153.0004
 -19194990.89349 -14934002.08449  21099951.6254   21099955.1764   21099951.3344
       238.0004        197.0004
  -3571836.67549  -2770618.31249  24034145.3364   24034156.2164   24034145.3294
       197.0004        133.0004
 11 10 14 12 42  0.0000000  0 10G31G22G16G03G06G19G18G30G21G29
   1752346.81949   1378193.92949  25274386.1084   25274399.9614   25274386.4824
       199.0004        134.0004
  -1132711.80849   -863988.64749  24629320.5764   24629330.2254   24629319.4844
       204.0004        138.0004
 -19071822.97049 -14818860.26649  20797618.2514   20797622.6934   20797618.5094
       240.0004        199.0004
 -14698050.47349 -11176826.89949  21241799.2314   21241803.9984   21241798.4474
       232.0004        182.0004
 -17874886.55049 -13906253.74549  21021430.1744   21021435.0474   21021429.3974
       239.0004        196.0004
  -2169695.19849  -1652583.02449  24340649.7744   24340655.1814   24340647.9124
       209.0004        148.0004
  -7715950.55149  -5779966.00649  22950823.2304   22950829.2494   22950823.4994
       219.0004        157.0004
  -6667070.39449  -4928659.66349  23249968.4564   23249976.9964   23249966.5094
       217.0004        153.0004
 -19171391.72249 -14915613.12049  21104442.6554   21104446.5004   21104442.6164
       239.0004        198.0004
  -3477690.74849  -2697258.00049  24052062.1324   24052070.8704   24052061.8534
       197.0004        132.0004
 11 10 14 12 42 30.0000000  0 10G31G22G16G03G06G19G18G30G21G29
   1858653.05949   1461029.59649  25294618.5004   25294630.5664   25294619.1094
       205.0004        133.0004
  -1236537.00049   -944890.88049  24609562.4564   24609574.5784   24609563.4354
       204.0004        136.0004
 -19101861.99149 -14842267.29149  20791902.9674   20791906.0884   20791902.5104
       240.0004        199.0004
 -14776903.97849 -11238271.12749  21226793.3884   21226799.1994   21226793.4444
       233.0004        181.0004
 -17923677.84649 -13944272.89949  21012144.8934   21012150.4704   21012144.7514
       239.0004        195.0004
  -2267499.44049  -1728793.81749  24322037.9274   24322045.0504   24322036.8564
       206.0004        146.0004
  -7785315.80549  -5834016.77749  22937624.4814   22937629.9854   22937623.6304
       223.0004        160.0004
  -6552659.32449  -4839508.33349  23271739.4094   23271748.6504   23271738.6594
       216.0004        151.0004
 -19147374.09549 -14896898.09049  21109013.6164   21109016.7614   21109012.9014
       239.0004        198.0004
  -3383460.12849  -2623831.66249  24069993.6724   24070001.3094   24069992.2814
       197.0004        134.0004
 11 10 14 12 43  0.0000000  0 10G31G22G16G03G06G19G18G30G21G29
   1964900.02349   1543819.08449  25314837.5854   25314849.5204   25314833.3464
       200.0004        128.0004
  -1340343.83249  -1025778.78249  24589807.8264   24589818.7454   24589810.9214
       204.0004        133.0004
 -19131390.50649 -14865276.50049  20786283.2064   20786287.6204   20786283.0564
       240.0004        199.0004
 -14855466.54049 -11299488.65549  21211844.0424   21211848.9334   21211843.7054
       233.0004        182.0004
 -17972162.89649 -13982053.42449  21002918.2054   21002923.7204   21002917.9154
       238.0004        195.0004
  -2365212.48849  -1804933.65549  24303443.9044   24303449.9724   24303443.3114
       211.0004        144.0004
  -7854339.47749  -5887801.36249  22924490.6644   22924494.4044   22924489.6334
       223.0004        160.0004
  -6438059.54249  -4750209.94049  23293546.1744   23293554.8194   23293545.2774
       213.0004        150.0004
 -19122940.15049 -14877858.64449  21113662.5974   21113666.2254   21113662.5014
       239.0004        198.0004
  -3289146.12749  -2550340.37049  24087940.8764   24087950.2394   24087942.4234
       200.0004        133.0004
 11 10 14 12 43 30.0000000  0 10G31G22G16G03G06G19G18G30G21G29
   2071085.80049   1626560.83149  25335045.2774   25335054.3624   25335044.0584
       200.0004        127.0004
  -1444129.05149  -1106649.87749  24570056.9894   24570067.7284   24570057.7514
       198.0004        136.0004
 -19160406.92549 -14887886.68449  20780762.1634   20780765.6024   20780761.7164
       240.0004        200.0004
 -14933735.95149 -11360477.74649  21196949.4854   21196954.4474   21196948.8514
       233.0004        182.0004
 -18020340.36549 -14019594.28049  20993750.5764   20993755.1004   20993750.6564
       239.0004        195.0004
  -2462833.17549  -1881001.55749  24284865.6664   24284871.8944   24284864.9004
       208.0004        143.0004
  -7923018.68949  -5941317.56049  22911418.8744   22911425.5184   22911419.4474
       221.0004        160.0004
  -6323272.82849  -4660765.91949  23315391.5684   23315398.6064   23315391.8424
       216.0004        151.0004
 -19098090.13349 -14858494.99649  21118392.0424   21118395.5014   21118391.6844
       239.0004        198.0004
  -3194749.02949  -2476784.34749  24105905.3374   24105912.5884   24105906.2954
       198.0004        132.0004
 11 10 14 12 44  0.0000000  0 10G31G22G16G03G06G19G18G30G21G29
   2177207.59449   1709252.80149  25355238.3304   25355252.5714   25355239.9094
       198.0004        129.0004
  -1547890.19149  -1187502.15349  24550312.5944   24550320.5214   24550312.8984
       203.0004        137.0004
 -19188909.78649 -14910096.68449  20775337.9054   20775342.0134   20775337.5874
       240.0004        199.0004
 -15011710.89549 -11421237.37549  21182111.3344   21182115.9334   21182111.1954
       232.0004        182.0004
 -18068209.41749 -14056894.81149  20984640.7244   20984646.2644   20984640.7974
       238.0004        194.0004
  -2560360.46249  -1956996.62649  24266307.6184   24266314.0064   24266306.6464
       209.0004        140.0004
  -7991351.06349  -5994563.50249  22898417.4924   22898421.5484   22898416.0204
       221.0004        159.0004
  -6208301.30749  -4571177.89949  23337269.5234   23337277.5934   23337269.2934
       216.0004        152.0004
 -19072824.59349 -14838807.56149  21123199.4844   21123202.7924   21123199.3504
       239.0004        198.0004
  -3100269.59949  -2403164.16549  24123881.4644   24123890.6474   24123882.4784
       192.0004        128.0004
 11 10 14 12 44 30.0000000  0 10G31G22G16G03G06G19G18G30G21G29
   2283262.79649   1791892.86449  25375418.4934   25375435.1334   25375417.2584
       196.0004        123.0004
  -1651624.31749  -1268333.43049  24530571.9584   24530581.4064   24530572.6484
       200.0004        134.0004
 -19216897.73049 -14931905.45349  20770011.9794   20770015.7764   20770011.6214
       240.0004        199.0004
 -15089390.19449 -11481766.64849  21167328.7914   21167334.2504   21167329.4934
       233.0004        182.0004
 -18115769.55849 -14093954.63049  20975590.6704   20975595.4764   20975590.7724
       240.0004        195.0004
  -2657793.55449  -2032918.36049  24247764.5364   24247770.7694   24247765.2894
       204.0004        144.0004
  -8059334.38649  -6047537.43149  22885479.7964   22885485.4414   22885479.2304
       221.0004        158.0004
  -6093147.56549  -4481447.85849  23359182.2324   23359189.3504   23359181.0334
       215.0004        149.0004
 -19047145.78649 -14818798.09849  21128086.2084   21128089.3894   21128086.0484
       239.0004        198.0004
  -3005708.58049  -2329480.41649  24141877.9894   24141884.1594   24141877.4734
       192.0004        126.0004
 11 10 14 12 45  0.0000000  0 10G31G22G16G03G06G19G18G30G21G29
   2389248.82649   1874479.03449  25395586.9114   25395598.5294   25395589.9124
       197.0004        124.0004
  -1755329.67949  -1349142.31049  24510834.2084   24510847.3394   24510835.1004
       193.0004        130.0004
 -19244369.76649 -14953312.22649  20764784.2474   20764788.1734   20764784.0674
       240.0004        199.0004
 -15166772.49849 -11542064.49249  21152604.6144   21152608.9954   21152603.9864
       234.0004        183.0004
 -18163020.19049 -14130773.27949  20966599.9764   20966604.0114   20966599.1324
       241.0004        195.0004
  -2755131.89149  -2108766.14549  24229242.6414   24229248.7844   24229242.4884
       203.0004        146.0004
  -8126966.62149  -6100237.80349  22872609.1794   22872614.8334   22872609.6854
       221.0004        157.0004
  -5977814.02049  -4391577.74749  23381130.1694   23381138.2074   23381130.2074
       213.0004        149.0004
 -19021054.55949 -14798467.27549  21133051.3554   21133054.7804   21133050.6734
       239.0004        198.0004
  -2911067.14849  -2255734.02849  24159888.9574   24159894.7354   24159885.8524
       196.0004        123.0004
 11 10 14 12 45 30.0000000  0 10G31G22G16G03G06G19G18G30G21G29
   2495162.75849   1957008.99849  25415744.7874   25415751.8454   25415742.6454
       196.0004        125.0004
  -1859003.39849  -1429926.60549  24491108.7634   24491116.7704   24491105.9974
       202.0004        132.0004
 -19271324.66349 -14974316.02349  20759654.6644   20759658.8894   20759654.4314
       240.0004        199.0004
 -15243856.43749 -11602129.83849  21137934.7524   21137940.5064   21137934.8204
       233.0004        184.0004
 -18209960.38149 -14167350.02449  20957667.5914   20957671.9314   20957667.6474
       241.0004        197.0004
  -2852374.58249  -2184539.39249  24210737.6194   24210743.6934   24210739.3604
       205.0004        142.0004
  -8194245.49249  -6152662.84649  22859806.9154   22859812.0154   22859806.0534
       221.0004        160.0004
  -5862303.02449  -4301569.34649  23403109.7654   23403118.4704   23403110.6444
       210.0004        149.0004
 -18994552.02249 -14777815.94649  21138094.3944   21138097.6054   21138094.3884
       239.0004        197.0004
  -2816346.03249  -2181925.53849  24177910.6504   24177917.4764   24177908.9784
       193.0004        125.0004
 11 10 14 12 46  0.0000000  0 10G31G22G16G03G06G19G18G30G21G29
   2601002.64049   2039481.24249  25435883.1924   25435897.0884   25435883.2284
       197.0004        126.0004
  -1962642.47349  -1510683.87649  24471388.5504   24471395.7474   24471385.9804
       201.0004        137.0004
 -19297760.51549 -14994915.37949  20754624.8594   20754628.1684   20754624.1704
       241.0004        200.0004
 -15320639.92049 -11661961.07349  21123324.7204   21123329.3614   21123324.0804
       235.0004        186.0004
 -18256589.07149 -14203684.03949  20948794.2994   20948798.4884   20948793.8334
       241.0004        196.0004
  -2949520.07949  -2260237.05649  24192252.4524   24192256.1664   24192250.9084
       207.0004        140.0004
  -8261168.24149  -6204810.37349  22847070.4784   22847077.8244   22847070.6204
       221.0004        160.0004
  -5746616.36749  -4211424.05149  23425124.6874   23425132.8224   23425123.3064
       214.0004        147.0004
 -18967638.32449 -14756844.22749  21143215.6314   21143219.3324   21143215.1934
       238.0004        197.0004
  -2721545.73949  -2108055.29649  24195952.0534                   24195953.0424
       200.0004        122.0004
 11 10 14 12 46 30.0000000  0 10G31G22G16G03G06G19G18G30G21G29
   2706765.55949   2121893.56349  25456008.8344   25456024.1564   25456009.6814
       192.0004        127.0004
  -2066244.53249  -1591412.27749  24451671.7734   24451682.4174   24451668.6994
       204.0004        136.0004
 -19323676.52349 -15015109.66049  20749692.3544   20749696.6574   20749692.5864
       240.0004        200.0004
 -15397121.77949 -11721557.27249  21108769.2664   21108776.2794   21108768.8964
       234.0004        185.0004
 -18302905.86549 -14239775.02249  20939980.0004   20939985.1034   20939979.7754
       240.0004        197.0004
  -3046568.21249  -2335858.77249  24173784.9084   24173790.9964   24173784.2754
       211.0004        147.0004
  -8327732.89849  -6256678.86849  22834405.0764   22834410.2154   22834405.6564
       223.0004        159.0004
  -5630756.86549  -4121144.10249  23447173.3164   23447180.9404   23447172.0584
       215.0004        149.0004
 -18940315.55049 -14735553.76049  21148415.0684   21148418.6314   21148415.1894
       238.0004        197.0004
  -2626667.41449  -2034124.36049  24214010.4064   24214015.6004   24214013.6974
       202.0004        125.0004
 11 10 14 12 47  0.0000000  0 10G31G22G16G03G06G19G18G30G21G29
   2812449.50949   2204244.30849  25476118.8034   25476133.5364   25476120.6674
       190.0004        127.0004
  -2169806.49349  -1672109.60549  24431962.2324   24431973.2824   24431960.1054
       204.0004        135.0004
 -19349070.88149 -15034897.45649  20744860.6224   20744864.2084   20744859.7934
       240.0004        200.0004
 -15473300.45749 -11780917.22549  21094273.3074   21094279.1514   21094273.0384
       234.0004        185.0004
 -18348909.64849 -14275622.09849  20931225.3574   20931230.5394   20931225.5584
       240.0004        196.0004
  -3143517.47449  -2411403.43149  24155333.0454   24155341.1494   24155333.2544
       201.0004        145.0004
  -8393936.88249  -6308266.32349  22821807.2894   22821812.7304   22821805.2924
       222.0004        159.0004
  -5514726.33449  -4030730.88849  23469254.1254   23469261.3844   23469251.7594
       214.0004        146.0004
 -18912584.22849 -14713944.93049  21153692.9524   21153695.4644   21153692.5024
       240.0004        197.0004
  -2531711.04349  -1960132.56049  24232075.7014                   24232076.0154
       196.0004        119.0004
 11 10 14 12 47 30.0000000  0 10G31G22G16G03G06G19G18G30G21G29
   2918051.41949   2286531.11949  25496215.7854   25496230.4874   25496215.8764
       185.0004        124.0004
  -2273326.31749  -1752774.04249  24412265.4364   24412272.9994   24412264.6714
       203.0004        139.0004
 -19373942.90249 -15054278.25149  20740127.7194   20740131.4694   20740127.4514
       241.0004        201.0004
 -15549175.16049 -11840040.31649  21079834.5894   21079839.8144   21079834.6414
       235.0004        185.0004
 -18394600.17749 -14311225.08749  20922531.2444   20922536.2924   20922531.0824
       240.0004        197.0004
  -3240368.13849  -2486871.19349  24136904.6194   24136910.0614   24136903.8784
       208.0004        143.0004
  -8459778.54049  -6359571.43849  22809276.7374   22809282.7684   22809276.3194
       223.0004        160.0004
  -5398527.71849  -3940186.69149  23491364.9524   23491373.7924   23491364.4734
       213.0004        147.0004
 -18884446.24649 -14692019.22349  21159046.9964   21159050.2204   21159046.6684
       240.0004        197.0004
  -2436678.22049  -1886081.14349  24250160.3554                   24250168.2734
       197.0004        118.0004
 11 10 14 12 48  0.0000000  0 10G31G22G16G03G06G19G18G30G21G29
   3023569.47749   2368752.61549  25516298.4974   25516311.0364   25516297.0514
       191.0004        124.0004
  -2376800.60749  -1833403.02849  24392573.2474   24392582.2114   24392572.0534
       209.0004        140.0004
 -19398290.57949 -15073250.45049  20735493.7244   20735498.3674   20735493.7464
       240.0004        201.0004
 -15624743.34149 -11898924.56449  21065455.2104   21065460.5844   21065454.5534
       236.0004        186.0004
 -18439975.90149 -14346582.76649  20913896.0624   20913901.5844   20913896.1354
       239.0004        197.0004
  -3337117.76749  -2562260.33449  24118494.9784   24118498.5414   24118493.1224
       209.0004        144.0004
  -8525254.62949  -6410591.66549  22796817.6634   22796822.6414   22796815.5004
       222.0004        158.0004
  -5282162.49149  -3849512.67049  23513509.1414   23513517.2604   23513508.7564
       213.0004        146.0004
 -18855901.89049 -14669776.86249  21164479.0214   21164481.7524   21164478.4234
       239.0004        196.0004
  -2341568.97849  -1811970.11149  24268261.2474                   24268260.5154
       194.0004        122.0004
 11 10 14 12 48 30.0000000  0 10G31G22G16G03G06G19G18G30G21G29
   3129000.57349   2450906.33849  25536358.2144                   25536355.0554
       191.0004        123.0004
  -2480227.30649  -1913994.95849  24372891.1104   24372899.2074   24372891.6804
       203.0004        138.0004
 -19422113.27649 -15091813.58349  20730961.2134   20730964.6684   20730960.9014
       241.0004        201.0004
 -15700004.02449 -11957569.21649  21051132.9704   21051138.2814   21051132.9224
       234.0004        186.0004
 -18485036.70749 -14381695.05749  20905321.5534   20905326.5294   20905321.0354
       240.0004        197.0004
  -3433766.25949  -2637570.68149  24100103.0124   24100107.3784   24100102.8714
       209.0004        146.0004
  -8590363.42349  -6461325.71949  22784427.8054   22784433.3524   22784426.0754
       222.0004        160.0004
  -5165633.60649  -3758711.11449  23535685.4184   23535694.4134   23535682.1124
       212.0004        146.0004
 -18826952.86149 -14647219.17449  21169987.5444   21169991.0014   21169986.9714
       238.0004        196.0004
  -2246384.96149  -1737800.84949  24286373.5074   24286385.3934   24286374.2594
       190.0004        123.0004
 11 10 14 12 49  0.0000000  0 10G31G22G16G03G06G19G18G30G21G29
   3234342.64249   2532990.65449  25556405.3164   25556422.8974   25556408.0764
       187.0004        121.0004
  -2583603.70749  -1994547.71449  24353221.3754   24353228.6774   24353220.0384
       208.0004        139.0004
 -19445409.49849 -15109966.47849  20726527.6664   20726531.8844   20726527.3544
       241.0004        201.0004
 -15774956.12349 -12015973.39749  21036870.2704   21036875.4134   21036869.9554
       235.0004        186.0004
 -18529781.40949 -14416561.03049  20896807.3474   20896811.9424   20896807.0444
       242.0004        197.0004
  -3530312.66549  -2712801.35149  24081730.8414   24081735.4434   24081728.1464
       205.0004        145.0004
  -8655102.43849  -6511771.63549  22772108.6034   22772113.9334   22772107.8454
       223.0004        161.0004
  -5048942.90949  -3667783.49449  23557888.1504   23557897.6374   23557886.7144
       209.0004        145.0004
 -18797600.07749 -14624346.87149  21175572.5544   21175576.0924   21175572.5274
       238.0004        195.0004
  -2151126.12949  -1663573.31849  24304500.2814   24304510.0394   24304499.2744
       185.0004        123.0004
 11 10 14 12 49 30.0000000  0 10G31G22G16G03G06G19G18G30G21G29
   3339592.99549   2615003.49349  25576433.5164                   25576437.7674
       187.0004        119.0004
  -2686927.07449  -2075059.17749  24333557.8844   24333566.6074   24333557.3264
       210.0004        143.0004
 -19468177.85049 -15127708.04749  20722195.0994   20722199.1194   20722194.6394
       241.0004        201.0004
 -15849597.67149 -12074135.60049  21022666.5024   21022671.1734   21022666.0034
       235.0004        186.0004
 -18574209.38349 -14451180.21849  20888352.1374   20888357.2744   20888352.8264
       240.0004        198.0004
  -3626755.89849  -2787951.61449  24063377.6984   24063383.8494   24063377.3034
       213.0004        149.0004
  -8719469.46849  -6561927.67249  22759859.3664   22759864.3884   22759858.3664
       222.0004        160.0004
  -4932092.80849  -3576731.66849  23580123.4214   23580133.6534   23580124.9414
       208.0004        144.0004
 -18767844.14449 -14601160.43249  21181235.1524   21181238.6484   21181234.9824
       237.0004        195.0004
  -2055793.58149  -1589288.39349  24322642.9514                   24322647.9554
       181.0004        119.0004
 11 10 14 12 50  0.0000000  0  9G31G22G16G03G06G19G18G30G21
   3444749.11349   2696943.01649  25596448.2494                   25596441.5374
       186.0004        117.0004
  -2790194.91949  -2155527.38749  24313905.5914   24313915.6464   24313905.5284
       205.0004        144.0004
 -19490417.32949 -15145037.50849  20717962.7284   20717967.2464   20717963.0194
       241.0004        201.0004
 -15923927.32049 -12132054.75749  21008520.8574   21008527.4294   21008520.9714
       234.0004        186.0004
 -18618320.30349 -14485552.34649  20879959.1694   20879963.4774   20879959.1074
       242.0004        198.0004
  -3723095.61549  -2863021.42549  24045041.8124   24045049.5094   24045042.4174
       204.0004        142.0004
  -8783462.78249  -6611792.51649  22747682.6184   22747687.5424   22747681.3464
       223.0004        159.0004
  -4815085.97349  -3485557.69949  23602389.0294   23602400.0424   23602389.3094
       208.0004        144.0004
 -18737686.96349 -14577661.32049  21186974.4764   21186977.6944   21186973.6664
       238.0004        195.0004
 11 10 14 12 50 30.0000000  0  9G31G22G16G03G06G19G18G30G21
   3549808.83049   2778807.38149  25616437.6044
       179.0004        116.0004
  -2893404.24449  -2235949.92949  24294265.3324   24294274.0244   24294266.3954
       207.0004        143.0004
 -19512127.00749 -15161954.13549  20713831.6984   20713835.6804   20713830.9514
       240.0004        201.0004
 -15997943.73349 -12189729.83349  20994436.7934   20994442.1044   20994436.5194
       237.0004        187.0004
 -18662113.08949 -14519676.57649  20871624.9824   20871629.8324   20871625.0254
       241.0004        197.0004
  -3819330.79649  -2938009.61849  24026730.4984   24026735.9824   24026730.5664
       208.0004        146.0004
  -8847079.91449  -6661364.21649  22735576.5124   22735582.0554   22735576.0084
       223.0004        160.0004
  -4697924.56449  -3394263.25849  23624684.4174   23624696.3614   23624684.0324
       206.0004        146.0004
 -18707129.73449 -14553850.50249  21192787.9144   21192792.3434   21192788.3004
       237.0004        195.0004
 11 10 14 12 51  0.0000000  0  9G31G22G16G03G06G19G18G30G21
   3654770.25259     42887.34259  25636411.3494
       156.0004         74.0004
  -2996552.05549  -2316324.62249  24274637.8884   24274645.5174   24274637.0064
       208.0004        143.0004
 -19533304.97849 -15178456.45049  20709802.5054   20709805.7204   20709802.1044
       242.0004        201.0004
 -16071644.87749 -12247159.25349  20980411.7534   20980417.4774   20980412.0534
       237.0004        187.0004
 -18705586.23949 -14553551.73849  20863352.1414   20863357.7574   20863352.3824
       239.0004        197.0004
  -3915459.61349  -3012914.91249  24008439.0484   24008444.9964   24008437.8414
       215.0004        152.0004
  -8910317.90249  -6710640.49349  22723542.2814   22723547.2824   22723542.6034
       223.0004        160.0004
  -4580610.04549  -3302849.55149  23647010.2984   23647019.7374   23647010.4834
       211.0004        143.0004
 -18676172.57449 -14529728.03749  21198680.1554   21198683.5314   21198679.4794
       238.0004        195.0004
 11 10 14 12 51 30.0000000  0  9G31G22G16G03G06G19G18G30G21
   3759630.10659    124661.58759  25656367.5924
       180.0004        111.0004
  -3099636.47149  -2396649.90049  24255022.0224   24255028.8954   24255019.7614
       208.0004        142.0004
 -19553951.07849 -15194544.31449  20705872.9644   20705877.0944   20705872.2614
       241.0004        201.0004
 -16145029.82949 -12304342.29449  20966447.2924   20966451.9074   20966446.8794
       236.0004        186.0004
 -18748739.95949 -14587177.98549  20855140.3324   20855145.0404   20855139.9584
       240.0004        196.0004
  -4011482.12049  -3087737.46249  23990166.1964   23990170.9624   23990163.7374
       210.0004        146.0004
  -8973175.50249  -6759620.34449  22711580.7284   22711585.5474   22711580.3844
       222.0004        162.0004
  -4463145.76449  -3211319.12149  23669364.9244   23669371.4634   23669362.7804
       212.0004        145.0004
 -18644817.53649 -14505295.54249  21204646.9504   21204649.6804   21204646.7344
       238.0004        195.0004
 11 10 14 12 52  0.0000000  0  9G31G22G16G03G06G19G18G30G21
   3864385.53149    206384.86249  25676304.4274
       178.0004        108.0004
  -3202654.79149  -2476923.67449  24235418.2534   24235424.6794   24235417.8164
       207.0004        144.0004
 -19574063.90049 -15210216.64549  20702045.9084   20702049.3934   20702045.6954
       241.0004        201.0004
 -16218097.22949 -12361277.88149  20952542.5724   20952548.0254   20952541.8924
       237.0004        187.0004
 -18791573.55049 -14620554.78749  20846988.6854   20846994.2304   20846988.8524
       239.0004        196.0004
  -4107397.48349  -3162476.49749  23971910.5724   23971918.7394   23971911.7464
       204.0004        143.0004
  -9035650.62649  -6808302.16149  22699691.3124   22699697.2504   22699690.8534
       223.0004        162.0004
  -4345534.04749  -3119673.83149  23691745.9534   23691753.4354   23691744.2064
       216.0004        146.0004
 -18613066.06249 -14480554.13149  21210688.8164   21210692.2234   21210688.2274
       238.0004        195.0004
 11 10 14 12 52 30.0000000  0  9G31G22G16G03G06G19G18G30G21
   3969036.18259     36005.37159  25696218.9444
       179.0004         74.0004
  -3305603.61949  -2557143.22949  24215825.9584   24215834.8424   24215825.1784
       208.0004        142.0004
 -19593641.56449 -15225471.95949  20698319.0184   20698323.8954   20698319.2044
       239.0004        200.0004
 -16290845.08949 -12417964.48549  20938698.6804   20938704.6884   20938698.6704
       236.0004        187.0004
 -18834085.32449 -14653680.82749  20838899.7094   20838904.3464   20838899.6794
       240.0004        196.0004
  -4203203.91549  -3237130.67649  23953682.3474   23953688.6064   23953681.9854
       212.0004        151.0004
  -9097739.98049  -6856683.39749  22687876.8504   22687881.7824   22687875.7044
       222.0004        161.0004
  -4227776.28249  -3027914.72849  23714153.6514   23714160.4884   23714151.1444
       212.0004        146.0004
 -18580918.63949 -14455504.19549  21216806.0934   21216809.6444   21216805.3814
       238.0004        195.0004
 11 10 14 12 53  0.0000000  0  8G22G16G03G06G19G18G30G21
  -3408480.46049  -2637306.73349  24196250.4174   24196257.5764   24196248.5204
       207.0004        143.0004
 -19612683.60749 -15240309.92149  20694697.3684   20694700.4894   20694696.7494
       241.0004        202.0004
 -16363272.19049 -12474401.14549  20924916.6454   20924922.0974   20924916.8274
       237.0004        189.0004
 -18876275.08049 -14686555.94449  20830870.8264   20830875.7444   20830871.2254
       239.0004        196.0004
  -4298901.21749  -3311699.71049  23935472.0984   23935476.6254   23935470.1054
       210.0004        153.0004
  -9159441.97049  -6904762.78649  22676135.3964   22676140.4184   22676135.0194
       224.0004        162.0004
  -4109875.24649  -2936043.98349  23736587.3904   23736597.8484   23736589.0024
       212.0004        146.0004
 -18548376.65149 -14430146.80749  21222998.0544   21223001.7944   21222998.4694
       237.0004        194.0004
 11 10 14 12 53 30.0000000  0  8G22G16G03G06G19G18G30G21
  -3511282.62249  -2717412.07749  24176686.9034   24176693.6184   24176685.4284
       204.0004        141.0004
 -19631188.39649 -15254729.22849  20691174.8974   20691179.3994   20691174.5494
       240.0004        201.0004
 -16435376.83249 -12530586.54149  20911196.1234   20911201.1764   20911195.6684
       238.0004        189.0004
 -18918141.85349 -14719179.38049  20822903.7314   20822908.9304   20822904.1274
       239.0004        195.0004
  -4394487.88649  -3386182.63149  23917281.8474   23917284.6754   23917280.7914
       211.0004        143.0004
  -9220754.21249  -6952538.49649  22664467.2294   22664473.7564   22664468.2234
       224.0004        161.0004
  -3991833.11749  -2844063.30349  23759050.1774   23759060.4564   23759049.9924
       209.0004        145.0004
 -18515441.02649 -14404482.69349  21229266.3544   21229269.4594   21229266.1484
       239.0004        195.0004
 11 10 14 12 54  0.0000000  0  8G22G16G03G06G19G18G30G21
  -3614008.14649  -2797457.63049  24157137.8694   24157145.2284   24157138.0754
       210.0004        141.0004
 -19649155.85449 -15268729.83949  20687756.6344   20687760.1254   20687756.0984
       241.0004        201.0004
 -16507158.11849 -12586519.97449  20897536.8264   20897541.9044   20897536.0714
       239.0004        189.0004
 -18959685.54849 -14751551.06349  20814998.4044   20815003.1974   20814998.1814
       240.0004        196.0004
  -4489964.14949  -3460579.58349  23899113.5394   23899116.9044   23899112.7604
       212.0004        148.0004
  -9281675.48649  -7000009.51449  22652876.1024   22652879.2284   22652874.0694
       225.0004        164.0004
  -3873652.84449  -2751974.96749  23781540.2894   23781550.5844   23781540.2334
       211.0004        143.0004
 -18482113.97649 -14378513.55749  21235608.0104   21235610.9364   21235607.5214
       237.0004        194.0004
 11 10 14 12 54 30.0000000  0  8G22G16G03G06G19G18G30G21
  -3716653.77749  -2877440.95649  24137605.1814   24137613.8834   24137605.2544
       207.0004        145.0004
 -19666584.18449 -15282310.35449  20684439.2074   20684443.4224   20684438.7154
       237.0004        201.0004
 -16578614.30849 -12642200.08749  20883938.4384   20883943.7374   20883938.2474
       238.0004        189.0004
 -19000904.97249 -14783670.07649  20807154.0614   20807159.7764   20807154.5034
       239.0004        196.0004
  -4585328.28349  -3534889.04049  23880964.7674   23880971.3464   23880964.4604
       211.0004        152.0004
  -9342203.02249  -7047173.77049  22641356.1284   22641362.2224   22641357.3244
       224.0004        163.0004
  -3755336.17949  -2659780.35149  23804055.7424   23804065.1644   23804055.4484
       210.0004        143.0004
 -18448395.88349 -14352239.72349  21242024.8954   21242027.9824   21242024.6204
       238.0004        194.0004
 11 10 14 12 55  0.0000000  0  8G22G16G03G06G19G18G30G21
  -3819216.33249  -2957359.49949  24118087.9684   24118096.4594   24118088.6494
       206.0004        143.0004
 -19683472.07249 -15295469.74549  20681225.9624   20681229.7574   20681225.7654
       238.0004        201.0004
 -16649743.09849 -12697625.08349  20870402.7274   20870407.8374   20870402.8024
       237.0004        188.0004
 -19041798.93349 -14815535.47349  20799373.3844   20799378.2624   20799372.6014
       241.0004        196.0004
  -4680578.96249  -3609110.16849  23862838.6874   23862846.2404   23862838.2804
       211.0004        151.0004
  -9402334.00449  -7094028.99549  22629913.7194   22629919.2874   22629913.5974
       224.0004        163.0004
  -3636885.03949  -2567480.95249  23826596.0044   23826605.5784   23826594.6174
       209.0004        142.0004
 -18414287.08049 -14325661.43649  21248514.6474   21248518.3114   21248514.0994
       237.0004        194.0004
 11 10 14 12 55 30.0000000  0  8G22G16G03G06G19G18G30G21
  -3921693.96249  -3037211.87149  24098587.0574   24098595.0524   24098586.5974
       208.0004        144.0004
 -19699819.03249 -15308207.63449  20678115.7674   20678118.9844   20678115.1344
       238.0004        201.0004
 -16720543.77949 -12752794.41149  20856930.1634   20856934.8124   20856930.2594
       238.0004        189.0004
 -19082367.02549 -14847146.95349  20791653.6774   20791658.2024   20791653.2384
       241.0004        197.0004
  -4775715.70849  -3683242.50749  23844737.4644   23844740.2644   23844735.1204
       214.0004        148.0004
  -9462067.09449  -7140574.19049  22618548.4844   22618551.6414   22618547.0254
       225.0004        162.0004
  -3518302.16949  -2475078.92549  23849162.4244   23849170.8474   23849162.2524
       212.0004        142.0004
 -18379789.71449 -14298780.38249  21255080.0424   21255082.8634   21255079.7374
       238.0004        195.0004
 11 10 14 12 56  0.0000000  0  8G22G16G03G06G19G18G30G21
  -4024083.74849  -3116995.82749  24079102.9494   24079110.5964   24079102.7584
       208.0004        144.0004
 -19715623.84249 -15320523.06149  20675106.7974   20675111.4484   20675107.1664
       237.0004        201.0004
 -16791014.67649 -12807706.77149  20843519.3564   20843525.0954   20843519.7374
       238.0004        188.0004
 -19122608.53449 -14878503.95549  20783994.9774   20784000.2834   20783995.1384
       241.0004        197.0004
  -4870737.81649  -3757285.52049  23826653.9654   23826658.2804   23826652.5164
       213.0004        153.0004
  -9521400.15349  -7186807.66549  22607256.0744   22607261.6654   22607257.1904
       224.0004        165.0004
  -3399589.87849  -2382576.02749  23871754.6874   23871762.3524   23871753.0464
       214.0004        142.0004
 -18344905.53749 -14271597.90549  21261718.2164   21261721.6824   21261717.0884
       238.0004        195.0004
 11 10 14 12 56 30.0000000  0  8G22G16G03G06G19G18G30G21
  -4126382.62449  -3196708.87549  24059636.5144   24059641.8824   24059635.2534
       211.0004        143.0004
 -19730885.37049 -15332415.15849  20672203.7204   20672207.5824   20672203.0944
       238.0004        201.0004
 -16861154.30449 -12862360.98949  20830172.0144   20830178.4154   20830172.1274
       236.0004        189.0004
 -19162522.53049 -14909605.75349  20776399.9104   20776404.7374   20776400.0784
       240.0004        197.0004
  -4965644.01749  -3831238.21149  23808593.8944   23808598.1884   23808593.6274
       213.0004        151.0004
  -9580330.71249  -7232727.49149  22596042.2004   22596046.8714   22596042.1234
       225.0004        164.0004
  -3280750.21149  -2289973.90249  23894369.0594   23894376.0394   23894367.0334
       211.0004        142.0004
 -18309634.91049 -14244114.30949  21268429.4444   21268433.1874   21268429.8724
       239.0004        195.0004
 11 10 14 12 57  0.0000000  0  8G22G16G03G06G19G18G30G21
  -4228588.31249  -3276349.34849  24040185.4954   24040193.9924   24040184.9654
       206.0004        141.0004
 -19745602.70049 -15343883.20149  20669402.6654   20669406.8814   20669402.5584
       237.0004        201.0004
 -16930961.57449 -12916756.23149  20816888.4444   20816894.8314   20816888.8204
       237.0004        189.0004
 -19202108.42149 -14940451.87749  20768867.2154   20768872.0634   20768867.0334
       242.0004        198.0004
  -5060433.35849  -3905099.91049  23790556.8234   23790559.2004   23790555.2494
       213.0004        151.0004
  -9638857.23749  -7278332.52749  22584905.4724   22584910.4094   22584904.3214
       226.0004        165.0004
  -3161785.62949  -2197274.43749  23917005.0624   23917017.9914   23917004.5664
       207.0004        139.0004
 -18273979.57649 -14216330.92949  21275214.5574   21275218.0174   21275214.0994
       238.0004        194.0004
 11 10 14 12 57 30.0000000  0  8G22G16G03G06G19G18G30G21
  -4330697.64949  -3355914.70949  24020756.6504   24020761.7124   24020754.7014
       210.0004        142.0004
 -19759774.78649 -15354926.37949  20666705.5284   20666709.7254   20666705.3844
       237.0004        200.0004
 -17000434.66849 -12970891.06649  20803668.3094   20803674.0424   20803668.1344
       238.0004        189.0004
 -19241365.33149 -14971041.66849  20761397.0944   20761401.7874   20761396.6734
       242.0004        198.0004
  -5155104.91749  -3978869.73349  23772538.1144   23772545.9284   23772538.5334
       209.0004        151.0004
  -9696977.14149  -7323620.69149  22573845.7874   22573849.3664   22573846.3394
       226.0004        163.0004
  -3042698.27949  -2104479.32049  23939665.9584   23939674.3684   23939665.5844
       207.0004        140.0004
 -18237940.28749 -14188248.37549  21282072.5244   21282076.7094   21282072.5734
       238.0004        195.0004
 11 10 14 12 58  0.0000000  0  8G22G16G03G06G19G18G30G21
  -4432708.58949  -3435403.42349  24001343.8804   24001349.8114   24001343.2544
       211.0004        145.0004
 -19773401.16349 -15365544.34049  20664113.3144   20664116.7594   20664112.8894
       238.0004        201.0004
 -17069572.35449 -13024764.55249  20790511.4734   20790517.1524   20790511.5634
       237.0004        189.0004
 -19280292.81249 -15001374.75449  20753988.8414   20753993.9874   20753989.0344
       241.0004        198.0004
  -5249658.07349  -4052547.35149  23754547.7564   23754552.0564   23754546.8734
       215.0004        153.0004
  -9754688.89849  -7368590.82949  22562862.4594   22562867.9364   22562861.2334
       223.0004        164.0004
  -2923490.84049  -2011590.60549  23962350.2154   23962361.0454   23962350.3544
       207.0004        139.0004
 -18201518.82849 -14159868.02149  21289003.5514   21289006.9674   21289003.5104
       240.0004        195.0004
 11 10 14 12 58 30.0000000  0  8G22G16G03G06G19G18G30G21
  -4534618.09949  -3514813.11849  23981951.3744   23981956.5204   23981949.9594
       211.0004        144.0004
 -19786480.84949 -15375736.29849  20661623.3714   20661627.6304   20661623.5434
       237.0004        201.0004
 -17138373.10149 -13078375.48949  20777420.5674   20777425.1774   20777419.6314
       239.0004        190.0004
 -19318890.06049 -15031450.51149  20746644.0104   20746648.8684   20746644.0884
       240.0004        197.0004
  -5344092.07349  -4126132.14449  23736575.6504   23736581.0184   23736574.6514
       212.0004        149.0004
  -9811990.21249  -7413241.16449  22551958.7354   22551963.6634   22551958.4304
       224.0004        163.0004
  -2804165.43149  -1918609.98049  23985058.2284   23985068.8784   23985057.7254
       208.0004        138.0004
 -18164716.69649 -14131191.04649  21296006.9154   21296010.2674   21296006.5964
       240.0004        195.0004
 11 10 14 12 59  0.0000000  0  8G22G16G03G06G19G18G30G21
  -4636423.25349  -3594141.45549  23962577.7134   23962583.8154   23962574.8984
       209.0004        141.0004
 -19799012.27449 -15385501.04249  20659239.1504   20659243.3014   20659239.2374
       237.0004        201.0004
 -17206835.07849 -13131722.44949  20764391.5094   20764397.0114   20764391.6274
       239.0004        191.0004
 -19357156.01349 -15061268.11449  20739362.3334   20739367.1614   20739361.9504
       240.0004        197.0004
  -5438405.28049  -4199622.79349  23718629.7044   23718633.0754   23718627.4044
       212.0004        150.0004
  -9868878.60049  -7457569.71749  22541133.0594   22541137.5594   22541132.3934
       225.0004        165.0004
  -2684724.20949  -1825539.13649  24007789.0694   24007796.6014   24007786.5544
       209.0004        138.0004
 -18127534.30649 -14102217.76449  21303082.1834   21303085.6844   21303082.1094
       240.0004        194.0004
 11 10 14 12 59 30.0000000  0  9G22G16G03G06G19G18G30G07G21
  -4738121.69049  -3673386.66349  23943225.1504   23943229.9974   23943223.5854
       211.0004        143.0004
 -19810994.85449 -15394838.10649  20656958.1724   20656962.9984   20656958.2814
       237.0004        201.0004
 -17274956.85949 -13184804.31049  20751427.9154   20751434.6964   20751427.9804
       238.0004        192.0004
 -19395090.06649 -15090827.10049  20732143.0794   20732148.1484   20732143.5284
       240.0004        197.0004
  -5532597.08749  -4273018.85549  23700705.1374   23700709.8824   23700704.2554
       213.0004        152.0004
  -9925352.68949  -7501575.45749  22530386.9694   22530392.6094   22530385.9484
       226.0004        165.0004
  -2565169.41549  -1732379.76249  24030539.6204   24030547.8074   24030539.7484
       210.0004        140.0004
   -179876.58449   -131159.98849  24459725.3024   24459733.8184
       206.0004        138.0004
 -18089973.29149 -14072949.44849  21310230.6824   21310233.8074   21310230.2804
       241.0004        195.0004
 11 10 14 13  0  0.0000000  0  9G22G16G03G06G19G18G30G07G21
  -4839710.67349  -3752546.61349  23923892.8094   23923899.0714   23923892.1584
       212.0004        145.0004
 -19822427.86049 -15403746.94649  20654783.7564   20654787.3544   20654783.2894
       238.0004        201.0004
 -17342737.20949 -13237620.12149  20738530.1374   20738536.5124   20738529.8614
       239.0004        192.0004
 -19432691.64849 -15120127.00749  20724988.7674   20724993.0954   20724988.4314
       242.0004        198.0004
  -5626666.80949  -4346319.77749  23682804.0984   23682809.2084   23682802.3374
       208.0004        150.0004
  -9981410.30849  -7545256.67249  22519718.9694   22519724.2364   22519718.5724
       227.0004        167.0004
  -2445503.56049  -1639133.87149  24053310.2614   24053321.5224   24053310.5524
       206.0004        138.0004
   -237439.63049   -176014.21149  24448774.7614   24448779.1304   24448771.8474
       202.0004        140.0004
 -18052035.39749 -14043387.46149  21317448.9014   21317452.6034   21317448.5454
       240.0004        194.0004
 11 10 14 13  0 30.0000000  0  9G22G16G03G06G19G18G30G07G21
  -4941186.88349  -3831618.67349  23904581.5684   23904588.8204   23904580.7074
       211.0004        148.0004
 -19833310.06449 -15412226.58549  20652712.5054   20652716.4904   20652712.3844
       237.0004        201.0004
 -17410174.40049 -13290168.54649  20725697.2344   20725703.1564   20725697.3004
       240.0004        191.0004
 -19469959.46649 -15149166.84649  20717896.0184   20717901.4054   20717896.5144
       242.0004        198.0004
  -5720612.80949  -4419524.29849  23664928.5934   23664930.4544   23664925.6734
       213.0004        151.0004
 -10037049.17049  -7588611.57349  22509130.7504   22509137.0884   22509131.0684
       226.0004        168.0004
  -2325728.35449  -1545802.74549  24076102.6094   24076113.2724   24076101.1544
       204.0004        137.0004
   -294496.81149   -220474.21249  24437915.4474   24437923.5204   24437915.1034
       209.0004        142.0004
 -18013721.05549 -14013532.14549  21324741.0104   21324743.5054   21324740.0994
       240.0004        195.0004
 11 10 14 13  1  0.0000000  0  9G22G16G03G06G19G18G30G07G21
  -5042548.65649  -3910601.57649  23885291.5614   23885300.6774   23885292.3624
       210.0004        146.0004
 -19843641.20749 -15420276.82749  20650745.9064   20650750.3714   20650745.9054
       237.0004        201.0004
 -17477267.47649 -13342448.82849  20712931.1094   20712935.3984   20712930.5794
       241.0004        192.0004
 -19506893.70749 -15177946.75449  20710868.0274   20710872.8744   20710867.9204
       242.0004        198.0004
  -5814434.94049  -4492632.30749  23647072.9784   23647077.2234   23647070.1104
       211.0004        151.0004
 -10092267.70149  -7631638.95849  22498624.3614   22498628.0814   22498622.7534
       229.0004        168.0004
  -2205847.01549  -1452388.94649  24098915.8974   24098927.5114   24098915.6454
       205.0004        137.0004
   -351046.85849   -264539.09049  24427154.2534   24427162.9774   24427154.2754
       209.0004        143.0004
 -17975031.74349 -13983384.64049  21332101.7364   21332106.1494   21332102.1644
       238.0004        194.0004
 11 10 14 13  1 30.0000000  0  9G22G16G03G06G19G18G30G07G21
  -5143792.88949  -3989492.89949  23866027.0144   23866033.0224   23866025.7984
       212.0004        147.0004
 -19853420.32349 -15427896.92349  20648885.8504   20648889.4904   20648885.7574
       238.0004        201.0004
 -17544014.82049 -13394459.71149  20700228.8944   20700233.7224   20700228.7774
       240.0004        192.0004
 -19543493.18749 -15206465.80949  20703904.0104   20703908.3794   20703904.1144
       242.0004        199.0004
  -5908132.05049  -4565642.89649  23629242.5294   23629247.9254   23629242.3834
       212.0004        152.0004
 -10147063.95149  -7674337.28549  22488195.8054   22488201.8014   22488195.8134
       226.0004        169.0004
  -2085861.50449  -1358893.97249  24121749.1664   24121759.2634   24121748.8884
       209.0004        138.0004
   -407087.74049   -308207.22949  24416488.9384   24416498.2534   24416490.4034
       209.0004        145.0004
 -17935969.23049 -13952946.32949  21339536.6944   21339539.2684   21339536.0604
       241.0004        195.0004
 11 10 14 13  2  0.0000000  0  9G22G16G03G06G19G18G30G07G21
  -5244916.49449  -4068290.23449  23846782.6184   23846788.6154   23846781.9484
       211.0004        147.0004
 -19862646.33249 -15435086.02049  20647130.0884   20647134.1164   20647129.8094
       237.0004        201.0004
 -17610414.62749 -13446199.78349  20687593.5404   20687598.1164   20687593.2114
       241.0004        193.0004
 -19579756.88449 -15234723.22249  20697003.1544   20697007.6094   20697002.4354
       242.0004        198.0004
  -6001702.81049  -4638555.02049  23611435.1434   23611440.8384   23611433.1234
       207.0004        149.0004
 -10201435.70149  -7716704.84749  22477849.7134   22477854.4254   22477848.5734
       228.0004        167.0004
  -1965773.79949  -1265319.36149  24144600.7884   24144611.0674   24144599.6804
       207.0004        138.0004
   -462617.08949   -351476.74649  24405922.4574   24405932.4254   24405923.4684
       209.0004        147.0004
 -17896534.58949 -13922218.04449  21347040.4704   21347043.9654   21347040.5004
       240.0004        195.0004
 11 10 14 13  2 30.0000000  0  9G22G16G03G06G19G18G30G07G21
  -5345916.24749  -4146991.04949  23827561.1074   23827570.3074   23827562.3804
       211.0004        149.0004
 -19871317.78649 -15441843.00349  20645480.1284   20645484.0364   20645479.6804
       238.0004        201.0004
 -17676464.97949 -13497667.54549  20675023.9084   20675028.7854   20675023.6894
       238.0004        192.0004
 -19615683.69149 -15262718.12049  20690166.6604   20690170.8074   20690166.2984
       242.0004        198.0004
  -6095145.69149  -4711367.52349  23593654.3484   23593659.9144   23593653.9334
       213.0004        152.0004
 -10255380.01849  -7758739.35549  22467583.3464   22467589.8814   22467583.9524
       226.0004        166.0004
  -1845585.72549  -1171666.54149  24167472.8184   24167481.8924   24167471.1874
       209.0004        140.0004
   -517632.51149   -394345.84249  24395453.3334   24395462.0004   24395454.1754
       207.0004        146.0004
 -17856728.12449 -13891200.03949  21354615.7124   21354618.6934   21354615.8564
       241.0004        196.0004
 11 10 14 13  3  0.0000000  0  9G22G16G03G06G19G18G30G07G21
  -5446790.58249  -4225594.17249  23808365.2244   23808373.4274   23808365.9834
       209.0004        149.0004
 -19879435.47749 -15448168.47849  20643935.1024   20643939.3174   20643934.9964
       237.0004        201.0004
 -17742165.29749 -13548862.56849  20662522.2974   20662526.7634   20662522.0704
       239.0004        192.0004
 -19651273.87349 -15290450.71349  20683393.0004   20683398.3714   20683393.3604
       239.0004        198.0004
  -6188461.03849  -4784080.62149  23575897.0354   23575901.4934   23575895.8034
       210.0004        151.0004
 -10308896.70849  -7800440.63349  22457400.3244   22457404.7064   22457398.9634
       226.0004        166.0004
  -1725300.51349  -1077938.03449  24190362.5744   24190372.0974   24190361.8404
       207.0004        141.0004
   -572133.43549   -436814.00049  24385084.9044   24385089.6594   24385083.8644
       210.0004        145.0004
 -17816552.77849 -13859894.58749  21362260.5084   21362263.4964   21362260.0664
       240.0004        195.0004
 11 10 14 13  3 30.0000000  0  9G22G16G03G06G19G18G30G07G21
  -5547536.58049  -4304097.27449  23789194.5804   23789202.3344   23789194.9934
       211.0004        148.0004
 -19886997.93549 -15454061.31249  20642496.0994   20642500.3174   20642496.1774
       238.0004        201.0004
 -17807514.19249 -13599783.74849  20650086.6704   20650091.5284   20650086.3954
       239.0004        193.0004
 -19686526.51749 -15317920.29749  20676685.0034   20676690.0744   20676684.9414
       239.0004        199.0004
  -6281647.82749  -4856693.56349  23558163.2624   23558169.2584   23558162.5794
       211.0004        153.0004
 -10361983.42949  -7841806.86849  22447298.4754   22447303.6724   22447297.8784
       227.0004        167.0004
  -1604920.45049   -984135.61349  24213269.1334   24213278.6814   24213269.4934
       205.0004        137.0004
   -626117.77649   -478879.61649  24374809.2824   24374817.8034   24374809.9104
       209.0004        146.0004
 -17776009.10949 -13828302.13849  21369975.0214   21369979.4534   21369975.6864
       240.0004        195.0004
 11 10 14 13  4  0.0000000  0  9G22G16G03G06G19G18G30G07G21
  -5648151.26449  -4382498.09049  23770051.0034   23770055.7274   23770049.1534
       214.0004        151.0004
 -19894004.12949 -15459520.69149  20641163.1784   20641166.7594   20641162.5574
       236.0004        201.0004
 -17872509.73549 -13650429.58849  20637718.7974   20637723.0394   20637717.6334
       238.0004        192.0004
 -19721440.64149 -15345126.08049  20670040.8794   20670046.2554   20670040.6534
       239.0004        198.0004
  -6374704.67149  -4929205.22749  23540455.8174   23540461.2014   23540455.4614
       212.0004        153.0004
 -10414638.22549  -7882836.54449  22437276.9214   22437283.5364   22437278.0064
       226.0004        168.0004
  -1484447.48749   -890260.78149  24236194.9744   24236203.9374   24236193.3374
       205.0004        137.0004
   -679583.21149   -520540.89149  24364634.5324   24364643.3644   24364635.8414
       210.0004        145.0004
 -17735098.61249 -13796423.83549  21377760.8574   21377763.8844   21377760.2354
       240.0004        194.0004
 11 10 14 13  4 30.0000000  0  9G22G16G03G06G19G18G30G07G21
  -5748631.84949  -4460794.38249  23750929.4704   23750934.9314   23750927.8014
       215.0004        151.0004
 -19900453.12849 -15464545.88049  20639934.4544   20639939.4484   20639935.5144
       237.0004        201.0004
 -17937150.33749 -13700798.85149  20625417.0194   20625422.3254   20625416.9224
       237.0004        192.0004
 -19756015.34549 -15372067.39349  20663461.3944   20663466.6234   20663461.3814
       238.0004        199.0004
  -6467630.37649  -5001614.72649  23522772.4554   23522776.7994   23522771.4474
       213.0004        152.0004
 -10466858.70449  -7923527.79149  22427342.2204   22427347.2244   22427341.8464
       228.0004        168.0004
  -1363883.62349   -796315.19249  24259137.3434   24259144.9604   24259135.6134
       204.0004        135.0004
   -732528.00949   -561796.47949  24354559.7024   24354570.0514   24354559.9184
       212.0004        147.0004
 -17693821.92449 -13764260.19749  21385615.5544   21385618.7024   21385615.0294
       240.0004        194.0004
 11 10 14 13  5  0.0000000  0  9G22G16G03G06G19G18G30G07G21
  -5848975.41849  -4538983.91249  23731834.9824   23731839.9154   23731833.7374
       218.0004        154.0004
 -19906344.64149 -15469136.67649  20638815.4974   20638818.6884   20638814.7744
       238.0004        202.0004
 -18001434.75449 -13750890.56849  20613184.0164   20613189.1764   20613183.4794
       237.0004        191.0004
 -19790249.91349 -15398743.66849  20656947.1834   20656952.2544   20656947.3104
       239.0004        198.0004
  -6560423.93649  -5073921.25549  23505114.6384   23505118.4694   23505113.0684
       212.0004        154.0004
 -10518642.84349  -7963879.03149  22417486.7474   22417491.3274   22417485.9424
       227.0004        168.0004
  -1243231.20549   -702300.54349  24282097.7494   24282106.3664   24282096.4424
       202.0004        136.0004
   -784950.40449   -602645.01749  24344585.0084   24344591.6454   24344584.7934
       211.0004        148.0004
 -17652180.86549 -13731812.63049  21393539.5224   21393542.7674   21393538.9834
       240.0004        194.0004
 11 10 14 13  5 30.0000000  0  9G22G16G03G06G19G18G30G07G21
  -5949179.83749  -4617065.03949  23712764.6424   23712770.8984   23712764.1924
       217.0004        153.0004
 -19911678.14249 -15473292.64749  20637799.8084   20637803.6484   20637799.2484
       237.0004        202.0004
 -18065361.70949 -13800703.73849  20601018.8334   20601024.6634   20601018.7124
       237.0004        192.0004
 -19824144.03949 -15425154.65649  20650497.0734   20650502.0884   20650496.8164
       239.0004        198.0004
  -6653084.89749  -5146124.43149  23487478.9544   23487486.7304   23487478.3824
       209.0004        152.0004
 -10569989.80049  -8003889.60049  22407714.7784   22407720.5014   22407716.3104
       228.0004        169.0004
  -1122492.98849   -608219.05049  24305071.9484   24305083.1314   24305072.8554
       205.0004        136.0004
   -836848.66249   -643085.13249  24334709.4964   24334717.0074   24334709.4054
       211.0004        148.0004
 -17610177.17149 -13699082.48849  21401531.7374   21401535.5814   21401532.1904
       239.0004        195.0004
 11 10 14 13  6  0.0000000  0  9G22G16G03G06G19G18G30G07G21
  -6049242.11249  -4695035.41849  23693723.1404   23693729.9694   23693722.7834
       213.0004        152.0004
 -19916452.56149 -15477012.97449  20636890.8544   20636895.3084   20636890.8724
       238.0004        201.0004
 -18128929.45249 -13850237.00649  20588922.4734   20588927.9234   20588922.3664
       237.0004        192.0004
 -19857696.59649 -15451299.49649  20644112.3544   20644117.3804   20644112.2834
       238.0004        198.0004
  -6745611.79549  -5218223.19149  23469875.1404   23469878.2984   23469873.3024
       214.0004        155.0004
 -10620897.17249  -8043557.62549  22398028.4134   22398033.9874   22398028.3544
       227.0004        168.0004
  -1001670.84449   -514072.15349  24328064.1494   24328075.2894   24328065.9684
       204.0004        134.0004
   -888220.64649   -683115.13349  24324932.5484   24324940.5504   24324932.5714
       212.0004        147.0004
 -17567811.48049 -13666070.27749  21409593.7904   21409597.9224   21409593.7564
       238.0004        194.0004
 11 10 14 13  6 30.0000000  0  9G22G16G03G06G19G18G30G07G21
  -6149159.27549  -4772892.71549  23674709.0914   23674715.3414   23674708.0804
       209.0004        149.0004
 -19920667.37649 -15480297.25149  20636089.6664   20636093.1054   20636088.9994
       238.0004        201.0004
 -18192136.60649 -13899489.30149  20576894.7614   20576899.8744   20576894.8634
       237.0004        193.0004
 -19890906.75449 -15477177.52249  20637792.6624   20637797.5234   20637792.8374
       239.0004        198.0004
  -6838003.55549  -5290216.65949  23452290.4064   23452297.1174   23452289.8514
       209.0004        152.0004
 -10671362.80949  -8082881.43149  22388425.0664   22388430.8884   22388425.2694
       227.0004        169.0004
   -880766.89449   -419861.52349  24351069.3804   24351078.8464   24351070.0194
       200.0004        134.0004
   -939064.85949   -722733.90649  24315256.4254   24315265.0614   24315256.4624
       208.0004        147.0004
 -17525085.05849 -13632776.97249  21417725.5664   21417728.5294   21417724.6174
       239.0004        193.0004
 11 10 14 13  7  0.0000000  0  9G22G16G03G06G19G18G30G07G21
  -6248928.79149  -4850635.00849  23655725.9784   23655730.3854   23655723.9504
       213.0004        151.0004
 -19924322.44449 -15483145.36049  20635392.9644   20635397.4294   20635393.1134
       238.0004        201.0004
 -18254981.76349 -13948459.51849  20564935.3984   20564940.8134   20564935.7864
       237.0004        194.0004
 -19923774.34549 -15502788.61349  20631538.0114   20631543.0364   20631537.8334
       239.0004        198.0004
  -6930260.01249  -5362104.66749  23434734.6114   23434741.4984   23434734.6464
       213.0004        155.0004
 -10721385.20749  -8121859.85749  22378906.4894   22378910.9154   22378906.1304
       230.0004        170.0004
   -759783.88249   -325589.29649  24374094.7014   24374106.0434   24374094.5094
       207.0004        136.0004
   -989379.89649   -761940.33449  24305684.3494   24305692.1104   24305683.3074
       212.0004        148.0004
 -17481999.98949 -13599204.20849  21425924.1774   21425927.0734   21425923.4824
       238.0004        193.0004
 11 10 14 13  7 30.0000000  0  9G22G16G03G06G19G18G30G07G21
  -6348547.82949  -4928260.01649  23636767.5674   23636772.4344   23636765.7834
       212.0004        149.0004
 -19927416.74249 -15485556.50849  20634804.3984   20634808.5994   20634804.5634
       237.0004        201.0004
 -18317463.23749 -13997146.34649  20553045.6774   20553050.4184   20553045.2764
       237.0004        193.0004
 -19956298.08049 -15528131.76749  20625348.9594   20625353.7964   20625348.8514
       239.0004        198.0004
  -7022379.69349  -5433886.15849  23417206.3104   23417211.5234   23417205.3384
       213.0004        154.0004
 -10770962.41549  -8160491.38649  22369471.2224   22369476.0984   22369471.7944
       227.0004        168.0004
   -638723.60449   -231256.86949  24397130.0594   24397142.2904   24397130.2004
       205.0004        134.0004
  -1039163.64349   -800732.75449  24296209.7954   24296217.5304   24296209.6374
       209.0004        149.0004
 -17438557.02349 -13565352.55449  21434190.3464   21434193.7684   21434190.2114
       237.0004        192.0004
 11 10 14 13  8  0.0000000  0  9G22G16G03G06G19G18G30G07G21
  -6448014.10349  -5005766.00949  23617839.7844   23617845.6124   23617837.9414
       214.0004        150.0004
 -19929949.81149 -15487530.33749  20634322.8304   20634326.8274   20634322.7544
       239.0004        202.0004
 -18379579.99449 -14045548.98549  20541224.8204   20541229.9364   20541224.7454
       238.0004        192.0004
 -19988477.88749 -15553206.92349  20619225.3474   20619230.5394   20619225.6614
       240.0004        199.0004
  -7114361.51849  -5505560.18349  23399701.4954   23399708.3964   23399700.8934
       212.0004        157.0004
 -10820092.68049  -8198774.64749  22360122.4964   22360127.7794   22360122.0934
       227.0004        169.0004
   -517588.94449   -136866.45049  24420183.5694   24420194.0014   24420182.8444
       206.0004        135.0004
  -1088414.98449   -839110.33549  24286835.9794   24286845.0044   24286836.8694
       208.0004        147.0004
 -17394757.78349 -13531223.29549  21442524.8464   21442529.3394   21442524.7964
       237.0004        191.0004
 11 10 14 13  8 30.0000000  0  9G22G16G03G06G19G18G30G07G21
  -6547324.18349  -5083150.31249  23598940.3214   23598946.5824   23598940.4764
       213.0004        152.0004
 -19931920.60649 -15489066.02349  20633947.7934   20633951.5564   20633947.3944
       239.0004        202.0004
 -18441330.18449 -14093665.98249  20529474.0804   20529479.6474   20529474.6254
       238.0004        193.0004
 -20020312.33649 -15578012.96649  20613167.5874   20613172.4754   20613167.7604
       239.0004        199.0004
  -7206204.26249  -5577125.84849  23382223.7354   23382230.8274   23382224.0064
       210.0004        157.0004
 -10868774.64949  -8236708.54149  22350858.6854   22350863.8334   22350857.3404
       229.0004        169.0004
   -396381.48249    -42419.34249  24443248.9744   24443256.8394   24443247.8804
       207.0004        136.0004
  -1137131.51349   -877071.16149  24277565.2684   24277574.1424   24277567.0384
       210.0004        147.0004
 -17350602.91949 -13496816.92049  21450927.5294   21450930.9764   21450927.2024
       237.0004        191.0004
 11 10 14 13  9  0.0000000  0  9G22G16G03G06G19G18G30G07G21
  -6646476.29449  -5160411.51749  23580072.5954   23580078.1344   23580072.8144
       212.0004        152.0004
 -19933329.57249 -15490163.92449  20633678.7674   20633683.7244   20633678.6654
       236.0004        201.0004
 -18502713.05549 -14141496.76749  20517794.5384   20517798.9704   20517793.8374
       239.0004        195.0004
 -20051801.67049 -15602550.08949  20607175.1094   20607179.7854   20607175.5024
       239.0004        200.0004
  -7297907.72649  -5648583.02749  23364773.2664   23364778.8834   23364772.7834
       210.0004        153.0004
 -10917006.92049  -8274292.06149  22341679.7164   22341684.7304   22341679.7464
       229.0004        169.0004
   -275104.44849     52081.97949  24466329.9134   24466338.0824   24466327.2624
       207.0004        134.0004
  -1185312.56149   -914614.72949  24268395.5354   24268404.8264   24268396.8054
       210.0004        145.0004
 -17306094.95249 -13462135.40949  21459396.8714   21459400.7174   21459396.9184
       237.0004        190.0004
 11 10 14 13  9 30.0000000  0  9G22G16G03G06G19G18G30G07G21
  -6745466.62349  -5237546.68249  23561233.6704   23561240.6194   23561235.4194
       210.0004        151.0004
 -19934175.18949 -15490822.85649  20633519.0404   20633522.6394   20633518.8444
       239.0004        202.0004
 -18563726.09249 -14189039.37149  20506183.0494   20506188.8494   20506183.1674
       239.0004        194.0004
 -20082944.16149 -15626816.95349  20601249.6474   20601253.9824   20601249.3594
       241.0004        200.0004
  -7389470.17949  -5719930.30049  23347351.5954   23347357.3214   23347349.9624
       213.0004        158.0004
 -10964786.34749  -8311522.70649  22332587.6744   22332593.3074   22332587.4394
       228.0004        169.0004
   -153759.10449    146636.54049  24489420.9394   24489427.2594   24489418.2264
       206.0004        136.0004
  -1232955.37049   -951738.89949  24259329.3774   24259339.1254   24259332.0724
       204.0004        147.0004
 -17261234.51549 -13427179.24049  21467934.4064   21467937.2454   21467933.8404
       238.0004        191.0004
 11 10 14 13 10  0.0000000  0  9G22G16G03G06G19G18G30G07G21
  -6844293.07849  -5314554.13949  23542427.7704   23542435.9944   23542427.9254
       210.0004        151.0004
 -19934457.31749 -15491042.70149  20633465.5944   20633468.5214   20633465.2424
       239.0004        202.0004
 -18624368.31649 -14236293.01549  20494642.9184   20494648.9274   20494642.7664
       238.0004        194.0004
 -20113739.37049 -15650813.20749  20595389.5604   20595393.6204   20595389.4704
       241.0004        199.0004
  -7480890.78549  -5791167.04649  23329954.1234   23329959.8924   23329953.0234
       214.0004        158.0004
 -11012111.75749  -8348399.56549  22323582.4044   22323586.4504   22323582.3654
       228.0004        168.0004
    -32347.94849    241242.38449  24512520.8124   24512533.1974   24512518.2614
       202.0004        132.0004
  -1280058.55349   -988442.58449  24250367.0484   24250376.8294   24250368.1264
       209.0004        148.0004
 -17216022.87449 -13391949.40249  21476536.7804   21476540.6104   21476536.9444
       237.0004        189.0004
 11 10 14 13 10 30.0000000  0  9G22G16G03G06G19G18G30G07G21
  -6942952.56549  -5391431.49949  23523655.0264   23523660.5944   23523654.6004
       213.0004        150.0004
 -19934175.50949 -15490823.11849  20633518.0514   20633522.1594   20633518.5044
       238.0004        202.0004
 -18684638.35049 -14283256.65249  20483174.7894   20483179.7244   20483174.9034
       240.0004        196.0004
 -20144186.68049 -15674538.36749  20589595.3754   20589599.7244   20589595.6474
       240.0004        199.0004
  -7572168.82349  -5862292.70749  23312584.4394   23312589.9644   23312583.5364
       213.0004        158.0004
 -11058981.63449  -8384921.46849  22314662.3654   22314668.0054   22314662.6994
       228.0004        166.0004
     89126.62949    335897.65349  24535638.4584   24535649.4694   24535639.5384
       202.0004        134.0004
  -1326620.70049  -1024724.70449  24241508.0064   24241515.3804   24241508.2084
       209.0004        149.0004
 -17170461.66249 -13356447.17749  21485207.2294   21485210.8974   21485207.1534
       237.0004        190.0004
 11 10 14 13 11  0.0000000  0  9G22G16G03G06G19G18G30G07G21
  -7041442.94149  -5468177.09949  23504913.8504   23504917.3904   23504911.5704
       215.0004        152.0004
 -19933329.69049 -15490164.04849  20633680.2454   20633683.5954   20633679.6194
       239.0004        202.0004
 -18744535.01649 -14329929.35249  20471777.6064   20471781.5814   20471777.0794
       241.0004        196.0004
 -20174285.93549 -15697992.31549  20583867.7194   20583872.0054   20583867.2444
       240.0004        200.0004
  -7663303.28949  -5933306.49149  23295240.4654   23295247.3854   23295240.1054
       212.0004        158.0004
 -11105394.67849  -8421087.38749  22305831.1374   22305835.2304   22305830.5094
       228.0004        168.0004
    210661.99549    430600.25049  24558763.5434   24558776.4694   24558765.8624
       198.0004        130.0004
  -1372640.74849  -1060584.39149  24232750.3014   24232758.4974   24232750.1934
       208.0004        145.0004
 -17124552.39549 -13320673.73749  21493943.6884   21493947.2814   21493943.1444
       237.0004        190.0004
 11 10 14 13 11 30.0000000  0  9G22G16G03G06G19G18G30G07G21
  -7139760.25649  -5544787.82749  23486203.5504   23486208.9994   23486201.1634
       214.0004        151.0004
 -19931918.06549 -15489064.09049  20633948.2184   20633952.1974   20633948.0184
       238.0004        202.0004
 -18804055.71949 -14376309.10249  20460450.6744   20460455.0044   20460450.4514
       240.0004        197.0004
 -20204034.97049 -15721173.36549  20578206.0814   20578210.9214   20578206.2354
       240.0004        200.0004
  -7754292.21949  -6004206.88349  23277928.2194   23277932.0774   23277925.8904
       214.0004        157.0004
 -11151348.20649  -8456895.26149  22297085.5064   22297090.7264   22297085.9694
       229.0004        169.0004
    332257.11349    525349.41149  24581903.5884   24581913.8414   24581904.9124
       198.0004        132.0004
  -1418115.78749  -1096019.37449  24224097.2484   24224103.3664   24224096.7394
       210.0004        145.0004
 -17078295.61349 -13284629.52649  21502745.1884   21502749.8724   21502745.6584
       236.0004        190.0004
 11 10 14 13 12  0.0000000  0  9G22G16G03G06G19G18G30G07G21
  -7237903.38949  -5621262.88649  23467525.8524   23467532.6724   23467526.5104
       212.0004        153.0004
 -19929941.68749 -15487524.05549  20634323.2134   20634328.5104   20634323.5054
       237.0004        201.0004
 -18863200.74649 -14422396.11249  20449194.3054   20449199.8954   20449194.6484
       239.0004        195.0004
 -20233434.84349 -15744082.33849  20572611.5794   20572616.2224   20572611.4714
       240.0004        200.0004
  -7845136.31749  -6074994.42049  23260638.5274   23260645.6194   23260639.1034
       213.0004        159.0004
 -11196841.69549  -8492344.66049  22288429.8064   22288433.7214   22288429.4424
       230.0004        171.0004
    453908.07549    620142.12249  24605052.7014   24605062.5564   24605049.4554
       201.0004        128.0004
  -1463046.02349  -1131029.87749  24215546.4604   24215554.2754   24215546.6484
       209.0004        145.0004
 -17031693.86049 -13248316.48749  21511614.0814   21511617.8034   21511614.1134
       237.0004        190.0004
 11 10 14 13 12 30.0000000  0  9G22G16G03G06G19G18G30G07G21
  -7335869.00449  -5697599.58049  23448881.6434   23448891.0544   23448883.5004
       211.0004        153.0004
 -19927399.64649 -15485543.25449  20634808.7214   20634812.3254   20634808.1114
       239.0004        202.0004
 -18921967.80149 -14468188.59749  20438012.9854   20438016.8344   20438012.1804
       242.0004        196.0004
 -20262484.25049 -15766718.23149  20567084.3374   20567088.4354   20567084.1004
       240.0004        200.0004
  -7935833.67349  -6145667.58849  23243380.7974   23243386.4414   23243379.8224
       216.0004        161.0004
 -11241872.94049  -8527433.85949  22279860.5894   22279864.3974   22279860.2424
       230.0004        170.0004
    575613.45849    714977.20849  24628212.9334   24628226.5704   24628212.4154
       206.0004        132.0004
  -1507428.95649  -1165613.90849  24207101.9464   24207107.9074   24207101.0314
       210.0004        146.0004
 -16984748.27349 -13211735.53149  21520547.5474   21520550.9504   21520546.8884
       237.0004        190.0004
 11 10 14 13 13  0.0000000  0  9G22G16G03G06G19G18G30G07G21
  -7433654.05149  -5773795.56949  23430278.3824   23430283.0104   23430276.0334
       217.0004        155.0004
 -19924291.29349 -15483121.17049  20635400.2264   20635403.5014   20635399.9564
       238.0004        202.0004
 -18980355.36949 -14513685.38449  20426901.2664   20426906.6674   20426901.5784
       241.0004        196.0004
 -20291181.97049 -15789080.07849  20561623.4284   20561627.7574   20561623.0904
       241.0004        200.0004
  -8026383.05149  -6216225.46449  23226149.6984   23226154.6814   23226148.6594
       214.0004        159.0004
 -11286440.26049  -8562161.54949  22271378.7904   22271383.4734   22271378.4084
       229.0004        171.0004
    697371.17449    809852.99949  24651383.7354   24651394.9444   24651383.6264
       197.0004        131.0004
  -1551263.27849  -1199770.42249  24198757.9554   24198766.2064   24198757.9454
       207.0004        145.0004
 -16937459.52549 -13174887.17349  21529545.8574   21529549.8764   21529545.6984
       238.0004        189.0004
 11 10 14 13 13 30.0000000  0  9G22G16G03G06G19G18G30G07G21
  -7531255.69449  -5849848.65749  23411704.1344   23411709.1954   23411702.4454
       216.0004        154.0004
 -19920616.11449 -15480257.41049  20636098.7404   20636102.6794   20636098.7314
       237.0004        201.0004
 -19038361.89249 -14558885.25249  20415863.8634   20415868.4024   20415863.8974
       242.0004        197.0004
 -20319527.32849 -15811167.35749  20556229.7994   20556233.6114   20556229.2614
       241.0004        201.0004
  -8116783.37649  -6286667.19749  23208947.3784   23208952.2284   23208946.7954
       215.0004        159.0004
 -11330541.80549  -8596526.31149  22262986.5454   22262992.1834   22262986.9304
       229.0004        171.0004
    819179.13049    904768.01349  24674564.6334   24674576.1194   24674563.9444
       203.0004        130.0004
  -1594546.82849  -1233497.77649  24190521.6354   24190529.7864   24190522.3974
       208.0004        146.0004
 -16889829.10649 -13137772.59349  21538609.8794   21538613.7424   21538610.1324
       237.0004        190.0004
 11 10 14 13 14  0.0000000  0  9G22G16G03G06G19G18G30G07G21
  -7628671.90049  -5925757.23749  23393165.8544   23393170.7444   23393165.0004
       217.0004        155.0004
 -19916374.38149 -15476952.16849  20636905.6534   20636910.1034   20636905.2914
       237.0004        201.0004
 -19095986.45049 -14603787.47849  20404898.0734   20404902.6994   20404897.1784
       241.0004        197.0004
 -20347520.34549 -15832980.08549  20550902.2964   20550906.7754   20550901.8304
       241.0004        200.0004
  -8207034.14349  -6356992.39449  23191772.6474   23191778.3944   23191772.3114
       214.0004        160.0004
 -11374176.95349  -8630527.64449  22254682.5294   22254687.3844   22254682.3164
       228.0004        171.0004
    941034.37949    999719.87149  24697751.1904   24697763.5884   24697749.3484
       200.0004        128.0004
  -1637279.03149  -1266795.51849  24182391.2644   24182398.1074   24182390.7344
       209.0004        147.0004
 -16841859.09049 -13100393.37349  21547738.3504   21547742.4784   21547738.1934
       237.0004        191.0004
 11 10 14 13 14 30.0000000  0  9G22G16G03G06G19G18G30G07G21
  -7725899.20249  -6001518.62249  23374663.2534   23374669.1784   23374663.5454
       214.0004        155.0004
 -19911565.08849 -15473204.67149  20637821.1204   20637825.2854   20637821.2754
       238.0004        201.0004
 -19153227.10249 -14648390.56449  20394004.6144   20394009.8174   20394004.8864
       240.0004        196.0004
 -20375159.67549 -15854517.21149  20545642.0894   20545647.1814   20545642.5364
       240.0004        200.0004
  -8297133.96849  -6427199.95049  23174627.3294   23174632.4024   23174626.1734
       216.0004        161.0004
 -11417343.02749  -8664163.48049  22246468.4154   22246473.8844   22246468.8434
       231.0004        173.0004
   1062935.22949   1094707.20649  24720949.0444   24720963.3994   24720947.2334
       202.0004        129.0004
  -1679458.21849  -1299662.33949  24174365.2934   24174372.2994   24174364.2544
       210.0004        148.0004
 -16793550.17649 -13062750.08649  21556931.1344   21556935.2994   21556930.8914
       237.0004        190.0004
 11 10 14 13 15  0.0000000  0  9G22G16G03G06G19G18G30G07G21
  -7822935.01749  -6077130.77049  23356197.8444   23356204.7644   23356197.3034
       215.0004        155.0004
 -19906188.10349 -15469014.81249  20638844.4084   20638848.5244   20638843.8084
       237.0004        201.0004
 -19210082.67049 -14692693.58749  20383185.8984   20383190.2034   20383185.3424
       239.0004        195.0004
 -20402444.84349 -15875778.36849  20540450.1114   20540454.6084   20540450.3434
       241.0004        201.0004
  -8387081.74949  -6497289.03249  23157509.2034   23157515.2464   23157509.9094
       214.0004        159.0004
 -11460038.51049  -8697432.61449  22238344.5104   22238349.1494   22238343.5144
       229.0004        171.0004
   1184879.43249   1189728.38949  24744152.6964   24744166.6044   24744152.0494
       190.0004        123.0004
  -1721082.68449  -1332096.89649  24166442.1144   24166450.2254   24166443.6354
       209.0004        146.0004
 -16744903.98249 -13024843.97449  21566189.3174   21566191.9474   21566188.8014
       239.0004        190.0004
 11 10 14 13 15 30.0000000  0  9G22G16G03G06G19G18G30G07G21
  -7919776.63849  -6152591.59249  23337770.5514   23337775.8134   23337770.0954
       218.0004        157.0004
 -19900243.28849 -15464382.49749  20639975.9024   20639979.7814   20639975.9154
       239.0004        202.0004
 -19266551.64549 -14736695.36049  20372439.3734   20372444.5194   20372439.3124
       240.0004        196.0004
 -20429375.20849 -15896763.05049  20535325.0674   20535330.1194   20535325.0884
       239.0004        200.0004
  -8476876.59049  -6567258.95449  23140422.6684   23140427.9454   23140421.8904
       214.0004        159.0004
 -11502262.28849  -8730334.18449  22230308.3814   22230314.2774   22230308.7604
       231.0004        172.0004
   1306864.60549   1284781.44449  24767368.7724   24767378.0644   24767365.0074
       194.0004        125.0004
  -1762151.26049  -1364098.30349  24158627.5924   24158635.9594   24158628.2314
       209.0004        146.0004
 -16695921.72049 -12986675.99649  21575509.4114   21575513.0794   21575508.8844
       238.0004        189.0004
 11 10 14 13 16  0.0000000  0  9G22G16G03G06G19G18G30G07G21
  -8016422.10249  -6227899.56649  23319381.3594   23319384.1234   23319378.6184
       219.0004        156.0004
 -19893730.74249 -15459307.79849  20641215.8794   20641219.4904   20641215.1344
       238.0004        202.0004
 -19322632.89249 -14780395.01349  20361768.1044   20361773.1684   20361768.0684
       239.0004        196.0004
 -20455950.46949 -15917471.04249  20530268.0434   20530273.2534   20530268.4194
       240.0004        200.0004
  -8566518.01749  -6637109.33749  23123363.7364   23123369.2014   23123363.7694
       215.0004        160.0004
 -11544013.20049  -8762867.30249  22222364.6994   22222368.4404   22222364.4594
       231.0004        171.0004
   1428888.01749   1379864.31349  24790588.1144   24790603.0364   24790584.8794
       189.0004        121.0004
  -1802662.90649  -1395665.75549  24150918.1864   24150926.6874   24150918.9184
       209.0004        146.0004
 -16646605.53049 -12948247.81849  21584894.3104   21584897.8654   21584894.0144
       238.0004        190.0004
 11 10 14 13 16 30.0000000  0  9G22G16G03G06G19G18G30G07G21
  -8112867.50349  -6303051.63449  23301024.9274   23301030.9974   23301024.1774
       215.0004        155.0004
 -19886649.14049 -15453789.66249  20642562.6764   20642566.3944   20642562.2014
       237.0004        201.0004
 -19378323.95249 -14823790.61449  20351170.6124   20351175.3384   20351170.4154
       240.0004        197.0004
 -20482169.00049 -15937901.05249  20525279.0834   20525284.1144   20525278.9354
       240.0004        201.0004
  -8656003.95649  -6706838.53649  23106337.1034   23106340.9734   23106335.7994
       219.0004        162.0004
 -11585288.46849  -8795029.77849  22214509.2284   22214514.4354   22214509.5614
       230.0004        171.0004
   1550948.61249   1474976.09749  24813817.0194                   24813812.7084
       194.0004        121.0004
  -1842615.51749  -1426797.58849  24143315.8324   24143323.6564   24143317.0204
       210.0004        148.0004
 -16596955.61849 -12909559.58849  21594342.3964   21594345.7944   21594341.5674
       238.0004        189.0004
 11 10 14 13 17  0.0000000  0  9G22G16G03G06G19G18G30G07G21
  -8209111.04949  -6378046.43449  23282709.9384   23282715.6684   23282710.8244
       215.0004        156.0004
 -19878999.12649 -15447828.61749  20644017.1554   20644021.9154   20644017.5094
       236.0004        200.0004
 -19433624.81749 -14866882.17749  20340646.9264   20340651.9844   20340647.0774
       240.0004        197.0004
 -20508031.17349 -15958053.38449  20520357.5674   20520362.3754   20520357.5654
       240.0004        200.0004
  -8745334.40949  -6776446.59149  23089337.5224   23089341.4184   23089336.4064
       217.0004        160.0004
 -11626087.76549  -8826821.37849  22206746.3654   22206750.0394   22206746.4364
       231.0004        172.0004
   1673042.97249   1570114.21249  24837049.5644   24837057.3384   24837053.1564
       194.0004        122.0004
  -1882008.72949  -1457493.53349  24135818.8724   24135826.7584   24135819.5544
       212.0004        149.0004
 -16546974.39249 -12870613.20549  21603853.5094   21603856.7424   21603853.2714
       239.0004        189.0004
 11 10 14 13 17 30.0000000  0  9G22G16G03G06G19G18G30G07G21
  -8305150.10549  -6452881.85249  23264435.9124   23264440.5424   23264435.4214
       214.0004        158.0004
 -19870780.86649 -15441424.78349  20645582.6484   20645585.6034   20645582.3254
       239.0004        201.0004
 -19488533.83949 -14909668.40549  20330197.6574   20330202.9564   20330197.4684
       238.0004        196.0004
 -20533536.05749 -15977927.31249  20515505.1334   20515509.0664   20515504.6264
       242.0004        201.0004
  -8834507.93349  -6845932.38049  23072368.6734   23072371.8414   23072368.3974
       217.0004        161.0004
 -11666409.48649  -8858240.83049  22199072.8484   22199077.7514   22199071.9844
       231.0004        170.0004
   1795169.13049   1665277.10849  24860290.9154                   24860292.1654
       184.0004        116.0004
  -1920840.87449  -1487752.26449  24128430.6444   24128437.8564   24128430.5664
       212.0004        150.0004
 -16496663.01449 -12831409.54949  21613427.6014   21613430.2994   21613427.5554
       239.0004        188.0004
 11 10 14 13 18  0.0000000  0  9G22G16G03G06G19G18G30G07G21
  -8400981.59849  -6527555.52949  23246197.9524   23246204.1474   23246198.8874
       215.0004        158.0004
 -19861993.57749 -15434577.55549  20647255.4064   20647258.3404   20647254.7184
       239.0004        201.0004
 -19543049.16849 -14952147.85649  20319823.8274   20319829.2474   20319823.6324
       240.0004        197.0004
 -20558682.88249 -15997522.23949  20510719.2814   20510723.4854   20510719.2444
       241.0004        201.0004
  -8923524.01849  -6915295.49049  23055429.9504   23055431.9264   23055428.2544
       218.0004        160.0004
 -11706252.06449  -8889286.92849  22191490.8784   22191494.7564   22191491.2484
       231.0004        171.0004
   1917324.97649   1760463.06649  24883537.2844
       187.0004        116.0004
  -1959110.38049  -1517572.59449  24121148.2244   24121155.1824   24121149.0214
       215.0004        149.0004
 -16446022.94549 -12791949.77749  21623064.1044   21623066.8824   21623063.4634
       239.0004        188.0004
 11 10 14 13 18 30.0000000  0  9G22G16G03G06G19G18G30G07G21
  -8496602.42049  -6602065.07049  23228003.8644   23228006.7344   23228001.9074
       217.0004        159.0004
 -19852636.70849 -15427286.49249  20649035.2404   20649039.0594   20649035.0254
       238.0004        201.0004
 -19597169.23749 -14994319.31549  20309525.6074   20309530.4014   20309525.5804
       241.0004        198.0004
 -20583470.50749 -16016837.25749  20506002.0814   20506006.5854   20506002.2514
       241.0004        201.0004
  -9012380.27349  -6984534.04649  23038521.4794   23038523.9334   23038519.6934
       219.0004        162.0004
 -11745613.46149  -8919958.09649  22184001.4594   22184004.7094   22184000.2714
       229.0004        172.0004
   2039508.78549   1855670.88149  24906789.0204
       186.0004        117.0004
  -1996815.77649  -1546953.37849  24113972.2144   24113980.5534   24113973.2124
       211.0004        149.0004
 -16395054.92249 -12752234.45249  21632763.1214   21632766.1354   21632762.6974
       238.0004        189.0004
 11 10 14 13 19  0.0000000  0  9G22G16G03G06G19G18G30G07G21
  -8592010.45449  -6676408.80549  23209847.3314   23209852.9584   23209846.4154
       216.0004        159.0004
 -19842710.38649 -15419551.70149  20650923.6844   20650928.1014   20650923.8654
       238.0004        201.0004
 -19650893.07049 -15036182.03149  20299302.3574   20299306.7564   20299302.6144
       241.0004        198.0004
 -20607898.97349 -16035872.42549  20501353.6664   20501358.1344   20501353.7084
       241.0004        201.0004
  -9101076.49249  -7053647.92049  23021641.8414   23021645.1254   23021641.7624
       217.0004        162.0004
 -11784492.82449  -8950253.64449  22176601.6304   22176606.4914   22176601.6954
       230.0004        173.0004
   2161717.57249     78500.56549  24930043.0614
       185.0004         74.0004
  -2033956.49749  -1575894.14049  24106904.2314   24106912.5454   24106906.2214
       214.0004        151.0004
 -16343761.10449 -12712265.27449  21642523.8224   21642527.2184   21642523.6024
       238.0004        188.0004
 11 10 14 13 19 30.0000000  0  9G22G16G03G06G19G18G30G07G21
  -8687202.41849  -6750584.16049  23191731.0864   23191739.3884   23191731.3724
       215.0004        158.0004
 -19832214.42549 -15411373.03949  20652921.6304   20652925.3404   20652921.1874
       238.0004        202.0004
 -19704218.79149 -15077734.51549  20289154.8134   20289159.7194   20289154.6854
       241.0004        198.0004
 -20631966.82549 -16054626.58149  20496773.5394   20496777.8684   20496773.7664
       240.0004        201.0004
  -9189611.35349  -7122636.06349  23004795.8174   23004796.1854   23004793.6594
       220.0004        160.0004
 -11822888.17149  -8980172.03449  22169296.3084   22169300.3814   22169295.6094
       230.0004        173.0004
   2283949.94949    173726.32949  24953306.6554
       177.0004        110.0004
  -2070530.71849  -1604393.48049  24099945.6634   24099952.1684   24099945.6304
       212.0004        150.0004
 -16292142.29149 -12672042.84949  21652346.2344   21652349.9904   21652346.3414
       237.0004        188.0004
 11 10 14 13 20  0.0000000  0  9G22G16G03G06G19G18G30G07G21
  -8782176.29749  -6824589.57449  23173658.9614   23173664.7284   23173659.3584
       216.0004        160.0004
 -19821149.14449 -15402750.74749  20655026.6584   20655031.3194   20655026.3114
       237.0004        201.0004
 -19757145.67149 -15118976.21449  20279082.5204   20279088.5444   20279082.8464
       240.0004        200.0004
 -20655674.14249 -16073099.80549  20492262.1614   20492267.0884   20492262.3114
       240.0004        201.0004
  -9277984.20749  -7191497.97449  22987978.5774   22987980.5524   22987977.5454
       221.0004        163.0004
 -11860798.81249  -9009712.72449  22162081.8294   22162085.8154   22162081.3744
       231.0004        174.0004
   2406202.99059    268967.84359  24976565.9694
       167.0004        113.0004
  -2106537.57049  -1632450.69749  24093091.7144   24093101.7984   24093093.2044
       210.0004        149.0004
 -16240200.65749 -12631568.88849  21662230.1544   21662234.6654   21662230.0774
       236.0004        188.0004
 11 10 14 13 20 30.0000000  0  9G22G16G03G06G19G18G30G07G21
  -8876928.51149  -6898422.30249  23155630.3084   23155633.3274   23155627.5574
       218.0004        159.0004
 -19809513.59349 -15393684.09049  20657240.7864   20657245.0704   20657240.9984
       239.0004        201.0004
 -19809671.59349 -15159905.47749  20269087.7574   20269093.1394   20269087.6284
       242.0004        200.0004
 -20679019.49049 -16091290.97349  20487819.5254   20487824.5564   20487819.6174
       240.0004        201.0004
  -9366193.38249  -7260232.32549  22971193.7364   22971195.8284   22971192.7044
       222.0004        165.0004
 -11898222.45549  -9038873.94549  22154959.6564   22154964.2324   22154959.1904
       230.0004        174.0004
   2528475.02659     70696.26159  24999836.7294
       180.0004         74.0004
  -2141975.64149  -1660064.72049  24086347.7914   24086356.6064   24086348.4744
       211.0004        148.0004
 -16187936.78549 -12590843.83249  21672175.7874   21672179.6664   21672176.3914
       237.0004        187.0004
 11 10 14 13 21  0.0000000  0  9G22G16G03G06G19G18G30G07G21
  -8971457.20549  -6972080.85749  23137641.4034   23137645.7734   23137639.5594
       219.0004        160.0004
 -19797308.76449 -15384173.85449  20659564.5424   20659567.0494   20659563.8754
       239.0004        201.0004
 -19861795.82149 -15200521.73349  20259168.7744   20259173.4674   20259168.3734
       242.0004        200.0004
 -20702003.20549 -16109200.34349  20483445.8874   20483450.2714   20483445.6664
       240.0004        200.0004
  -9454238.80449  -7328839.06749  22954438.1094   22954441.1484   22954437.7704
       221.0004        164.0004
 -11935159.13549  -9067655.70749  22147931.2704   22147935.1184   22147930.2304
       229.0004        173.0004
   2650763.17659    166110.77859  25023107.6804
       169.0004        112.0004
  -2176844.16549  -1687234.95749  24079713.9064   24079721.8064   24079714.2454
       210.0004        147.0004
 -16135352.90849 -12549869.40149  21682182.0584   21682186.3124   21682181.7754
       236.0004        188.0004
 11 10 14 13 21 30.0000000  0  9G22G16G03G06G19G18G30G07G21
  -9065759.40549  -7045562.93749  23119695.6874   23119699.8274   23119694.4964
       218.0004        160.0004
 -19784534.12849 -15374219.60649  20661994.6624   20661998.3524   20661994.4474
       238.0004        201.0004
 -19913516.89849 -15240823.85249  20249326.0244   20249331.3684   20249326.1024
       242.0004        199.0004
 -20724624.24949 -16126827.11749  20479141.5094   20479145.8914   20479141.1544
       240.0004        200.0004
  -9542118.85749  -7397316.99649  22937714.2004   22937716.0294   22937713.9594
       218.0004        160.0004
 -11971606.88849  -9096056.50049  22140994.3574   22140999.4134   22140994.5294
       230.0004        173.0004
   2773065.26649    261550.23249  25046382.1954
       180.0004        106.0004
  -2211141.85649  -1713960.36949  24073186.8014   24073195.7624   24073187.9864
       211.0004        149.0004
 -16082450.27349 -12508646.61849  21692249.8524   21692253.1844   21692249.6464
       237.0004        188.0004
 11 10 14 13 22  0.0000000  0  9G22G16G03G06G19G18G30G07G21
  -9159832.05149  -7118866.13249  23101792.6454   23101799.0544   23101792.6744
       218.0004        161.0004
 -19771189.03649 -15363820.84449  20664533.2894   20664537.9974   20664533.3554
       237.0004        201.0004
 -19964832.76749 -15280810.22549  20239561.4604   20239566.2594   20239561.6064
       242.0004        200.0004
 -20746881.34749 -16144170.30449  20474905.7454   20474910.5754   20474905.8174
       240.0004        200.0004
  -9629831.87449  -7465664.74249  22921023.0254   22921027.9414   22921023.1254
       220.0004        165.0004
 -12007563.63749  -9124074.69449  22134153.6554   22134157.3544   22134153.4024
       231.0004        174.0004
   2895380.03159     62698.03459  25069660.3354
       170.0004         74.0004
  -2244866.89949  -1740239.55149  24066770.0454   24066777.9124   24066770.9054
       212.0004        150.0004
 -16029229.41749 -12467175.85749  21702377.9904   21702380.7964   21702377.3694
       238.0004        188.0004
 11 10 14 13 22 30.0000000  0  9G22G16G03G06G19G18G30G07G21
  -9253672.41449  -7191988.35349  23083935.9184   23083941.1764   23083935.4584
       217.0004        160.0004
 -19757273.77549 -15352977.80149  20667182.4124   20667186.4104   20667182.0284
       238.0004        201.0004
 -20015742.31749 -15320479.98849  20229874.2834   20229878.5634   20229873.7694
       242.0004        200.0004
 -20768774.18849 -16161229.65549  20470740.2974   20470744.3214   20470740.4194
       240.0004        201.0004
  -9717377.30549  -7533881.87349  22904365.4904   22904368.7324   22904362.6814
       221.0004        167.0004
 -12043028.09749  -9151709.28949  22127404.2804   22127408.9924   22127403.9984
       230.0004        174.0004
   3017705.02649    158064.89249  25092936.2074
       179.0004        106.0004
  -2278018.88649  -1766072.19149  24060462.3284   24060468.1574   24060462.3374
       212.0004        150.0004
 -15975692.29349 -12425458.65649  21712565.1564   21712569.2044   21712564.9704
       237.0004        188.0004
 11 10 14 13 23  0.0000000  0  9G22G16G03G06G19G18G30G07G21
  -9347278.75649  -7264928.23149  23066124.2214   23066128.7954   23066122.1874
       219.0004        160.0004
 -19742789.17649 -15341691.11349  20669938.7434   20669942.4364   20669938.2714
       238.0004        201.0004
 -20066244.95849 -15359832.66449  20220262.9124   20220268.1444   20220263.1184
       241.0004        200.0004
 -20790302.94449 -16178005.28549  20466642.4734   20466647.5834   20466642.5524
       239.0004        200.0004
  -9804754.68749  -7601968.05349  22887735.7334   22887739.0784   22887734.3564
       219.0004        165.0004
 -12077999.93649  -9178960.00549  22120749.5604   22120753.3154   22120748.3984
       232.0004        175.0004
   3140036.92859    253448.17259  25116217.7044
       176.0004        110.0004
  -2310597.08649  -1791457.74949  24054260.6444   24054268.9864   24054262.3634
       212.0004        149.0004
 -15921840.89149 -12383496.55649  21722813.0214   21722816.4894   21722812.3664
       237.0004        188.0004
 11 10 14 13 23 30.0000000  0  8G22G16G03G06G19G18G07G21
  -9440647.92349  -7337683.32349  23048356.7794   23048361.4824   23048355.7164
       221.0004        162.0004
 -19727734.78049 -15329960.42249  20672802.1554   20672807.3494   20672801.9804
       236.0004        201.0004
 -20116338.75449 -15398866.76149  20210730.9324   20210735.7484   20210730.3064
       242.0004        201.0004
 -20811466.29349 -16194496.19249  20462615.4764   20462620.1954   20462615.6434
       239.0004        201.0004
  -9891962.27349  -7669921.96749  22871140.5314   22871144.2474   22871140.2334
       221.0004        164.0004
 -12112477.39949  -9205825.50649  22114188.1344   22114192.1684   22114187.5684
       231.0004        175.0004
  -2342599.88749  -1816394.93749  24048171.7454   24048178.6834   24048172.0844
       212.0004        149.0004
 -15867675.90049 -12341290.10649  21733119.5014   21733123.0914   21733119.1794
       236.0004        187.0004
 11 10 14 13 24  0.0000000  0  8G22G16G03G06G19G18G07G21
  -9533776.97049  -7410251.29449  23030633.2524   23030638.5204   23030632.9034
       217.0004        161.0004
 -19712110.78649 -15317785.90749  20675776.1984   20675780.1534   20675776.1394
       238.0004        201.0004
 -20166022.55649 -15437581.39049  20201275.7754   20201280.8214   20201275.6244
       241.0004        200.0004
 -20832263.82549 -16210702.06049  20458657.7374   20458662.6544   20458657.7984
       239.0004        200.0004
  -9978999.48149  -7737743.10149  22854578.5674   22854582.3714   22854577.2394
       219.0004        166.0004
 -12146459.31449  -9232304.88049  22107722.1884   22107725.9654   22107721.7184
       232.0004        175.0004
  -2374026.78549  -1840883.38849  24042190.1764   24042197.7564   24042191.4224
       211.0004        150.0004
 -15813199.36849 -12298840.90249  21743486.5134   21743490.2024   21743485.9714
       236.0004        187.0004
 11 10 14 13 24 30.0000000  0  8G22G16G03G06G19G18G07G21
  -9626663.36849  -7482630.20749  23012957.1874   23012962.6384   23012956.7984
       217.0004        161.0004
 -19695916.93349 -15305167.33749  20678858.1594   20678861.7274   20678858.1694
       239.0004        201.0004
 -20215294.76249 -15475975.29949  20191900.1524   20191904.7014   20191899.8294
       242.0004        200.0004
 -20852694.66949 -16226622.19449  20454769.9834   20454775.1114   20454770.2724
       240.0004        200.0004
 -10065864.67249  -7805430.16349  22838047.6314   22838052.6194   22838047.6224
       219.0004        165.0004
 -12179944.51649  -9258397.19649  22101348.9674   22101354.0294   22101348.7514
       229.0004        175.0004
  -2404876.43949  -1864922.02849  24036322.2014   24036327.8564   24036321.2074
       214.0004        150.0004
 -15758412.39749 -12256149.79449  21753912.2654   21753916.0744   21753911.5554
       236.0004        187.0004
 11 10 14 13 25  0.0000000  0  8G22G16G03G06G19G18G07G21
  -9719304.45649  -7554817.96049  22995330.0094   22995333.5154   22995328.4724
       221.0004        161.0004
 -19679153.27549 -15292104.76549  20682048.0634   20682051.6554   20682047.8544
       238.0004        200.0004
 -20264153.94349 -15514047.35649  20182602.1744   20182607.5634   20182602.0244
       242.0004        200.0004
 -20872758.19149 -16242256.09249  20450952.6164   20450957.1944   20450952.4484
       240.0004        201.0004
 -10152556.87449  -7872982.43449  22821552.7984   22821555.8844   22821550.7714
       222.0004        166.0004
 -12212931.52949  -9284101.31149  22095073.0924   22095075.9584   22095071.9914
       232.0004        174.0004
  -2435147.74749  -1888510.00449  24030560.6554   24030567.1834   24030560.8144
       215.0004        151.0004
 -15703316.35149 -12213217.85049  21764396.6344   21764399.8694   21764396.3834
       236.0004        186.0004
 11 10 14 13 25 30.0000000  0  8G22G16G03G06G19G18G07G21
  -9811697.44649  -7626812.41649  22977749.5824   22977751.8784   22977747.1324
       224.0004        165.0004
 -19661819.84149 -15278598.20749  20685345.7384   20685349.9794   20685345.9414
       237.0004        200.0004
 -20312598.72849 -15551796.51249  20173383.1494   20173388.5324   20173383.3784
       241.0004        200.0004
 -20892453.84949 -16257603.34449  20447203.4204   20447209.1554   20447203.6654
       240.0004        201.0004
 -10239075.18149  -7940399.21349  22805087.4874   22805090.2044   22805085.7884
       221.0004        166.0004
 -12245419.23449  -9309416.36549  22088889.2124   22088893.8974   22088889.6104
       230.0004        175.0004
  -2464839.76549  -1911646.60449  24024911.2304   24024917.2044   24024911.2694
       213.0004        151.0004
 -15647912.25949 -12170045.86649  21774939.7294   21774943.7124   21774939.4174
       237.0004        187.0004
 11 10 14 13 26  0.0000000  0  8G22G16G03G06G19G18G07G21
  -9903840.23049  -7698611.89149  22960212.1514   22960218.4464   22960212.3434
       221.0004        163.0004
 -19643917.51749 -15264648.35749  20688753.1624   20688756.8844   20688753.2284
       241.0004        201.0004
 -20360628.57849 -15589222.35049  20164243.9234   20164248.5144   20164243.8114
       241.0004        200.0004
 -20911781.46849 -16272663.82249  20443526.4214   20443530.9764   20443526.9754
       240.0004        201.0004
 -10325419.13249  -8007680.15049  22788654.8374   22788661.0884   22788655.5044
       219.0004        166.0004
 -12277406.88049  -9334341.76849  22082804.2104   22082807.0594   22082803.4314
       232.0004        175.0004
  -2493952.22449  -1934331.58849  24019370.3754   24019377.3694   24019370.5194
       215.0004        152.0004
 -15592202.13449 -12126635.41149  21785541.0844   21785544.6384   21785540.7164
       236.0004        187.0004
 11 10 14 13 26 30.0000000  0  8G22G16G03G06G19G18G07G21
  -9995728.80449  -7770213.32449  22942725.7474   22942730.3564   22942725.4564
       220.0004        162.0004
 -19625445.25549 -15250254.40749  20692268.6734   20692272.0914   20692267.9904
       240.0004        201.0004
 -20408240.74949 -15626322.71449  20155183.4594   20155188.1704   20155183.0554
       242.0004        200.0004
 -20930739.45549 -16287436.27349  20439919.1354   20439923.2284   20439919.1504
       240.0004        201.0004
 -10411586.01349  -8074823.08349  22772258.0924   22772263.9904   22772257.2704
       219.0004        168.0004
 -12308892.04549  -9358875.62449  22076811.7474   22076816.6394   22076812.1294
       231.0004        176.0004
  -2522483.31349  -1956563.57349  24013941.0064   24013947.8864   24013941.2364
       211.0004        152.0004
 -15536187.08349 -12082987.36149  21796200.2564   21796204.1314   21796200.2154
       237.0004        186.0004
 11 10 14 13 27  0.0000000  0  8G22G16G03G06G19G18G07G21
 -10087361.77649  -7841615.59149  22925290.3094   22925294.4974   22925290.2124
       224.0004        165.0004
 -19606404.27549 -15235417.28649  20695891.3804   20695895.8754   20695891.2724
       241.0004        201.0004
 -20455435.45749 -15663097.79149  20146202.6234   20146207.7404   20146202.3284
       241.0004        201.0004
 -20949328.36649 -16301921.12749  20436381.2634   20436386.0934   20436381.3284
       240.0004        201.0004
 -10497576.39449  -8141828.48249  22755896.0924   22755899.5704   22755895.4734
       221.0004        168.0004
 -12339874.88449  -9383018.05149  22070915.6114   22070919.7744   22070914.2064
       230.0004        175.0004
  -2550433.02549  -1978342.52449  24008621.8324   24008628.3144   24008622.1204
       211.0004        151.0004
 -15479869.47849 -12039103.55049  21806917.4264   21806920.3784   21806916.8954
       237.0004        186.0004
 11 10 14 13 27 30.0000000  0  8G22G16G03G06G19G18G07G21
 -10178735.61949  -7912815.92349  22907902.4984   22907906.8964   22907901.4354
       223.0004        165.0004
 -19586794.07849 -15220136.63049  20699623.5954   20699627.4024   20699623.2784
       241.0004        201.0004
 -20502210.22449 -15699545.63549  20137301.4894   20137306.6044   20137301.0084
       241.0004        200.0004
 -20967546.49149 -16316117.05549  20432914.6024   20432919.3914   20432914.6154
       240.0004        200.0004
 -10583387.94349  -8208694.54849  22739565.5434   22739569.7104   22739565.1664
       219.0004        167.0004
 -12370353.58149  -9406767.64649  22065114.8214   22065119.8034   22065116.0454
       228.0004        174.0004
  -2577799.42749  -1999666.94149  24003413.1984   24003421.6474   24003415.0204
       212.0004        151.0004
 -15423249.67749 -11994984.25849  21817691.9964   21817695.4364   21817691.9564
       236.0004        186.0004
 11 10 14 13 28  0.0000000  0  8G22G16G03G06G19G18G07G21
 -10269848.56349  -7983812.96349  22890564.1044   22890568.5634   22890563.0754
       222.0004        165.0004
 -19566615.45649 -15204413.04749  20703464.4994   20703467.2104   20703463.8174
       242.0004        201.0004
 -20548564.27949 -15735665.65949  20128480.0934   20128485.7064   20128480.6644
       241.0004        200.0004
 -20985394.12849 -16330024.29449  20429518.7584   20429523.0154   20429518.4604
       240.0004        201.0004
 -10669020.40549  -8275421.05549  22723271.4024   22723275.5304   22723270.5084
       222.0004        169.0004
 -12400327.70349  -9430124.07149  22059412.4904   22059416.9354   22059411.3014
       231.0004        176.0004
  -2604582.80149  -2020537.07349  23998318.2194   23998325.2414   23998317.7914
       212.0004        151.0004
 -15366329.76149 -11950631.11249  21828522.6914   21828526.9794   21828522.8124
       236.0004        185.0004
 11 10 14 13 28 30.0000000  0  8G22G16G03G06G19G18G07G21
 -10360697.21749  -8054604.05149  22873274.6704   22873280.1064   22873274.1314
       219.0004        163.0004
 -19545868.22749 -15188246.38249  20707410.8624   20707414.9294   20707411.0144
       239.0004        200.0004
 -20594495.99749 -15771456.58649  20119740.4584   20119745.2744   20119740.1604
       242.0004        201.0004
 -21002869.98449 -16343641.82849  20426192.7874   20426197.6504   20426192.8804
       240.0004        201.0004
 -10754472.19549  -8342006.78749  22707010.7654   22707015.0254   22707009.6014
       222.0004        171.0004
 -12429795.51949  -9453085.96549  22053803.8984   22053809.0094   22053804.4684
       232.0004        177.0004
  -2630781.69049  -2040951.76149  23993332.1394   23993339.1594   23993333.0814
       212.0004        151.0004
 -15309110.30649 -11906044.56149  21839412.5824   21839415.5794   21839412.0614
       237.0004        185.0004
 11 10 14 13 29  0.0000000  0  8G22G16G03G06G19G18G07G21
 -10451279.17949  -8125187.33249  22856038.6524   22856042.7794   22856037.9854
       221.0004        163.0004
 -19524552.96149 -15171637.09349  20711467.4594   20711471.4384   20711467.2984
       241.0004        201.0004
 -20640004.42349 -15806917.67549  20111080.0474   20111085.0324   20111079.7614
       241.0004        200.0004
 -21019973.75749 -16356969.43049  20422937.5434   20422942.1044   20422937.7294
       239.0004        201.0004
 -10839742.59149  -8408451.16649  22690783.0954   22690788.0244   22690782.7334
       220.0004        170.0004
 -12458755.93149  -9475652.48049  22048294.3244   22048297.0854   22048293.8884
       232.0004        178.0004
  -2656395.38249  -2060910.44649  23988456.5084   23988464.0194   23988457.2624
       213.0004        150.0004
 -15251593.09749 -11861225.98949  21850356.8554   21850360.7354   21850356.4914
       237.0004        186.0004
 11 10 14 13 29 30.0000000  0  8G22G16G03G06G19G18G07G21
 -10541591.65749  -8195560.62049  22838853.4134   22838857.3014   22838852.2934
       221.0004        165.0004
 -19502669.44349 -15154585.02149  20715632.5854   20715635.8524   20715631.9574
       241.0004        201.0004
 -20685087.83549 -15842047.58949  20102501.0554   20102505.7434   20102500.9884
       242.0004        200.0004
 -21036704.80149 -16370006.59649  20419753.8594   20419758.6614   20419754.0074
       239.0004        200.0004
 -10924830.14349  -8474753.07249  22674591.2204   22674595.2414   22674591.8334
       221.0004        169.0004
 -12487207.83249  -9497822.76249  22042878.2764   22042883.0014   22042878.6694
       230.0004        175.0004
  -2681423.32949  -2080412.71049  23983696.2284   23983702.5154   23983696.5964
       214.0004        149.0004
 -15193780.12449 -11816176.96449  21861358.5764   21861362.1404   21861358.0534
       236.0004        185.0004
 11 10 14 13 30  0.0000000  0  8G22G16G03G06G19G18G07G21
 -10631632.63949  -8265722.34049  22821717.3324   22821723.1084   22821716.4714
       220.0004        164.0004
 -19480218.77549 -15137091.00549  20719904.2054   20719908.2514   20719903.7764
       240.0004        200.0004
 -20729745.65349 -15876845.87449  20094002.8284   20094007.6114   20094002.6034
       242.0004        200.0004
 -21053063.14549 -16382753.34949  20416641.6834   20416646.2854   20416641.5324
       241.0004        201.0004
 -11009734.29949  -8540912.08249  22658434.7654   22658438.2294   22658434.0654
       221.0004        169.0004
 -12515150.97949  -9519596.60449  22037561.6814   22037566.6624   22037561.7674
       232.0004        176.0004
  -2705865.07949  -2099458.19449  23979043.6244   23979050.3034   23979044.2724
       213.0004        147.0004
 -15135672.86549 -11770898.62349  21872415.1734   21872419.0944   21872415.6804
       236.0004        184.0004
 11 10 14 13 30 30.0000000  0  8G22G16G03G06G19G18G07G21
 -10721398.45049  -8335669.65049  22804636.4064   22804641.3374   22804635.2764
       222.0004        164.0004
 -19457200.21549 -15119154.48049  20724283.7454   20724288.1124   20724283.8824
       239.0004        200.0004
 -20773975.48849 -15911310.66149  20085585.9574   20085591.2694   20085586.0904
       241.0004        200.0004
 -21069046.93449 -16395208.24149  20413600.3924   20413604.2324   20413600.2924
       240.0004        201.0004
 -11094453.11949  -8606926.68049  22642314.3964   22642317.7054   22642313.7984
       224.0004        171.0004
 -12542583.07349  -9540972.22549  22032341.6064   22032345.3704   22032340.5084
       231.0004        177.0004
  -2729718.92949  -2118045.58249  23974504.0554   23974512.7184   23974504.1614
       209.0004        147.0004
 -15077271.67349 -11725391.23849  21883529.3154   21883532.8134   21883529.0444
       235.0004        184.0004
 11 10 14 13 31  0.0000000  0  8G22G16G03G06G19G18G07G21
 -10810887.15449  -8405401.04149  22787607.0994   22787611.4724   22787606.7034
       220.0004        164.0004
 -19433614.80149 -15100776.24949  20728772.5694   20728776.5264   20728772.2854
       241.0004        200.0004
 -20817776.76949 -15945441.51249  20077251.1274   20077255.9674   20077251.1374
       241.0004        200.0004
 -21084656.48149 -16407371.51649  20410628.4994   20410633.8954   20410628.9484
       239.0004        200.0004
 -11178986.33049  -8672796.63449  22626228.6364   22626230.5514   22626227.1874
       223.0004        171.0004
 -12569503.87249  -9561949.44549  22027218.5644   22027222.9324   22027218.9474
       232.0004        176.0004
  -2752984.89749  -2136174.87449  23970077.9304   23970085.1214   23970077.6664
       212.0004        147.0004
 -15018578.77649 -11679656.55249  21894698.2474   21894702.3824   21894698.2254
       236.0004        184.0004
 11 10 14 13 31 30.0000000  0  8G22G16G03G06G19G18G07G21
 -10900095.38149  -8474913.86249  22770630.2374   22770635.2474   22770631.0404
       220.0004        164.0004
 -19409462.34449 -15081956.16749  20733368.8924   20733372.8264   20733368.3814
       239.0004        200.0004
 -20861147.64149 -15979236.97749  20068998.1324   20069002.7404   20068997.7764
       243.0004        201.0004
 -21099890.65849 -16419242.28649  20407729.3234   20407734.8914   20407729.9564
       239.0004        201.0004
 -11263331.65949  -8738520.19349  22610177.6374   22610181.0284   22610177.0344
       224.0004        170.0004
 -12595912.02149  -9582527.18949  22022193.1614   22022197.2004   22022192.8364
       231.0004        176.0004
  -2775661.80149  -2153845.18049  23965761.2174   23965769.0344   23965762.8954
       209.0004        146.0004
 -14959594.95349 -11633695.16549  21905922.4834   21905926.4304   21905922.0404
       234.0004        183.0004
 11 10 14 13 32  0.0000000  0  8G22G16G03G06G19G18G07G21
 -10989021.62049  -8544206.93849  22753708.2864   22753713.6194   22753707.5974
       218.0004        165.0004
 -19384744.08549 -15062695.19549  20738071.6284   20738076.3664   20738072.0004
       240.0004        200.0004
 -20904087.49249 -16012696.57949  20060826.9074   20060831.4684   20060826.7084
       243.0004        201.0004
 -21114749.56249 -16430820.64649  20404903.3454   20404907.4884   20404902.9714
       241.0004        201.0004
 -11347489.12049  -8804097.38149  22594163.2754   22594165.5914   22594161.9284
       223.0004        170.0004
 -12621807.57749  -9602705.50449  22017265.4534   22017269.2234   22017265.3424
       232.0004        177.0004
  -2797750.05949  -2171056.76549  23961558.5344   23961565.2014   23961558.0654
       211.0004        147.0004
 -14900322.80349 -11587509.12149  21917201.6324   21917205.9124   21917200.7954
       235.0004        183.0004
 11 10 14 13 32 30.0000000  0  8G22G16G03G06G19G18G07G21
 -11077662.91949  -8613277.99349  22736841.5214   22736844.8644   22736841.3264
       220.0004        166.0004
 -19359459.96149 -15042993.29449  20742883.5974   20742887.6554   20742883.0484
       239.0004        200.0004
 -20946594.82349 -16045819.15049  20052737.9334   20052742.5844   20052737.7624
       242.0004        201.0004
 -21129232.28549 -16442105.89349  20402147.7714   20402151.5524   20402147.3754
       241.0004        201.0004
 -11431457.28249  -8869527.05049  22578184.0534   22578186.8334   22578182.9854
       223.0004        170.0004
 -12647188.77149  -9622483.04349  22012435.1784   22012439.2094   22012435.0104
       231.0004        177.0004
  -2819248.43749  -2187808.71649  23957468.6414   23957475.4694   23957468.6274
       213.0004        147.0004
 -14840763.14849 -11541099.05049  21928535.2454   21928539.3304   21928535.3944
       234.0004        183.0004
 11 10 14 13 33  0.0000000  0  8G22G16G03G06G19G18G07G21
 -11166015.90049  -8682124.37549  22720028.4424   22720031.6694   22720026.7164
       223.0004        166.0004
 -19333609.94949 -15022850.44149  20747803.5004   20747806.7414   20747802.9904
       242.0004        200.0004
 -20988667.93549 -16078603.37449  20044731.4724   20044736.0954   20044731.7084
       242.0004        202.0004
 -21143337.79749 -16453097.18349  20399462.5474   20399467.3714   20399462.5874
       240.0004        201.0004
 -11515234.82549  -8934808.18849  22562241.5584   22562244.7134   22562240.4924
       222.0004        171.0004
 -12672054.06249  -9641858.57049  22007704.1534   22007707.9974   22007703.5824
       232.0004        177.0004
  -2840156.18649  -2204100.41849  23953489.7734   23953495.7174   23953490.0194
       213.0004        148.0004
 -14780917.07149 -11494465.78449  21939924.1114   21939927.7504   21939924.1334
       235.0004        182.0004
 11 10 14 13 33 30.0000000  0  8G22G16G03G06G19G18G07G21
 -11254079.06349  -8750744.90949  22703270.8894   22703275.0184   22703269.7684
       223.0004        167.0004
 -19307195.49349 -15002267.75549  20752829.8274   20752833.0884   20752828.9474
       240.0004        200.0004
 -21030306.96449 -16111049.34949  20036808.1504   20036812.5494   20036807.8774
       243.0004        202.0004
 -21157066.90149 -16463795.18049  20396849.5164   20396854.7734   20396849.6374
       240.0004        201.0004
 -11598821.06849  -8999940.26149  22546335.0454   22546338.4564   22546334.4284
       223.0004        169.0004
 -12696404.37049  -9660832.81549  22003069.4534   22003073.9994   22003069.9394
       231.0004        178.0004
  -2860473.04549  -2219931.70949  23949622.2284   23949629.7924   23949621.9064
       209.0004        148.0004
 -14720786.13749 -11447610.54049  21951366.0464   21951369.8074   21951365.6534
       233.0004        181.0004
 11 10 14 13 34  0.0000000  0  8G22G16G03G06G19G18G07G21
 -11341848.90549  -8819136.89349  22686569.1174   22686572.0684   22686567.8934
       224.0004        169.0004
 -19280216.28049 -14981245.00449  20757962.5194   20757967.2554   20757962.7954
       239.0004        199.0004
 -21071509.27449 -16143155.02249  20028967.6024   20028972.1824   20028967.0194
       242.0004        203.0004
 -21170417.67549 -16474198.38049  20394309.5224   20394314.0654   20394309.7444
       240.0004        201.0004
 -11682214.31449  -9064921.95949  22530465.4154   22530468.4724   22530465.9224
       224.0004        171.0004
 -12720237.20249  -9679403.84849  21998535.5634   21998539.9614   21998534.6534
       232.0004        178.0004
  -2880197.83849  -2235301.66849  23945871.0324   23945876.6254   23945870.3564
       214.0004        152.0004
 -14660372.28549 -11400534.85449  21962863.1634   21962866.2074   21962862.4374
       234.0004        182.0004
 11 10 14 13 34 30.0000000  0  8G22G16G03G06G19G18G07G21
 -11429323.30249  -8887298.64849  22669922.2794   22669926.7444   22669920.9974
       224.0004        168.0004
 -19252673.03149 -14959782.75049  20763205.1114   20763208.6394   20763204.4064
       240.0004        200.0004
 -21112274.05149 -16174919.77449  20021210.0934   20021215.0394   20021210.3364
       242.0004        202.0004
 -21183390.15749 -16484306.81849  20391841.3114   20391845.6204   20391841.1534
       240.0004        201.0004
 -11765413.83749  -9129752.69849  22514633.2924   22514637.7694   22514632.8554
       223.0004        172.0004
 -12743552.41349  -9697571.53449  21994097.2244   21994102.2124   21994097.8604
       232.0004        179.0004
  -2899330.70749  -2250210.37449  23942228.3604   23942236.9064   23942228.2864
       215.0004        154.0004
 -14599676.74949 -11353239.67849  21974412.8224   21974416.7684   21974412.6364
       233.0004        182.0004
 11 10 14 13 35  0.0000000  0  8G22G16G03G06G19G18G07G21
 -11516499.27549  -8955227.86549  22653333.0854   22653337.7864   22653331.8934
       224.0004        169.0004
 -19224565.99949 -14937881.17749  20768553.3194   20768557.0194   20768553.1084
       240.0004        199.0004
 -21152599.46349 -16206342.15149  20013536.2854   20013541.5164   20013536.4624
       242.0004        202.0004
 -21195983.42149 -16494119.74549  20389443.5154   20389449.1264   20389443.8714
       239.0004        201.0004
 -11848417.97849  -9194431.17749  22498837.6884   22498842.0274   22498837.4464
       224.0004        172.0004
 -12766348.55649  -9715334.75949  21989759.9794   21989764.6294   21989759.8054
       232.0004        178.0004
  -2917870.94649  -2264657.29149  23938701.5634   23938707.3794   23938701.8664
       217.0004        156.0004
 -14538700.57149 -11305725.79949  21986016.8554   21986020.6194   21986015.9684
       234.0004        184.0004
 11 10 14 13 35 30.0000000  0  8G22G16G03G06G19G18G07G21
 -11603374.53949  -9022922.76849  22636801.6114   22636805.3124   22636800.6104
       224.0004        169.0004
 -19195895.90249 -14915540.85249  20774007.6714   20774012.8344   20774008.2574
       238.0004        199.0004
 -21192485.11849 -16237421.87349  20005946.2804   20005950.9114   20005946.0684
       242.0004        202.0004
 -21208197.29049 -16503637.03849  20387119.3574   20387124.9344   20387119.6714
       240.0004        201.0004
 -11931226.04649  -9258956.88249  22483080.3114   22483082.9964   22483080.0774
       226.0004        172.0004
 -12788625.18249  -9732693.16949  21985520.3314   21985525.2304   21985520.1204
       231.0004        178.0004
  -2935818.35549  -2278642.26549  23935285.3584   23935292.9044   23935285.0504
       216.0004        155.0004
 -14477445.77049 -11257994.83649  21997672.6534   21997676.4224   21997672.2134
       233.0004        182.0004
 11 10 14 13 36  0.0000000  0  8G22G16G03G06G19G18G07G21
 -11689946.40349  -9090381.24049  22620326.3534   22620330.5354   22620325.7624
       223.0004        169.0004
 -19166663.33949 -14892762.24049  20779571.4684   20779575.6574   20779571.2954
       240.0004        199.0004
 -21231929.41949 -16268157.67749  19998440.1714   19998445.2154   19998439.9684
       242.0004        201.0004
 -21220030.91349 -16512858.04249  20384868.9814   20384873.0484   20384868.4164
       241.0004        201.0004
 -12013836.77149  -9323328.83249  22467360.1874   22467363.1584   22467359.6774
       225.0004        173.0004
 -12810381.46849  -9749646.11749  21981381.8884   21981385.6624   21981380.6684
       233.0004        179.0004
  -2953172.20249  -2292164.74849  23931982.9084   23931989.6524   23931983.3654
       214.0004        153.0004
 -14415913.30349 -11210047.49949  22009381.9704   22009385.6484   22009381.6964
       234.0004        182.0004
 11 10 14 13 36 30.0000000  0  8G22G16G03G06G19G18G07G21
 -11776212.62649  -9157601.56249  22603911.0714   22603915.1854   22603909.8824
       224.0004        170.0004
 -19136869.00049 -14869545.88949  20785241.9484   20785245.0324   20785241.7054
       240.0004        199.0004
 -21270931.40049 -16298548.82249  19991018.9274   19991022.9754   19991018.4694
       242.0004        202.0004
 -21231484.32749 -16521782.78449  20382689.1694   20382693.5244   20382689.3294
       240.0004        201.0004
 -12096249.46549  -9387546.44249  22451677.2384   22451680.5314   22451676.5154
       224.0004        173.0004
 -12831616.99049  -9766193.27349  21977339.5234   21977344.5604   21977339.8364
       232.0004        179.0004
  -2969932.37749  -2305224.60649  23928794.5434   23928800.3904   23928793.8074
       216.0004        154.0004
 -14354105.02649 -11161885.24249  22021143.3014   22021147.8514   22021143.1094
       234.0004        183.0004
 11 10 14 13 37  0.0000000  0  8G22G16G03G06G19G18G07G21
 -11862170.28449  -9224581.43649  22587553.6684   22587558.3264   22587552.4114
       225.0004        172.0004
 -19106513.30749 -14845892.12549  20791018.1974   20791021.9104   20791018.2674
       239.0004        199.0004
 -21309489.33549 -16328593.94949  19983680.6004   19983686.3524   19983680.6084
       241.0004        202.0004
 -21242556.45949 -16530410.41549  20380581.3014   20380586.7304   20380581.9934
       239.0004        201.0004
 -12178462.26449  -9451608.29349  22436033.8854   22436036.1984   22436031.6344
       227.0004        174.0004
 -12852330.25449  -9782333.49349  21973399.0974   21973403.2994   21973398.1204
       232.0004        179.0004
  -2986098.12749  -2317821.27749  23925718.3474   23925724.4224   23925718.5354
       215.0004        154.0004
 -14292022.04049 -11113508.94049  22032957.4444   22032961.6944   22032957.1714
       234.0004        182.0004
 11 10 14 13 37 30.0000000  0  8G22G16G03G06G19G18G07G21
 -11947816.68649  -9291318.79949  22571256.3334   22571260.4034   22571256.0534
       226.0004        170.0004
 -19075596.66149 -14821801.24549  20796900.7184   20796904.9064   20796900.7554
       238.0004        199.0004
 -21347602.30649 -16358292.35849  19976428.6264   19976433.3944   19976428.4224
       242.0004        202.0004
 -21253246.70949 -16538740.47449  20378547.2554   20378552.1754   20378547.3364
       239.0004        201.0004
 -12260474.01149  -9515513.49449  22420424.7964   22420430.0724   22420425.1044
       223.0004        174.0004
 -12872520.73649  -9798066.34249  21969556.0584   21969560.8614   21969556.2544
       233.0004        179.0004
  -3001669.19949  -2329954.58549  23922752.4514   23922761.2524   23922753.4134
       210.0004        152.0004
 -14229665.57049 -11064919.50949  22044823.7694   22044826.8024   22044823.6234
       234.0004        182.0004
 11 10 14 13 38  0.0000000  0  8G22G16G03G06G19G18G07G21
 -12033149.32349  -9357811.66149  22555016.1794   22555021.1224   22555016.6994
       223.0004        171.0004
 -19044119.98249 -14797273.97949  20802890.7704   20802894.9624   20802890.4004
       239.0004        198.0004
 -21385269.18749 -16387643.16249  19969260.2624   19969265.7434   19969260.4524
       242.0004        202.0004
 -21263554.81249 -16546772.75849  20376586.4564   20376590.6624   20376586.2304
       241.0004        201.0004
 -12342284.10949  -9579261.54549  22404858.0184   22404862.1964   22404857.4704
       226.0004        174.0004
 -12892187.77349  -9813391.28449  21965814.9914   21965818.0094   21965813.9714
       234.0004        179.0004
  -3016645.20549  -2341624.19949  23919905.4054   23919912.3404   23919905.0564
       213.0004        153.0004
 -14167037.32549 -11016118.31449  22056741.6424   22056745.7024   22056741.1314
       234.0004        181.0004
 11 10 14 13 38 30.0000000  0  8G22G16G03G06G19G18G07G21
 -12118165.93949  -9424058.28249  22538840.1814   22538843.5824   22538838.8654
       228.0004        172.0004
 -19012083.98949 -14772310.88849  20808987.1734   20808991.4854   20808987.0054
       238.0004        199.0004
 -21422488.98449 -16416645.59149  19962178.3784   19962182.9364   19962177.8924
       242.0004        202.0004
 -21273480.23149 -16554506.85049  20374697.8454   20374701.9594   20374697.3564
       240.0004        201.0004
 -12423891.23649  -9642851.46449  22389329.5874   22389332.7724   22389328.3214
       227.0004        176.0004
 -12911330.82349  -9828307.93049  21962170.1624   21962174.9184   21962170.7414
       232.0004        180.0004
  -3031026.11049  -2352830.07149  23917168.9054   23917176.0854   23917166.8514
       211.0004        149.0004
 -14104139.05849 -10967106.72249  22068710.0414   22068714.5444   22068709.9404
       232.0004        181.0004
 11 10 14 13 39  0.0000000  0  8G22G16G03G06G19G18G07G21
 -12202863.17649  -9490056.01749  22522723.0254   22522726.0794   22522720.7534
       227.0004        172.0004
 -18979488.23049 -14746911.61449  20815189.5254   20815194.0584   20815189.6484
       238.0004        198.0004
 -21459259.54049 -16445297.95249  19955181.0794   19955185.5714   19955180.2884
       242.0004        202.0004
 -21283021.97249 -16561941.97349  20372881.2034   20372886.1654   20372881.3184
       239.0004        201.0004
 -12505293.45249  -9706281.70249  22373838.5564   22373842.1344   22373837.5254
       225.0004        175.0004
 -12929948.29449  -9842815.02649  21958629.3564   21958632.4394   21958627.9284
       234.0004        181.0004
  -3044810.62949  -2363571.26449  23914542.7694   23914550.8774   23914545.8184
       210.0004        150.0004
 -14040971.28549 -10917885.12349  22080730.9934   22080735.0534   22080730.0884
       233.0004        181.0004
 11 10 14 13 39 30.0000000  0  8G22G16G03G06G19G18G07G21
 -12287239.79149  -9555803.93349  22506663.8144   22506669.9484   22506664.2364
       225.0004        171.0004
 -18946335.06449 -14721077.99749  20821498.0234   20821502.9324   20821498.2884
       238.0004        198.0004
 -21495580.83749 -16473600.24949  19948268.7834   19948274.1264   19948268.9184
       242.0004        202.0004
 -21292180.53949 -16569078.52249  20371138.3604   20371143.2954   20371138.7444
       239.0004        200.0004
 -12586490.76349  -9769552.26649  22358387.6404   22358390.4604   22358386.9264
       226.0004        176.0004
 -12948040.92149  -9856913.14949  21955184.6834   21955189.9494   21955184.9644
       232.0004        180.0004
  -3058000.10149  -2373848.76149  23912035.6144   23912041.5714   23912034.9974
       212.0004        148.0004
 -13977536.67549 -10868455.60249  22092802.5264   22092805.9874   22092801.9834
       233.0004        180.0004
 11 10 14 13 40  0.0000000  0  8G22G16G03G06G19G18G07G21
 -12371292.65849  -9621299.58849  22490670.9474   22490675.0534   22490670.1134
       226.0004        172.0004
 -18912624.41649 -14694809.98049  20827913.7924   20827917.9294   20827913.4174
       239.0004        199.0004
 -21531451.11049 -16501551.09849  19941443.5614   19941447.7144   19941443.3924
       243.0004        202.0004
 -21300954.91849 -16575915.70349  20369469.2304   20369473.4724   20369468.8654
       239.0004        200.0004
 -12667481.76549  -9832662.07949  22342974.9644   22342978.8514   22342974.2554
       226.0004        176.0004
 -12965607.33349  -9870601.22549  21951843.2534   21951847.0324   21951842.1644
       234.0004        180.0004
  -3070593.48849  -2383661.79149  23909639.2484   23909645.3334   23909638.7714
       212.0004        150.0004
 -13913835.98549 -10818818.74449  22104924.5244   22104927.8624   22104924.2864
       233.0004        180.0004
 11 10 14 13 40 30.0000000  0  8G22G16G03G06G19G18G07G21
 -12455018.84349  -9686540.66749  22474738.8704   22474741.8734   22474736.2694
       227.0004        172.0004
 -18878356.80449 -14668107.96849  20834435.8534   20834438.6564   20834434.9764
       240.0004        199.0004
 -21566869.11049 -16529149.52149  19934703.0374   19934708.1794   19934702.9534
       242.0004        202.0004
 -21309344.21249 -16582452.82049  20367872.6034   20367877.0494   20367872.6314
       239.0004        201.0004
 -12748264.60149  -9895609.68049  22327603.3454   22327606.4974   22327602.6564
       227.0004        177.0004
 -12982646.71849  -9883878.62549  21948599.7264   21948603.9104   21948599.5634
       233.0004        180.0004
  -3082590.13049  -2393009.79949  23907353.0814   23907362.1034   23907354.6474
       208.0004        149.0004
 -13849870.35549 -10768975.43849  22117096.1504   22117100.3014   22117096.1514
       233.0004        180.0004
 11 10 14 13 41  0.0000000  0  8G22G16G03G06G19G18G07G21
 -12538416.18549  -9751525.52749  22458866.5614   22458871.7404   22458867.0704
       225.0004        169.0004
 -18843533.19349 -14640972.70749  20841060.6654   20841065.4214   20841061.1124
       239.0004        198.0004
 -21601834.05949 -16556394.92949  19928049.8304   19928054.6994   19928049.5514
       242.0004        203.0004
 -21317348.39849 -16588689.85549  20366349.2894   20366354.3104   20366349.2084
       240.0004        200.0004
 -12828838.75549  -9958394.67449  22312269.8044   22312273.3014   22312268.2234
       226.0004        176.0004
 -12999158.76849  -9896745.10849  21945457.7334   21945462.7024   21945456.6814
       233.0004        180.0004
  -3093990.56649  -2401893.25349  23905185.1644   23905192.9524   23905185.6704
       208.0004        150.0004
 -13785641.54749 -10718927.04649  22129319.5454   22129322.9164   22129318.4704
       235.0004        181.0004
 11 10 14 13 41 30.0000000  0  8G22G16G03G06G19G18G07G21
 -12621482.14649  -9816252.15749  22443060.6314   22443064.8184   22443060.5624
       227.0004        172.0004
 -18808154.29949 -14613404.76049  20847794.0684   20847797.7894   20847794.0154
       240.0004        198.0004
 -21636344.68049 -16583286.29849  19921481.9374   19921487.2874   19921482.2574
       242.0004        202.0004
 -21324966.64849 -16594626.14949  20364900.0074   20364904.3954   20364899.7424
       240.0004        201.0004
 -12909202.77849 -10021015.93749  22296976.7454   22296980.9414   22296976.3484
       226.0004        175.0004
 -13015142.87849  -9909200.21349  21942415.8494   21942419.4544   21942416.1564
       233.0004        180.0004
  -3104794.31349  -2410311.74749  23903129.9144   23903137.1894   23903130.2894
       212.0004        150.0004
 -13721150.64849 -10668674.44149  22141591.5664   22141595.0034   22141590.4614
       233.0004        179.0004
 11 10 14 13 42  0.0000000  0  8G22G16G03G06G19G18G07G21
 -12704214.32049  -9880718.68849  22427318.6244   22427321.6604   22427316.5614
       227.0004        171.0004
 -18772221.03149 -14585404.83949  20854632.2444   20854635.5474   20854632.1124
       240.0004        199.0004
 -21670399.63849 -16609822.62449  19915002.1904   19915006.8594   19915001.9954
       242.0004        203.0004
 -21332198.69349 -16600261.51849  20363522.9824   20363528.2614   20363523.6114
       239.0004        201.0004
 -12989355.57849 -10083472.61449  22281724.5524   22281727.5354   22281723.7144
       226.0004        176.0004
 -13030598.18749  -9921243.26449  21939474.9394   21939479.4994   21939474.3614
       233.0004        181.0004
  -3115001.23749  -2418265.18749  23901189.7874   23901195.1654   23901189.1784
       213.0004        148.0004
 -13656399.85649 -10618219.32749  22153913.2744   22153916.9564   22153912.9594
       234.0004        179.0004
 11 10 14 13 42 30.0000000  0  8G22G16G03G06G19G18G07G21
 -12786609.94449  -9944922.98849  22411636.9144   22411642.1674   22411637.5894
       226.0004        172.0004
 -18735734.31049 -14556973.65049  20861575.3274   20861578.8344   20861574.9944
       240.0004        198.0004
 -21703997.77149 -16636002.97649  19908608.9834   19908613.4674   19908608.7334
       243.0004        203.0004
 -21339044.05849 -16605595.56949  20362220.8424   20362225.3984   20362220.6444
       239.0004        200.0004
 -13069295.96749 -10145763.76149  22266511.8354   22266515.3594   22266511.1934
       226.0004        176.0004
 -13045524.23049  -9932873.90049  21936635.0074   21936638.8794   21936634.7744
       234.0004        180.0004
  -3124611.33549  -2425753.57949  23899359.2364   23899364.6044   23899359.4844
       211.0004        149.0004
 -13591390.14149 -10567562.44349  22166284.0404   22166287.9574   22166283.4884
       232.0004        177.0004
 11 10 14 13 43  0.0000000  0  8G22G16G03G06G19G18G07G21
 -12868667.09449 -10008863.52749  22396022.0414   22396026.5004   22396022.2844
       224.0004        172.0004
 -18698694.93849 -14528111.81749  20868622.9604   20868627.2184   20868623.1174
       239.0004        198.0004
 -21737138.43649 -16661826.86249  19902302.0514   19902307.1024   19902302.0884
       243.0004        204.0004
 -21345502.50149 -16610628.12049  20360991.6084   20360996.6014   20360991.7124
       239.0004        201.0004
 -13149022.97449 -10207888.66549  22251340.6534   22251343.5994   22251340.2914
       226.0004        177.0004
 -13059921.17549  -9944092.23449  21933895.3884   21933899.7654   21933894.6004
       234.0004        180.0004
  -3133624.78249  -2432777.04249  23897643.6964   23897651.3894   23897644.7274
       213.0004        149.0004
 -13526123.34949 -10516705.24449  22178703.5984   22178707.1874   22178703.1654
       231.0004        176.0004
 11 10 14 13 43 30.0000000  0  8G22G16G03G06G19G18G07G21
 -12950382.31949 -10072537.62049  22380474.2764   22380477.3294   22380471.6274
       228.0004        173.0004
 -18661102.94449 -14498819.37249  20875776.1154   20875781.1674   20875776.1464
       239.0004        198.0004
 -21769819.54249 -16687292.65549  19896083.4704   19896087.4864   19896083.6504
       244.0004        204.0004
 -21351572.79649 -16615358.21549  20359836.8714   20359841.5464   20359836.7144
       240.0004        200.0004
 -13228534.71949 -10269845.79649  22236209.6344   22236214.1934   22236209.2964
       228.0004        178.0004
 -13073787.58449  -9954897.19049  21931256.1124   21931260.5384   21931256.1444
       234.0004        180.0004
  -3142040.77449  -2439334.98549  23896044.2304   23896049.1834   23896043.8634
       213.0004        151.0004
 -13460600.05149 -10465648.15549  22191172.1044   22191176.7274   22191172.2454
       232.0004        177.0004
 11 10 14 13 44  0.0000000  0  8G22G16G03G06G19G18G07G21
 -13031753.90749 -10135943.96149  22364988.2114   22364991.6194   22364988.2094
       227.0004        173.0004
 -18622960.25249 -14469097.82349  20883035.7944   20883039.2774   20883035.4434
       239.0004        198.0004
 -21802040.98549 -16712400.27049  19889952.0184   19889955.9344   19889951.7284
       243.0004        203.0004
 -21357255.18249 -16619786.04949  20358755.7864   20358760.0754   20358755.7644
       240.0004        201.0004
 -13307830.68149 -10331634.81649  22221121.8124   22221124.4014   22221120.4574
       230.0004        180.0004
 -13087123.23749  -9965288.55049  21928718.4204   21928722.5654   21928717.6134
       233.0004        180.0004
  -3149859.84549  -2445427.76849  23894553.5334   23894561.8794   23894554.5744
       214.0004        150.0004
 -13394822.32349 -10414392.81049  22203689.2684   22203693.3364   22203689.0364
       232.0004        177.0004
 11 10 14 13 44 30.0000000  0  8G22G16G03G06G19G18G07G21
 -13112779.00149 -10199080.28149  22349569.4174   22349573.4104   22349569.0514
       226.0004        173.0004
 -18584267.10849 -14438947.33949  20890397.7664   20890402.2234   20890397.5124
       239.0004        198.0004
 -21833801.14549 -16737148.44749  19883908.0794   19883912.4434   19883907.5984
       243.0004        204.0004
 -21362548.78149 -16623910.92849  20357747.6474   20357752.1574   20357748.1284
       239.0004        200.0004
 -13386909.57749 -10393254.68049  22206070.9834   22206075.9474   22206071.3214
       228.0004        177.0004
 -13099927.79049  -9975266.08049  21926281.4484   21926286.1784   21926281.2014
       232.0004        180.0004
  -3157081.86849  -2451055.32649  23893179.3204   23893187.4694   23893179.7034
       211.0004        150.0004
 -13328790.89449 -10362939.79549  22216254.4524   22216259.1554   22216254.4974
       231.0004        177.0004
 11 10 14 13 45  0.0000000  0  8G22G16G03G06G19G18G07G21
 -13193455.67849 -10261945.12049  22334217.1844   22334220.5844   22334216.9204
       226.0004        174.0004
 -18545024.89849 -14408369.01549  20897866.0014   20897870.1554   20897865.7694
       239.0004        199.0004
 -21865099.25849 -16761536.57949  19877951.6634   19877956.5124   19877951.5214
       243.0004        203.0004
 -21367453.59349 -16627732.85649  20356814.6764   20356819.4394   20356814.6664
       240.0004        201.0004
 -13465770.24649 -10454704.49449  22191065.6974   22191068.9904   22191064.9684
       228.0004        179.0004
 -13112200.75949  -9984829.39149  21923946.9104   21923951.0104   21923945.9034
       234.0004        181.0004
  -3163707.19749  -2456217.93349  23891917.6034   23891925.4764   23891918.1534
       208.0004        149.0004
 -13262507.97649 -10311290.80449  22228867.8804   22228871.7914   22228867.5984
       232.0004        176.0004
 11 10 14 13 45 30.0000000  0  8G22G16G03G06G19G18G07G21
 -13273781.14949 -10324536.27949  22318931.8994   22318934.9564   22318931.0544
       227.0004        173.0004
 -18505234.27249 -14377363.35649  20905438.0794   20905442.1884   20905437.7964
       241.0004        199.0004
 -21895933.82849 -16785563.52349  19872084.4724   19872088.9644   19872084.1764
       243.0004        203.0004
 -21371968.92649 -16631251.29549  20355955.9644   20355960.3614   20355955.7784
       240.0004        201.0004
 -13544411.13449 -10515983.05449  22176099.2294   22176104.0804   22176099.0734
       225.0004        178.0004
 -13123941.89949  -9993978.28949  21921712.2144   21921717.0144   21921712.1164
       234.0004        179.0004
  -3169735.61549  -2460915.40149  23890771.6804   23890779.5434   23890771.3494
       209.0004        150.0004
 -13195974.73049 -10259446.73749  22241528.8624   22241533.9014   22241528.5224
       232.0004        176.0004
 11 10 14 13 46  0.0000000  0  8G22G16G03G06G19G18G07G21
 -13353752.58749 -10386851.59649  22303712.5014   22303717.3204   22303712.4344
       224.0004        174.0004
 -18464896.08649 -14345931.03449  20913114.5494   20913118.0984   20913113.9994
       240.0004        199.0004
 -21926303.63649 -16809228.30549  19866305.6604   19866309.8734   19866305.4744
       244.0004        204.0004
 -21376093.96349 -16634465.61749  20355171.6064   20355175.3114   20355171.0854
       240.0004        201.0004
 -13622831.13649 -10577089.48349  22161177.4064   22161181.3514   22161176.9094
       227.0004        179.0004
 -13135150.22449 -10002712.01149  21919578.3714   21919583.7204   21919578.6984
       232.0004        179.0004
  -3175166.61249  -2465147.37349  23889738.6134   23889745.9284   23889738.1484
       212.0004        149.0004
 -13129192.34549 -10207408.54749  22254237.4814   22254241.0214   22254237.0604
       232.0004        176.0004
 11 10 14 13 46 30.0000000  0  8G22G16G03G06G19G18G07G21
 -13433368.22049 -10448889.64149  22288563.1614   22288567.4534   22288562.4334
       228.0004        175.0004
 -18424011.54349 -14314072.97849  20920893.7814   20920898.2564   20920893.7464
       239.0004        198.0004
 -21956208.33549 -16832530.67349  19860614.1964   19860619.2494   19860614.3994
       243.0004        204.0004
 -21379828.94549 -16637376.00349  20354459.9114   20354464.5544   20354459.9544
       239.0004        200.0004
 -13701029.28249 -10638023.04549  22146296.3684   22146300.6874   22146295.4754
       227.0004        178.0004
 -13145825.81549 -10011030.61549  21917548.1394   21917551.3984   21917547.3354
       234.0004        181.0004
  -3180001.21649  -2468914.64049  23888819.3214   23888825.8854   23888818.7894
       213.0004        150.0004
 -13062162.23849 -10155177.33049  22266992.4064   22266996.9014   22266992.4224
       231.0004        175.0004
 11 10 14 13 47  0.0000000  0  8G22G16G03G06G19G18G07G21
 -13512625.22049 -10510648.22049  22273481.2004   22273484.6894   22273479.9514
       230.0004        176.0004
 -18382581.56749 -14281789.89449  20928777.7574   20928781.6664   20928777.6104
       240.0004        198.0004
 -21985646.33049 -16855469.35849  19855012.5594   19855017.1654   19855012.7934
       244.0004        204.0004
 -21383173.02849 -16639981.77449  20353822.7544   20353828.1614   20353823.0654
       239.0004        200.0004
 -13779004.25649 -10698782.71149  22131458.6524   22131462.4664   22131457.1994
       227.0004        178.0004
 -13155967.91149 -10018933.51449  21915617.0584   21915621.2774   21915617.4484
       234.0004        181.0004
  -3184239.03549  -2472216.85149  23888011.6174   23888020.2824   23888012.4684
       211.0004        151.0004
 -12994886.10049 -10102754.39249  22279794.8464   22279798.8764   22279794.9234
       231.0004        174.0004
 11 10 14 13 47 30.0000000  0  8G22G16G03G06G19G18G07G21
 -13591521.34649 -10572125.62449  22258467.5254   22258470.5244   22258466.8714
       230.0004        175.0004
 -18340607.31949 -14249082.72249  20936766.3754   20936769.4524   20936765.9104
       242.0004        199.0004
 -22014616.62549 -16878043.61849  19849500.6684   19849504.2914   19849500.0904
       244.0004        204.0004
 -21386125.90349 -16642282.72749  20353261.5654   20353266.1914   20353261.4604
       239.0004        201.0004
 -13856755.12249 -10759367.75449  22116663.6674   22116666.7814   22116663.5214
       228.0004        180.0004
 -13165576.70249 -10026420.85249  21913789.3804   21913793.0214   21913788.9854
       234.0004        181.0004
  -3187880.60049  -2475054.47349  23887319.1224   23887327.1694   23887319.3554
       214.0004        152.0004
 -12927365.61549 -10050141.06649  22292643.3354   22292648.0084   22292643.5264
       231.0004        174.0004
 11 10 14 13 48  0.0000000  0  8G22G16G03G06G19G18G07G21
 -13670053.73049 -10633319.58749  22243523.8164   22243526.2614   22243522.1304
       229.0004        176.0004
 -18298089.15949 -14215951.71949  20944856.9874   20944860.5624   20944857.1674
       242.0004        199.0004
 -22043117.81249 -16900252.33349  19844076.2334   19844081.1234   19844076.3114
       244.0004        204.0004
 -21388686.73549 -16644278.19649  20352774.3514   20352778.7444   20352774.5144
       240.0004        201.0004
 -13934280.21549 -10819776.86349  22101910.6334   22101914.1154   22101909.3774
       227.0004        180.0004
 -13174651.46449 -10033492.07649  21912062.0654   21912066.1134   21912062.4034
       234.0004        180.0004
  -3190925.37049  -2477427.03649  23886739.8534   23886747.6024   23886740.2944
       211.0004        152.0004
 -12859601.56549  -9997337.94649  22305538.6524   22305543.2084   22305537.9964
       231.0004        174.0004
 11 10 14 13 48 30.0000000  0  8G22G16G03G06G19G18G07G21
 -13748220.40649 -10694228.58849  22228648.3064   22228652.0714   22228647.9284
       229.0004        177.0004
 -18255028.68249 -14182398.11849  20953050.6924   20953054.5204   20953050.2034
       241.0004        199.0004
 -22071149.01649 -16922094.82549  19838742.5244   19838746.6654   19838741.9414
       244.0004        204.0004
 -21390855.67049 -16645968.27249  20352361.0944   20352366.0714   20352361.0724
       238.0004        200.0004
 -14011578.46349 -10880009.20949  22087202.2374   22087204.6854   22087201.7204
       230.0004        180.0004
 -13183192.16549 -10040147.14149  21910436.9834   21910441.2984   21910436.8884
       235.0004        182.0004
  -3193374.13649  -2479335.18349  23886272.3804   23886279.5234   23886273.9164
       209.0004        150.0004
 -12791595.55149  -9944346.29249  22318480.0334   22318484.1654   22318479.7034
       230.0004        175.0004
 11 10 14 13 49  0.0000000  0  8G22G16G03G06G19G18G07G21
 -13826018.94549 -10754850.72149  22213843.5574   22213846.6544   22213843.6414
       231.0004        178.0004
 -18211426.82249 -14148422.66549  20961347.5564   20961351.6454   20961347.4074
       241.0004        199.0004
 -22098709.52249 -16943570.53949  19833497.3664   19833502.1304   19833497.6794
       244.0004        204.0004
 -21392632.02349 -16647352.44649  20352022.7904   20352028.2574   20352023.2994
       239.0004        200.0004
 -14088648.75849 -10940063.92649  22072535.8954   22072537.8454   22072534.7564
       229.0004        180.0004
 -13191198.28849 -10046385.65649  21908913.5924   21908917.7864   21908913.0754
       234.0004        182.0004
  -3195227.01749  -2480778.98049  23885920.2464   23885930.1574   23885923.0274
       209.0004        149.0004
 -12723349.13249  -9891167.31249  22331466.3534   22331471.4684   22331466.6054
       231.0004        176.0004
 11 10 14 13 49 30.0000000  0  8G22G16G03G06G19G18G07G21
 -13903447.36349 -10815184.43949  22199109.8624   22199113.2834   22199109.0864
       231.0004        177.0004
 -18167285.01949 -14114026.48449  20969747.7704   20969752.3044   20969747.9544
       241.0004        198.0004
 -22125798.78049 -16964679.04549  19828343.1154   19828347.2344   19828342.9494
       244.0004        204.0004
 -21394015.72549 -16648430.66049  20351760.9014   20351764.5944   20351760.8594
       240.0004        201.0004
 -14165489.98749 -10999940.15249  22057911.8534   22057916.5354   22057912.3764
       228.0004        180.0004
 -13198669.71349 -10052207.53549  21907491.7714   21907495.8104   21907491.1394
       234.0004        181.0004
  -3196484.42449  -2481758.81649  23885682.6554   23885688.4264   23885682.3184
       209.0004        150.0004
 -12654863.89049  -9837802.23749  22344500.6724   22344503.5764   22344499.3124
       232.0004        177.0004
 11 10 14 13 50  0.0000000  0  8G22G16G03G06G19G18G07G21
 -13980502.42549 -10875227.23449  22184446.0554   22184450.1664   22184445.3714
       228.0004        179.0004
 -18122603.55149 -14079209.78149  20978250.4884   20978254.4614   20978250.5294
       241.0004        198.0004
 -22152414.75449 -16985418.75349  19823277.7764   19823282.2664   19823277.3874
       244.0004        204.0004
 -21395005.59749 -16649202.00049  20351572.3174   20351576.2644   20351572.4584
       240.0004        201.0004
 -14242100.51449 -11059636.60249  22043334.2814   22043338.2114   22043333.6554
       227.0004        181.0004
 -13205605.42349 -10057611.97449  21906171.6434   21906175.9184   21906171.7954
       234.0004        182.0004
  -3197146.05449  -2482274.39249  23885556.1684   23885563.8414   23885556.8344
       212.0004        151.0004
 -12586140.29349  -9784251.42149  22357577.0944   22357581.4264   22357576.9374
       231.0004        176.0004
 11 10 14 13 50 30.0000000  0  8G22G16G03G06G19G18G07G21
 -14057182.18449 -10934977.60549  22169854.8494   22169858.3924   22169854.7344
       230.0004        179.0004
 -18077384.18449 -14043973.93449  20986855.4934   20986859.4294   20986854.9294
       239.0004        198.0004
 -22178556.83249 -17005789.20349  19818303.1804   19818307.7584   19818302.9544
       243.0004        204.0004
 -21395601.81449 -16649666.59749  20351458.4644   20351463.0644   20351458.4084
       239.0004        200.0004
 -14318479.04849 -11119152.28349  22028801.6894   22028802.9194   22028799.5804
       231.0004        182.0004
 -13212005.71149 -10062599.19849  21904954.2834   21904958.5954   21904953.5524
       234.0004        182.0004
  -3197212.70849  -2482326.34049  23885545.0324   23885550.8824   23885543.7794
       213.0004        150.0004
 -12517180.46449  -9730516.54549  22370699.2814   22370703.7814   22370699.7794
       230.0004        175.0004
 11 10 14 13 51  0.0000000  0  8G22G16G03G06G19G18G07G21
 -14133484.23949 -10994433.64549  22155336.3354   22155338.5834   22155334.0104
       231.0004        181.0004
 -18031627.60249 -14008319.48249  20995561.9474   20995566.3044   20995561.5334
       239.0004        198.0004
 -22204223.85849 -17025789.47849  19813418.5794   19813423.1874   19813418.6544
       244.0004        204.0004
 -21395803.78349 -16649823.97349  20351419.1074   20351424.5114   20351419.3154
       239.0004        200.0004
 -14394624.95849 -11178486.70349  22014309.2404   22014313.5644   22014308.8124
       229.0004        183.0004
 -13217870.64449 -10067169.27049  21903837.7834   21903842.1654   21903837.1924
       234.0004        182.0004
  -3196684.59949  -2481914.83249  23885644.9064   23885651.1034   23885644.0694
       212.0004        150.0004
 -12447985.90549  -9676598.75749  22383867.0024   22383871.1254   22383866.9194
       230.0004        175.0004
 11 10 14 13 51 30.0000000  0  8G22G16G03G06G19G18G07G21
 -14209406.60049 -11053593.82949  22140887.5504   22140890.5374   22140886.6954
       228.0004        179.0004
 -17985335.60849 -13972247.82749  21004371.6724   21004375.6394   21004371.1764
       239.0004        197.0004
 -22229415.44949 -17045419.28649  19808625.0684   19808629.5614   19808624.7614
       243.0004        204.0004
 -21395611.50349 -16649674.15049  20351456.4594   20351461.0594   20351456.4034
       239.0004        201.0004
 -14470537.13749 -11237639.01249  21999864.1164   21999867.7464   21999863.5824
       228.0004        183.0004
 -13223200.15949 -10071322.14449  21902823.6934   21902827.4684   21902822.8254
       234.0004        182.0004
  -3195562.25849  -2481040.27749  23885856.6994   23885864.6274   23885857.7464
       212.0004        150.0004
 -12378557.74249  -9622498.94349  22397078.4754   22397083.2364   22397078.3894
       231.0004        176.0004
 11 10 14 13 52  0.0000000  0  8G22G16G03G06G19G18G07G21
 -14284946.45949 -11112455.96149  22126512.1214   22126515.6804   22126511.8404
       229.0004        178.0004
 -17938508.80849 -13935759.44449  21013282.5984   21013286.4154   21013282.3824
       239.0004        198.0004
 -22254130.20449 -17064677.53449  19803921.8764   19803926.7624   19803921.7034
       244.0004        204.0004
 -21395024.15949 -16649216.48949  20351568.0794   20351572.8184   20351568.3234
       239.0004        200.0004
 -14546213.74149 -11296607.73549  21985463.5384   21985467.4584   21985462.7264
       230.0004        184.0004
 -13227993.84549 -10075057.48949  21901911.0724   21901915.5744   21901911.8934
       233.0004        181.0004
  -3193845.83349  -2479702.84449  23886185.5744   23886191.3544   23886186.1064
       213.0004        150.0004
 -12308897.25749  -9568218.11949  22410335.0054   22410339.6314   22410334.6744
       231.0004        175.0004
 11 10 14 13 52 30.0000000  0  8G22G16G03G06G19G18G07G21
 -14360101.35249 -11171018.13949  22112210.2264   22112213.8094   22112210.3954
       229.0004        179.0004
 -17891148.21249 -13898855.11549  21022294.4574   21022298.8294   21022294.6674
       239.0004        197.0004
 -22278366.70349 -17083563.12249  19799310.7934   19799314.4504   19799310.1814
       245.0004        205.0004
 -21394041.20049 -16648450.55549  20351755.4174   20351759.9184   20351755.2834
       239.0004        200.0004
 -14621653.57049 -11355391.97149  21971108.0644   21971111.2914   21971107.1904
       231.0004        184.0004
 -13232251.00149 -10078374.74149  21901101.5554   21901105.6864   21901100.6894
       234.0004        182.0004
  -3191535.73149  -2477902.76749  23886622.4394   23886631.1704   23886624.3774
       209.0004        150.0004
 -12239005.66549  -9513757.19349  22423634.4984   22423639.1214   22423634.3104
       231.0004        173.0004
 11 10 14 13 53  0.0000000  0  8G22G16G03G06G19G18G07G21
 -14434869.89149 -11229279.24549  22097983.3694   22097986.7114   22097982.1424
       229.0004        179.0004
 -17843256.00749 -13861536.53649  21031408.0724   21031413.0384   21031408.0224
       238.0004        198.0004
 -22302124.81549 -17102075.93649  19794788.6104   19794793.4484   19794788.5564
       243.0004        204.0004
 -21392663.13049 -16647376.73349  20352017.5044   20352022.7174   20352017.6244
       240.0004        201.0004
 -14696856.08349 -11413991.28449  21956797.2534   21956800.5274   21956795.8444
       230.0004        183.0004
 -13235972.48049 -10081274.59649  21900392.7014   21900397.1054   21900393.4344
       234.0004        181.0004
  -3188632.88249  -2475640.80749  23887175.0674   23887184.5464   23887175.1094
       212.0004        150.0004
 -12168885.68449  -9459118.29849  22436977.5854   22436982.7904   22436977.4524
       230.0004        173.0004
 11 10 14 13 53 30.0000000  0  8G22G16G03G06G19G18G07G21
 -14509248.89949 -11287236.83349  22083828.4124   22083832.6304   22083827.8084
       227.0004        178.0004
 -17794832.56049 -13823804.01249  21040623.8124   21040627.1764   21040623.1154
       240.0004        197.0004
 -22325402.92549 -17120214.72449  19790358.7204   19790364.0254   19790358.8244
       243.0004        204.0004
 -21390888.71249 -16645994.08149  20352356.0304   20352360.1264   20352355.7744
       240.0004        201.0004
 -14771819.17249 -11472404.05249  21942532.8764   21942535.2734   21942531.8584
       231.0004        183.0004
 -13239157.52849 -10083756.44849  21899787.4374   21899790.8924   21899786.5884
       234.0004        181.0004
  -3185136.90949  -2472916.70449  23887843.6314   23887848.4394   23887842.7474
       214.0004        150.0004
 -12098537.33349  -9404301.46049  22450364.1214   22450368.9644   22450364.3674
       229.0004        172.0004
 11 10 14 13 54  0.0000000  0  8G22G16G03G06G19G18G07G21
 -14583236.35949 -11344889.31849  22069748.8464   22069752.8904   22069748.8854
       227.0004        179.0004
 -17745879.74449 -13785658.98849  21049938.8044   21049942.5884   21049938.5074
       239.0004        197.0004
 -22348200.82749 -17137979.31449  19786021.0164   19786025.6514   19786020.6054
       243.0004        204.0004
 -21388718.03949 -16644302.64749  20352768.4464   20352772.7284   20352768.5984
       240.0004        201.0004
 -14846542.22449 -11530629.76449  21928312.9734   21928316.0274   21928312.2264
       231.0004        184.0004
 -13241806.31749 -10085820.43449  21899282.2694   21899287.4184   21899282.8694
       233.0004        181.0004
  -3181048.75749  -2469731.13549  23888618.9704   23888626.5564   23888619.7224
       213.0004        151.0004
 -12027962.74149  -9349308.32849  22463795.1944   22463799.3814   22463794.5664
       228.0004        172.0004
 11 10 14 13 54 30.0000000  0  8G22G16G03G06G19G18G07G21
 -14656830.10649 -11402235.02549  22055744.8034   22055747.7044   22055743.9844
       227.0004        177.0004
 -17696398.42549 -13747102.15349  21059355.0684   21059358.4264   21059354.5824
       240.0004        197.0004
 -22370517.22049 -17155368.71349  19781773.7334   19781778.8604   19781774.0554
       243.0004        204.0004
 -21386150.40349 -16642301.89549  20353256.5244   20353261.8104   20353257.0144
       239.0004        201.0004
 -14921023.73449 -11588667.27749  21914138.9294   21914142.4144   21914138.9044
       231.0004        184.0004
 -13243918.40549 -10087466.21349  21898881.3534   21898885.6654   21898880.3734
       234.0004        182.0004
  -3176368.90949  -2466084.54549  23889511.1184   23889517.5264   23889511.4464
       212.0004        150.0004
 -11957162.56549  -9294139.42649  22477266.8514   22477271.4724   22477266.6934
       227.0004        171.0004
 11 10 14 13 55  0.0000000  0  8G22G16G03G06G19G18G07G21
 -14730027.44449 -11459271.84749  22041815.8174   22041819.5214   22041815.1364
       228.0004        178.0004
 -17646389.72449 -13708134.35949  21068870.5374   21068874.6064   21068870.0314
       238.0004        196.0004
 -22392350.47649 -17172381.63849  19777619.4864   19777624.2484   19777619.4704
       244.0004        204.0004
 -21383185.70649 -16639991.74549  20353820.5144   20353825.8114   20353820.5714
       239.0004        200.0004
 -14995262.21749 -11646515.40549  21900011.8584   21900015.1544   21900011.1134
       231.0004        184.0004
 -13245493.79449 -10088693.79449  21898580.4044   21898585.1644   21898580.8234
       233.0004        182.0004
  -3171097.77449  -2461977.16949  23890513.4204   23890520.5364   23890512.8814
       210.0004        150.0004
 -11886138.85649  -9238796.34949  22490782.8924   22490787.1754   22490782.1034
       227.0004        171.0004
 11 10 14 13 55 30.0000000  0  8G22G16G03G06G19G18G07G21
 -14802826.46249 -11515998.28849  22027962.6274   22027966.1884   22027962.2014
       228.0004        179.0004
 -17595854.96149 -13668756.66949  21078487.8104   21078491.2854   21078487.4004
       240.0004        196.0004
 -22413700.38649 -17189017.93049  19773557.3874   19773561.3154   19773557.0434
       244.0004        204.0004
 -21379823.45449 -16637371.82249  20354460.7824   20354465.3174   20354460.9764
       239.0004        200.0004
 -15069256.69049 -11704173.40549  21885931.8344   21885934.3364   21885930.9364
       231.0004        184.0004
 -13246532.64249 -10089503.29149  21898383.5354   21898387.4884   21898382.7994
       234.0004        181.0004
  -3165235.88449  -2457409.46049  23891628.2894   23891636.3664   23891629.1854
       209.0004        150.0004
 -11814892.53649  -9183279.80749  22504340.6584   22504346.2604   22504340.6194
       226.0004        170.0004
 11 10 14 13 56  0.0000000  0  8G22G16G03G06G19G18G07G21
 -14875224.88649 -11572412.56549  22014185.3004   22014188.8174   22014185.0134
       228.0004        179.0004
 -17544795.57249 -13628970.16549  21088203.8084   21088208.0434   21088203.3614
       238.0004        196.0004
 -22434565.95249 -17205276.80549  19769586.1244   19769591.0894   19769585.7484
       243.0004        204.0004
 -21376063.44249 -16634441.94249  20355176.9934   20355181.4724   20355176.7064
       240.0004        201.0004
 -15143005.99349 -11761640.37149  21871898.0974   21871900.8494   21871897.1294
       232.0004        185.0004
 -13247035.05349 -10089894.77749  21898288.1184   21898292.1974   21898288.3044
       235.0004        181.0004
  -3158784.08449  -2452382.09649  23892854.9224   23892864.6394   23892854.8094
       209.0004        150.0004
 -11743425.11449  -9127590.95949  22517939.9324   22517945.5094   22517939.6364
       227.0004        169.0004
 11 10 14 13 56 30.0000000  0  8G22G16G03G06G19G18G07G21
 -14947220.36249 -11628512.88749  22000483.9404   22000488.7964   22000484.1264
       227.0004        179.0004
 -17493212.95449 -13588775.95849  21098019.4844   21098023.6704   21098019.5624
       238.0004        195.0004
 -22454946.21949 -17221157.52149  19765707.6174   19765712.3544   19765707.6404
       243.0004        204.0004
 -21371905.09249 -16631201.68549  20355968.3854   20355972.3514   20355968.1094
       240.0004        201.0004
 -15216508.75349 -11818915.22349  21857910.3394   21857913.6084   21857909.4854
       232.0004        185.0004
 -13247000.65949 -10089867.97149  21898295.0864   21898299.0454   21898293.9244
       234.0004        181.0004
  -3151742.67549  -2446895.31449  23894197.4714   23894202.6274   23894197.7504
       214.0004        150.0004
 -11671737.50649  -9071730.56449  22531582.9114   22531587.2774   22531582.8564
       228.0004        171.0004
 11 10 14 13 57  0.0000000  0  8G22G16G03G06G19G18G07G21
 -15018811.33949 -11684298.01949  21986861.2834   21986865.5364   21986861.0224
       227.0004        180.0004
 -17441109.24449 -13548175.69949  21107933.7164   21107938.6394   21107934.1104
       236.0004        195.0004
 -22474840.89849 -17236659.87149  19761922.3444   19761926.5224   19761922.3334
       243.0004        204.0004
 -21367349.06349 -16627651.54249  20356834.0454   20356839.4614   20356834.4984
       239.0004        200.0004
 -15289764.46749 -11875997.56849  21843970.3334   21843973.0714   21843969.7754
       231.0004        184.0004
 -13246430.41949 -10089423.62349  21898402.6544   21898406.5324   21898402.3774
       234.0004        181.0004
  -3144113.19949  -2440950.27249  23895647.8224   23895655.1484   23895648.2574
       214.0004        151.0004
 -11599832.40649  -9015700.67549  22545266.5304   22545270.0874   22545265.3174
       230.0004        171.0004
 11 10 14 13 57 30.0000000  0  8G22G16G03G06G19G18G07G21
 -15089994.16949 -11739765.10849  21973316.4184   21973319.6534   21973315.0844
       229.0004        180.0004
 -17388484.29349 -13507169.29049  21117948.9174   21117953.0574   21117948.4894
       238.0004        195.0004
 -22494247.72049 -17251782.05849  19758227.8014   19758233.5144   19758228.1654
       242.0004        203.0004
 -21362393.54349 -16623790.11549  20357778.0064   20357782.7074   20357778.1964
       240.0004        201.0004
 -15362770.22849 -11932885.15649  21830076.8424   21830081.0184   21830076.4304
       230.0004        184.0004
 -13245322.81349 -10088560.56149  21898613.7224   21898617.9664   21898613.1684
       235.0004        182.0004
  -3135894.85549  -2434546.38649  23897212.8014   23897219.6884   23897212.7034
       212.0004        153.0004
 -11527709.58249  -8959501.13749  22558991.0924   22558994.1624   22558989.7564
       229.0004        170.0004
 11 10 14 13 58  0.0000000  0  8G22G16G03G06G19G18G07G21
 -15160767.92649 -11794913.43749  21959847.4054   21959851.8724   21959847.3754
       228.0004        181.0004
 -17335340.72749 -13465758.76449  21128060.9164   21128065.6874   21128061.1344
       237.0004        195.0004
 -22513167.12949 -17266524.45749  19754628.6614   19754633.7204   19754628.7724
       243.0004        204.0004
 -21357039.43549 -16619618.10349  20358796.5014   20358801.0464   20358796.5614
       239.0004        200.0004
 -15435526.25749 -11989578.14749  21816232.4264   21816234.9214   21816231.5604
       232.0004        184.0004
 -13243679.27949 -10087279.89249  21898926.4534   21898930.2864   21898926.5214
       234.0004        180.0004
  -3127089.78549  -2427685.31749  23898887.6984   23898894.8234   23898887.8354
       211.0004        151.0004
 -11455371.60849  -8903133.96949  22572755.7664   22572760.9924   22572756.3824
       226.0004        169.0004
 11 10 14 13 58 30.0000000  0  8G22G16G03G06G19G18G07G21
 -15231129.81849 -11849740.84949  21946460.0754   21946462.2284   21946459.3614
       231.0004        181.0004
 -17281679.33749 -13423944.73649  21138274.0764   21138277.7474   21138273.2264
       238.0004        194.0004
 -22531597.83749 -17280886.04249  19751121.8344   19751126.1714   19751121.3704
       243.0004        204.0004
 -21351285.90749 -16615134.84549  20359891.7554   20359896.6624   20359891.9124
       240.0004        201.0004
 -15508030.80949 -12046075.17749  21802435.0314   21802438.0964   21802434.5674
       232.0004        185.0004
 -13241499.41349 -10085581.29149  21899341.7994   21899345.5694   21899340.8024
       235.0004        182.0004
  -3117697.48549  -2420366.66349  23900675.2714   23900681.4574   23900676.1644
       213.0004        150.0004
 -11382819.12149  -8846599.64049  22586562.3974   22586566.8004   22586562.2604
       227.0004        167.0004
 11 10 14 13 59  0.0000000  0  8G22G16G03G06G19G18G07G21
 -15301077.88249 -11904245.78849  21933147.8904   21933151.3474   21933147.8214
       229.0004        181.0004
 -17227501.94949 -13381728.62649  21148582.9704   21148587.1874   21148582.4964
       238.0004        194.0004
 -22549539.25549 -17294866.36449  19747707.2854   19747712.1794   19747707.3774
       243.0004        204.0004
 -21345132.72449 -16610340.16349  20361061.5724   20361066.8644   20361061.7024
       239.0004        200.0004
 -15580282.53349 -12102375.19449  21788687.2404   21788689.7614   21788685.7584
       232.0004        187.0004
 -13238783.55749 -10083465.04249  21899858.9664   21899862.4224   21899858.2994
       235.0004        182.0004
  -3107719.63949  -2412591.74349  23902573.3014   23902580.5234   23902573.7424
       212.0004        148.0004
 -11310054.20749  -8789899.76649  22600409.1374   22600412.4514   22600408.1464
       227.0004        169.0004
 11 10 14 13 59 30.0000000  0  8G22G16G03G06G19G18G07G21
 -15370609.15549 -11958425.96249  21919917.4894   21919919.9914   21919915.9144
       229.0004        180.0004
 -17172808.94249 -13339110.74949  21158990.8604   21158994.5674   21158990.7444
       237.0004        194.0004
 -22566989.76449 -17308464.16149  19744386.2074   19744391.3364   19744386.2434
       242.0004        204.0004
 -21338579.10149 -16605233.45649  20362309.5574   20362314.3624   20362309.7954
       240.0004        200.0004
 -15652279.58449 -12158476.76149  21774985.5224   21774988.8734   21774984.8724
       231.0004        186.0004
 -13235530.85349 -10080930.46349  21900476.4254   21900481.3894   21900476.7384
       234.0004        182.0004
  -3097156.02549  -2404360.38749  23904585.0414   23904592.4094   23904584.5724
       215.0004        150.0004
 -11237077.19149  -8733034.62949  22614296.2564   22614300.7224   22614295.7494
       229.0004        169.0004
 11 10 14 14  0  0.0000000  0  8G22G16G03G06G19G18G07G21
 -15439723.19949 -12012280.99849  21906764.2274   21906767.9464   21906763.8364
       230.0004        181.0004
 -17117603.51849 -13296093.57149  21169495.3364   21169500.2914   21169495.5524
       237.0004        194.0004
 -22583949.57249 -17321679.59049  19741159.2454   19741164.2534   19741159.1604
       243.0004        204.0004
 -21331625.87849 -16599815.36549  20363633.1034   20363637.3904   20363632.9564
       240.0004        200.0004
 -15724022.03249 -12214379.93449  21761333.6034   21761336.8874   21761332.4464
       232.0004        187.0004
 -13231742.77349 -10077978.71749  21901198.0734   21901202.2954   21901197.9404
       234.0004        182.0004
  -3086008.67949  -2395674.13749  23906705.3924   23906712.0554   23906703.4054
       212.0004        148.0004
 -11163890.68149  -8676006.24449  22628223.5284   22628227.3454   22628222.3304
       229.0004        169.0004
 11 10 14 14  0 30.0000000  0  8G22G16G03G06G19G18G07G21
 -15508416.18749 -12065807.97349  21893693.4404   21893696.5284   21893692.3564
       230.0004        181.0004
 -17061885.84049 -13252677.24949  21180098.7184   21180103.1404   21180098.3644
       237.0004        193.0004
 -22600416.73949 -17334511.15249  19738025.7364   19738030.2914   19738025.4054
       243.0004        204.0004
 -21324271.49249 -16594084.69649  20365032.5904   20365036.8214   20365032.7224
       239.0004        200.0004
 -15795507.27449 -12270082.69549  21747730.4594   21747733.5064   21747729.4484
       232.0004        187.0004
 -13227418.38249 -10074609.06449  21902021.1684   21902025.0334   21902020.6244
       234.0004        182.0004
  -3074277.07549  -2386532.66749  23908937.6704   23908945.5544   23908938.1844
       210.0004        149.0004
 -11090494.76649  -8618814.68849  22642190.8234   22642193.8194   22642189.6504
       228.0004        169.0004
 11 10 14 14  1  0.0000000  0  8G22G16G03G06G19G18G07G21
 -15576686.74149 -12119005.76249  21880701.4334   21880704.4424   21880701.2314
       231.0004        181.0004
 -17005657.91849 -13208863.33749  21190798.1454   21190802.7144   21190798.0514
       236.0004        193.0004
 -22616391.19149 -17346958.77549  19734985.8234   19734990.4324   19734985.8524
       243.0004        204.0004
 -21316516.53049 -16588041.87449  20366507.6934   20366512.3324   20366507.6694
       239.0004        200.0004
 -15866734.89149 -12325584.70349  21734176.1384   21734179.2694   21734175.2134
       233.0004        188.0004
 -13222558.59249 -10070822.21149  21902945.6364   21902949.6254   21902945.6834
       234.0004        182.0004
  -3061962.92049  -2376937.25949  23911281.9364   23911288.9784   23911281.3854
       212.0004        150.0004
 -11016891.62149  -8561461.67049  22656195.7994   22656200.5174   22656195.8714
       227.0004        169.0004
 11 10 14 14  1 30.0000000  0  8G22G16G03G06G19G18G07G21
 -15644532.57849 -12171872.60749  21867791.1524   21867793.7284   21867790.1334
       232.0004        182.0004
 -16948921.22949 -13164652.97549  21201595.1434   21201599.5774   21201594.7954
       238.0004        193.0004
 -22631872.16549 -17359021.86849  19732039.5774   19732044.5154   19732039.5014
       243.0004        204.0004
 -21308360.58549 -16581686.60349  20368059.9164   20368064.2284   20368059.7294
       239.0004        200.0004
 -15937703.33749 -12380884.76649  21720671.0694   21720674.9244   21720670.6854
       232.0004        188.0004
 -13217163.59649 -10066618.31749  21903972.5174   21903976.8854   21903971.8374
       234.0004        182.0004
  -3049066.89149  -2366888.42649  23913734.7064   23913742.4204   23913735.1074
       213.0004        151.0004
 -10943082.51949  -8503948.15949  22670241.9304   22670245.7904   22670241.1244
       227.0004        168.0004
 11 10 14 14  2  0.0000000  0  8G22G16G03G06G19G18G07G21
 -15711951.44549 -12224406.73749  21854960.5164   21854964.7094   21854960.1634
       230.0004        182.0004
 -16891677.02349 -13120047.14649  21212488.8904   21212492.3174   21212488.2884
       237.0004        193.0004
 -22646858.72049 -17370699.70349  19729188.8454   19729192.7924   19729188.2524
       244.0004        204.0004
 -21299803.21449 -16575018.53249  20369688.2714   20369693.2684   20369688.5364
       240.0004        200.0004
 -16008411.39949 -12435981.92649  21707216.2374   21707219.2354   21707215.6264
       232.0004        189.0004
 -13211233.10749 -10061997.14149  21905100.6404   21905104.6284   21905100.7234
       234.0004        181.0004
  -3035589.63449  -2356386.70849  23916300.7824   23916307.7514   23916300.5704
       214.0004        151.0004
 -10869068.44049  -8446274.91649  22684325.1474   22684330.6754   22684325.2864
       224.0004        168.0004
 11 10 14 14  2 30.0000000  0  8G22G16G03G06G19G18G07G21
 -15778942.09149 -12276607.18449  21842213.9484   21842216.4334   21842212.7374
       232.0004        182.0004
 -16833927.62149 -13075047.65649  21223477.2234   21223482.3854   21223477.3234
       237.0004        193.0004
 -22661350.56849 -17381992.05049  19726430.5704   19726435.2284   19726430.1754
       242.0004        204.0004
 -21290844.64549 -16568037.84549  20371392.8974   20371397.9334   20371393.0864
       239.0004        200.0004
 -16078858.27649 -12490875.56349  21693809.8314   21693813.1974   21693809.5094
       231.0004        188.0004
 -13204768.07949 -10056959.45549  21906330.9244   21906335.1124   21906330.7164
       234.0004        181.0004
  -3021532.98649  -2345433.50749  23918974.6474   23918982.0284   23918974.6304
       211.0004        150.0004
 -10794851.30649  -8388443.45949  22698448.4334   22698453.7574   22698449.3124
       225.0004        168.0004
 11 10 14 14  3  0.0000000  0  8G22G16G03G06G19G18G07G21
 -15845500.82649 -12328471.08149  21829547.0374   21829551.3234   21829546.5374
       231.0004        184.0004
 -16775673.17149 -13029654.62549  21234563.2354   21234567.7284   21234563.0244
       238.0004        193.0004
 -22675345.31949 -17392897.04149  19723767.2444   19723772.1144   19723766.9854
       243.0004        204.0004
 -21281483.38449 -16560743.35949  20373174.0814   20373179.1694   20373174.3454
       239.0004        199.0004
 -16149041.24949 -12545563.54849  21680455.6684   21680458.9684   21680454.0534
       233.0004        188.0004
 -13197767.45649 -10051504.41949  21907662.8684   21907667.4824   21907663.4484
       233.0004        182.0004
  -3006896.20549  -2334028.25349  23921757.8984   23921766.9854   23921759.5084
       214.0004        149.0004
 -10720431.35449  -8330453.96449  22712611.5964   22712615.5134   22712611.0624
       227.0004        169.0004
 11 10 14 14  3 30.0000000  0  8G22G16G03G06G19G18G07G21
 -15911626.89649 -12379997.83249  21816964.4544   21816967.5684   21816964.4954
       232.0004        184.0004
 -16716916.56849 -12983870.30849  21245744.3034   21245748.9644   21245744.2954
       238.0004        194.0004
 -22688843.64949 -17403415.22049  19721198.5684   19721203.5694   19721198.3274
       243.0004        204.0004
 -21271720.41049 -16553135.86249  20375032.1114   20375037.1734   20375032.3694
       239.0004        200.0004
 -16218960.28849 -12600045.87649  21667150.7764   21667153.2104   21667149.4034
       233.0004        189.0004
 -13190232.84549 -10045633.27949  21909097.4504   21909100.9964   21909096.7034
       235.0004        181.0004
  -2991681.71749  -2322172.84749  23924654.4724   23924662.5254   23924654.1654
       211.0004        147.0004
 -10645811.03049  -8272308.31649  22726809.8884   22726815.2764   22726810.4304
       225.0004        165.0004
 11 10 14 14  4  0.0000000  0  8G22G16G03G06G19G18G07G21
 -15977317.98449 -12431185.62949  21804464.1014   21804466.4914   21804462.7334
       232.0004        184.0004
 -16657658.95749 -12937695.59249  21257021.0894   21257025.3924   21257020.7364
       239.0004        194.0004
 -22701844.67849 -17413545.89349  19718724.0354   19718729.4894   19718724.0744
       242.0004        204.0004
 -21261555.14149 -16545214.88649  20376967.2464   20376971.2974   20376967.0254
       240.0004        200.0004
 -16288613.93049 -12654321.40349  21653895.2064   21653898.2864   21653894.7794
       233.0004        190.0004
 -13182164.39449 -10039346.16049  21910632.3794   21910636.9314   21910632.3394
       234.0004        181.0004
  -2975890.14749  -2309867.77149  23927661.2624   23927666.7284   23927660.4374
       211.0004        147.0004
 -10570991.16149  -8214007.18649  22741048.0264   22741052.3754   22741047.3834
       225.0004        165.0004
 11 10 14 14  4 30.0000000  0  8G22G16G03G06G19G18G07G21
 -16042571.49949 -12482032.46549  21792046.4164   21792049.1344   21792046.1464
       233.0004        184.0004
 -16597901.64349 -12891131.50249  21268392.5904   21268396.9044   21268392.2364
       239.0004        193.0004
 -22714347.44649 -17423288.31449  19716345.2524   19716349.9724   19716344.9804
       243.0004        204.0004
 -21250986.93949 -16536979.94049  20378977.5324   20378982.6364   20378977.6094
       239.0004        200.0004
 -16358000.45049 -12708388.78549  21640692.5744   21640694.3874   21640690.8314
       233.0004        189.0004
 -13173561.93849 -10032642.95549  21912269.7974   21912273.1354   21912269.1924
       235.0004        182.0004
  -2959522.06449  -2297113.45149  23930775.5954   23930781.6844   23930776.1524
       214.0004        151.0004
 -10495972.56349  -8155551.21149  22755325.3344   22755328.3694   22755324.2854
       226.0004        167.0004
 11 10 14 14  5  0.0000000  0  8G22G16G03G06G19G18G07G21
 -16107385.76949 -12532537.01749  21779714.1624   21779716.1454   21779712.0824
       234.0004        185.0004
 -16537646.36549 -12844179.38649  21279858.6594   21279862.7374   21279858.4844
       238.0004        193.0004
 -22726351.09649 -17432641.81949  19714061.7694   19714065.8764   19714061.3064
       242.0004        204.0004
 -21240015.86249 -16528431.06049  20381065.2274   20381070.6514   20381065.4014
       239.0004        200.0004
 -16427119.22749 -12762247.54449  21627538.3874   21627540.7684   21627538.0644
       232.0004        188.0004
 -13164425.66349 -10025523.77349  21914007.9504   21914011.2374   21914007.6034
       234.0004        181.0004
  -2942578.78749  -2283910.92049  23933998.1124   23934007.4294   23933999.1614
       212.0004        149.0004
 -10420757.54549  -8096942.17049  22769636.9304   22769641.4034   22769635.9104
       226.0004        168.0004
 11 10 14 14  5 30.0000000  0  8G22G16G03G06G19G18G07G21
 -16171759.17849 -12582698.05949  21767462.2574   21767465.8644   21767461.5484
       232.0004        185.0004
 -16476895.72849 -12796841.27549  21291418.9444   21291423.4814   21291418.5294
       237.0004        193.0004
 -22737856.00549 -17441606.67949  19711870.9344   19711876.3674   19711871.2434
       242.0004        203.0004
 -21228642.45449 -16519568.67449  20383229.9284   20383234.5744   20383229.6764
       239.0004        200.0004
 -16495968.73249 -12815896.47849  21614436.1634   21614439.5464   21614435.5484
       231.0004        188.0004
 -13154756.88349 -10017989.65449  21915847.4224   21915851.9014   21915847.6024
       235.0004        181.0004
  -2925061.76049  -2270261.33949  23937335.5624   23937339.2944   23937334.5144
       216.0004        151.0004
 -10345347.79149  -8038181.37349  22783987.2754   22783991.9514   22783986.8264
       227.0004        169.0004
 11 10 14 14  6  0.0000000  0  8G22G16G03G06G19G18G07G21
 -16235689.18149 -12632513.57949  21755297.5464   21755300.8994   21755296.4804
       233.0004        185.0004
 -16415650.19549 -12749117.53149  21303073.2644   21303078.2774   21303073.4464
       238.0004        192.0004
 -22748860.50449 -17450181.62049  19709777.6734   19709782.3214   19709777.8584
       243.0004        204.0004
 -21216865.53349 -16510391.86949  20385471.1964   20385475.4374   20385471.3794
       240.0004        200.0004
 -16564547.32149 -12869334.29149  21601386.3764   21601389.9714   21601385.5174
       233.0004        188.0004
 -13144555.20249 -10010040.28649  21917789.1704   21917792.7214   21917789.1834
       234.0004        181.0004
  -2906971.25849  -2256164.88949  23940774.8604   23940783.7504   23940776.8694
       214.0004        150.0004
 -10269743.37849  -7979268.91849  22798374.2784   22798379.2714   22798373.4044
       225.0004        166.0004
 11 10 14 14  6 30.0000000  0  8G22G16G03G06G19G18G07G21
 -16299173.46049 -12681981.79849  21743216.1304   21743219.3274   21743215.4764
       231.0004        184.0004
 -16353911.63349 -12701009.61749  21314821.6074   21314826.7814   21314821.7434
       237.0004        193.0004
 -22759363.82349 -17458366.03249  19707779.4194   19707784.0804   19707779.2024
       242.0004        204.0004
 -21204684.78149 -16500900.38549  20387788.3644   20387793.8544   20387788.7994
       239.0004        200.0004
 -16632853.39249 -12922559.76049  21588388.2414   21588391.7974   21588387.2634
       232.0004        190.0004
 -13133820.72449 -10001675.75949  21919832.0654   21919836.3774   21919831.8024
       234.0004        182.0004
  -2888308.51649  -2241622.54149  23944327.4294   23944333.9434   23944327.7614
       212.0004        149.0004
 -10193945.45249  -7920205.67649  22812797.7464   22812803.2074   22812797.5464
       224.0004        164.0004
 11 10 14 14  7  0.0000000  0  8G22G16G03G06G19G18G07G21
 -16362211.09849 -12731101.97749  21731220.8354   21731223.7394   21731220.0174
       232.0004        185.0004
 -16291682.54349 -12652519.46349  21326664.7034   21326668.1384   21326664.2404
       238.0004        192.0004
 -22769365.87049 -17466159.82849  19705875.3174   19705880.2894   19705875.5494
       243.0004        204.0004
 -21192101.04349 -16491094.88349  20390183.9064   20390188.1674   20390183.4274
       239.0004        200.0004
 -16700886.90849 -12975572.84849  21575441.9394   21575445.2134   21575441.3164
       234.0004        190.0004
 -13122554.44949  -9992896.84249  21921975.6424   21921980.1844   21921975.0374
       234.0004        182.0004
  -2869075.79749  -2226636.02449  23947988.3974   23947995.0254   23947987.7904
       214.0004        150.0004
 -10117956.92749  -7860993.88849  22827258.3694   22827262.1494   22827258.6944
       223.0004        162.0004
 11 10 14 14  7 30.0000000  0  9G08G22G16G03G06G19G18G07G21
    -93765.81849    -66291.06149  24452716.5494
       206.0004        110.0004
 -16424799.31949 -12779871.97149  21719311.4254   21719313.8214   21719309.7304
       233.0004        185.0004
 -16228963.76749 -12603647.73649  21338598.2554   21338603.3474   21338597.8534
       236.0004        191.0004
 -22778865.25649 -17473561.96149  19704068.5724   19704073.0064   19704068.1904
       243.0004        204.0004
 -21179113.21449 -16480974.52149  20392655.1484   20392660.0264   20392655.0844
       239.0004        200.0004
 -16768645.59749 -13028371.79749  21562549.0374   21562551.2174   21562547.2024
       234.0004        190.0004
 -13110756.90449  -9983703.97249  21924220.9524   21924225.3314   21924220.8904
       233.0004        183.0004
  -2849273.21849  -2211205.51849  23951756.1834   23951762.2454   23951757.0614
       216.0004        153.0004
 -10041777.98549  -7801633.73749  22841753.5214   22841760.1434   22841755.1454
       223.0004        163.0004
 11 10 14 14  8  0.0000000  0  8G22G16G03G06G19G18G07G21
 -16486936.79849 -12828290.72949  21707485.4964   21707489.2834   21707484.8494
       231.0004        185.0004
 -16165757.66249 -12554396.27349  21350626.3964   21350631.1434   21350626.2984
       237.0004        193.0004
 -22787862.08649 -17480572.47749  19702355.9284   19702360.6144   19702355.5274
       242.0004        204.0004
 -21165721.68849 -16470539.58349  20395203.8114   20395208.2174   20395203.7484
       239.0004        200.0004
 -16836128.73449 -13080956.02549  21549706.4524   21549709.3334   21549705.2344
       234.0004        190.0004
 -13098428.66149  -9974097.55649  21926567.0424   21926571.5064   21926566.1564
       234.0004        182.0004
  -2828902.56449  -2195332.31349  23955631.2094   23955638.7504   23955632.7614
       212.0004        151.0004
  -9965410.17949  -7742126.41749  22856286.7844   22856291.4044   22856286.4824
       224.0004        163.0004
 11 10 14 14  8 30.0000000  0  8G22G16G03G06G19G18G07G21
 -16548621.00449 -12876356.30749  21695748.5734   21695750.6574   21695746.8794
       233.0004        184.0004
 -16102065.37649 -12504765.96649  21362747.1754   21362751.7684   21362747.0814
       237.0004        193.0004
 -22796355.02049 -17487190.35349  19700739.5384   19700744.6874   19700739.7814
       243.0004        204.0004
 -21151925.71449 -16459789.48049  20397827.9134   20397833.4234   20397828.2114
       239.0004        199.0004
 -16903334.25249 -13133323.92949  21536917.1264   21536920.8714   21536916.3604
       234.0004        191.0004
 -13085569.64449  -9964077.55349  21929013.8264   21929017.8684   21929013.6724
       234.0004        182.0004
  -2807964.34549  -2179016.86849  23959617.3684   23959623.7424   23959617.9634
       215.0004        150.0004
  -9888854.43249  -7682472.64849  22870855.7564   22870860.5254   22870854.8954
       225.0004        164.0004
 11 10 14 14  9  0.0000000  0  9G08G22G16G03G06G19G18G07G21
    -81420.93549    -51131.33549  24430146.7784
       207.0004        111.0004
 -16609850.28349 -12924067.39649  21684095.5604   21684099.0304   21684094.9304
       231.0004        185.0004
 -16037888.97149 -12454758.43049  21374959.5414   21374964.4224   21374959.5634
       238.0004        192.0004
 -22804344.04449 -17493415.58149  19699219.8834   19699224.4164   19699219.4354
       242.0004        204.0004
 -21137725.49349 -16448724.39649  20400530.7664   20400535.7714   20400531.1054
       239.0004        200.0004
 -16970261.45249 -13185474.95949  21524182.3034   21524184.8784   21524181.0664
       236.0004        191.0004
 -13072180.48349  -9953644.45949  21931561.6774   21931566.5424   21931561.7774
       234.0004        182.0004
  -2786460.10849  -2162260.37549  23963708.8184   23963715.9424   23963709.2964
       211.0004        149.0004
  -9812112.51349  -7622673.81849  22885458.9154   22885463.6744   22885458.2184
       225.0004        164.0004
 11 10 14 14  9 30.0000000  0  9G08G22G16G03G06G19G18G07G21
   -119817.56649    -81051.29749  24422837.8384
       206.0004        124.0004
 -16670622.48449 -12971422.31849  21672532.4144   21672534.4154   21672531.7904
       232.0004        186.0004
 -15973230.17149 -12404375.00549  21387264.4014   21387268.1044   21387264.1884
       237.0004        192.0004
 -22811828.10049 -17499247.30849  19697795.4424   19697800.1294   19697795.0124
       243.0004        203.0004
 -21123120.70549 -16437344.04849  20403310.2504   20403314.7954   20403310.2974
       239.0004        199.0004
 -17036908.91249 -13237408.01849  21511499.2114   21511502.3534   21511498.7134
       235.0004        191.0004
 -13058261.78849  -9942798.74049  21934210.6244   21934214.3564   21934209.9294
       234.0004        182.0004
  -2764391.07549  -2145063.74749  23967908.0804   23967915.3994   23967908.1544
       212.0004        148.0004
  -9735185.56649  -7562730.79449  22900098.2644   22900103.5144   22900097.4284
       225.0004        166.0004
 11 10 14 14 10  0.0000000  0  9G08G22G16G03G06G19G18G07G21
   -157640.40649    -17880.55249  24415639.5564
       205.0004         74.0004
 -16730935.72549 -13018419.60949  21661054.4074   21661057.8554   21661053.9874
       232.0004        185.0004
 -15908091.08349 -12353617.31949  21399659.0434   21399664.1674   21399659.4954
       236.0004        192.0004
 -22818807.15749 -17504685.53849  19696467.5544   19696472.2244   19696467.7854
       243.0004        204.0004
 -21108111.66449 -16425648.70049  20406166.3524   20406170.8714   20406166.2374
       239.0004        199.0004
 -17103275.63549 -13289122.30949  21498869.9734   21498872.9564   21498869.5944
       235.0004        191.0004
 -13043814.68549  -9931541.26749  21936959.8004   21936963.5654   21936959.2774
       234.0004        182.0004
  -2741758.89749  -2127428.33149  23972213.9664   23972222.2654   23972213.1614
       210.0004        146.0004
  -9658075.06749  -7502644.73649  22914771.5454   22914775.6664   22914770.6654
       224.0004        163.0004
 11 10 14 14 10 30.0000000  0  9G08G22G16G03G06G19G18G07G21
   -194887.25049    -46903.93949  24408551.9674
       208.0004        135.0004
 -16790788.44049 -13065058.06349  21649665.1424   21649667.7074   21649664.1404
       231.0004        185.0004
 -15842472.96549 -12302486.37149  21412145.7704   21412151.0934   21412145.6684
       236.0004        191.0004
 -22825280.15349 -17509729.43849  19695236.2064   19695240.3444   19695235.7154
       243.0004        204.0004
 -21092697.47549 -16413637.65249  20409099.0314   20409104.2624   20409099.1014
       238.0004        199.0004
 -17169359.70449 -13340616.35249  21486294.1434   21486297.9674   21486293.5084
       234.0004        192.0004
 -13028838.58049  -9919871.59849  21939809.7184   21939814.0584   21939809.3644
       234.0004        182.0004
  -2718564.22849  -2109354.62549  23976627.0944   23976636.1104   23976628.3964
       210.0004        144.0004
  -9580781.91749  -7442416.37449  22929478.6434   22929485.0724   22929479.1894
       222.0004        162.0004
 11 10 14 14 11  0.0000000  0  9G08G22G16G03G06G19G18G07G21
   -231557.18449    -75477.84549  24401573.9504   24401583.3434
       208.0004        138.0004
 -16850178.44249 -13111335.96149  21638363.1824   21638366.3404   21638362.7654
       232.0004        185.0004
 -15776377.53349 -12250983.49049  21424723.2074   21424728.3554   21424722.9054
       236.0004        191.0004
 -22831246.31949 -17514378.39849  19694099.6424   19694105.2594   19694099.9224
       242.0004        204.0004
 -21076878.14649 -16401310.90949  20412109.3554   20412114.8254   20412109.4624
       238.0004        200.0004
 -17235159.84749 -13391889.15449  21473772.8784   21473776.2754   21473772.0624
       234.0004        192.0004
 -13013334.31249  -9907790.38249  21942759.8494   21942763.7084   21942759.2624
       234.0004        181.0004
  -2694808.32549  -2090843.58249  23981149.4984   23981155.8494   23981149.5214
       212.0004        147.0004
  -9503307.38649  -7382046.67349  22944221.3644   22944226.0414   22944222.3104
       224.0004        162.0004
 11 10 14 14 11 30.0000000  0  9G08G22G16G03G06G19G18G07G21
   -267649.20749   -103601.50949  24394705.2334   24394716.5364   24394706.5074
       207.0004        139.0004
 -16909103.97549 -13157251.93249  21627150.4484   21627152.8334   21627149.7704
       232.0004        185.0004
 -15709807.11749 -12199110.49749  21437391.0214   21437396.5234   21437390.7704
       235.0004        190.0004
 -22836705.44749 -17518632.26949  19693061.7074   19693066.1404   19693061.5574
       243.0004        204.0004
 -21060653.81149 -16388668.57649  20415197.2354   20415201.5624   20415197.1194
       239.0004        199.0004
 -17300675.13049 -13442939.99549  21461305.4184   21461308.5154   21461305.2494
       234.0004        191.0004
 -12997302.90749  -9895298.39649  21945810.4274   21945814.5194   21945810.1584
       234.0004        181.0004
  -2670493.00349  -2071896.62149  23985775.7224   23985783.2024   23985776.1384
       208.0004        146.0004
  -9425653.11049  -7321536.90149  22958999.4514   22959003.0174   22958998.3464
       224.0004        161.0004
 11 10 14 14 12  0.0000000  0  9G08G22G16G03G06G19G18G07G21
   -303162.30149   -131274.02449  24387948.1504   24387957.4644   24387948.6394
       209.0004        140.0004
 -16967563.44849 -13202804.74149  21616025.4694   21616028.7614   21616024.8774
       232.0004        186.0004
 -15642763.61149 -12146868.86549  21450149.2144   21450154.1724   21450148.7544
       235.0004        189.0004
 -22841656.83349 -17522490.49149  19692118.6894   19692124.0154   19692118.9094
       241.0004        203.0004
 -21044024.50349 -16375710.67949  20418362.2594   20418366.1754   20418362.0154
       239.0004        199.0004
 -17365904.24449 -13493767.84749  21448893.3044   21448895.9194   21448892.5884
       234.0004        191.0004
 -12980744.89849  -9882396.07249  21948961.7414   21948966.6064   21948961.0664
       234.0004        183.0004
  -2645619.87449  -2052514.97949  23990509.1784   23990515.6694   23990509.8874
       210.0004        145.0004
  -9347820.33049  -7260888.03049  22973810.7274   22973815.1464   22973809.7924
       223.0004        162.0004
 11 10 14 14 12 30.0000000  0  9G08G22G16G03G06G19G18G07G21
   -338094.60949   -158494.00949  24381299.6144   24381308.9344   24381300.1774
       207.0004        140.0004
 -17025554.59449 -13247992.61749  21604990.3414   21604993.2284   21604989.5644
       232.0004        185.0004
 -15575248.50149 -12094259.74349  21462997.2024   21463001.7024   21462996.3694
       235.0004        189.0004
 -22846099.89949 -17525952.61949  19691274.0214   19691278.3094   19691273.5744
       244.0004        203.0004
 -21026989.65149 -16362436.77849  20421603.1164   20421607.8394   20421603.2104
       238.0004        199.0004
 -17430845.68249 -13544371.54549  21436535.8374   21436538.4984   21436534.8094
       234.0004        192.0004
 -12963660.67949  -9869083.72249  21952212.1454   21952216.6194   21952212.0434
       234.0004        183.0004
  -2620190.01449  -2032699.56249  23995348.3574   23995354.7754   23995348.3814
       209.0004        144.0004
  -9269809.94249  -7200100.79249  22988655.2654   22988658.7654   22988656.2884
       221.0004        162.0004
 11 10 14 14 13  0.0000000  0 10G08G22G26G16G03G06G19G18G07G21
   -372445.50749   -185260.90849  24374762.6714   24374771.3214   24374762.5694
       203.0004        139.0004
 -17083076.11049 -13292814.54149  21594044.5234   21594047.3114   21594043.1884
       233.0004        185.0004
     67324.84249     45690.06749  24968186.5444
       205.0004        107.0004
 -15507263.81149 -12041284.71949  21475933.9694   21475938.7064   21475933.9844
       235.0004        189.0004
 -22850034.27949 -17529018.37749  19690525.8324   19690529.6734   19690525.1954
       243.0004        204.0004
 -21009549.63249 -16348847.16649  20424921.8444   20424926.6934   20424921.5884
       238.0004        199.0004
 -17495498.17849 -13594750.08149  21424231.5524   21424235.3994   21424230.8964
       233.0004        192.0004
 -12946050.99149  -9855361.90049  21955564.2174   21955567.7604   21955563.3244
       233.0004        181.0004
  -2594204.92849  -2012451.49949  24000294.1484   24000300.7464   24000295.9314
       210.0004        145.0004
  -9191623.53649  -7139176.37249  23003533.7354   23003539.7914   23003534.5614
       223.0004        161.0004
 11 10 14 14 13 30.0000000  0  9G08G22G16G03G06G19G18G07G21
   -406213.48749   -211573.57249  24368337.0274   24368345.9574   24368337.3314
       205.0004        140.0004
 -17140125.76349 -13337268.79549  21583188.3734   21583191.1684   21583188.0964
       233.0004        186.0004
 -15438811.70149 -11987945.46749  21488959.8254   21488964.8254   21488959.7434
       235.0004        189.0004
 -22853459.99549 -17531687.77149  19689872.7274   19689877.7374   19689872.7274
       242.0004        203.0004
 -20991704.11649 -16334941.58549  20428318.3274   20428322.8404   20428318.0294
       240.0004        200.0004
 -17559860.50549 -13644902.50649  21411984.0034   21411987.7834   21411983.2314
       233.0004        192.0004
 -12927916.71449  -9841231.31749  21959014.7084   21959019.2294   21959014.0944
       234.0004        182.0004
  -2567665.82549  -1991771.74549  24005342.9324   24005349.7764   24005343.2894
       207.0004        145.0004
  -9113262.37449  -7078115.79049  23018445.8024   23018450.6984   23018446.1274
       224.0004        162.0004
 11 10 14 14 14  0.0000000  0  9G08G22G16G03G06G19G18G07G21
   -439397.38649   -237431.11149  24362023.6944   24362031.6294   24362022.7874
       205.0004        140.0004
 -17196701.82649 -13381353.99249  21572422.2484   21572425.5954   21572421.2094
       233.0004        186.0004
 -15369894.09849 -11934243.49649  21502075.0864   21502079.1124   21502074.6744
       236.0004        188.0004
 -22856375.87249 -17533959.88049  19689318.3974   19689323.1914   19689318.1424
       243.0004        203.0004
 -20973452.96549 -16320719.91649  20431791.5004   20431795.5254   20431791.2734
       238.0004        199.0004
 -17623931.50649 -13694827.91349  21399791.6944   21399795.2474   21399791.0374
       234.0004        192.0004
 -12909258.36649  -9826692.35949  21962565.2004   21962568.5804   21962564.8984
       234.0004        181.0004
  -2540574.21549  -1970661.42549  24010497.6634   24010506.9614   24010498.7534
       209.0004        145.0004
  -9034727.89149  -7016920.14049  23033390.1634   23033395.5174   23033389.5594
       222.0004        161.0004
 11 10 14 14 14 30.0000000  0  9G08G22G16G03G06G19G18G07G21
   -471996.04049   -262832.62449  24355821.6494   24355829.5834   24355820.7204
       204.0004        141.0004
 -17252802.40249 -13425068.70149  21561746.1714   21561749.7504   21561745.8454
       233.0004        187.0004
 -15300512.06249 -11880179.62749  21515278.1134   21515282.3114   21515277.9404
       236.0004        188.0004
 -22858781.08849 -17535834.08549  19688860.6414   19688865.1764   19688860.7444
       242.0004        203.0004
 -20954795.66749 -16306181.77549  20435341.0204   20435346.0254   20435341.2044
       238.0004        199.0004
 -17687709.15249 -13744524.76649  21387656.6434   21387657.9934   21387655.5654
       235.0004        193.0004
 -12890076.33049  -9811745.32549  21966215.4424   21966218.7334   21966214.9654
       233.0004        181.0004
  -2512931.21749  -1949121.50349  24015761.2164   24015765.9664   24015760.9144
       212.0004        147.0004
  -8956020.68749  -6955589.93849  23048367.8744   23048374.1144   23048366.8354
       221.0004        159.0004
 11 10 14 14 15  0.0000000  0  9G08G22G16G03G06G19G18G07G21
   -504009.39849   -287778.07349  24349729.3524   24349736.7454   24349727.6494
       207.0004        141.0004
 -17308426.54249 -13468412.14249  21551162.2584   21551164.2834   21551160.9074
       235.0004        188.0004
 -15230668.59449 -11825756.20949  21528568.9534   21528573.2984   21528568.5274
       236.0004        188.0004
 -22860675.96149 -17537310.61149  19688499.4404   19688505.0254   19688499.5574
       241.0004        203.0004
 -20935733.00949 -16291327.77349  20438968.4694   20438973.4584   20438968.7344
       238.0004        199.0004
 -17751192.99449 -13793992.67249  21375575.2694   21375578.2474   21375574.5764
       235.0004        193.0004
 -12870371.77049  -9796391.13749  21969964.6854   21969969.0784   21969964.2974
       233.0004        181.0004
  -2484739.32149  -1927153.81049  24021123.9824   24021131.7134   24021125.3454
       210.0004        147.0004
  -8877142.94149  -6894126.83949  23063377.8174   23063382.9164   23063377.4024
       220.0004        159.0004
 11 10 14 14 15 30.0000000  0  9G08G22G16G03G06G19G18G07G21
   -535435.59849   -312265.96949  24343748.3784   24343757.1474   24343747.1574
       208.0004        142.0004
 -17363572.05649 -13511382.63349  21540667.5254   21540670.0304   21540667.1724
       233.0004        186.0004
 -15160365.01649 -11770974.26349  21541947.1084   21541952.2834   21541946.7874
       235.0004        188.0004
 -22862060.07149 -17538389.14449  19688236.4774   19688241.2464   19688236.9334
       243.0004        204.0004
 -20916264.61649 -16276157.61249  20442673.8804   20442678.2874   20442673.7734
       239.0004        199.0004
 -17814381.57549 -13843230.48949  21363549.7704   21363553.8054   21363549.1884
       233.0004        193.0004
 -12850145.55249  -9780630.46249  21973813.5564   21973818.1354   21973813.2084
       233.0004        182.0004
  -2455999.62449  -1904759.29549  24026592.7014   24026600.9794   24026593.8244
       209.0004        147.0004
  -8798095.25049  -6832531.29349  23078420.1674   23078424.5424   23078418.6514
       221.0004        158.0004
 11 10 14 14 16  0.0000000  0  9G08G22G16G03G06G19G18G07G21
   -566273.75449   -336295.67349  24337878.6524   24337888.1664   24337879.0084
       206.0004        142.0004
 -17418237.19249 -13553978.80349  21530265.5314   21530267.4644   21530264.3424
       233.0004        186.0004
 -15089603.57349 -11715835.53649  21555412.2364   21555417.5364   21555412.3664
       235.0004        187.0004
 -22862932.62549 -17539069.06549  19688071.0784   19688075.6234   19688070.6854
       243.0004        203.0004
 -20896390.39249 -16260671.22049  20446455.0684   20446460.5254   20446455.3824
       238.0004        199.0004
 -17877273.37549 -13892237.05249  21351582.8254   21351586.0824   21351582.0624
       236.0004        194.0004
 -12829398.03049  -9764463.57749  21977762.2614   21977766.6544   21977762.0004
       233.0004        181.0004
  -2426713.73649  -1881939.15449  24032164.7894   24032173.1284   24032165.5324
       207.0004        144.0004
  -8718879.31149  -6770804.67249  23093495.5004   23093499.5304   23093494.0374
       221.0004        160.0004
 11 10 14 14 16 30.0000000  0  9G08G22G16G03G06G19G18G07G21
   -596522.33849   -359865.97249  24332124.4154   24332132.3034   24332126.0634
       207.0004        140.0004
 -17472419.89249 -13596199.05849  21519954.0724   21519957.4384   21519954.4204
       232.0004        187.0004
 -15018386.08649 -11660341.44849  21568964.8404   21568969.8664   21568964.7324
       236.0004        187.0004
 -22863293.12549 -17539349.97649  19688001.1724   19688007.0914   19688001.4674
       241.0004        203.0004
 -20876109.97649 -16244868.31849  20450314.5214   20450319.6664   20450314.6404
       238.0004        198.0004
 -17939866.92249 -13941011.21349  21339671.8834   21339674.5264   21339670.7644
       235.0004        194.0004
 -12808129.95549  -9747891.06149  21981809.2494   21981813.0584   21981808.6864
       234.0004        181.0004
  -2396882.87449  -1858694.38749  24037841.2334   24037851.6034   24037840.7954
       204.0004        143.0004
  -8639495.82549  -6708947.49049  23108602.4144   23108605.5104   23108600.6054
       222.0004        160.0004
 11 10 14 14 17  0.0000000  0  9G08G22G16G03G06G19G18G07G21
   -626180.70049   -382976.33949  24326477.2074   24326487.9054   24326478.4984
       202.0004        138.0004
 -17526118.30549 -13638041.93549  21509736.5054   21509738.7984   21509735.6504
       233.0004        187.0004
 -14946714.42149 -11604493.46049  21582603.5944   21582608.7944   21582603.3264
       235.0004        188.0004
 -22863140.50649 -17539231.05849  19688030.7594   19688035.7724   19688030.7464
       242.0004        203.0004
 -20855423.20549 -16228748.76949  20454250.8114   20454255.6474   20454251.0684
       238.0004        198.0004
 -18002160.68949 -13989551.78749  21327817.9424   21327820.0964   21327817.1044
       237.0004        194.0004
 -12786341.91449  -9730913.37549  21985955.1814   21985959.0884   21985954.4984
       233.0004        180.0004
  -2366508.46049  -1835026.03449  24043619.8374   24043631.5454   24043622.0294
       203.0004        145.0004
  -8559946.02249  -6646960.70449  23123739.4854   23123743.1294   23123739.2034
       222.0004        161.0004
 11 10 14 14 17 30.0000000  0  9G08G22G16G03G06G19G18G07G21
   -655248.85749   -405626.80149  24320948.8804   24320957.7334   24320948.4664
       206.0004        139.0004
 -17579332.44249 -13679507.45349  21499608.7934   21499612.6674   21499608.7314
       232.0004        187.0004
 -14874591.36749 -11548293.74249  21596328.9074   21596333.7064   21596328.4864
       237.0004        188.0004
 -22862476.10349 -17538713.34049  19688157.7584   19688162.1094   19688157.5794
       243.0004        203.0004
 -20834331.29149 -16212313.52849  20458265.9694   20458269.8004   20458265.3914
       239.0004        198.0004
 -18064154.71549 -14037858.78949  21316020.6424   21316022.7894   21316019.8134
       237.0004        194.0004
 -12764035.81949  -9713532.00549  21990200.4544   21990204.0864   21990199.8694
       235.0004        181.0004
  -2335593.42149  -1810936.47049  24049504.9124   24049513.6944   24049504.6544
       209.0004        145.0004
  -8480232.40849  -6584846.25349  23138907.5864   23138911.8634   23138908.7784
       222.0004        158.0004
 11 10 14 14 18  0.0000000  0  9G08G22G16G03G06G19G18G07G21
   -683724.40449   -427815.50649  24315529.9024   24315536.4334   24315528.0294
       205.0004        139.0004
 -17632059.06549 -13720593.09349  21489575.9614   21489579.0864   21489575.8284
       233.0004        187.0004
 -14802017.88549 -11491743.03749  21610139.7054   21610143.1264   21610138.8444
       235.0004        187.0004
 -22861298.17649 -17537795.48349  19688381.8444   19688386.1764   19688381.4374
       242.0004        203.0004
 -20812832.92049 -16195561.57449  20462356.2204   20462360.7134   20462356.0024
       238.0004        199.0004
 -18125845.89449 -14085929.80849  21304281.0754   21304283.4424   21304280.1714
       236.0004        193.0004
 -12741211.52649  -9695746.84849  21994542.7424   21994547.1634   21994543.0674
       234.0004        181.0004
  -2304138.08349  -1786425.87349  24055492.2144   24055499.1644   24055491.5584
       209.0004        147.0004
  -8400355.02749  -6522604.21249  23154107.3824   23154112.5484   23154107.3084
       221.0004        159.0004
 11 10 14 14 18 30.0000000  0  9G08G22G16G03G06G19G18G07G21
   -711606.75949   -449542.00349  24310222.8474   24310232.1314   24310224.0154
       206.0004        139.0004
 -17684296.51649 -13761297.56449  21479636.2324   21479638.1074   21479634.6624
       234.0004        188.0004
 -14728996.28049 -11434843.15349  21624033.9084   21624038.7444   21624033.8634
       236.0004        187.0004
 -22859606.37149 -17536477.19849  19688703.0434   19688708.3474   19688703.3314
       242.0004        203.0004
 -20790928.12249 -16178492.92349  20466523.8684   20466529.1114   20466524.2154
       238.0004        198.0004
 -18187233.65849 -14133764.40449  21292599.2644   21292601.5714   21292598.2704
       236.0004        193.0004
 -12717869.83549  -9677558.52149  21998986.0004   21998988.8834   21998984.6034
       234.0004        182.0004
  -2272144.12449  -1761495.58049  24061580.6204   24061586.8584   24061579.6824
       208.0004        144.0004
  -8320314.81549  -6460235.29549  23169338.9534   23169344.2484   23169337.8664
       219.0004        158.0004
 11 10 14 14 19  0.0000000  0  9G08G22G16G03G06G19G18G07G21
   -738895.63349   -470806.03149  24305030.8304   24305038.9314   24305029.7374
       206.0004        139.0004
 -17736043.54949 -13801619.90049  21469788.2914   21469791.3384   21469788.3764
       233.0004        189.0004
 -14655529.03049 -11377595.99349  21638014.8834   21638019.5084   21638014.8904
       235.0004        186.0004
 -22857400.91649 -17534758.66449  19689123.1274   19689127.8704   19689123.1194
       241.0004        203.0004
 -20768617.16749 -16161107.77449  20470770.5184   20470775.1084   20470770.1484
       239.0004        198.0004
 -18248316.98149 -14181361.75749  21280975.1924   21280978.5244   21280974.7394
       237.0004        194.0004
 -12694011.56549  -9658967.67049  22003524.7794   22003529.3644   22003524.9924
       233.0004        181.0004
  -2239613.77349  -1736147.27949  24067770.9534   24067777.7404   24067771.3384
       209.0004        146.0004
  -8240113.74549  -6397741.04049  23184601.8324   23184606.0394   23184601.2964
       220.0004        155.0004
 11 10 14 14 19 30.0000000  0  9G08G22G16G03G06G19G18G07G21
   -765590.25449   -491607.01049  24299949.7264   24299959.1754   24299949.7724
       203.0004        138.0004
 -17787299.21649 -13841559.33649  21460035.7024   21460037.8664   21460034.0334
       235.0004        189.0004
 -14581618.42049 -11320003.36749  21652079.2794   21652083.7974   21652078.9934
       235.0004        186.0004
 -22854681.25249 -17532639.45349  19689641.1114   19689645.7264   19689640.8994
       242.0004        203.0004
 -20745900.55449 -16143406.53349  20475092.8384   20475097.5504   20475092.6974
       238.0004        197.0004
 -18309094.65449 -14228720.94749  21269409.9034   21269412.7264   21269408.8084
       237.0004        194.0004
 -12669638.52749  -9639975.68949  22008163.6984   22008167.0494   22008162.5624
       234.0004        181.0004
  -2206549.11449  -1710382.68849  24074062.1034   24074070.1474   24074062.4464
       208.0004        146.0004
  -8159753.26849  -6335122.57849  23199893.5154   23199896.7404   23199893.4264
       219.0004        154.0004
 11 10 14 14 20  0.0000000  0  9G08G22G16G03G06G19G18G07G21
   -791688.67849   -511943.42549  24294984.0744   24294994.1504   24294983.4064
       204.0004        140.0004
 -17838060.77149 -13881113.77249  21450374.8614   21450378.1514   21450374.9504
       234.0004        189.0004
 -14507265.41849 -11262066.03149  21666229.0104   21666233.2094   21666228.1924
       236.0004        186.0004
 -22851446.40649 -17530118.79449  19690256.5664   19690261.2114   19690256.6214
       243.0004        203.0004
 -20722777.11349 -16125388.29149  20479493.6174   20479497.6994   20479493.3244
       238.0004        198.0004
 -18369564.45249 -14275840.24149  21257902.5524   21257905.5574   21257902.2534
       236.0004        195.0004
 -12644750.52149  -9620582.44749  22012898.4924   22012903.0794   22012898.9944
       232.0004        180.0004
  -2172950.71649  -1684202.19949  24080457.2214   24080462.4624   24080456.9284
       209.0004        147.0004
  -8079233.18849  -6272379.74449  23215216.9894   23215220.0574   23215216.4414
       220.0004        155.0004
 11 10 14 14 20 30.0000000  0  9G08G22G16G03G06G19G18G07G21
   -817191.02149   -531815.36049  24290130.8684   24290140.1044   24290131.6844
       207.0004        141.0004
 -17888327.71249 -13920282.76649  21440810.3134   21440812.0944   21440809.5164
       236.0004        189.0004
 -14432472.94849 -11203786.24749  21680461.3414   21680465.6434   21680461.0214
       235.0004        186.0004
 -22847696.95249 -17527197.15049  19690970.5764   19690974.7754   19690970.1234
       242.0004        203.0004
 -20699247.84849 -16107053.81649  20483969.8774   20483975.7344   20483970.3484
       238.0004        198.0004
 -18429725.90649 -14322719.25849  21246453.3014   21246456.7944   21246452.7954
       234.0004        193.0004
 -12619349.11449  -9600789.14349  22017733.5104   22017737.7264   22017732.4044
       234.0004        180.0004
  -2138821.07949  -1657607.75149  24086952.8574   24086957.1384   24086952.1584
       208.0004        146.0004
  -7998556.46149  -6209514.83349  23230568.8054   23230571.4954   23230568.0654
       218.0004        153.0004
 11 10 14 14 21  0.0000000  0  9G08G22G16G03G06G19G18G07G21
   -842096.05849   -551221.85049  24285392.1464   24285399.8904   24285392.6054
       204.0004        139.0004
 -17938097.72949 -13959064.57049  21431338.0814   21431342.3014   21431338.2854
       234.0004        190.0004
 -14357242.77949 -11145165.39349  21694776.5314   21694782.1274   21694776.2844
       234.0004        185.0004
 -22843432.00349 -17523873.80949  19691781.0584   19691786.2634   19691780.9094
       242.0004        203.0004
 -20675312.38949 -16088402.83549  20488525.2064   20488530.4854   20488525.3804
       238.0004        198.0004
 -18489577.25749 -14369356.64249  21235063.9404   21235067.7624   21235063.7824
       235.0004        193.0004
 -12593434.86349  -9580596.22349  22022663.7094   22022668.7074   22022663.9834
       233.0004        180.0004
  -2104161.74249  -1630600.51749  24093545.7414   24093552.3174   24093546.8224
       208.0004        145.0004
  -7917723.32749  -6146528.02349  23245949.0024   23245955.5374   23245950.0804
       216.0004        154.0004
 11 10 14 14 21 30.0000000  0  9G08G22G16G03G06G19G18G07G21
   -866403.28749   -570162.51849  24280765.9854   24280774.3474   24280765.4004
       206.0004        137.0004
 -17987369.61149 -13997458.20849  21421963.6114   21421965.3714   21421962.2034
       236.0004        190.0004
 -14281577.18949 -11086205.25749  21709175.8234   21709181.0444   21709174.6244
       234.0004        186.0004
 -22838651.88049 -17520149.04949  19692691.4884   19692696.1644   19692691.3654
       242.0004        203.0004
 -20650970.91649 -16069435.47349  20493157.5184   20493162.1334   20493157.4424
       238.0004        198.0004
 -18549117.42349 -14415751.55249  21223734.5484   21223737.1904   21223734.0774
       236.0004        193.0004
 -12567008.81949  -9560004.49849  22027692.4914   22027697.5824   22027692.6244
       232.0004        180.0004
  -2068974.67449  -1603182.09549  24100242.7244   24100249.5144   24100241.4804
       206.0004        145.0004
  -7836735.23149  -6083420.50749  23261360.7934   23261367.1444   23261360.6184
       218.0004        154.0004
 11 10 14 14 22  0.0000000  0  9G08G22G16G03G06G19G18G07G21
   -890111.80149   -588636.62649  24276254.7784   24276265.4294   24276254.3854
       201.0004        136.0004
 -18036141.71449 -14035462.41349  21412680.7684   21412685.0554   21412680.6894
       233.0004        191.0004
 -14205478.04149 -11026907.28549  21723655.3814   21723661.3694   21723656.1754
       233.0004        186.0004
 -22833355.70649 -17516022.17249  19693699.0884   19693703.9234   19693699.1074
       241.0004        203.0004
 -20626222.94949 -16050151.36549  20497866.7944   20497871.5364   20497867.0104
       238.0004        198.0004
 -18608344.77949 -14461902.71449  21212465.1544   21212466.4704   21212464.1254
       237.0004        194.0004
 -12540071.87049  -9539014.68149  22032819.3674   22032823.2694   22032818.7674
       233.0004        180.0004
  -2033261.34849  -1575353.61749  24107037.0824   24107045.1394   24107037.1844
       206.0004        144.0004
  -7755592.99649  -6020192.88549  23276803.2414   23276808.0684   23276803.9854
       219.0004        156.0004
 11 10 14 14 22 30.0000000  0  9G08G22G16G03G06G19G18G07G21
   -913221.04949   -606643.83549  24271857.1834   24271864.9864   24271857.9544
       204.0004        138.0004
 -18084412.43249 -14073075.92949  21403496.7114   21403498.4344   21403495.1364
       235.0004        191.0004
 -14128947.51949 -10967273.17749  21738218.7734   21738225.1354   21738219.5454
       233.0004        185.0004
 -22827543.20449 -17511492.95249  19694804.2314   19694809.5554   19694804.5454
       242.0004        202.0004
 -20601069.17549 -16030551.04349  20502652.8104   20502658.1684   20502653.0314
       237.0004        198.0004
 -18667258.17149 -14507809.21749  21201252.6704   21201256.3814   21201252.1404
       234.0004        195.0004
 -12512624.88349  -9517627.42549  22038042.3264   22038045.7614   22038041.7164
       233.0004        180.0004
  -1997023.69549  -1547116.55649  24113932.3574   24113941.4534   24113932.5684
       204.0004        142.0004
  -7674297.98949  -5956846.20649  23292273.8464   23292278.3324   23292273.6154
       221.0004        156.0004
