     2.11           OBSERVATION DATA    M (MIXED)           RINEX VERSION / TYPE
teqc  2012Jun6                          20151118 02:01:21UTCPGM / RUN BY / DATE
OSX ker:10.8.0|Core 2 Duo|gcc 4.2 -m64|OSX ker:10.8.0+|=+   COMMENT
     2              OBSERVATION DATA    M (MIXED)           COMMENT
CCRINEXO V2.3.3 UX  BKG Frankfurt       11-OCT-11 00:16     COMMENT
Concatenated RINEX hourly files (24/24)                     COMMENT
JPS2RIN 1.40 lnx    SAC                 10-OCT-11 01:01     COMMENT
build Feb  6 2004 (c) Javad Navigation Systems              COMMENT
Stazione Astronomica Cagliari                               COMMENT
/home/srv/htdocs/glonass/hdata/CAGZ.tps                     COMMENT
SE TPS 8b1daea3                                             COMMENT
CAGZ                                                        MARKER NAME
12725M004                                                   MARKER NUMBER
SAC                 SAC-DIST                                OBSERVER / AGENCY
AGNV7TGA2O0         TPS E_GGD           3.3 Jul,10,2008 p4  REC # / TYPE / VERS
RRA052              JPSREGANT_DD_E  NONE                    ANT # / TYPE
  4893378.7999   772650.4734  4004179.0402                  APPROX POSITION XYZ
        0.0945        0.0000        0.0000                  ANTENNA: DELTA H/E/N
     1     1                                                WAVELENGTH FACT L1/2
     7    C1    P1    P2    L1    L2    D1    D2            # / TYPES OF OBSERV
    30.0000                                                 INTERVAL
teqc windowed: start @ 2011 Oct 10 16:00:00.000             COMMENT
teqc windowed: delta = 14400.000 sec                        COMMENT
  2011    10    10    16     0    0.0000000     GPS         TIME OF FIRST OBS
    15                                                      LEAP SECONDS
                                                            END OF HEADER
 11 10 10 16  0  0.0000000  1 17G03G06G11G14G16G18G19G22G32R01R03R07
                                R08R14R22R23R24
  20310425.289    20310424.7024   20310433.2844  106732080.663 8  83167888.23146
     -1440.937       -1122.808
  21298714.882    21298714.5344   21298723.3184  111925574.290 8  87214770.03845
     -1595.905       -1243.561
  21902024.824    21902024.4434   21902032.1224  115095991.251 6  89685208.39743
      2903.725        2262.628
  22949631.852    22949630.4834   22949639.6564  120601231.537 6  93974982.34142
      2526.333        1968.579
  23565535.548    23565535.0794   23565546.6584  123837696.386 5  96496911.17041
     -2963.006       -2308.846
  24442454.923    24442453.3874   24442463.5524  128446193.430 5 100087919.37741
     -2626.325       -2046.470
  20328184.838    20328183.7034   20328189.4684  106825399.558 8  83240596.84147
      1126.428         877.735
  21309767.445    21309766.3934   21309772.1984  111984053.119 7  87260265.78045
     -1449.502       -1129.487
  22789926.780    22789925.7154   22789938.9744  119762198.268 6  93321095.63242
      3835.158        2988.423
  22479815.475    22479814.259    22479826.092   120167798.890 5  93463949.228 4
      4671.173        3633.119
  23892215.252    23892213.788    23892227.871   127403774.515 4  99091848.139 4
     -1409.825       -1096.534
  20206612.794    20206612.286    20206613.889   108167976.237 7  84130788.687 6
     -2021.960       -1572.636
  19239323.712    19239323.369    19239328.107   103026302.322 8  80131742.629 7
      1786.149        1389.224
  24051100.620    24051099.603    24051064.573   128205910.430 4  99715731.923 3
     -1297.813       -1009.377
  20303178.830    20303178.612    20303184.556   108379835.580 8  84295473.288 6
     -1340.714       -1042.775
  19739001.096    19739000.744    19739007.957   105590410.035 8  82125921.131 7
      2260.854        1758.439
  23160836.950    23160836.411    23160844.727   123851424.867 5  96328922.455 5
      4168.478        3242.148
 11 10 10 16  0 30.0000000  0 17G03G06G11G14G16G18G19G22G32R01R03R07
                                R08R14R22R23R24
  20318694.594    20318693.9674   20318702.3424  106775535.852 8  83201749.39846
     -1456.215       -1134.713
  21307860.894    21307860.5354   21307869.3434  111973636.405 8  87252221.00645
     -1608.354       -1253.261
  21885465.230    21885464.7174   21885472.7794  115008969.842 7  89617399.59443
      2897.560        2257.831
  22935243.470    22935243.2154   22935252.6094  120525626.122 6  93916069.13342
      2513.871        1958.862
  23582460.672    23582460.1624   23582472.9344  123926637.450 6  96566215.60941
     -2966.527       -2311.561
  24457456.198    24457457.1774   24457466.1434  128525031.832 5 100149351.87341
     -2629.689       -2049.090
  20321793.664    20321792.4984   20321798.1334  106791813.277 8  83214425.72447
      1112.528         866.904
  21318077.861    21318077.1394   21318083.1944  112027726.315 7  87294296.83645
     -1462.130       -1139.315
  22768058.524    22768057.7704   22768070.5744  119647281.004 6  93231549.96842
      3825.882        2981.192
  22453623.476    22453623.068    22453634.766   120027794.276 5  93355057.227 4
      4662.288        3626.211
  23900200.328    23900199.220    23900211.768   127446348.778 5  99124961.405 4
     -1428.593       -1111.118
  20217996.003    20217994.596    20217996.773   108228906.491 7  84178178.866 6
     -2040.093       -1586.733
  19229387.097    19229386.383    19229391.211   102973089.961 8  80090355.282 7
      1761.201        1369.824
  24058458.431    24058456.154    24058422.173   128245123.444 4  99746231.009 3
     -1316.609       -1024.029
  20310756.589    20310756.446    20310762.009   108420285.472 8  84326934.299 6
     -1356.043       -1054.702
  19726358.662    19726358.100    19726365.281   105522780.054 8  82073320.067 7
      2247.637        1748.164
  23137446.776    23137448.191    23137456.884   123726356.893 5  96231647.475 5
      4169.195        3242.709
 11 10 10 16  1  0.0000000  0 17G03G06G11G14G16G18G19G22G32R01R03R07
                                R08R14R22R23R24
  20327050.511    20327049.9074   20327058.5734  106819447.679 8  83235966.38646
     -1471.234       -1146.415
  21317077.884    21317077.3914   21317086.2034  112022071.041 7  87289962.25945
     -1620.591       -1262.793
  21868940.359    21868939.6754   21868947.7554  114922133.049 6  89549734.63443
      2891.567        2253.175
  22920928.057    22920927.3534   22920936.6614  120450393.249 6  93857446.23742
      2501.623        1949.295
  23599405.159    23599405.2874   23599416.7164  124015682.496 6  96635601.02641
     -2969.812       -2314.140
  24472477.273    24472477.9204   24472484.4534  128603969.766 4 100210861.97441
     -2632.851       -2051.556
  20315481.931    20315480.7384   20315486.4104  106758644.172 8  83188579.68147
      1098.755         856.178
  21326460.973    21326459.7594   21326465.8114  112071778.139 7  87328622.92945
     -1474.597       -1149.034
  22746242.368    22746242.3834   22746255.8174  119532642.423 6  93142221.45042
      3816.763        2974.093
  22427480.844    22427482.051    22427493.396   119888057.264 5  93246373.352 4
      4653.500        3619.365
  23908288.101    23908287.467    23908300.849   127489480.142 5  99158507.937 4
     -1446.882       -1125.343
  20229479.193    20229477.976    20229480.011   108290379.506 7  84225991.193 6
     -2057.979       -1600.649
  19219589.345    19219589.270    19219593.990   102920626.417 8  80049550.344 7
      1736.441        1350.567
  24065917.907    24065917.932    24065885.642   128284897.493 4  99777166.473 3
     -1335.037       -1038.397
  20318419.914    20318419.872    20318425.619   108461193.437 8  84358751.589 6
     -1371.158       -1066.457
  19713790.341    19713790.066    19713796.632   105455547.484 8  82021028.095 7
      2234.507        1737.952
  23114055.558    23114055.533    23114063.760   123601266.731 5  96134355.230 5
      4170.155        3243.447
 11 10 10 16  1 30.0000000  0 17G03G06G11G14G16G18G19G22G32R01R03R07
                                R08R14R22R23R24
  20335492.962    20335492.2114   20335500.9004  106863812.140 8  83270536.07146
     -1486.374       -1158.214
  21326365.069    21326364.3134   21326372.8344  112070874.376 8  87327990.80545
     -1632.922       -1272.407
  21852451.073    21852450.8614   21852458.2494  114835479.031 7  89482212.08843
      2885.378        2248.348
  22906681.562    22906680.7074   22906690.7794  120375533.184 5  93799113.82542
      2489.053        1939.518
  23616369.916    23616369.0704   23616381.7114  124104825.852 5  96705063.06941
     -2973.110       -2316.675
  24487516.352    24487516.6174   24487525.5214  128683002.841 5 100272446.12541
     -2636.033       -2054.060
  20309249.033    20309247.9024   20309253.6994  106725890.928 8  83163057.68547
      1084.784         845.288
  21334915.140    21334913.7084   21334919.6754  112116203.977 7  87363240.46445
     -1487.120       -1158.796
  22724481.000    22724480.1514   22724493.1324  119418281.860 5  93053109.57642
      3807.344        2966.748
  22401389.991    22401391.049    22401402.755   119748588.389 6  93137898.006 4
      4644.425        3612.323
  23916480.834    23916479.450    23916492.233   127533163.065 4  99192483.496 4
     -1465.238       -1139.629
  20241063.188    20241061.764    20241063.495   108352388.530 7  84274220.417 6
     -2075.878       -1614.573
  19209931.898    19209931.312    19209935.975   102868909.549 8  80009326.155 7
      1711.478        1331.150
  24073486.899    24073484.299    24073456.573   128325226.993 4  99808533.807 3
     -1353.639       -1052.829
  20326168.488    20326168.144    20326174.503   108502556.825 8  84390923.095 6
     -1386.406       -1078.319
  19701296.139    19701295.841    19701302.520   105388712.294 8  81969045.201 7
      2221.144        1727.556
  23090659.694    23090659.060    23090667.094   123476153.638 5  96037045.151 5
      4170.792        3243.948
 11 10 10 16  2  0.0000000  0 17G03G06G11G14G16G18G19G22G32R01R03R07
                                R08R14R22R23R24
  20344021.862    20344021.5884   20344030.5884  106908633.914 8  83305462.11346
     -1501.835       -1170.262
  21335723.146    21335722.4004   21335731.3414  112120051.585 7  87366310.67545
     -1645.627       -1282.301
  21835997.536    21835996.7054   21836004.3454  114749014.387 7  89414837.12243
      2878.806        2243.225
  22892508.741    22892507.7614   22892517.0634  120301054.251 6  93741078.42142
      2476.112        1929.442
  23633352.258    23633351.6304   23633363.2504  124194070.413 5  96774603.97741
     -2976.619       -2319.453
  24502574.963    24502573.4764   24502585.2864  128762134.357 4 100334107.05941
     -2639.515       -2056.789
  20303096.916    20303095.6184   20303101.2894  106693560.536 8  83137865.18447
      1070.464         834.126
  21343440.635    21343439.6014   21343445.4824  112161007.552 7  87398152.33345
     -1499.885       -1168.737
  22702772.610    22702771.6494   22702785.6694  119304207.062 5  92964220.37942
      3797.595        2959.159
  22375352.970    22375352.744    22375363.450   119609396.676 6  93029638.219 4
      4634.911        3604.908
  23924773.087    23924775.484    23924788.131   127577399.491 4  99226889.544 4
     -1483.849       -1154.099
  20252747.331    20252746.269    20252748.246   108414936.312 7  84322868.682 6
     -2093.858       -1628.555
  19200414.590    19200414.072    19200418.759   102817946.018 8  79969687.892 7
      1686.043        1311.365
  24081153.337    24081152.915    24081129.528   128366113.877 4  99840334.752 3
     -1372.364       -1067.384
  20334003.638    20334003.354    20334009.218   108544381.185 8  84423453.131 6
     -1402.010       -1090.451
  19688877.789    19688877.564    19688884.700   105322282.880 8  81917377.904 7
      2207.367        1716.839
  23067259.439    23067258.926    23067267.415   123351025.175 5  95939723.099 5
      4171.028        3244.123
 11 10 10 16  2 30.0000000  0 17G03G06G11G14G16G18G19G22G32R01R03R07
                                R08R14R22R23R24
  20352639.089    20352638.2844   20352647.0884  106953915.082 8  83340746.11046
     -1517.104       -1182.146
  21345152.657    21345152.2434   21345160.8374  112169605.284 8  87404923.90445
     -1658.142       -1292.047
  21819580.998    21819580.0284   21819587.5034  114662743.462 7  89347613.09243
      2872.364        2238.208
  22878409.451    22878408.8984   22878417.3574  120226962.497 6  93683344.68142
      2463.145        1919.327
  23650355.336    23650353.6224   23650367.2264  124283416.548 5  96844224.00241
     -2979.938       -2322.016
  24517653.182    24517653.7504   24517659.1044  128841366.204 5 100395846.12541
     -2642.885       -2059.398
  20297025.667    20297024.5504   20297030.3974  106661657.435 8  83113005.63547
      1056.214         823.030
  21352038.824    21352037.5044   21352043.6874  112206190.179 7  87433359.56045
     -1512.452       -1178.523
  22681120.148    22681119.6444   22681132.5224  119190423.688 6  92875558.24442
      3787.782        2951.521
  22349368.326    22349366.500    22349377.407   119470488.645 6  92921599.056 4
      4625.426        3597.546
  23933176.963    23933175.552    23933187.288   127622189.631 5  99261726.306 4
     -1502.276       -1168.431
  20264532.188    20264531.430    20264532.975   108478021.898 7  84371935.222 6
     -2111.887       -1642.576
  19191039.180    19191038.551    19191043.515   102767739.939 8  79930638.754 7
      1660.798        1291.734
  24088930.501    24088929.418    24088905.122   128407558.688 4  99872569.612 3
     -1390.978       -1081.898
  20341925.429    20341925.390    20341931.122   108586670.250 8  84456344.595 6
     -1417.470       -1102.475
  19676536.651    19676536.260    19676543.143   105256265.671 8  81866031.207 7
      2193.594        1706.132
  23043857.977    23043857.173    23043865.569   123225886.825 5  95842393.355 5
      4171.361        3244.397
 11 10 10 16  3  0.0000000  0 17G03G06G11G14G16G18G19G22G32R01R03R07
                                R08R14R22R23R24
  20361341.672    20361340.8804   20361349.6204  106999647.040 8  83376381.38845
     -1531.755       -1193.573
  21354652.455    21354652.2814   21354660.8214  112219526.965 7  87443823.89645
     -1670.018       -1301.313
  21803199.267    21803198.4574   21803205.8644  114576659.382 7  89280534.65944
      2866.504        2233.636
  22864383.321    22864383.0444   22864391.9854  120153253.026 6  93625908.85542
      2450.802        1909.719
  23667374.483    23667373.7364   23667386.2414  124372853.824 5  96913915.04241
     -2982.551       -2324.050
  24532747.230    24532745.5414   24532754.8514  128920688.922 5 100457656.07341
     -2645.520       -2061.457
  20291034.959    20291033.8694   20291039.6364  106630175.303 8  83088474.12847
      1042.518         812.355
  21360706.634    21360705.7694   21360711.8704  112251742.198 7  87468854.64645
     -1524.370       -1187.822
  22659521.885    22659521.0764   22659533.7954  119076926.054 6  92787118.77242
      3778.614        2944.375
  22323432.337    22323433.054    22323444.451   119331859.816 6  92813777.062 4
      4616.432        3590.542
  23941676.486    23941675.827    23941689.623   127667522.347 5  99296984.980 4
     -1519.934       -1182.166
  20276416.079    20276414.820    20276416.111   108541634.729 7  84421411.855 6
     -2128.784       -1655.722
  19181803.525    19181803.072    19181807.824   102718284.043 8  79892173.103 7
      1636.126        1272.541
  24096808.874    24096805.634    24096783.808   128449550.304 4  99905229.830 3
     -1408.718       -1095.676
  20349933.621    20349933.483    20349939.067   108629416.014 8  84489591.279 6
     -1432.331       -1114.031
  19664271.522    19664271.094    19664278.062   105190655.772 8  81815001.326 7
      2180.366        1695.839
  23020451.910    23020452.840    23020461.309   123100732.980 5  95745051.600 5
      4172.210        3245.052
 11 10 10 16  3 30.0000000  0 17G03G06G11G14G16G18G19G22G32R01R03R07
                                R08R14R22R23R24
  20370127.863    20370127.1704   20370136.1144  107045820.413 8  83412360.61745
     -1546.569       -1205.118
  21364220.834    21364220.1634   21364229.1544  112269807.572 7  87483003.55245
     -1682.129       -1310.751
  21786852.145    21786851.5754   21786858.7764  114490754.745 7  89213596.04443
      2860.352        2228.835
  22850428.622    22850428.4334   22850437.3764  120079920.349 6  93568766.62042
      2437.924        1899.672
  23684408.740    23684408.1284   23684420.1234  124462371.234 5  96983668.51341
     -2985.284       -2326.216
  24547857.450    24547858.5794   24547862.8764  129000092.556 4 100519529.03741
     -2648.208       -2063.539
  20285123.036    20285121.8464   20285127.6374  106599107.531 8  83064265.49447
      1028.543         801.453
  21369443.785    21369442.4974   21369448.3584  112297653.110 7  87504629.37445
     -1536.433       -1197.223
  22637977.518    22637976.3164   22637989.7654  118963708.147 6  92698897.26042
      3769.148        2936.985
  22297549.794    22297550.354    22297562.006   119193505.078 6  92706168.231 4
      4607.120        3583.298
  23950279.279    23950276.663    23950289.683   127713385.201 4  99332656.027 4
     -1537.676       -1195.967
  20288395.459    20288394.424    20288396.064   108605761.712 7  84471288.386 6
     -2146.327       -1669.365
  19172706.608    19172706.026    19172710.709   102669571.152 8  79854285.344 7
      1611.267        1253.206
  24104785.449    24104784.154    24104760.870   128492076.750 5  99938306.073 3
     -1426.544       -1109.526
  20358025.774    20358025.207    20358030.856   108672609.988 8  84523186.560 6
     -1447.379       -1125.737
  19652081.492    19652081.193    19652087.960   105125447.297 8  81764283.651 7
      2166.757        1685.253
  22997043.930    22997044.591    22997052.815   122975557.115 5  95647692.697 5
      4172.792        3245.504
 11 10 10 16  4  0.0000000  0 17G03G06G11G14G16G18G19G22G32R01R03R07
                                R08R14R22R23R24
  20378999.294    20378998.7704   20379007.4124  107092439.460 8  83448687.12445
     -1561.538       -1216.783
  21373857.727    21373857.1564   21373866.5464  112320451.760 7  87522466.52445
     -1694.310       -1320.241
  21770540.007    21770539.1664   21770547.0214  114405035.803 7  89146802.12944
      2854.056        2223.942
  22836547.342    22836546.5724   22836555.1084  120006972.344 6  93511924.11942
      2425.035        1889.635
  23701460.304    23701459.1194   23701471.2094  124551971.236 5  97053486.33441
     -2988.134       -2328.433
  24562984.054    24562981.8464   24562994.9864  129079580.328 4 100581467.63141
     -2651.129       -2065.845
  20279291.021    20279289.9064   20279295.8104  106568460.513 8  83040384.71447
      1014.397         790.438
  21378249.030    21378247.9634   21378254.1214  112343926.449 7  87540686.51145
     -1548.599       -1206.700
  22616488.114    22616486.7704   22616499.1294  118850777.305 6  92610899.42942
      3759.386        2929.392
  22271720.981    22271720.557    22271732.088   119055432.818 6  92598779.098 4
      4597.580        3575.876
  23958975.709    23958978.282    23958989.630   127759780.976 4  99368741.575 4
     -1555.522       -1209.842
  20300471.689    20300470.636    20300472.111   108670407.173 7  84521568.173 6
     -2163.525       -1682.741
  19163749.721    19163749.292    19163753.696   102621606.889 8  79816979.847 7
      1586.137        1233.660
  24112862.265    24112862.977    24112838.960   128535140.536 4  99971800.020 3
     -1444.409       -1123.423
  20366202.500    20366202.008    20366207.235   108716257.479 8  84557134.583 6
     -1462.635       -1137.602
  19639967.674    19639967.486    19639974.197   105060648.558 8  81713884.667 7
      2152.922        1674.496
  22973633.380    22973633.163    22973641.709   122850366.971 5  95550322.693 5
      4173.071        3245.716
 11 10 10 16  4 30.0000000  0 17G03G06G11G14G16G18G19G22G32R01R03R07
                                R08R14R22R23R24
  20387955.721    20387955.2604   20387963.9824  107139506.322 8  83485362.57545
     -1576.321       -1228.306
  21383564.541    21383563.9444   21383573.1574  112371461.419 7  87562214.27545
     -1706.397       -1329.660
  21754263.925    21754263.6254   21754271.6264  114319506.736 7  89080156.16644
      2847.831        2219.089
  22822739.679    22822739.3514   22822748.2754  119934414.750 6  93455385.85642
      2412.118        1879.583
  23718525.771    23718525.0984   23718538.5644  124641654.321 5  97123368.90041
     -2990.718       -2330.403
  24578125.620    24578125.8854   24578133.8974  129159153.213 4 100643472.42941
     -2653.755       -2067.847
  20273539.816    20273538.7044   20273544.6184  106538238.465 8  83016835.07347
      1000.290         779.445
  21387123.686    21387122.3704   21387128.2014  112390563.069 7  87577026.72445
     -1560.619       -1216.072
  22595052.877    22595051.7714   22595064.1794  118738138.552 6  92523129.19242
      3749.708        2921.861
  22245945.805    22245945.510    22245956.491   118917649.476 6  92491614.659 4
      4587.931        3568.373
  23967777.502    23967777.554    23967790.873   127806708.184 3  99405240.519 4
     -1573.101       -1223.532
  20312644.489    20312643.308    20312645.136   108735568.469 7  84572249.161 6
     -2180.589       -1696.013
  19154933.014    19154932.583    19154937.055   102574394.689 8  79780259.296 7
      1561.228        1214.283
  24121041.255    24121041.899    24121021.368   128578741.146 4 100005711.633 3
     -1462.147       -1137.227
  20374464.432    20374464.206    20374469.734   108760361.450 8  84591437.653 6
     -1477.719       -1149.338
  19627931.874    19627931.718    19627938.810   104996265.345 8  81663808.866 7
      2139.159        1663.789
  22950221.374    22950220.236    22950228.967   122725167.366 5  95452945.321 5
      4173.504        3246.058
 11 10 10 16  5  0.0000000  0 16G03G06G11G14G16G18G19G22G32R01R07R08
                                R14R22R23R24
  20396996.579    20396995.8174   20397004.4484  107187014.478 8  83522381.89545
     -1591.033       -1239.761
  21393339.987    21393339.5374   21393348.3824  112422830.954 7  87602242.45345
     -1718.431       -1339.036
  21738023.482    21738022.9604   21738030.7354  114234163.032 7  89013654.66144
      2841.565        2214.206
  22809006.040    22809005.1744   22809014.8224  119862245.215 6  93399149.97142
      2399.020        1869.357
  23735607.231    23735605.3324   23735618.3444  124731412.240 5  97193309.74741
     -2993.277       -2332.392
  24593282.098    24593282.5194   24593293.2224  129238804.821 4 100705538.66541
     -2656.604       -2070.062
  20267868.933    20267867.7904   20267873.7564  106508437.877 8  82993613.85047
       986.192         768.459
  21396066.124    21396065.0474   21396070.7884  112437555.920 7  87613644.52145
     -1572.545       -1225.359
  22573673.345    22573672.2154   22573684.7184  118625789.007 6  92435584.31043
      3740.019        2914.289
  22220224.672    22220223.969    22220234.612   118780153.216 6  92384673.491 4
      4578.300        3560.884
  20324912.077    20324910.985    20324912.472   108801237.272 7  84623324.882 6
     -2197.508       -1709.171
  19146256.229    19146255.574    19146260.189   102527930.215 8  79744120.305 7
      1536.198        1194.820
  24129318.193    24129319.734    24129299.740   128622870.218 4 100040034.133 3
     -1479.879       -1151.014
  20382811.416    20382810.950    20382816.756   108804916.791 8  84626091.789 6
     -1492.832       -1161.088
  19615973.598    19615973.102    19615980.195   104932295.393 8  81614054.489 7
      2125.274        1652.995
  22926804.937    22926804.880    22926813.417   122599955.572 5  95355558.469 5
      4173.819        3246.304
 11 10 10 16  5 30.0000000  0 16G03G06G11G14G16G18G19G22G32R01R07R08
                                R14R22R23R24
  20406120.231    20406119.6284   20406128.2474  107234960.144 8  83559742.12945
     -1605.569       -1251.089
  21403183.197    21403182.5714   21403191.4074  112474556.633 7  87642548.14245
     -1730.233       -1348.231
  21721818.172    21721817.6924   21721825.2914  114149002.657 7  88947296.01444
      2835.470        2209.456
  22795346.026    22795344.9494   22795355.7514  119790463.586 6  93343216.35142
      2386.105        1859.295
  23752700.324    23752699.5734   23752711.8424  124821239.344 5  97263304.55741
     -2995.532       -2334.202
  24608453.558    24608454.5974   24608461.6864  129318530.452 4 100767662.52241
     -2658.855       -2071.826
  20262278.262    20262276.9274   20262282.6374  106479057.017 8  82970719.68447
       972.214         757.571
  21405075.360    21405074.3244   21405080.1104  112484900.123 7  87650536.10345
     -1584.114       -1234.372
  22552349.008    22552348.2864   22552359.3974  118513727.889 6  92348264.17943
      3730.425        2906.816
  22194556.035    22194555.588    22194566.751   118642944.098 6  92277955.645 4
      4568.678        3553.406
  20337273.135    20337271.959    20337273.591   108867406.712 7  84674789.992 6
     -2214.119       -1722.093
  19137718.449    19137717.813    19137722.382   102482210.954 8  79708560.924 7
      1511.406        1175.539
  24137693.001    24137695.623    24137681.871   128667521.375 4 100074762.824 3
     -1497.213       -1164.463
  20391241.803    20391241.600    20391247.418   108849920.438 8  84661094.603 6
     -1507.726       -1172.671
  19604092.236    19604091.836    19604098.979   104868738.802 8  81564621.614 7
      2111.518        1642.295
  22903386.690    22903387.266    22903394.811   122474730.778 5  95258161.495 5
      4174.210        3246.607
 11 10 10 16  6  0.0000000  0 16G03G06G11G14G16G18G19G22G32R01R07R08
                                R14R22R23R24
  20415327.843    20415327.4854   20415335.9394  107283347.813 8  83597446.77946
     -1620.093       -1262.410
  21413094.801    21413094.3834   21413103.1284  112526643.302 7  87683135.12945
     -1742.068       -1357.451
  21705648.321    21705648.0344   21705655.6254  114064032.571 7  88881085.63344
      2829.334        2204.674
  22781762.065    22781761.4564   22781770.7654  119719078.298 6  93287591.54542
      2373.049        1849.128
  23769807.822    23769805.9194   23769820.9804  124911138.579 5  97333355.52341
     -2997.647       -2335.836
  24623641.559    24623639.6204   24623647.4964  129398334.141 4 100829847.25641
     -2661.170       -2073.662
  20256768.211    20256767.1034   20256772.7454  106450102.791 8  82948157.96547
       958.177         746.630
  21414151.921    21414151.0804   21414157.2054  112532599.351 7  87687704.32645
     -1595.677       -1243.385
  22531079.712    22531079.1674   22531091.0904  118401963.021 6  92261174.89543
      3720.704        2899.250
  22168942.165    22168942.398    22168953.321   118506031.234 6  92171468.217 4
      4558.988        3545.860
  20349728.277    20349727.151    20349728.554   108934080.638 7  84726647.475 6
     -2230.649       -1734.949
  19129320.871    19129320.551    19129324.850   102437242.963 8  79673585.859 7
      1486.564        1156.215
  24146174.281    24146171.970    24146162.869   128712697.329 3 100109899.641 3
     -1514.469       -1177.879
  20399757.175    20399757.025    20399763.309   108895377.892 8  84696450.369 6
     -1522.639       -1184.276
  19592290.064    19592289.626    19592296.706   104805603.925 8  81515516.741 7
      2097.600        1631.468
  22879969.136    22879968.653    22879976.245   122349500.759 6  95160760.480 5
      4174.564        3246.877
 11 10 10 16  6 30.0000000  0 15G03G06G11G14G16G18G19G22G32R01R07R08
                                R22R23R24
  20424618.207    20424617.7784   20424626.3514  107332168.015 8  83635488.47145
     -1634.612       -1273.724
  21423073.731    21423073.1784   21423081.8194  112579081.730 7  87723996.22045
     -1753.891       -1366.672
  21689514.402    21689513.3174   21689521.3654  113979245.463 7  88815017.84544
      2823.092        2199.804
  22768251.964    22768251.8534   22768260.5764  119648083.754 6  93232271.21642
      2359.836        1838.838
  23786926.747    23786925.4634   23786939.9484  125001099.079 5  97403454.24341
     -2999.689       -2337.425
  24638839.806    24638838.4854   24638847.2544  129478205.752 5 100892084.90741
     -2663.650       -2075.591
  20251338.274    20251337.1794   20251342.8994  106421568.518 8  82925923.48047
       944.048         735.619
  21423294.774    21423293.5744   21423299.9884  112580643.131 8  87725141.03245
     -1607.310       -1252.448
  22509866.637    22509866.2064   22509878.0634  118290488.356 6  92174311.74742
      3710.840        2891.554
  22143384.982    22143384.811    22143395.505   118369409.737 6  92065207.395 4
      4549.092        3538.166
  20362274.754    20362273.932    20362275.767   109001244.777 7  84778886.252 6
     -2247.025       -1747.687
  19121062.261    19121061.702    19121066.031   102393018.738 8  79639189.278 7
      1461.681        1136.858
  20408356.723    20408356.324    20408362.505   108941281.015 8  84732152.765 6
     -1537.578       -1195.898
  19580565.230    19580564.949    19580572.049   104742885.411 8  81466735.711 7
      2083.538        1620.527
  22856547.096    22856546.936    22856554.431   122224259.454 5  95063350.707 5
      4174.800        3247.063
 11 10 10 16  7  0.0000000  0 15G03G06G11G14G16G18G19G22G32R01R07R08
                                R22R23R24
  20433990.639    20433989.8524   20433998.4424  107381418.894 8  83673865.74745
     -1648.759       -1284.747
  21433118.639    21433118.1954   21433127.2704  112631870.789 7  87765130.52445
     -1765.360       -1375.606
  21673413.815    21673413.5144   21673421.5984  113894641.464 7  88749092.71044
      2817.180        2195.205
  22754817.632    22754816.6784   22754825.7874  119577481.793 6  93177256.79342
      2346.931        1828.781
  23804056.850    23804057.2744   23804069.0654  125091117.375 5  97473597.97541
     -3001.403       -2338.718
  24654051.574    24654050.3204   24654059.0544  129558142.867 5 100954373.60841
     -2665.577       -2077.089
  20245988.235    20245987.2274   20245993.0884  106393454.500 8  82904016.46247
       930.235         724.858
  21432502.016    21432500.9074   21432507.2574  112629029.167 7  87762844.42645
     -1618.446       -1261.129
  22488709.658    22488708.2504   22488720.4564  118179305.002 6  92087675.58542
      3701.337        2884.166
  22117882.018    22117881.460    22117891.678   118233081.843 6  91959174.950 4
      4539.503        3530.705
  20374912.560    20374911.597    20374913.959   109068896.082 7  84831503.927 6
     -2262.970       -1760.089
  19112942.252    19112941.821    19112946.660   102349537.747 8  79605370.766 7
      1437.083        1117.730
  20417039.064    20417038.625    20417045.092   108987628.642 8  84768200.883 6
     -1552.212       -1207.279
  19568919.137    19568918.611    19568925.451   104680585.149 8  81418279.981 7
      2069.781        1609.825
  22833126.100    22833125.543    22833132.879   122099008.305 6  94965933.262 5
      4175.338        3247.472
 11 10 10 16  7 30.0000000  0 15G03G06G11G14G16G18G19G22G32R01R07R08
                                R22R23R24
  20743237.325    20743236.9094   20743245.3614  109006521.605 8  84940179.51945
     -1663.295       -1296.071
  21743023.697    21743023.0934   21743032.4214  114260431.318 7  89034138.69645
     -1777.240       -1384.859
  21957143.378    21957142.9094   21957150.9104  115385648.081 7  89910916.13944
      2810.780        2190.220
  23041250.976    23041249.6634   23041259.4944  121082701.335 6  94350155.24742
      2333.474        1818.289
  24120990.134    24120989.1134   24121003.0524  126756611.293 5  98771385.04041
     -3003.401       -2340.335
  24969067.738    24969064.6404   24969074.5904  131213564.951 5 102244312.93141
     -2667.823       -2078.823
  20540512.026    20540510.9364   20540516.7044  107941186.840 8  84110041.67447
       915.930         713.711
  21741567.405    21741566.4804   21741572.6584  114253177.743 7  89028414.73445
     -1629.964       -1270.102
  22767401.970    22767401.3714   22767412.7354  119643842.735 6  93228874.03043
      3691.280        2876.311
  22392228.643    22392228.079    22392237.901   119699621.830 6  93099817.506 4
      4529.255        3522.742
  20687433.608    20687432.670    20687434.375   110741844.683 7  86132686.163 6
     -2279.333       -1772.811
  19404754.959    19404754.378    19404759.112   103912180.726 8  80820759.787 7
      1412.097        1098.296
  20725597.912    20725597.412    20725603.761   110634735.501 8  86049283.966 6
     -1567.267       -1218.985
  19857144.637    19857144.402    19857151.487   106222399.509 8  82617468.957 7
      2055.448        1598.681
  23109495.967    23109494.697    23109502.718   123576882.697 5  96115391.205 5
      4175.241        3247.408
 11 10 10 16  8  0.0000000  0 15G03G06G11G14G16G18G19G22G32R01R07R08
                                R22R23R24
  20752775.445    20752774.8494   20752783.7454  109056645.436 8  84979237.02145
     -1678.059       -1307.578
  21753204.798    21753204.3834   21753213.5634  114313933.299 7  89075828.51745
     -1789.297       -1394.260
  21941116.773    21941116.4464   21941124.5214  115301427.989 7  89845290.17144
      2804.102        2185.010
  23027969.718    23027969.4334   23027977.6304  121012907.326 6  94295770.38742
      2319.638        1807.501
  24138143.689    24138143.1324   24138157.0294  126846751.590 5  98841623.80441
     -3005.621       -2342.031
  24984304.869    24984304.7074   24984311.9194  131293642.424 5 102306710.97141
     -2670.401       -2080.800
  20535325.798    20535324.5524   20535330.1124  107913932.031 9  84088804.16947
       901.312         702.323
  21750907.078    21750905.9014   21750911.7434  114302256.633 7  89066658.02545
     -1641.678       -1279.230
  22746359.782    22746357.7894   22746370.3904  119533263.294 6  93142708.44643
      3680.920        2868.255
  22366840.395    22366839.224    22366849.133   119563905.807 6  92994260.942 4
      4518.677        3514.513
  20700254.190    20700253.032    20700255.221   110810473.722 7  86186064.297 6
     -2295.872       -1785.678
  19396916.036    19396915.302    19396919.748   103870202.446 8  80788110.049 7
      1386.757        1078.585
  20734449.306    20734449.080    20734455.390   110681986.646 8  86086034.831 6
     -1582.526       -1230.858
  19845659.188    19845658.866    19845665.885   106160959.569 8  82569682.367 7
      2040.807        1587.292
  23086071.178    23086072.341    23086080.480   123451633.685 5  96017975.420 5
      4174.909        3247.147
 11 10 10 16  8 30.0000000  0 15G03G06G11G14G16G18G19G22G32R01R07R08
                                R22R23R24
  20762396.424    20762395.5894   20762404.3454  109107202.734 8  85018632.29245
     -1692.440       -1318.778
  21763453.604    21763452.9474   21763461.9394  114367789.167 7  89117794.09045
     -1801.067       -1403.428
  21925127.253    21925126.2294   21925133.8254  115217399.853 7  89779813.78044
      2797.762        2180.069
  23014764.803    23014765.1144   23014774.0554  120943519.985 6  94241702.41642
      2306.127        1796.991
  24155307.332    24155307.3584   24155320.4564  126936947.512 5  98911905.90741
     -3007.452       -2343.433
  24999556.714    24999554.7674   24999564.4844  131373786.498 5 102369160.95841
     -2672.480       -2082.458
  20530221.105    20530219.9754   20530225.7714  107887107.589 8  84067902.01447
       886.965         691.138
  21760310.935    21760309.8334   21760316.3934  114351677.348 7  89105167.67645
     -1653.025       -1288.072
  22725374.430    22725373.6564   22725385.2324  119422987.559 6  93056779.53743
      3670.799        2860.355
  22341509.560    22341508.400    22341518.051   119428499.187 6  92888945.021 4
      4508.382        3506.509
  20713164.575    20713163.644    20713165.446   110879586.046 7  86239818.324 6
     -2311.715       -1797.999
  19389216.840    19389216.193    19389220.857   103828974.527 8  80756043.924 7
      1361.768        1059.151
  20743385.857    20743385.567    20743391.293   110729688.099 8  86123135.931 6
     -1597.505       -1242.502
  19834254.492    19834254.252    19834261.368   106099952.712 8  82522232.613 7
      2026.329        1576.036
  23062651.283    23062650.654    23062658.626   123326387.657 5  95920561.962 5
      4174.832        3247.085
 11 10 10 16  9  0.0000000  0 15G03G06G11G14G16G18G19G22G32R01R07R08
                                R22R23R24
  20772100.093    20772099.4264   20772108.1544  109158195.920 8  85058367.21345
     -1707.068       -1330.181
  21773769.562    21773769.2404   21773778.4064  114422001.880 7  89160037.72545
     -1813.059       -1412.767
  21909174.379    21909173.6584   21909181.4474  115133568.419 7  89714490.66944
      2791.083        2174.875
  23001639.889    23001638.9034   23001648.3684  120874545.781 6  94187956.35842
      2292.222        1786.146
  24172482.882    24172480.8394   24172496.2964  127027199.974 5  98982232.05941
     -3009.340       -2344.941
  25014820.582    25014819.1374   25014827.2634  131453998.818 5 102431664.12141
     -2674.855       -2084.314
  20525199.400    20525198.3184   20525204.0634  107860718.410 8  84047339.03247
       872.348         679.753
  21769781.146    21769779.8974   21769785.8214  114401441.695 7  89143945.09145
     -1664.530       -1297.037
  22704447.487    22704447.1204   22704458.9464  119313021.374 6  92971091.82243
      3660.365        2852.217
  22316237.576    22316236.975    22316246.560   119293409.148 6  92783875.362 4
      4497.649        3498.168
  20726165.596    20726164.806    20726166.499   110949179.803 7  86293946.803 6
     -2327.842       -1810.543
  19381658.578    19381658.106    19381662.584   103788501.251 8  80724564.742 7
      1336.494        1039.496
  20752406.891    20752406.565    20752412.554   110777843.257 8  86160589.927 6
     -1612.777       -1254.380
  19822932.349    19822932.023    19822938.652   106039385.481 8  82475124.795 7
      2011.508        1564.506
  23039231.817    23039231.706    23039239.411   123201150.889 6  95823155.690 5
      4174.340        3246.705
 11 10 10 16  9 30.0000000  0 15G03G06G11G14G16G18G19G22G32R01R07R08
                                R22R23R24
  20781886.668    20781885.9024   20781894.5934  109209624.045 8  85098441.05045
     -1721.485       -1341.417
  21784153.685    21784153.5614   21784162.4704  114476570.641 7  89202558.80845
     -1824.866       -1421.969
  21893259.111    21893258.8524   21893265.9304  115049934.954 7  89649321.82144
      2784.499        2169.742
  22988592.236    22988593.0324   22988602.2124  120805987.258 6  94134534.21742
      2278.341        1775.330
  24189668.103    24189666.8504   24189681.3704  127117506.316 5  99052600.21941
     -3011.057       -2346.263
  25030095.544    25030097.2364   25030104.6044  131534278.381 5 102494219.66941
     -2677.035       -2086.008
  20520260.823    20520259.6014   20520265.3614  107834765.812 8  84027116.24047
       857.816         668.427
  21779316.230    21779314.8804   21779320.6444  114451548.056 8  89182989.01145
     -1675.874       -1305.877
  22683581.640    22683580.9884   22683591.7294  119203367.059 6  92885647.12143
      3649.967        2844.115
  22291025.642    22291025.129    22291034.333   119158638.974 6  92679054.491 4
      4486.964        3489.839
  20739256.055    20739254.859    20739256.659   111019253.484 7  86348448.557 6
     -2343.706       -1822.881
  19374241.563    19374241.175    19374245.755   103748782.959 8  80693672.772 7
      1311.396        1019.972
  20761513.042    20761512.853    20761518.572   110826452.462 8  86198397.062 6
     -1627.863       -1266.115
  19811692.542    19811692.222    19811699.010   105979260.879 8  82428361.244 7
      1996.756        1553.031
  23015812.470    23015813.067    23015820.959   123075925.725 6  95725758.466 5
      4174.018        3246.447
 11 10 10 16 10  0.0000000  0 15G03G06G11G14G16G18G19G22G32R01R07R08
                                R22R23R24
  20791755.016    20791754.4524   20791763.0554  109261483.877 8  85138851.28045
     -1735.727       -1352.509
  21794605.232    21794604.7944   21794613.8564  114531492.857 7  89245355.31045
     -1836.493       -1431.029
  21877381.625    21877380.9734   21877388.5664  114966498.741 7  89584306.67044
      2778.016        2164.692
  22975626.321    22975625.2384   22975635.4184  120737845.407 6  94081436.73242
      2264.524        1764.569
  24206863.247    24206861.4454   24206875.0134  127207862.256 5  99123006.99541
     -3012.505       -2347.373
  25045385.851    25045385.4454   25045397.1644  131614621.346 5 102556824.62641
     -2678.961       -2087.503
  20515405.092    20515403.9114   20515409.9204  107809249.440 8  84007233.36747
       843.372         657.174
  21788915.473    21788914.2744   21788920.0904  114501992.801 7  89222296.61645
     -1686.993       -1314.541
  22662774.276    22662773.1894   22662784.4954  119094024.732 6  92800445.50843
      3639.660        2836.095
  22265873.987    22265873.202    22265882.745   119024189.930 6  92574483.375 4
      4476.359        3481.600
  20752435.086    20752433.803    20752435.630   111089800.479 7  86403318.441 6
     -2359.380       -1835.071
  19366965.226    19366964.734    19366969.157   103709818.423 8  80663367.053 7
      1286.359        1000.503
  20770703.815    20770703.446    20770709.448   110875513.284 8  86236555.462 6
     -1642.766       -1277.705
  19800535.830    19800535.559    19800542.457   105919580.178 8  82381942.942 7
      1982.068        1541.610
  22992395.679    22992396.341    22992406.274   122950712.777 5  95628370.735 5
      4173.600        3246.142
 11 10 10 16 10 30.0000000  0 15G03G06G11G14G16G18G19G22G32R01R07R08
                                R22R23R24
  20801705.882    20801705.2814   20801714.0034  109313775.488 8  85179597.95945
     -1750.356       -1363.911
  21805123.957    21805123.4644   21805132.7444  114586768.805 7  89288427.44545
     -1848.552       -1440.425
  21861542.266    21861541.6944   21861549.1974  114883261.721 7  89519446.73044
      2771.083        2159.286
  22962739.480    22962738.5484   22962748.0674  120670123.938 6  94028666.84142
      2250.203        1753.390
  24224066.957    24224064.8014   24224079.7864  127298265.907 5  99193450.93641
     -3014.354       -2348.850
  25060685.318    25060684.6144   25060692.5664  131695027.534 4 102619478.84841
     -2681.423       -2089.410
  20510632.792    20510631.7564   20510637.7374  107784171.579 8  83987692.18947
       828.485         645.572
  21798578.814    21798577.7194   21798583.6994  114552774.558 7  89261866.82745
     -1698.469       -1323.479
  22642026.655    22642026.2464   22642036.4134  118984997.671 6  92715489.56543
      3628.841        2827.667
  22240783.036    22240782.528    22240791.585   118890066.503 6  92470165.514 4
      4465.140        3472.864
  20765701.943    20765700.382    20765702.624   111160819.042 7  86458555.102 6
     -2375.226       -1847.398
  19359829.685    19359829.164    19359833.681   103671608.425 8  80633648.203 7
      1260.879         980.684
  20779979.427    20779979.054    20779984.557   110925026.872 8  86275066.009 6
     -1658.129       -1289.659
  19789462.709    19789462.397    19789469.242   105860346.899 8  82335872.640 7
      1966.796        1529.729
  22968983.324    22968983.773    22968992.948   122825515.554 5  95530995.232 5
      4172.795        3245.510
 11 10 10 16 11  0.0000000  0 15G03G06G11G14G16G18G19G22G32R01R07R08
                                R22R23R24
  20811739.509    20811738.7634   20811747.4654  109366502.470 8  85220683.89345
     -1764.836       -1375.194
  21815710.837    21815710.6044   21815719.3664  114642402.535 7  89331778.37144
     -1860.388       -1449.657
  21845741.620    21845741.2654   21845749.0764  114800230.103 7  89454746.84844
      2764.275        2153.971
  22949933.398    22949933.2414   22949942.5364  120602830.599 6  93976230.55142
      2235.938        1742.273
  24241278.946    24241278.7054   24241293.8194  127388720.153 5  99263934.28741
     -3015.907       -2350.029
  25075999.658    25076000.8544   25076008.4354  131775499.871 5 102682184.56441
     -2683.599       -2091.092
  20505945.472    20505944.3144   20505950.1684  107759538.398 8  83968497.51547
       813.668         634.027
  21808306.857    21808305.9834   21808311.6464  114603896.523 7  89301702.14445
     -1709.730       -1332.265
  22621341.021    22621339.7614   22621350.8224  118876292.891 6  92630784.73943
      3618.048        2819.259
  22215755.134    22215753.994    22215764.180   118756276.891 6  92366107.280 4
      4454.037        3464.236
  20779056.611    20779055.435    20779057.906   111232309.947 7  86514159.137 6
     -2390.835       -1859.536
  19352836.193    19352835.604    19352840.283   103634158.576 8  80604520.576 7
      1235.646         961.055
  20789340.799    20789340.563    20789346.263   110974998.021 8  86313932.427 6
     -1673.331       -1301.478
  19778474.998    19778474.560    19778481.722   105801569.487 8  82290156.899 7
      1951.624        1517.929
  22945575.853    22945575.938    22945584.980   122700341.497 6  95433637.762 5
      4172.058        3244.939
 11 10 10 16 11 30.0000000  0 15G03G06G11G14G16G18G19G22G32R01R07R08
                                R22R23R24
  20821855.893    20821855.4224   20821863.9194  109419664.918 8  85262109.15945
     -1779.213       -1386.399
  21826365.855    21826365.0254   21826374.3574  114698394.232 7  89375408.23045
     -1872.225       -1458.875
  21829981.209    21829980.4694   21829987.9584  114717405.810 7  89390208.51044
      2757.452        2148.658
  22937211.151    22937209.7414   22937219.0554  120535968.888 6  93924130.58742
      2221.589        1731.110
  24258501.184    24258500.2694   24258516.2954  127479222.809 5  99334455.34341
     -3017.446       -2351.281
  25091326.140    25091328.1354   25091335.9444  131856037.981 4 102744941.58941
     -2685.551       -2092.608
  20501343.014    20501341.6984   20501347.5644  107735352.289 8  83949651.21447
       798.836         622.467
  21818099.615    21818098.5714   21818104.3924  114655357.935 7  89341801.96145
     -1720.910       -1340.968
  22600716.710    22600716.2774   22600726.2944  118767913.433 6  92546333.40943
      3607.312        2810.887
  22190789.104    22190788.851    22190798.185   118622825.281 6  92262311.924 4
      4442.827        3455.534
  20792499.866    20792498.583    20792500.553   111304271.194 7  86570128.994 6
     -2406.158       -1871.453
  19345985.010    19345984.296    19345988.762   103597469.709 8  80575984.823 7
      1210.402         941.424
  20798787.527    20798787.384    20798793.290   111025427.476 8  86353155.301 6
     -1688.528       -1313.296
  19767573.380    19767572.873    19767579.861   105743251.491 8  82244798.482 7
      1936.371        1506.068
  22922172.794    22922172.636    22922180.915   122575193.939 5  95336300.896 5
      4171.239        3244.290
 11 10 10 16 12  0.0000000  0 15G03G06G11G14G16G18G19G22G32R01R07R08
                                R22R23R24
  20832054.215    20832053.7554   20832062.5644  109473258.224 7  85303870.15145
     -1793.742       -1397.718
  21837087.767    21837087.1394   21837096.5114  114754739.563 7  89419313.64345
     -1884.214       -1468.221
  21814258.860    21814258.5634   21814266.1764  114634786.465 7  89325829.87444
      2750.394        2143.163
  22924569.089    22924568.8194   22924576.8534  120469537.973 6  93872366.33142
      2207.004        1719.732
  24275730.306    24275733.7324   24275745.2454  127569768.056 5  99405009.56841
     -3019.020       -2352.499
  25106663.872    25106662.7334   25106668.8534  131936637.062 4 102807746.19441
     -2687.748       -2094.404
  20496825.143    20496823.9014   20496829.6974  107711610.954 8  83931151.49047
       783.822         610.768
  21827956.012    21827955.0674   21827960.4504  114707153.150 7  89382161.87745
     -1732.201       -1349.761
  22580154.986    22580153.5394   22580164.0224  118659858.125 6  92462134.64843
      3596.287        2802.287
  22165887.153    22165886.888    22165895.870   118489711.662 6  92158779.444 4
      4431.312        3446.570
  20806028.494    20806027.809    20806029.804   111376695.288 7  86626458.854 5
     -2421.954       -1883.744
  19339274.885    19339274.354    19339279.041   103561538.876 8  80548038.654 7
      1184.917         921.603
  20808319.829    20808319.578    20808325.753   111076311.764 8  86392731.939 6
     -1703.864       -1325.230
  19756756.905    19756756.616    19756763.602   105685392.596 8  82199797.146 7
      1920.813        1493.960
  22898773.791    22898773.549    22898782.808   122450071.872 5  95238983.883 5
      4170.108        3243.411
 11 10 10 16 12 30.0000000  0 15G03G06G11G14G16G18G19G22G32R01R07R08
                                R22R23R24
  20842335.597    20842334.9794   20842343.8334  109527286.400 8  85345970.00145
     -1807.990       -1408.818
  21847878.147    21847877.5254   21847886.9534  114811443.260 7  89463498.30144
     -1895.877       -1477.304
  21798576.968    21798576.5494   21798584.4864  114552378.737 7  89261616.12544
      2743.601        2137.871
  22912011.568    22912010.8734   22912019.1204  120403545.970 6  93820944.05342
      2192.584        1708.509
  24292971.623    24292971.3434   24292985.4304  127660358.539 5  99475599.04541
     -3020.239       -2353.408
  25122012.931    25122013.9384   25122020.8594  132017300.679 4 102870600.95941
     -2689.585       -2095.781
  20492393.218    20492392.0354   20492397.9644  107688321.194 8  83913003.63447
       768.985         599.215
  21837876.270    21837875.2564   21837881.0204  114759285.838 7  89422784.75645
     -1743.158       -1358.297
  22559654.963    22559654.2124   22559664.6774  118552134.298 6  92378194.17343
      3585.404        2793.821
  22141049.374    22141049.421    22141059.075   118356944.395 6  92055516.342 4
      4419.980        3437.750
  20819645.851    20819644.821    20819646.114   111449585.705 7  86683151.393 5
     -2437.192       -1895.589
  19332707.727    19332707.159    19332711.430   103526371.255 8  80520686.092 7
      1159.732         902.014
  20817938.229    20817938.100    20817944.069   111127655.637 8  86432666.019 6
     -1718.904       -1336.919
  19746027.870    19746027.585    19746034.632   105628000.834 8  82155159.138 7
      1905.470        1482.032
  22875382.666    22875382.701    22875389.743   122324983.494 6  95141693.054 5
      4169.211        3242.717
 11 10 10 16 13  0.0000000  0 15G03G06G11G14G16G18G19G22G32R01R07R08
                                R22R23R24
  20852698.335    20852697.6304   20852706.3624  109581741.180 8  85388402.28045
     -1822.164       -1419.869
  21858735.140    21858734.5664   21858743.6994  114868496.887 7  89507955.63544
     -1907.533       -1486.390
  21782934.319    21782934.0194   21782941.9344  114470176.428 7  89197562.45244
      2736.725        2132.509
  22899535.745    22899535.3074   22899543.7904  120337988.144 6  93769860.12342
      2178.078        1697.209
  24310217.536    24310217.3824   24310231.4984  127750984.449 5  99546216.10641
     -3021.316       -2354.253
  25137372.818    25137374.9244   25137381.1274  132098019.908 4 102933499.09541
     -2691.468       -2097.272
  20488045.991    20488044.9054   20488050.8704  107665476.861 8  83895202.87747
       754.126         587.629
  21847859.736    21847858.2814   21847864.4744  114811746.533 7  89463663.22545
     -1754.067       -1366.805
  22539217.884    22539216.5894   22539227.8584  118444736.589 6  92294507.82043
      3574.538        2785.344
  22116276.701    22116276.241    22116286.314   118224519.354 6  91952519.403 4
      4408.489        3428.810
  20833347.322    20833345.970    20833347.521   111522929.580 7  86740196.627 5
     -2452.240       -1907.298
  19326281.355    19326280.789    19326285.461   103491959.564 8  80493921.487 7
      1134.530         882.409
  20827641.625    20827641.464    20827647.517   111179451.994 8  86472952.033 6
     -1733.995       -1348.662
  19735385.722    19735385.324    19735392.362   105571071.806 8  82110881.037 7
      1889.966        1469.972
  22851995.372    22851995.437    22852003.159   122199923.642 6  95044424.413 5
      4168.271        3241.984
 11 10 10 16 13 30.0000000  0 15G03G06G11G14G16G18G19G22G32R01R07R08
                                R22R23R24
  20863140.971    20863140.0524   20863148.9884  109636617.361 7  85431162.91945
     -1836.190       -1430.797
  21869657.600    21869657.1794   21869666.5584  114925895.607 7  89552681.87444
     -1919.021       -1495.333
  21767331.094    21767329.9074   21767337.5224  114388176.354 7  89133666.35144
      2729.951        2127.230
  22887142.425    22887142.5674   22887150.9974  120272862.936 6  93719113.28743
      2163.656        1685.981
  24327469.354    24327467.6344   24327483.2414  127841639.205 5  99616855.62441
     -3022.243       -2354.975
  25152743.717    25152742.6534   25152749.5594  132178789.692 4 102996436.65041
     -2693.077       -2098.485
  20483783.128    20483781.9804   20483787.8884  107643074.985 9  83877746.88447
       739.353         576.120
  21857903.184    21857902.3634   21857908.6614  114864529.126 7  89504792.51645
     -1764.761       -1375.137
  22518842.728    22518841.4614   22518852.5924  118337663.221 6  92211074.20143
      3563.676        2776.887
  22091568.404    22091566.996    22091576.678   118092435.846 6  91849788.097 4
      4397.090        3419.948
  20847131.541    20847130.410    20847132.207   111596719.933 7  86797589.133 5
     -2467.086       -1918.847
  19319995.671    19319994.995    19319999.685   103458299.947 8  80467741.818 7
      1109.500         862.944
  20837428.665    20837428.601    20837434.809   111231696.166 8  86513586.350 6
     -1748.905       -1360.261
  19724829.789    19724829.181    19724836.552   105514604.388 8  82066961.957 7
      1874.516        1457.957
  22828612.858    22828613.075    22828621.428   122074890.788 6  94947176.764 5
      4167.295        3241.223
 11 10 10 16 14  0.0000000  0 15G03G06G11G14G16G18G19G22G32R01R07R08
                                R22R23R24
  20873662.278    20873661.4804   20873670.3124  109691907.858 8  85474246.39845
     -1849.967       -1441.530
  21880644.961    21880644.7394   21880653.6464  114983633.223 7  89597672.18644
     -1930.275       -1504.113
  21751764.098    21751763.8344   21751770.8394  114306374.426 7  89069924.65544
      2723.381        2122.112
  22874831.455    22874831.1844   22874839.2144  120208167.679 6  93668701.51343
      2149.265        1674.739
  24344724.714    24344724.5684   24344739.9524  127932314.468 5  99687511.10341
     -3022.915       -2355.504
  25168120.582    25168118.7964   25168132.8164  132259602.799 4 103059407.98341
     -2694.569       -2099.629
  20479603.434    20479602.3864   20479608.3294  107621111.699 9  83860632.65647
       724.717         564.714
  21868007.448    21868006.7074   21868012.4624  114917626.548 7  89546167.13045
     -1775.228       -1383.289
  22498528.280    22498527.6094   22498537.9534  118230910.896 6  92127890.74143
      3552.979        2768.553
  22066922.558    22066922.399    22066931.137   117960691.511 6  91747320.585 4
      4385.716        3411.102
  20860997.766    20860996.813    20860998.643   111670948.472 7  86855322.441 5
     -2481.634       -1930.161
  19313849.326    19313848.719    19313853.372   103425386.858 8  80442142.784 7
      1084.592         843.570
  20847298.866    20847298.918    20847304.383   111284382.554 8  86554564.620 6
     -1763.649       -1371.722
  19714359.481    19714359.317    19714366.274   105458595.883 8  82023399.816 7
      1859.217        1446.058
  22805237.470    22805236.829    22805242.870   121949881.783 6  94849947.659 5
      4166.478        3240.590
 11 10 10 16 14 30.0000000  0 15G03G06G11G14G16G18G19G22G32R01R07R08
                                R22R23R24
  20884263.854    20884263.1034   20884271.9044  109747619.340 8  85517657.92045
     -1864.001       -1452.468
  21891698.016    21891697.5454   21891706.2954  115041716.239 7  89642931.64144
     -1941.817       -1513.099
  21736236.786    21736236.2634   21736243.8284  114224778.952 7  89006343.82444
      2716.447        2116.710
  22862604.083    22862603.4424   22862612.5034  120143912.097 6  93618632.32643
      2134.497        1663.235
  24361984.908    24361983.6484   24361999.8064  128023015.272 5  99758186.43341
     -3023.723       -2356.116
  25183508.894    25183508.8464   25183517.8924  132340464.794 4 103122417.39941
     -2696.141       -2100.916
  20475509.332    20475508.0494   20475514.0074  107599595.604 9  83843866.88247
       709.776         553.067
  21878172.571    21878171.6324   21878177.3644  114971044.051 7  89587791.15845
     -1785.874       -1391.590
  22478276.589    22478275.6964   22478286.0924  118124488.916 6  92044964.67143
      3541.904        2759.909
  22042343.106    22042341.963    22042351.291   117829297.216 6  91645125.314 4
      4374.002        3401.994
  20874947.357    20874946.298    20874947.964   111745619.393 7  86913399.814 5
     -2496.152       -1941.458
  19307844.008    19307843.343    19307847.661   103393227.375 8  80417129.892 7
      1059.445         824.004
  20857253.180    20857252.816    20857258.703   111337518.078 8  86595892.221 6
     -1778.631       -1383.382
  19703976.835    19703976.562    19703983.710   105403056.648 8  81980202.662 7
      1843.522        1433.848
  22781865.386    22781865.027    22781872.206   121824906.977 6  94752745.153 5
      4165.299        3239.667
 11 10 10 16 15  0.0000000  0 15G03G06G11G14G16G18G19G22G32R01R07R08
                                R22R23R24
  20894944.006    20894943.2364   20894951.9774  109803743.737 7  85561391.19345
     -1877.608       -1463.072
  21902815.033    21902814.4134   21902823.4704  115100137.014 7  89688454.29044
     -1952.917       -1521.756
  21720748.248    21720747.6964   21720754.8864  114143384.353 7  88942919.52244
      2709.849        2111.567
  22850459.831    22850459.0794   22850467.9624  120080091.841 6  93568902.36543
      2120.121        1652.030
  24379247.194    24379248.9334   24379261.7454  128113732.319 5  99828874.42441
     -3024.073       -2356.434
  25198902.870    25198900.6614   25198913.8814  132421367.373 4 103185458.41241
     -2697.309       -2101.815
  20471499.021    20471497.7904   20471503.6204  107578521.287 8  83827445.34447
       695.161         541.684
  21888397.226    21888396.0654   21888401.2694  115024772.864 7  89629657.75945
     -1796.086       -1399.549
  22458086.434    22458086.3484   22458096.8374  118018392.639 6  91962292.39043
      3531.198        2751.582
  22017826.591    22017826.539    22017835.323   117698248.882 6  91543199.105 4
      4362.514        3393.064
  20888976.907    20888975.243    20888977.075   111820719.194 7  86971810.752 5
     -2510.441       -1952.568
  19301977.573    19301977.103    19301981.646   103361814.905 8  80392698.008 7
      1034.691         804.756
  20867290.180    20867289.764    20867295.713   111391095.737 8  86637563.701 6
     -1793.222       -1394.724
  19693681.375    19693681.239    19693687.777   105347982.617 8  81937367.341 7
      1828.079        1421.837
  22758499.704    22758499.124    22758505.886   121699961.826 6  94655565.718 5
      4164.379        3238.954
 11 10 10 16 15 30.0000000  0 15G03G06G11G14G16G18G19G22G32R01R07R08
                                R22R23R24
  20905702.186    20905701.5694   20905710.4224  109860278.685 8  85605444.37545
     -1891.304       -1473.739
  21913996.080    21913995.3974   21914004.3984  115158893.723 7  89734238.70344
     -1964.121       -1530.485
  21705296.791    21705296.7574   21705304.4054  114062191.273 7  88879652.24744
      2703.037        2106.254
  22838398.402    22838398.0894   22838406.5834  120016709.273 6  93519513.46243
      2105.417        1640.577
  24396513.738    24396513.3004   24396529.7894  128204462.307 5  99899572.48141
     -3024.551       -2356.760
  25214305.771    25214304.7794   25214312.0494  132502308.561 4 103248529.51741
     -2698.643       -2102.836
  20467572.760    20467571.5574   20467577.3584  107557888.925 8  83811368.19347
       680.374         530.163
  21898680.161    21898679.3484   21898684.5834  115078810.420 7  89671764.94244
     -1806.350       -1407.544
  22437959.754    22437958.7744   22437968.9144  117912623.333 6  91879874.89343
      3520.190        2743.006
  21993376.066    21993375.664    21993385.038   117567549.150 6  91441544.011 4
      4350.803        3383.954
  20903085.930    20903084.552    20903086.684   111896247.278 7  87030554.803 5
     -2524.696       -1963.654
  19296250.965    19296250.449    19296255.032   103331148.743 8  80368846.588 7
      1009.785         785.388
  20877409.348    20877409.166    20877414.662   111445114.459 8  86679578.228 6
     -1807.955       -1406.186
  19683473.632    19683473.168    19683479.765   105293376.031 8  81894895.583 7
      1812.399        1409.640
  22735140.335    22735140.600    22735147.425   121575048.255 6  94558410.839 5
      4163.237        3238.071
 11 10 10 16 16  0.0000000  0 16G03G06G11G14G16G18G19G20G22G32R01R07
                                R08R22R23R24
  20916538.690    20916538.1514   20916546.9514  109917224.892 8  85649818.01145
     -1904.841       -1484.287
  21925241.431    21925240.4774   21925249.4484  115217987.224 7  89780285.54644
     -1975.203       -1539.109
  21689885.755    21689885.1314   21689892.5324  113981202.370 7  88816544.06944
      2696.403        2101.096
  22826420.389    22826420.1644   22826429.7064  119953768.306 6  93470468.65643
      2090.822        1629.200
  24413781.134    24413781.1684   24413798.1714  128295204.571 5  99970280.06041
     -3024.713       -2356.880
  25229718.259    25229716.3694   25229724.9764  132583288.769 4 103311631.04341
     -2699.819       -2103.754
  20463731.144    20463729.9674   20463735.7364  107537701.545 8  83795637.77647
       665.668         518.700
  24942578.957                                   131074131.927 4
      4073.766
  21909021.816    21909020.5654   21909026.0794  115133156.568 7  89714112.58045
     -1816.481       -1415.440
  22417894.674    22417893.8824   22417905.1354  117807184.761 6  91797715.12443
      3509.235        2734.461
  21968991.969    21968991.353    21969001.208   117437203.112 6  91340164.029 4
      4339.138        3374.885
  20917273.722    20917272.520    20917274.935   111972198.944 7  87089628.294 5
     -2538.688       -1974.531
  19290663.988    19290663.417    19290667.834   103301230.002 8  80345576.494 7
       984.990         766.109
  20887611.847    20887611.619    20887617.424   111499575.860 8  86721937.060 6
     -1822.565       -1417.549
  19673353.405    19673353.247    19673360.100   105239241.587 8  81852791.042 7
      1796.772        1397.493
  22711788.212    22711787.475    22711794.051   121450170.785 6  94461284.054 5
      4162.151        3237.226
 11 10 10 16 16 30.0000000  0 16G03G06G11G14G16G18G19G20G22G32R01R07
                                R08R22R23R24
  20927453.371    20927452.7694   20927461.3034  109974581.613 8  85694511.53745
     -1918.793       -1495.169
  21936550.407    21936550.0954   21936558.7624  115277417.433 7  89826594.76544
     -1986.672       -1548.057
  21674513.666    21674512.5314   21674519.6134  113900419.409 7  88753596.37444
      2689.236        2095.506
  22814528.151    22814527.5944   22814536.8774  119891272.213 6  93421770.50343
      2075.690        1617.419
  24431052.730    24431050.9904   24431065.8744  128385956.735 5 100040995.38141
     -3025.288       -2357.336
  25245135.001    25245128.6634   25245139.4994  132664306.767 4 103374762.03041
     -2701.217       -2104.828
  20459974.751    20459973.5804   20459979.3304  107517961.118 8  83780255.64247
       650.497         506.881
  24919329.501                                   130951974.558 4
      4070.278
  21919422.182    21919421.1074   21919426.7064  115187810.106 7  89756699.74445
     -1826.966       -1423.614
  22397892.910    22397892.6774   22397904.1144  117702079.597 6  91715815.14443
      3497.883        2725.609
  21944674.703    21944674.132    21944683.945   117307214.320 6  91239061.893 4
      4326.879        3365.339
  20931541.304    20931540.479    20931542.633   112048574.120 7  87149031.192 5
     -2552.858       -1985.551
  19285216.174    19285215.831    19285220.335   103272059.397 8  80322888.288 7
       959.800         746.506
  20897896.724    20897896.739    20897902.733   111554480.047 8  86764640.287 6
     -1837.597       -1429.241
  19663322.240    19663322.105    19663329.168   105185582.627 8  81811056.316 7
      1780.599        1384.911
  22688441.984    22688442.145    22688449.367   121325332.564 6  94364187.775 5
      4160.557        3235.981
 11 10 10 16 17  0.0000000  0 16G03G06G11G14G16G18G19G20G22G32R01R07
                                R08R22R23R24
  20938446.377    20938445.6684   20938454.3384  110032350.542 8  85739526.25745
     -1932.554       -1505.883
  21947923.969    21947923.5864   21947932.7164  115337186.333 7  89873167.89444
     -1997.981       -1556.866
  21659179.857    21659179.8114   21659186.8874  113819846.334 7  88690812.22144
      2682.196        2090.019
  22802720.887    22802720.4624   22802730.1694  119829226.353 6  93373423.18543
      2060.657        1605.710
  24448324.781    24448323.6604   24448339.2314  128476719.277 5 100111718.69841
     -3025.619       -2357.597
  25260559.573    25260558.3114   25260569.2794  132745364.372 4 103437923.81541
     -2702.577       -2105.899
  20456304.076    20456302.8834   20456308.6184  107498671.593 8  83765224.85047
       635.385         495.104
  24896102.195                                   130829917.842 4
      4066.764
  21929881.073    21929879.6884   21929885.6284  115242771.939 7  89799527.12645
     -1837.212       -1431.594
  22377957.081    22377956.4114   22377967.8094  117597312.953 6  91634178.94543
      3486.523        2716.760
  21920425.751    21920425.395    21920433.605   117177589.137 6  91138242.546 4
      4314.682        3355.851
  20945887.509    20945886.838    20945889.076   112125371.394 7  87208762.379 5
     -2566.897       -1996.478
  19279909.109    19279908.612    19279913.274   103243639.867 8  80300784.248 7
       934.700         726.987
  20908265.902    20908265.556    20908271.596   111609829.828 8  86807690.078 6
     -1852.461       -1440.798
  19653381.709    19653381.163    19653388.020   105132404.998 8  81769695.964 7
      1764.460        1372.360
  22665104.795    22665104.600    22665111.894   121200539.156 6  94267126.351 5
      4158.887        3234.684
 11 10 10 16 17 30.0000000  0 16G03G06G11G14G16G18G19G20G22G32R01R07
                                R08R22R23R24
  20949517.101    20949516.5874   20949525.1964  110090528.245 7  85784859.50745
     -1945.946       -1516.317
  21959361.627    21959361.4054   21959370.3154  115397290.549 7  89920002.30344
     -2008.945       -1565.412
  21643887.968    21643887.4834   21643894.1984  113739482.256 7  88628190.92844
      2675.383        2084.713
  22790999.834    22790999.1724   22791007.5684  119767630.937 6  93325426.85143
      2045.741        1594.086
  24465596.721    24465596.7084   24465613.5164  128567487.303 5 100182446.31241
     -3025.585       -2357.594
  25275990.362    25275988.1624   25275998.7134  132826457.627 4 103501113.52441
     -2703.505       -2106.642
  20452718.936    20452717.7444   20452723.5264  107479832.025 8  83750544.67347
       620.573         483.560
  24872892.490                                   130707961.141 4
      4063.716
  21940398.254    21940397.0254   21940402.3544  115298037.792 7  89842591.42544
     -1847.138       -1439.324
  22358085.694    22358084.4084   22358095.2604  117492884.349 6  91552806.15243
      3475.385        2708.096
  21896244.015    21896244.175    21896252.641   117048328.376 6  91037706.614 4
      4302.674        3346.520
  20960312.090    20960310.940    20960313.243   112202584.092 7  87268816.676 5
     -2580.585       -2007.122
  19274741.718    19274741.192    19274745.918   103215968.744 8  80279262.304 7
       910.013         707.786
  20918717.931    20918717.501    20918723.740   111665622.235 8  86851084.150 6
     -1867.019       -1452.124
  19643530.458    19643530.113    19643536.942   105079709.438 8  81728710.558 7
      1748.555        1359.984
  22641776.650    22641776.216    22641783.648   121075791.103 6  94170100.189 5
      4157.585        3233.675
 11 10 10 16 18  0.0000000  0 16G03G06G11G14G16G18G19G20G22G32R01R07
                                R08R22R23R24
  20960665.815    20960665.1474   20960673.7524  110149113.553 8  85830510.37145
     -1959.695       -1527.037
  21970862.833    21970862.2894   21970871.4504  115457729.369 7  89967097.45144
     -2020.286       -1574.249
  21628634.997    21628634.5864   21628641.3904  113659328.391 7  88565733.42144
      2668.197        2079.125
  22779364.733    22779364.1704   22779373.1034  119706488.628 6  93277783.59143
      2030.398        1582.132
  24482870.798    24482869.9204   24482885.1664  128658258.934 5 100253176.65141
     -3025.752       -2357.738
  25291427.687    25291427.8574   25291431.8254  132907585.629 4 103564330.24341
     -2704.946       -2107.706
  20449219.620    20449218.4434   20449224.3984  107461443.822 8  83736216.20947
       605.341         471.697
  24849702.356                                   130586106.710 4
      4060.083
  21950971.894    21950971.1064   21950976.8624  115353605.996 7  89885891.31945
     -1857.364       -1447.296
  22338277.385    22338276.7124   22338288.1614  117388796.061 6  91471698.53743
      3463.831        2699.088
  21872132.006    21872131.632    21872141.168   116919435.323 6  90937456.688 4
      4290.232        3336.832
  20974813.285    20974812.004    20974814.039   112280208.408 7  87329191.126 5
     -2594.307       -2017.793
  19269714.018    19269713.481    19269717.848   103189045.707 8  80258322.208 7
       884.862         688.224
  20929253.125    20929252.513    20929258.401   111721857.197 8  86894822.418 6
     -1881.940       -1463.729
  19633770.147    19633769.790    19633776.714   105027498.861 8  81688102.364 7
      1732.180        1347.250
  22618457.468    22618457.178    22618463.743   120951091.082 6  94073111.413 5
      4155.783        3232.279
 11 10 10 16 18 30.0000000  0 16G03G06G11G14G16G18G19G20G22G32R01R07
                                R08R22R23R24
  20971892.240    20971891.6714   20971900.4604  110208109.192 8  85876480.97045
     -1973.342       -1537.671
  21982428.225    21982427.5954   21982437.0154  115518505.916 7  90014455.76344
     -2031.497       -1582.988
  21613422.999    21613422.4314   21613429.7204  113579389.817 7  88503443.67744
      2661.032        2073.531
  22767816.978    22767816.1134   22767825.1814  119645805.857 6  93230498.40743
      2015.082        1570.183
  24500146.175    24500145.8054   24500161.6114  128749035.267 5 100323910.67941
     -3025.947       -2357.842
  25306872.111    25306871.7434   25306882.6464  132988750.328 4 103627575.56241
     -2706.099       -2108.683
  20445807.329    20445806.2514   20445811.9864  107443511.868 8  83722243.26847
       590.115         459.828
  24826534.703                                   130464359.972 4
      4056.462
  21961604.359    21961603.1074   21961608.8424  115409478.537 7  89929428.35844
     -1867.479       -1455.182
  22318536.139    22318535.1484   22318546.4964  117285054.005 6  91390860.70143
      3452.239        2690.043
  21848090.433    21848089.896    21848098.796   116790917.187 6  90837498.355 4
      4277.637        3327.046
  20989391.281    20989389.733    20989392.089   112358246.171 7  87389887.132 5
     -2607.997       -2028.445
  19264826.764    19264826.180    19264830.509   103162874.674 8  80237967.002 7
       859.807         668.734
  20939870.939    20939870.488    20939876.953   111778538.341 8  86938907.724 6
     -1896.801       -1475.292
  19624102.080    19624101.690    19624108.840   104975780.025 8  81647876.624 7
      1715.732        1334.456
  22595148.159    22595147.241    22595154.693   120826445.878 6  93976165.250 5
      4153.864        3230.776
 11 10 10 16 19  0.0000000  0 16G03G06G11G14G16G18G19G20G22G32R01R07
                                R08R22R23R24
  20983196.356    20983195.3624   20983204.5864  110267511.644 8  85922768.56445
     -1986.671       -1548.052
  21994057.404    21994056.8984   21994066.0024  115579617.039 7  90062074.77344
     -2042.443       -1591.518
  21598252.196    21598251.7424   21598258.9544  113499665.816 7  88441321.13344
      2654.040        2068.081
  22756356.920    22756356.2854   22756364.7664  119585582.987 6  93183571.57143
      1999.933        1558.388
  24517421.275    24517418.6454   24517437.9184  128839811.564 5 100394644.65341
     -3025.698       -2357.663
  25322323.677    25322320.3314   25322335.0864  133069948.531 4 103690847.01941
     -2706.900       -2109.291
  20442481.979    20442480.7774   20442486.2794  107426035.450 8  83708625.28747
       575.112         448.140
  24803387.944                                   130342720.714 4
      4053.060
  21972293.713    21972292.3024   21972298.3614  115465651.630 7  89973199.58744
     -1877.272       -1462.807
  22298860.992    22298859.9444   22298870.4264  117181658.094 6  91310292.59243
      3440.891        2681.208
  21824118.719    21824117.809    21824126.781   116662775.046 6  90737832.448 4
      4265.294        3317.443
  21004045.171    21004044.249    21004045.751   112436690.741 7  87450899.561 5
     -2621.358       -2038.833
  19260079.419    19260078.897    19260083.222   103137453.177 8  80218194.765 7
       835.049         649.481
  20950572.254    20950572.279    20950578.408   111835663.155 8  86983338.106 6
     -1911.382       -1486.629
  19614525.588    19614525.395    19614532.129   104924553.707 8  81608033.953 7
      1699.462        1321.803
  22571849.156    22571849.397    22571855.296   120701856.151 6  93879262.266 5
      4152.224        3229.507
 11 10 10 16 19 30.0000000  0 16G03G06G11G14G16G18G19G20G22G32R01R07
                                R08R22R23R24
  20994577.042    20994576.8044   20994586.0054  110327320.703 7  85969373.00045
     -2000.449       -1558.788
  22005749.512    22005749.3414   22005758.8454  115641062.892 7  90109954.61944
     -2053.827       -1600.386
  21583122.438    21583121.6674   21583129.2014  113420158.441 7  88379367.39044
      2646.547        2062.242
  22744985.206    22744984.4764   22744993.1704  119525823.635 6  93137005.92643
      1984.219        1546.143
  24534693.404    24534693.4554   24534707.9864  128930586.725 5 100465377.70141
     -3025.914       -2357.801
  25337779.865    25337781.5834   25337791.1874  133151180.197 4 103754144.5614
     -2708.291       -2110.381
  20439243.303    20439242.0494   20439247.6994  107409016.695 8  83695363.93147
       559.602         436.057
  24780260.643                                   130221191.888 4
      4049.016
  21983040.147    21983038.8844   21983044.8324  115522124.025 7  90017204.03945
     -1887.433       -1470.724
  22279251.588    22279250.6554   22279261.3684  117078611.331 7  91229996.53743
      3428.999        2671.950
  21800217.962    21800216.972    21800226.206   116535013.095 6  90638462.247 4
      4252.318        3307.358
  21018775.476    21018774.116    21018775.902   112515540.031 7  87512226.770 5
     -2635.106       -2049.529
  19255471.948    19255471.681    19255476.056   103112781.991 8  80199006.103 7
       809.781         629.833
  20961356.647    20961356.597    20961363.287   111893232.402 8  87028114.161 6
     -1926.441       -1498.338
  19605042.338    19605042.055    19605048.679   104873823.917 8  81568577.470 7
      1682.631        1308.713
  22548561.545    22548560.610    22548567.286   120577325.693 6  93782405.358 5
      4149.932        3227.727
 11 10 10 16 20  0.0000000  0 16G03G06G11G14G16G18G19G20G22G32R01R07
                                R08R22R23R24
  21006036.328    21006035.5544   21006044.4034  110387537.281 8  86016294.98145
     -2014.039       -1569.370
  22017506.632    22017505.9954   22017515.5294  115702844.996 7  90158096.47744
     -2065.037       -1609.125
  21568034.640    21568033.7034   21568041.1654  113340871.636 7  88317585.51644
      2639.163        2056.495
  22733702.349    22733701.5224   22733710.8634  119466532.643 6  93090805.22943
      1968.466        1533.866
  24551968.121    24551966.5144   24551984.2024  129021360.485 5 100536109.64241
     -3025.853       -2357.790
  25353245.728    25353242.3284   25353256.4954  133232446.137 4 103817468.8254
     -2709.557       -2111.332
  20436092.302    20436091.2874   20436096.9954  107392459.404 8  83682462.15947
       544.137         424.005
  24757154.115                                   130099778.128 4
      4045.290
  21993843.020    21993842.1544   21993848.6664  115578896.678 7  90061442.44844
     -1897.444       -1478.521
  22259708.874    22259708.2984   22259718.6754  116975918.456 7  91149976.24543
      3417.164        2662.724
  21776389.614    21776388.529    21776397.433   116407636.966 6  90539392.144 4
      4239.323        3297.243
  21033580.391    21033579.063    21033581.320   112594794.472 7  87573869.096 5
     -2648.379       -2059.850
  19251005.547    19251005.118    19251009.670   103088863.625 8  80180402.969 7
       784.732         610.347
  20972225.818    20972225.277    20972231.351   111951248.070 8  87073237.431 6
     -1941.338       -1509.923
  19595652.564    19595652.256    19595659.210   104823596.175 8  81529511.465 7
      1665.790        1295.616
  22525284.661    22525284.586    22525291.369   120452859.804 6  93685598.669 5
      4147.678        3225.972
 11 10 10 16 20 30.0000000  0 16G03G06G11G14G16G18G19G20G22G32R01R07
                                R08R22R23R24
  21017570.841    21017570.0594   21017578.9784  110448151.400 8  86063526.73745
     -2027.182       -1579.619
  22029325.523    22029325.0114   22029334.2994  115764953.497 7  90206492.66244
     -2075.813       -1617.508
  21552987.136    21552986.6914   21552993.6514  113261797.315 7  88255969.23044
      2632.152        2051.028
  22722507.621    22722506.7094   22722515.8824  119407703.469 6  93044964.38143
      1953.130        1521.917
  24569242.278    24569240.1164   24569255.5444  129112121.448 5 100606831.52241
     -3025.242       -2357.293
  25368713.912                                   133313735.851 3
     -2710.194
  20433028.059    20433026.8424   20433032.4984  107376355.621 9  83669913.77047
       529.106         412.292
  24734070.353                                   129978472.115 4
      4041.753
  22004701.838    22004700.9644   22004706.9364  115635958.539 7  90105906.22544
     -1906.973       -1485.953
  22240233.432    22240232.4344   22240243.2854  116873572.243 6  91070226.07443
      3405.649        2653.752
  21752631.982    21752631.168    21752640.571   116280640.858 6  90440617.598 5
      4226.700        3287.425
  21048458.809    21048458.019    21048459.896   112674440.049 7  87635815.644 5
     -2661.471       -2070.032
  19246677.578    19246677.314    19246681.476   103065687.713 8  80162377.298 7
       760.058         591.157
  20983175.958    20983175.515    20983181.192   112009700.804 8  87118700.641 6
     -1955.799       -1521.178
  19586355.765    19586355.435    19586362.426   104773863.882 8  81490830.816 7
      1649.364        1282.837
  22502020.116    22502019.378    22502026.839   120328452.197 6  93588837.326 5
      4145.751        3224.464
 11 10 10 16 21  0.0000000  0 16G03G06G11G14G16G18G19G20G22G32R01R07
                                R08R22R23R24
  21029181.670    21029181.1754   21029189.5874  110509166.145 8  86111070.66945
     -2040.491       -1589.997
  22041207.396    22041206.7834   22041215.8054  115827391.714 7  90255145.78044
     -2086.805       -1626.081
  21537981.356    21537980.6774   21537987.5714  113182941.185 7  88194522.95844
      2624.864        2045.344
  22711401.964    22711400.9394   22711409.6374  119349343.088 6  92999488.81743
      1937.471        1509.714
  24586511.008    24586511.3924   24586528.8874  129202871.618 5 100677544.97441
     -3024.856       -2356.961
  25384187.590                                   133395052.358 3
     -2711.042
  20430050.904    20430049.6584   20430055.4644  107360710.713 8  83657722.93847
       513.823         400.384
  24711007.460                                   129857280.179 4
      4037.722
  22015615.537    22015614.9634   22015620.4804  115693312.069 7  90150597.27744
     -1916.652       -1493.490
  22220824.990    22220823.6244   22220834.1534  116771579.053 7  90990750.99944
      3393.842        2644.544
  21728946.578    21728946.036    21728955.040   116154032.042 6  90342144.275 4
      4213.749        3277.355
  21063410.201    21063409.283    21063411.616   112754477.436 7  87698066.935 5
     -2674.444       -2080.119
  19242489.389    19242488.878    19242493.009   103043258.797 8  80144932.622 7
       735.171         571.796
  20994207.888    20994207.840    20994214.271   112068594.386 8  87164506.730 6
     -1970.505       -1532.613
  19577152.978    19577152.666    19577159.585   104724634.326 8  81452541.184 7
      1632.532        1269.746
  22478766.939    22478766.219    22478774.018   120204110.204 6  93492126.986 5
      4143.586        3222.783
 11 10 10 16 21 30.0000000  0 16G03G06G11G14G16G18G19G20G22G32R01R07
                                R08R22R23R24
  21040868.408    21040867.7184   21040876.1934  110570579.854 8  86158925.48745
     -2053.578       -1600.187
  22053151.831    22053150.9924   22053160.4654  115890158.453 7  90304054.89344
     -2097.465       -1634.386
  21523016.966    21523016.4364   21523023.4184  113104304.263 7  88133247.50444
      2617.753        2039.803
  22700385.834    22700385.3224   22700393.6924  119291453.529 6  92954380.12943
      1921.977        1497.633
  24603778.130    24603778.7444   24603796.0554  129293608.093 5 100748247.74641
     -3024.054       -2356.358
  25399666.926                                   133476394.247 3
     -2711.596
  20427161.264    20427160.0684   20427165.8464  107345525.825 9  83645890.57247
       498.684         388.586
  24687967.064                                   129736203.782 4
      4033.979
  22026585.069    22026583.9104   22026589.6484  115750955.365 7  90195514.11444
     -1926.055       -1500.815
  22201483.573    22201482.6624   22201493.3434  116669940.843 7  90911552.52344
      3382.210        2635.490
  21705335.503    21705334.857    21705342.778   116027813.739 6  90243974.688 4
      4200.940        3267.392
  21078434.967    21078434.080    21078435.794   112834904.450 7  87760621.254 5
     -2686.885       -2089.798
  19238440.310    19238439.681    19238443.799   103021575.980 8  80128068.238 7
       710.542         552.642
  21005323.234    21005323.077    21005329.635   112127928.373 8  87210655.353 6
     -1984.930       -1543.833
  19568044.225    19568043.805    19568051.086   104675910.514 8  81414644.907 7
      1615.859        1256.779
  22455526.638    22455526.883    22455533.496   120079836.344 6  93395469.650 5
      4141.496        3221.159
 11 10 10 16 22  0.0000000  0 16G03G06G11G14G16G18G19G20G22G32R01R07
                                R08R22R23R24
  21052629.426    21052628.6984   21052637.2264  110632385.387 8  86207085.61945
     -2066.624       -1610.354
  22065156.910    22065156.2204   22065165.4944  115953246.702 7  90353214.53044
     -2108.209       -1642.758
  21508093.597    21508092.5544   21508100.3994  113025881.724 7  88072139.09244
      2610.566        2034.198
  22689458.832    22689458.2124   22689466.2194  119234030.985 6  92909635.33343
      1906.378        1485.498
  24621042.026    24621041.5754   24621058.7804  129384322.601 5 100818933.34441
     -3023.302       -2355.779
  25415150.170                                   133557754.040 4
     -2712.214
  20424358.194    20424357.0714   20424362.8584  107330795.807 9  83634412.65147
       483.497         376.747
  24664948.706                                   129615238.546 4
      4030.469
  22037607.738    22037607.0124   22037612.4414  115808880.146 7  90240650.30444
     -1935.434       -1508.133
  22182209.408    22182208.2364   22182219.0484  116568653.173 6  90832627.19244
      3370.433        2626.308
  21681795.483    21681794.877    21681803.537   115901982.743 6  90146106.331 5
      4187.902        3257.250
  21093529.693    21093528.681    21093530.781   112915709.653 7  87823469.744 5
     -2699.780       -2099.827
  19234529.152    19234528.567    19234532.733   103000632.514 8  80111778.906 7
       685.876         533.457
  21016520.370    21016519.794    21016525.821   112187695.658 8  87257140.998 6
     -1999.398       -1555.091
  19559030.153    19559029.650    19559036.502   104627688.825 8  81377139.162 7
      1599.062        1243.712
  22432298.751    22432298.908    22432307.315   119955627.203 6  93298862.651 5
      4139.277        3219.438
 11 10 10 16 22 30.0000000  0 16G03G06G11G14G16G18G19G20G22G32R01R07
                                R08R22R23R24
  21064465.015    21064464.6964   21064473.4104  110694582.961 8  86255551.23745
     -2079.779       -1620.604
  22077223.443    22077223.0544   22077232.4174  116016657.412 7  90402625.43344
     -2119.069       -1651.222
  21493211.201    21493210.8824   21493218.4794  112947676.750 7  88011200.21444
      2603.179        2028.447
  22678621.122    22678620.9094   22678628.8054  119177079.984 6  92865257.97343
      1890.489        1473.119
  24638300.804    24638300.7124   24638318.0054  129475014.701 5 100889601.42541
     -3022.623       -2355.251
  25430634.235                                   133639132.245 4
     -2712.787
  20421642.332    20421641.1554   20421647.2004  107316523.992 8  83623291.76447
       468.079         364.734
  24641951.306                                   129494388.910 4
      4026.385
  22048684.067    22048683.0464   22048688.9394  115867086.376 7  90286005.80044
     -1944.886       -1515.499
  22163002.101    22163001.1574   22163011.7394  116467720.099 6  90753978.16844
      3358.512        2617.015
  21658329.665    21658328.671    21658337.792   115776544.150 6  90048543.178 5
      4174.727        3247.003
  21108695.414    21108694.432    21108696.819   112996892.190 7  87886611.691 5
     -2712.401       -2109.639
  19230756.229    19230755.767    19230760.166   102980429.467 8  80096065.457 7
       661.084         514.176
  21027798.012    21027797.656    21027803.751   112247898.085 8  87303965.075 6
     -2013.995       -1566.438
  19550110.328    19550109.965    19550116.590   104579973.920 8  81340027.589 7
      1581.998        1230.443
  22409083.726    22409083.838    22409090.177   119831487.628 6  93202309.733 5
      4136.813        3217.517
 11 10 10 16 23  0.0000000  0 16G03G06G11G14G16G18G19G20G22G32R01R07
                                R08R22R23R24
  21076374.964    21076374.1894   21076383.5184  110757169.114 8  86304319.64845
     -2092.525       -1630.543
  22089350.916    22089350.3374   22089359.7244  116080387.287 7  90452285.04244
     -2129.485       -1659.348
  21478370.576    21478370.0534   21478377.6054  112869688.326 7  87950430.07844
      2596.107        2022.934
  22667873.632    22667873.0834   22667881.4334  119120600.260 6  92821247.85243
      1874.875        1460.943
  24655554.377    24655552.1854   24655571.4164  129565679.350 5 100960248.07341
     -3021.618       -2354.452
  25446122.775                                   133720525.461 3
     -2713.290
  20419013.458    20419012.3214   20419017.9674  107302708.917 8  83612526.78047
       452.994         352.983
  24618973.937                                   129373653.835 4
      4022.719
  22059813.139    22059812.2144   22059818.3124  115925570.306 7  90331577.68544
     -1953.938       -1522.548
  22143862.736    22143861.8444   22143871.9844  116367141.081 6  90675605.03044
      3346.872        2607.937
  21634938.120    21634936.907    21634944.482   115651498.525 6  89951285.669 5
      4161.775        3236.927
  21123930.359    21123929.381    21123931.327   113078446.807 7  87950043.058 5
     -2724.544       -2119.093
  19227120.900    19227120.760    19227125.051   102960964.326 8  80080925.931 7
       636.756         495.252
  21039157.512    21039156.919    21039162.966   112308532.611 8  87351125.221 6
     -2028.225       -1577.511
  19541285.218    19541284.907    19541291.659   104532766.354 8  81303310.617 7
      1565.220        1217.388
  22385883.759    22385883.156    22385889.680   119707418.174 6  93105811.371 5
      4134.580        3215.779
 11 10 10 16 23 30.0000000  0 16G03G06G11G14G16G18G19G20G22G32R01R07
                                R08R22R23R24
  21088357.681    21088357.2894   21088366.5034  110820140.279 7  86353388.06645
     -2105.510       -1640.661
  22101538.464    22101537.7184   22101547.3524  116144433.129 7  90502190.83944
     -2140.205       -1667.701
  21463571.001    21463570.5244   21463577.8764  112791915.458 7  87889827.90844
      2588.738        2017.190
  22657215.124    22657214.7214   22657223.7754  119064592.142 6  92777605.20743
      1858.999        1448.574
  24672802.444    24672800.9254   24672821.2094  129656311.978 5 101030869.74341
     -3020.537       -2353.622
  25461616.895                                   133801930.179 4
     -2713.984
  20416471.237    20416470.0664   20416475.7054  107289349.542 8  83602116.89247
       437.620         340.999
  24596020.063    24596017.4804                  129253033.335 4
      4018.648
  22070994.637    22070993.4674   22070999.1494  115984327.756 7  90377362.70744
     -1963.207       -1529.775
  22124790.259    22124789.5024   22124799.4444  116266916.164 7  90597507.80344
      3334.842        2598.571
  21611619.172    21611618.177    21611625.508   115526846.929 7  89854334.610 4
      4148.399        3226.531
  21139234.081    21139233.067    21139235.316   113160367.529 7  88013759.159 5
     -2736.841       -2128.651
  19223623.354    19223622.918    19223627.327   102942234.170 8  80066358.057 7
       612.013         476.007
  21050596.736    21050596.341    21050602.141   112369596.627 8  87398619.414 6
     -2042.690       -1588.760
  19532555.195    19532554.731    19532561.797   104486066.844 8  81266988.794 7
      1548.055        1204.040
  22362694.072    22362693.761    22362700.274   119583419.611 6  93009368.154 5
      4131.935        3213.722
 11 10 10 16 24  0.0000000  0 16G03G06G11G14G16G18G19G20G22G32R01R07
                                R08R22R23R24
  21100413.729    21100412.9174   21100422.2564  110883494.055 7  86402754.61645
     -2118.172       -1650.515
  22113785.358    22113785.1774   22113794.4184  116208793.057 7  90552341.38344
     -2150.558       -1675.753
  21448812.251    21448812.1044   21448819.3174  112714358.565 7  87829394.02944
      2581.581        2011.623
  22646647.594    22646647.1414   22646655.3034  119009057.098 6  92734331.19743
      1843.172        1436.239
  24690044.047    24690040.6364   24690060.5514  129746909.205 5 101101463.72941
     -3019.331       -2352.704
  25477105.525                                   133883344.152 3
     -2713.906
  20414015.840    20414014.5154   20414020.2974  107276445.928 9  83592062.14047
       422.467         329.191
  24573088.049                                   129132528.178 4
      4014.886
  22082227.014    22082225.7824   22082231.5294  116043355.594 7  90423358.41744
     -1972.130       -1536.717
  22105785.713    22105784.8324   22105794.9664  116167046.180 7  90519687.15144
      3323.028        2589.372
  21588373.003    21588373.170    21588380.842   115402591.575 6  89757691.739 5
      4135.146        3216.220
  21154605.676    21154604.312    21154606.489   113242650.030 7  88077756.642 5
     -2748.834       -2137.973
  19220262.665    19220262.076    19220266.279   102924237.493 8  80052360.672 7
       587.634         457.052
  21062115.840    21062115.867    21062122.370   112431088.794 8  87446446.618 6
     -2056.912       -1599.812
  19523920.391    19523920.047    19523927.092   104439877.102 8  81231063.452 7
      1531.106        1190.864
  22339518.747    22339518.989    22339526.121   119459494.025 6  92912981.674 5
      4129.535        3211.860
 11 10 10 16 24 30.0000000  0 16G03G06G11G14G16G18G19G20G22G32R01R07
                                R08R22R23R24
  21112542.133    21112541.3744   21112550.6534  110947229.156 8  86452418.30845
     -2130.907       -1660.449
  22126092.622    22126092.1774   22126101.6034  116273466.251 7  90602736.04544
     -2161.024       -1683.914
  21434095.437    21434094.5944   21434102.2854  112637018.921 7  87769129.43444
      2574.322        2005.963
  22636170.189    22636169.6384   22636177.6144  118953997.793 6  92691427.91343
      1827.340        1423.913
  24707276.901    24707275.8844   24707295.3864  129837469.110 5 101172028.59241
     -3018.000       -2351.640
  25492601.961                                   133964766.508 3
     -2714.203
  20411647.198    20411646.0484   20411651.6834  107263999.457 8  83582363.60047
       407.211         317.307
  24550178.020                                   129012140.272 4
      4010.897
  22093510.715    22093509.6714   22093515.5624  116102652.594 7  90469563.87644
     -1981.050       -1543.675
  22086848.837    22086847.5354   22086857.8194  116067533.258 7  90442144.72244
      3311.049        2580.041
  21565204.361    21565203.170    21565210.863   115278735.451 6  89661359.376 5
      4121.783        3205.830
  21170043.950    21170042.622    21170044.453   113325291.902 7  88142033.652 5
     -2760.830       -2147.313
  19217038.653    19217038.339    19217042.785   102906973.598 8  80038933.227 7
       563.250         438.079
  21073715.994    21073715.314    21073721.550   112493008.606 8  87494606.435 6
     -2071.168       -1610.907
  19515381.638    19515381.321    19515387.986   104394200.086 8  81195536.907 7
      1513.952        1177.519
  22316359.761    22316359.666    22316365.066   119335644.278 6  92816654.169 5
      4127.019        3209.894
 11 10 10 16 25  0.0000000  0 15G03G06G11G14G16G19G20G22G32R01R07R08
                                R22R23R24
  21124743.934    21124743.4414   21124752.2134  111011348.746 7  86502381.60145
     -2143.722       -1670.431
  22138459.947    22138459.3074   22138468.4714  116338455.941 7  90653377.33244
     -2171.591       -1692.154
  21419420.827    21419420.0164   21419427.1574  112559902.010 7  87709038.39044
      2566.832        2000.122
  22625784.166    22625783.8874   22625791.9674  118899420.577 6  92648900.28943
      1811.146        1411.285
  24724505.431    24724504.9964   24724521.6774  129927993.137 5 101242565.45241
     -3016.838       -2350.723
  20409366.677    20409365.4284   20409371.0214  107252015.436 8  83573025.41047
       391.738         305.249
  24527292.274                                   128891875.908 4
      4006.783
  22104846.731    22104845.4144   22104851.2394  116162221.063 7  90515980.86244
     -1990.152       -1550.774
  22067981.279    22067979.9174   22067990.0794  115968383.510 7  90364885.29444
      3298.898        2570.566
  21542109.468    21542109.491    21542117.649   115155286.088 6  89565343.392 5
      4108.152        3195.226
  21185548.323    21185547.671    21185549.409   113408291.481 7  88206588.862 5
     -2772.679       -2156.525
  19213952.357    19213951.884    19213956.132   102890446.124 8  80026078.558 7
       538.604         418.910
  21085396.449    21085396.003    21085402.210   112555359.694 8  87543101.685 6
     -2085.591       -1622.126
  19506939.912    19506939.620    19506946.180   104349042.967 8  81160414.724 7
      1496.520        1163.959
  22293213.537    22293213.065    22293221.397   119211877.927 6  92720391.527 5
      4124.107        3207.637
 11 10 10 16 25 30.0000000  0 15G03G06G11G14G16G19G20G22G32R01R07R08
                                R22R23R24
  21137018.414    21137017.9894   21137026.9194  111075852.698 7  86552644.39645
     -2156.575       -1680.446
  22150886.960    22150886.5234   22150895.8564  116403762.417 7  90704265.45144
     -2182.185       -1700.406
  21404788.615    21404788.0164   21404795.0454  112483010.731 7  87649123.16344
      2559.243        1994.213
  22615490.834    22615490.0874   22615498.2234  118845329.016 6  92606751.10943
      1794.876        1398.592
  24741724.957    24741721.7154   24741744.7314  130018480.694 4 101313073.89241
     -3015.653       -2349.813
  20407174.723    20407173.5284   20407179.2874  107240496.419 9  83564049.55747
       376.186         293.132
  24504430.584                                   128771738.077 4
      4002.489
  22116233.422    22116232.3454   22116238.2904  116222060.440 7  90562608.94844
     -1999.179       -1557.801
  22049182.964    22049182.3684   22049192.2424  115869600.337 7  90287911.49644
      3286.623        2561.007
  21519092.827    21519092.506    21519100.171   115032247.836 6  89469647.154 5
      4094.358        3184.496
  21201120.108    21201119.709    21201121.545   113491649.621 7  88271422.962 5
     -2784.273       -2165.543
  19211003.786    19211003.263    19211007.297   102874656.164 8  80013797.508 7
       514.026         399.800
  21097158.287    21097157.536    21097163.705   112618143.190 8  87591933.256 6
     -2099.989       -1633.322
  19498596.116    19498595.893    19498602.679   104304410.021 8  81125700.232 7
      1478.959        1150.301
  22270085.363    22270085.012    22270092.037   119088199.220 6  92624197.088 5
      4121.135        3205.329
 11 10 10 16 26  0.0000000  0 15G03G06G11G14G16G19G20G22G32R01R07R08
                                R22R23R24
  21149365.558    21149365.0364   21149374.1034  111140737.269 8  86603203.77045
     -2169.110       -1690.213
  22163374.315    22163373.6264   22163383.3604  116469382.394 7  90755397.87044
     -2192.532       -1708.467
  21390199.787    21390198.7104   21390205.6494  112406343.879 7  87589382.81744
      2551.844        1988.452
  22605289.815    22605289.4264   22605297.5364  118791723.380 6  92564980.56143
      1778.786        1386.049
  24758938.181    24758937.6844   24758951.9504  130108926.995 4 101383550.05541
     -3014.144       -2348.635
  20405070.938    20405069.8324   20405075.5714  107229440.895 9  83555434.87147
       360.803         281.142
  24481593.587                                   128651726.709 5
      3998.286
  22127671.374    22127670.2804   22127676.2284  116282166.538 7  90609444.87644
     -2007.935       -1564.630
  22030455.268    22030454.2284   22030464.3334  115771183.240 7  90211222.96244
      3274.477        2551.540
  21496153.502    21496152.472    21496160.683   114909621.791 7  89374271.519 5
      4080.669        3173.844
  21216758.241    21216756.998    21216759.319   113575358.914 7  88336530.176 5
     -2796.181       -2174.807
  19208192.171    19208191.422    19208195.649   102859600.395 8  80002087.498 7
       489.635         380.820
  21108999.434    21108999.222    21109005.714   112681355.871 8  87641098.634 6
     -2114.198       -1644.378
  19490350.640    19490350.274    19490357.452   104260301.434 8  81091393.577 7
      1461.530        1136.742
  22246974.003    22246973.858    22246980.505   118964608.922 6  92528071.351 5
      4118.210        3203.054
 11 10 10 16 26 30.0000000  0 15G03G06G11G14G16G19G20G22G32R01R07R08
                                R22R23R24
  21161785.420    21161784.7314   21161793.8674  111206002.985 8  86654060.14545
     -2181.976       -1700.239
  22175921.465    22175920.8234   22175930.1154  116535316.911 7  90806775.39444
     -2203.161       -1716.743
  21375653.569    21375652.8344   21375659.7174  112329905.179 7  87529820.25745
      2544.041        1982.367
  22595182.928    22595181.9074   22595189.9534  118738607.779 6  92523591.87943
      1762.199        1373.145
  24776141.764    24776142.6734   24776160.4854  130199331.319 4 101453993.46241
     -3012.770       -2347.579
  20403055.896    20403054.7814   20403060.5144  107218852.103 8  83547183.87247
       345.067         268.884
  24458779.586                                   128531845.311 4
      3993.701
  22139160.095    22139158.9484   22139164.8954  116342539.589 7  90656488.82344
     -2016.965       -1571.654
  22011796.960    22011796.2734   22011806.3784  115673136.296 7  90134822.84744
      3261.936        2541.769
  21473290.816    21473290.645    21473298.582   114787412.631 7  89279220.115 5
      4066.562        3162.876
  21232461.458    21232460.221    21232462.270   113659418.734 7  88401910.016 5
     -2808.177       -2184.134
  19205517.607    19205517.133    19205521.604   102845279.549 8  79990949.091 7
       465.032         361.689
  21120922.560    21120922.271    21120928.282   112744999.441 8  87690599.155 6
     -2128.739       -1655.683
  19482203.665    19482203.530    19482210.789   104216722.246 8  81057498.679 7
      1443.693        1122.872
  22223877.936    22223877.033    22223884.709   118841112.155 6  92432018.417 5
      4114.854        3200.442
 11 10 10 16 27  0.0000000  0 15G03G06G11G14G16G19G20G22G32R01R07R08
                                R22R23R24
  21174277.871    21174277.1434   21174286.1304  111271651.020 7  86705214.42945
     -2194.683       -1710.140
  22188528.677    22188527.9124   22188537.3704  116601567.285 7  90858399.02144
     -2213.675       -1724.934
  21361151.446    21361150.8634   21361157.5704  112253697.722 7  87470437.87744
      2536.306        1976.342
  22585168.601    22585168.7374   22585176.6504  118685986.754 6  92482588.57643
      1745.666        1360.247
  24793339.237    24793339.8714   24793358.4364  130289694.049 4 101524404.38641
     -3011.488       -2346.565
  20401130.446    20401129.3554   20401134.9114  107208733.467 8  83539299.22947
       329.369         256.652
  24435991.694                                   128412098.381 5
      3989.296
  22150699.444    22150698.3234   22150704.4114  116403180.129 7  90703741.19844
     -2025.849       -1578.578
  21993210.959    21993209.9924   21993219.6624  115575463.667 7  90058714.41444
      3249.399        2531.997
  21450507.947    21450507.366    21450515.538   114665626.004 7  89184497.331 5
      4052.386        3151.857
  21248228.965    21248228.054    21248230.270   113743827.380 6  88467561.174 5
     -2819.549       -2192.983
  19202981.012    19202980.498    19202984.959   102831695.773 8  79980383.964 7
       440.484         342.604
  21132926.239    21132925.808    21132932.118   112809075.646 8  87740436.147 6
     -2143.155       -1666.894
  19474156.874    19474156.780    19474163.564   104173677.453 8  81024019.419 7
      1425.814        1108.967
  22200802.628    22200802.546    22200809.946   118717714.153 6  92336042.269 5
      4111.517        3197.837
 11 10 10 16 27 30.0000000  0 15G03G06G11G14G16G19G20G22G32R01R07R08
                                R22R23R24
  21186843.041    21186842.3774   21186851.2244  111337681.819 7  86756666.97345
     -2207.332       -1720.001
  22201195.582    22201195.1284   22201204.6734  116668134.391 6  90910269.46044
     -2224.131       -1733.086
  21346694.445    21346693.7024   21346700.0884  112177724.830 7  87411238.28345
      2528.540        1970.294
  22575249.912    22575249.1364   22575257.9304  118633864.184 6  92441973.65243
      1729.155        1347.392
  24810527.225    24810528.9344   24810548.2574  130380014.503 4 101594782.29641
     -3009.840       -2345.315
  20399295.136    20399293.8384   20399299.3194  107199087.850 8  83531783.17447
       313.705         244.444
  24413230.247    24413229.1374   24413244.9944  128292489.517 4  99968118.31841
      3984.674        3104.932
  22162289.938    22162288.8834   22162294.5334  116464088.232 7  90751202.06844
     -2034.641       -1585.436
  21974695.880    21974695.1244   21974705.1814  115478168.970 7  89982900.48444
      3236.889        2522.245
  21427804.544    21427804.899    21427812.296   114544266.722 7  89090106.929 5
      4038.169        3140.797
  21264063.616    21264061.607    21264063.887   113828584.167 7  88533483.097 5
     -2830.979       -2201.870
  19200581.871    19200581.545    19200585.841   102818849.760 8  79970392.653 7
       415.970         323.533
  21145010.635    21145010.513    21145017.111   112873585.774 7  87790610.653 6
     -2157.491       -1678.047
  19466211.218    19466210.776    19466217.437   104131171.769 8  80990959.471 7
      1407.902        1095.035
  22177746.646    22177746.598    22177752.844   118594419.945 6  92240146.828 5
      4108.083        3195.179
 11 10 10 16 28  0.0000000  0 15G03G06G11G14G16G19G20G22G32R01R07R08
                                R22R23R24
  21199479.799    21199479.3564   21199488.0224  111404088.196 7  86808412.17945
     -2219.820       -1729.731
  22213921.347    22213921.3684   22213930.9704  116735011.306 7  90962381.30944
     -2234.447       -1741.121
  21332281.037    21332280.3984   21332287.3584  112101982.448 7  87352218.31045
      2520.841        1964.286
  22565425.916    22565424.6594   22565434.0744  118582237.179 6  92401744.88943
      1712.569        1334.463
  24827706.118    24827708.0564   24827728.5044  130470284.843 4 101665121.09441
     -3008.235       -2344.033
  20397548.511    20397547.3684   20397552.9624  107189910.303 8  83524631.84847
       298.048         232.245
  24390494.742    24390493.1024   24390510.1494  128173014.882 5  99875021.89441
      3980.159        3101.375
  22173929.898    22173928.8534   22173934.7174  116525256.156 7  90798865.39444
     -2043.290       -1592.171
  21956252.952    21956251.7914   21956261.6704  115381248.496 7  89907378.15344
      3224.386        2512.500
  21405181.701    21405181.373    21405188.972   114423332.076 7  88996046.797 5
      4023.977        3129.766
  21279959.024    21279958.323    21279960.146   113913680.065 7  88599668.770 5
     -2842.240       -2210.629
  19198319.630    19198319.213    19198323.465   102806735.043 8  79960970.131 7
       391.617         304.592
  21157175.355    21157175.294    21157181.833   112938523.367 7  87841117.626 6
     -2171.738       -1689.123
  19458365.388    19458365.022    19458371.456   104089202.261 8  80958316.545 7
      1389.985        1081.101
  22154708.077    22154707.922    22154715.451   118471226.916 6  92144330.132 5
      4104.651        3192.501
 11 10 10 16 28 30.0000000  0 15G03G06G11G14G16G19G20G22G32R01R07R08
                                R22R23R24
  21212187.982    21212187.2864   21212195.8114  111470869.968 7  86860449.89545
     -2232.152       -1739.340
  22226706.775    22226706.2884   22226715.9944  116802198.329 7  91014734.80644
     -2244.607       -1749.046
  21317912.174    21317911.5534   21317918.2294  112026472.937 7  87293379.79445
      2513.233        1958.354
  22555696.521    22555695.8224   22555704.3914  118531108.866 6  92361904.70443
      1696.081        1321.623
  24844874.848    24844880.6584   24844895.9424  130560503.806 4 101735419.74341
     -3006.300       -2342.532
  20395891.805    20395890.4774   20395896.0644  107181203.554 8  83517847.38247
       282.518         220.144
  24367785.680    24367784.0954   24367796.7704  128053677.981 5  99782032.70341
      3975.724        3097.915
  22185619.270    22185618.1844   22185623.7054  116586683.572 7  90846730.93544
     -2051.748       -1598.766
  21937880.627    21937879.5804   21937889.8284  115284705.429 7  89832149.90344
      3211.943        2502.810
  21382638.141    21382638.193    21382646.054   114302826.328 7  88902320.271 5
      4009.846        3118.765
  21295919.359    21295917.883    21295919.651   113999113.592 7  88666117.060 5
     -2853.154       -2219.119
  19196194.025    19196193.318    19196197.815   102795351.672 8  79952116.438 7
       367.419         285.769
  21169420.258    21169420.420    21169426.527   113003889.219 7  87891957.694 6
     -2185.832       -1700.085
  19450620.568    19450620.235    19450626.601   104047772.769 8  80926093.631 7
      1372.117        1067.199
  22131691.059    22131690.488    22131696.125   118348139.353 6  92048595.450 5
      4101.250        3189.862
 11 10 10 16 29  0.0000000  0 15G03G06G11G14G16G19G20G22G32R01R07R08
                                R22R23R24
  21224966.514    21224966.0234   21224974.9004  111538021.818 7  86912775.98245
     -2244.562       -1749.005
  22239550.117    22239549.8714   22239559.2914  116869690.723 7  91067326.25144
     -2254.831       -1757.005
  21303586.888    21303586.3644   21303593.3384  111951193.579 7  87234720.61845
      2505.451        1952.291
  22546061.486    22546061.3004   22546069.3074  118480477.644 6  92322451.85743
      1679.405        1308.624
  24862034.915    24862036.3144   24862047.9774  130650665.362 4 101805673.62441
     -3004.406       -2341.058
  20394323.923    20394322.6354   20394328.1804  107172964.459 9  83511427.32147
       266.820         207.910
  24345101.041    24345100.1044   24345115.3724  127934476.304 4  99689148.92941
      3971.091        3094.333
  22197356.344    22197355.4324   22197361.6434  116648364.850 7  90894794.28344
     -2060.256       -1605.400
  21919580.637    21919579.4014   21919589.5884  115188537.627 7  89757214.05944
      3199.308        2492.965
  21360174.647    21360175.086    21360182.782   114182748.538 7  88808926.587 5
      3995.445        3107.566
  21311940.016    21311939.108    21311940.908   114084874.935 6  88732820.320 5
     -2864.168       -2227.692
  19194203.581    19194203.201    19194207.575   102784694.916 8  79943827.881 7
       343.118         266.865
  21181745.524    21181745.390    21181750.933   113069678.631 7  87943127.206 6
     -2200.039       -1711.141
  19442976.493    19442976.199    19442982.547   104006882.048 8  80894289.755 7
      1354.004        1053.111
  22108692.478    22108691.741    22108698.205   118225156.495 6  91952942.198 5
      4097.693        3187.085
 11 10 10 16 29 30.0000000  0 15G03G06G11G14G16G19G20G22G32R01R07R08
                                R22R23R24
  21237816.745    21237816.0574   21237824.9324  111605549.811 7  86965395.16945
     -2257.034       -1758.727
  22252453.528    22252453.0144   22252461.8424  116937494.714 7  91120160.50744
     -2265.150       -1765.063
  21289306.966    21289306.5024   21289313.3954  111876153.638 7  87176248.00045
      2497.479        1946.084
  22536523.120    22536522.1934   22536531.3384  118430353.112 6  92283393.84643
      1662.523        1295.465
  24879181.571    24879182.3244                  130740774.683 4
     -3002.656
  20392846.697    20392845.4314   20392851.0764  107165201.593 8  83505378.34547
       250.980         195.568
  24322445.837    24322443.0864   24322458.1054  127815419.457 5  99596378.00841
      3966.310        3090.584
  22209143.369    22209142.0764   22209148.2664  116710305.750 7  90943059.91744
     -2068.854       -1612.096
  21901353.641    21901352.9834   21901362.6804  115092754.565 7  89682578.02444
      3186.496        2482.986
  21337794.590    21337794.032    21337801.892   114063109.418 7  88715874.096 5
      3980.799        3096.170
  21328023.438    21328022.393    21328023.721   114170970.569 6  88799783.573 5
     -2875.177       -2236.244
  19192350.923    19192350.209    19192354.698   102774771.571 8  79936109.760 7
       318.697         247.877
  21194151.618    21194151.095    21194156.733   113135898.542 8  87994631.547 6
     -2214.368       -1722.285
  19435434.959    19435434.585    19435441.318   103966540.647 8  80862913.133 7
      1335.703        1038.877
  22085714.663    22085714.271    22085720.773   118102289.275 6  91857378.889 5
      4093.732        3184.014
 11 10 10 16 30  0.0000000  0 15G03G06G11G14G16G19G20G22G32R01R07R08
                                R22R23R24
  21250737.303    21250736.6884   21250745.4614  111673447.675 7  87018302.56745
     -2269.483       -1768.427
  22265414.366    22265414.1244   22265422.8684  117005604.437 6  91173232.97944
     -2275.500       -1773.113
  21275072.529    21275071.6554   21275078.6044  111801349.474 7  87117959.10545
      2489.458        1939.835
  22527080.257    22527079.7694   22527088.1664  118380732.627 6  92244728.59543
      1645.532        1282.224
  24896321.797                                   130830824.530 5
     -3000.674
  20391459.276    20391458.0684   20391463.4944  107157910.793 9  83499697.21747
       235.076         183.177
  24299817.049    24299814.7754   24299828.1994  127696504.301 4  99503717.39741
      3961.356        3086.776
  22220978.526    22220977.4234   22220983.4984  116772499.229 7  90991522.36544
     -2077.383       -1618.736
  21883199.641    21883198.5484   21883208.3694  114997353.048 7  89608239.28644
      3173.597        2472.922
  21315494.651    21315494.802    21315502.499   113943906.519 7  88623160.866 5
      3966.027        3084.686
  21344167.716    21344166.527    21344168.473   114257391.475 7  88866999.830 5
     -2886.138       -2244.769
  19190633.580    19190632.837    19190637.189   102765575.627 8  79928957.394 7
       294.360         228.942
  21206635.321    21206635.334    21206642.286   113202543.321 7  88046466.344 6
     -2228.635       -1733.384
  19427995.816    19427995.506    19428002.231   103926746.159 8  80831961.886 7
      1317.259        1024.532
  22062759.667    22062759.003    22062766.375   117979535.705 6  91761903.979 6
      4089.773        3180.928
 11 10 10 16 30 30.0000000  0 15G03G06G11G14G16G19G20G22G32R01R07R08
                                R22R23R24
  21263727.550    21263726.8024   21263735.9214  111741711.693 7  87071495.28345
     -2281.662       -1777.921
  22278432.802    22278432.1904   22278441.3644  117074016.558 7  91226541.08944
     -2285.509       -1780.911
  21260881.710    21260881.1354   21260888.5264  111726779.907 7  87059853.01045
      2481.649        1933.754
  22517733.790    22517733.3564   22517741.6944  118331615.942 6  92206455.92143
      1628.681        1269.096
  24913446.399                                   130920810.567 5
     -2998.544
  20390161.565    20390160.3504   20390165.7414  107151090.912 9  83494383.03847
       219.374         170.939
  24277214.944    24277214.9344   24277225.3104  127577730.634 5  99411167.11141
      3956.636        3083.075
  22232860.836    22232859.7284   22232865.9684  116834941.614 7  91040178.77644
     -2085.653       -1625.183
  21865117.695    21865116.6374   21865126.2844  114902332.600 7  89534197.48244
      3160.859        2463.005
  21293277.247    21293276.913    21293284.706   113825140.961 7  88530787.791 5
      3951.403        3073.308
  21360371.731    21360370.254    21360372.755   114344131.720 6  88934464.454 5
     -2896.815       -2253.079
  19189051.037    19189050.791    19189055.271   102757103.495 8  79922367.996 7
       270.221         210.168
  21219199.473    21219199.124    21219205.656   113269609.808 7  88098629.130 6
     -2242.723       -1744.340
  19420659.305    19420658.706    19420665.210   103887499.021 8  80801436.352 7
      1298.967        1010.306
  22039825.087    22039825.331    22039831.597   117856896.711 6  91666518.194 6
      4085.906        3177.926
 11 10 10 16 31  0.0000000  0 15G03G06G11G14G16G19G20G22G32R01R07R08
                                R22R23R24
  21276785.853    21276785.3174   21276794.3384  111810334.455 7  87124967.54145
     -2293.492       -1787.138
  22291506.622    22291506.6984   22291516.0134  117142724.044 6  91280079.35644
     -2295.268       -1788.506
  21246735.883    21246735.0594   21246742.0704  111652440.414 7  87001926.19245
      2474.030        1927.820
  22508482.350    22508481.7584   22508490.6174  118282999.304 6  92168572.89343
      1612.093        1256.176
  24930558.244                                   131010724.256 4
     -2995.940
  20388952.118    20388951.0924   20388956.6824  107144736.874 8  83489431.85347
       203.932         158.910
  24254637.790    24254634.5784   24254650.2114  127459093.918 5  99318723.47541
      3952.255        3079.615
  22244789.176    22244788.0464   22244793.9604  116897624.855 7  91089022.86144
     -2093.509       -1631.313
  21847107.430    21847106.1904   21847116.4524  114807689.111 7  89460449.42644
      3148.418        2453.303
  21271140.537    21271140.101    21271147.538   113706809.261 7  88438752.152 5
      3937.035        3062.136
  21376633.623    21376632.375    21376634.304   114431182.593 6  89002170.675 5
     -2906.908       -2260.928
  19187603.205    19187602.656    19187606.967   102749348.026 8  79916335.995 7
       246.529         191.741
  21231841.095    21231840.952    21231847.460   113337091.601 8  88151114.943 6
     -2256.395       -1754.970
  19413423.792    19413423.410    19413429.900   103848795.677 8  80771333.771 7
      1280.933         996.280
  22016911.128    22016911.540    22016918.350   117734369.241 6  91571219.141 6
      4082.248        3175.077
 11 10 10 16 31 30.0000000  0 15G03G06G11G14G16G19G20G22G32R01R07R08
                                R22R23R24
  21289913.553    21289913.2184   21289922.2674  111879321.579 7  87178723.71845
     -2305.749       -1796.689
  22304639.402    22304638.8074   22304648.3874  117211733.051 7  91333852.57244
     -2305.434       -1796.440
  21232635.184    21232634.3544   21232641.3074  111578339.974 7  86944185.65045
      2465.918        1921.497
  22499327.979    22499327.7164   22499335.5304  118234892.142 6  92131086.84443
      1594.932        1242.801
  24947656.501                                   131100570.962 4
     -2993.856
  20387833.479    20387832.2704   20387837.8384  107138857.247 9  83484850.34247
       187.967         146.466
  24232088.468    24232087.4604   24232101.4174  127340603.692 4  99226393.99041
      3947.085        3075.619
  22256764.382    22256762.8184   22256769.1364  116960554.894 7  91138059.25444
     -2101.879       -1637.831
  21829170.751    21829169.6644   21829179.2674  114713431.875 7  89387002.33844
      3135.345        2443.126
  21249087.237    21249086.722    21249094.746   113588922.496 7  88347062.577 5
      3922.008        3050.446
  21392953.578    21392953.004    21392954.947   114518548.294 6  89070121.762 5
     -2917.370       -2269.064
  19186290.026    19186289.414    19186293.587   102742316.226 8  79910866.850 7
       222.255         172.862
  21244561.888    21244561.812    21244567.545   113404995.343 8  88203928.933 6
     -2270.595       -1766.014
  19406292.433    19406292.017    19406298.636   103810646.442 8  80741662.161 7
      1262.240         981.741
  21994020.565    21994020.803    21994027.786   117611964.136 6  91476015.253 6
      4078.006        3171.781
 11 10 10 16 32  0.0000000  0 15G03G06G11G14G16G19G20G22G32R01R07R08
                                R22R23R24
  21303110.478    21303109.6204   21303118.8954  111948670.360 7  87232761.69845
     -2317.470       -1805.826
  22317828.495    22317827.6274   22317837.4884  117281041.104 7  91387858.80244
     -2315.104       -1803.969
  21218579.378    21218578.6594   21218585.6424  111504478.415 7  86886631.25445
      2458.211        1915.486
  22490270.321    22490269.8054   22490278.2394  118187295.067 6  92093998.27543
      1578.218        1229.784
  24964742.384                                   131190346.600 4
     -2991.202
  20386804.702    20386803.4544   20386809.0704  107133451.264 8  83480637.90147
       172.451         134.379
  24209567.834    24209566.5314   24209580.2054  127222260.420 5  99134179.02141
      3942.445        3072.025
  22268785.712    22268784.9564   22268790.7534  117023728.097 7  91187285.13644
     -2109.655       -1643.890
  21811308.086    21811306.7514   21811316.4404  114619561.144 7  89313856.42344
      3122.743        2433.306
  21227117.182    21227117.127    21227124.638   113471481.458 7  88255719.688 5
      3907.365        3039.059
  21409332.737    21409331.387    21409333.366   114606222.560 6  89138312.844 5
     -2927.551       -2276.980
  19185111.347    19185110.732    19185114.676   102736004.631 8  79905957.863 7
       198.564         154.434
  21257361.725    21257361.148    21257366.997   113473318.540 7  88257069.165 6
     -2284.255       -1776.644
  19399264.205    19399263.927    19399270.833   103773052.427 8  80712422.391 7
      1244.000         967.557
  21971153.928    21971153.835    21971160.596   117489683.357 6  91380908.089 6
      4074.042        3168.694
 11 10 10 16 32 30.0000000  0 15G03G06G11G14G16G19G20G22G32R01R07R08
                                R22R23R24
  21316373.924    21316373.1324   21316382.1014  112018368.462 7  87287071.88344
     -2329.058       -1814.845
  22331072.304    22331071.9594   22331080.6204  117350636.387 7  91442088.86144
     -2324.593       -1811.366
  21204567.462    21204566.9864   21204573.8594  111430845.930 7  86829255.35445
      2450.601        1909.553
  22481308.254    22481307.4274   22481315.8884  118140199.264 6  92057300.31843
      1561.488        1216.755
  24981812.072                                   131280038.174 4
     -2988.199
  20385863.941    20385862.8894   20385868.6514  107128508.848 8  83476786.68147
       157.014         122.348
  24187073.676    24187072.6654   24187088.2254  127104054.925 5  99042071.37341
      3937.909        3068.521
  22280851.180    22280850.0534   22280855.8254  117087131.949 7  91236690.73444
     -2117.269       -1649.814
  21793516.485    21793515.3284   21793525.2424  114526067.720 7  89241004.51444
      3110.215        2423.545
  21205229.227    21205229.078    21205236.641   113354478.105 7  88164717.209 5
      3892.769        3027.699
  21425765.733    21425765.197    21425766.543   114694192.929 6  89206734.221 5
     -2937.279       -2284.552
  19184064.955    19184064.310    19184068.347   102730401.466 8  79901599.881 7
       174.998         136.114
  21270236.768    21270236.637    21270242.972   113542049.629 7  88310526.646 6
     -2297.818       -1787.193
  19392338.863    19392338.457    19392345.072   103736005.030 8  80683607.767 7
      1225.803         953.403
  21948308.164    21948308.387    21948314.840   117367518.844 6  91285891.352 5
      4070.211        3165.724
 11 10 10 16 33  0.0000000  0 15G03G06G11G14G16G19G20G22G32R01R07R08
                                R22R23R24
  21329704.915    21329704.0544   21329713.2734  112088423.344 7  87341660.07645
     -2341.100       -1824.235
  22344371.726    22344371.0614   22344380.1484  117420526.554 7  91496548.69944
     -2334.612       -1819.172
  21190601.387    21190600.7264   21190607.4114  111357452.843 8  86772065.98445
      2442.415        1903.182
  22472443.482    22472443.5814   22472451.1124  118093615.652 6  92021001.47643
      1544.194        1203.264
  24998866.472                                   131369652.326 4
     -2985.803
  20385013.856    20385012.6004   20385018.2844  107124039.890 9  83473304.38947
       141.023         109.890
  24164607.542    24164605.8444   24164622.6044  126985997.980 4  98950079.48041
      3932.636        3064.371
  22292961.824    22292960.6234   22292966.2934  117150773.418 7  91286281.48544
     -2125.333       -1656.100
  21775798.501    21775797.8854   21775808.1954  114432962.321 7  89168454.96744
      3097.033        2413.267
  21183425.808    21183425.507    21183432.779   113237924.469 7  88074064.513 5
      3877.563        3015.877
  21442256.050    21442254.989    21442256.691   114782464.839 6  89275390.144 5
     -2947.472       -2292.480
  19183151.938    19183151.577    19183155.665   102725514.200 8  79897798.703 7
       150.973         117.424
  21283190.646    21283190.140    21283197.054   113611196.831 7  88364307.770 6
     -2311.846       -1798.098
  19385517.700    19385517.267    19385524.071   103699516.157 8  80655227.548 7
      1206.944         938.734
  21925487.188    21925487.043    21925493.070   117245482.881 7  91190974.594 5
      4065.654        3162.169
 11 10 10 16 33 30.0000000  0 15G03G06G11G14G16G19G20G22G32R01R07R08
                                R22R23R24
  21343102.997    21343102.6154   21343111.5364  112158833.196 7  87396524.87044
     -2352.784       -1833.337
  22357727.172    22357726.4814   22357735.8454  117490710.188 6  91551237.20343
     -2344.223       -1826.659
  21176680.768    21176680.1324   21176686.9204  111284300.441 7  86715064.17145
      2434.497        1897.012
  22463676.367    22463675.9024   22463684.0654  118047546.515 6  91985103.52543
      1527.143        1189.984
  25015907.709                                   131459186.990 4
     -2983.031
  20384253.481    20384252.3014   20384257.9834  107120045.173 8  83470191.63847
       125.349          97.674
  24142170.740    24142168.8044   24142183.7204  126868090.824 5  98858204.33741
      3927.849        3060.634
  22305117.511    22305116.4124   22305122.2344  117214650.772 7  91336056.04344
     -2133.064       -1662.136
  21758155.697    21758154.6504   21758164.4914  114340246.541 7  89096209.00344
      3084.130        2403.212
  21161706.745    21161706.224    21161713.439   113121823.299 7  87983763.732 5
      3862.569        3004.216
  21458801.821    21458800.239    21458802.450   114871034.020 6  89344277.262 5
     -2957.135       -2300.000
  19182373.141    19182372.451    19182376.226   102721341.787 8  79894553.518 7
       127.294          99.009
  21296221.278    21296221.396    21296228.383   113680759.268 7  88418411.848 6
     -2325.560       -1808.772
  19378801.057    19378800.774    19378807.448   103663588.292 8  80627283.673 7
      1188.328         924.252
  21902690.328    21902690.159    21902696.261   117123578.530 6  91096160.198 5
      4061.344        3158.810
 11 10 10 16 34  0.0000000  0 15G03G06G11G14G16G19G20G22G32R01R07R08
                                R22R23R24
  21356568.893    21356568.0934   21356576.7334  112229594.111 7  87451663.22544
     -2364.424       -1842.405
  22371137.913    22371137.1904   22371146.7644  117561183.729 7  91606151.60243
     -2353.832       -1834.152
  21162805.956    21162805.4724   21162811.9094  111211387.738 8  86658249.13245
      2426.524        1890.793
  22455008.073    22455007.1284   22455014.9244  118001990.752 6  91949605.60443
      1510.061        1176.662
  25032931.344                                   131548637.124 4
     -2980.261
  20383583.147    20383582.0224   20383587.8144  107116522.989 8  83467447.08747
       109.630          85.429
  24119762.953    24119761.4084   24119777.6254  126750333.617 5  98766445.95741
      3922.800        3056.688
  22317316.774    22317315.8324   22317321.1144  117278760.014 7  91386011.29744
     -2140.702       -1668.072
  21740586.168    21740585.5374   21740595.1124  114247919.671 7  89024266.08544
      3071.189        2393.137
  21140072.240    21140071.790    21140079.410   113006174.870 7  87893815.081 5
      3847.510        2992.508
  21475401.929    21475400.699    21475402.235   114959895.611 6  89413391.816 5
     -2966.782       -2307.497
  19181726.638    19181726.019    19181729.894   102717880.230 8  79891861.228 7
       103.651          80.619
  21309331.020    21309330.310    21309336.972   113750733.555 7  88472836.253 6
     -2339.197       -1819.374
  19372189.574    19372189.288    19372195.936   103628221.265 8  80599776.006 7
      1169.630         909.715
  21879918.396    21879918.400    21879924.322   117001806.754 6  91001448.921 5
      4056.953        3155.419
 11 10 10 16 34 30.0000000  0 16G03G06G11G14G16G19G20G22G28G32R01R07
                                R08R22R23R24
  21370100.873    21370100.1894   21370108.8574  112300704.797 7  87507074.12744
     -2376.015       -1851.443
  22384603.321    22384602.9004   22384612.7484  117631946.520 6  91661291.39843
     -2363.390       -1841.605
  21148977.025    21148976.3574   21148983.0524  111138716.441 7  86601622.21145
      2418.495        1884.543
  22446437.130    22446436.6834   22446444.4214  117956951.067 6  91914509.80743
      1492.879        1163.287
  25049938.246                                   131638000.921 4
     -2977.138
  20383003.248    20383002.0344   20383007.6684  107113474.557 8  83465071.69847
        93.883          73.156
  24097382.870    24097380.8324   24097393.7924  126632728.229 5  98674805.90041
      3917.745        3052.747
  22329560.552    22329559.3154   22329564.6144  117343099.414 7  91436145.89844
     -2148.323       -1674.011
  25136460.843                                   132092995.822 4
      2680.130
  21723091.012    21723090.3794   21723100.0944  114155983.754 7  88952627.80444
      3058.170        2382.987
  21118521.996    21118522.518    21118529.636   112890982.234 7  87804220.941 5
      3832.296        2980.670
  21492056.114    21492054.727    21492056.429   115049046.313 6  89482731.237 5
     -2976.336       -2314.927
  19181212.643    19181212.061    19181216.399   102715128.516 8  79889721.036 7
        80.072          62.272
  21322516.767    21322516.361    21322522.054   113821119.221 7  88527580.636 6
     -2352.862       -1830.000
  19365683.514    19365683.117    19365690.029   103593418.087 8  80572706.892 7
      1150.853         895.105
  21857172.194    21857171.875    21857177.650   116880171.082 6  90906843.497 5
      4052.391        3151.855
 11 10 10 16 35  0.0000000  0 16G03G06G11G14G16G19G20G22G28G32R01R07
                                R08R22R23R24
  21383698.970    21383698.1514   21383707.2864  112372163.653 7  87562756.32744
     -2387.931       -1860.722
  22398123.914    22398123.6064   22398133.0804  117702997.080 7  91716655.42443
     -2373.332       -1849.339
  21135193.804    21135193.4894   21135200.0704  111066287.345 7  86545184.01645
      2410.049        1877.961
  22437965.176    22437964.2604   22437971.9854  117912429.138 6  91879817.46943
      1475.238        1149.544
  25066929.193                                   131727276.588 4
     -2974.545
  20382513.377    20382512.1804   20382517.7364  107110900.141 9  83463065.66747
        77.719          60.558
  24075031.206    24075031.1664   24075045.3774  126515276.120 5  98583285.25041
      3912.294        3048.531
  22341847.625    22341846.0634   22341851.6064  117407667.177 7  91486458.44544
     -2156.225       -1680.174
  25121197.751                                   132012788.152 4
      2667.046
  21705671.132    21705670.0754   21705679.9534  114064440.142 7  88881295.21744
      3044.716        2372.504
  21097059.536    21097058.902    21097066.251   112776248.110 7  87714983.410 5
      3816.613        2968.473
  21508763.901    21508761.983    21508764.218   115138482.439 6  89552292.667 5
     -2986.131       -2322.547
  19180831.141    19180830.670    19180834.730   102713085.503 8  79888132.049 7
        56.106          43.638
  21335778.748    21335778.526    21335784.373   113891915.324 7  88582644.251 6
     -2366.872       -1840.900
  19359283.207    19359282.957    19359289.682   103559181.065 8  80546078.118 7
      1131.586         880.118
  21834451.183    21834451.091    21834457.223   116758674.377 6  90812346.173 5
      4047.301        3147.896
 11 10 10 16 35 30.0000000  0 16G03G06G11G14G16G19G20G22G28G32R01R07
                                R08R22R23R24
  21397363.786    21397363.1994   21397372.7504  112443975.179 7  87618713.33244
     -2399.701       -1869.893
  22411700.041    22411699.4694   22411709.4274  117774340.385 6  91772247.57143
     -2383.122       -1856.983
  21121458.897    21121458.2604   21121464.8714  110994108.359 8  86488940.71245
      2401.663        1871.428
  22429592.248    22429591.5424   22429600.4524  117868432.701 6  91845534.60043
      1457.656        1135.832
  25083903.590                                   131816466.889 4
     -2971.715
  20382114.933    20382113.8274   20382119.4994  107108807.098 8  83461434.73447
        61.614          48.011
  24052710.169    24052708.1144   24052723.8694  126397985.117 5  98491890.16041
      3906.868        3044.288
  22354178.191    22354176.9554   22354183.1234  117472467.553 7  91536952.23844
     -2163.979       -1686.214
  25106008.465                                   131932968.982 4
      2654.010
  21688326.736    21688325.8994   21688335.6354  113973296.761 7  88810274.49644
      3031.280        2362.025
  21075683.786    21075682.731    21075690.355   112661981.608 7  87626109.594 5
      3800.956        2956.289
  21525524.040    21525523.313    21525525.365   115228206.691 6  89622078.184 5
     -2995.764       -2330.034
  19180582.485    19180582.149    19180586.369   102711755.639 8  79887097.739 7
        32.321          25.140
  21349119.317    21349119.202    21349124.979   113963126.958 7  88638031.037 6
     -2380.767       -1851.709
  19352990.573    19352990.122    19352996.891   103525518.971 8  80519896.506 7
      1112.335         865.152
  21811759.592    21811758.878    21811764.099   116637326.417 7  90717964.524 5
      4042.280        3143.993
 11 10 10 16 36  0.0000000  0 16G03G06G11G14G16G19G20G22G28G32R01R07
                                R08R22R23R24
  21411095.623    21411094.9204   21411104.2444  112516135.137 7  87674941.84044
     -2411.102       -1878.782
  22425331.221    22425330.8584   22425340.5454  117845972.560 6  91828064.80643
     -2392.498       -1864.291
  21107770.828    21107770.2904   21107776.9334  110922178.049 8  86432891.18245
      2393.551        1865.108
  22421319.717    22421319.4034   22421327.8634  117824961.023 7  91811660.63143
      1440.307        1122.311
  25100861.293                                   131905567.651 4
     -2968.481
  20381807.824    20381806.6984   20381812.3074  107107193.445 8  83460177.34847
        45.806          35.695
  24030421.577    24030420.2064   24030433.3104  126280854.440 5  98400619.96641
      3901.595        3040.167
  22366552.628    22366551.4294   22366557.1854  117537495.906 7  91587623.67544
     -2171.368       -1691.978
  25090894.104                                   131853537.485 4
      2641.244
  21671058.710    21671057.8584   21671067.6864  113882552.508 7  88739564.78744
      3018.150        2351.800
  21054394.837    21054394.288    21054401.709   112548182.531 7  87537599.317 5
      3785.505        2944.279
  21542338.909    21542337.609    21542339.648   115318214.427 6  89692084.194 5
     -3004.846       -2337.103
  19180466.796    19180466.208    19180470.471   102711135.216 8  79886615.215 7
         8.949           6.961
  21362536.081    21362536.157    21362543.205   114034750.668 7  88693738.328 6
     -2394.292       -1862.225
  19346805.049    19346804.796    19346811.558   103492431.449 8  80494161.786 7
      1093.344         850.381
  21789093.132    21789093.029    21789099.888   116516127.684 6  90623698.934 5
      4037.479        3140.251
 11 10 10 16 36 30.0000000  0 16G03G06G11G14G16G19G20G22G28G32R01R07
                                R08R22R23R24
  21424893.994    21424893.0974   21424901.9874  112588644.971 7  87731442.97944
     -2422.776       -1887.877
  22439017.770    22439017.1564   22439026.7944  117917895.490 6  91884108.59843
     -2402.245       -1871.879
  21094131.377    21094130.4524   21094137.3914  110850500.888 8  86377038.91245
      2385.050        1858.474
  22413148.743    22413148.0154   22413155.6974  117782019.341 6  91778199.65443
      1422.536        1108.465
  25117803.340                                   131994578.412 4
     -2967.760
  20381592.695    20381591.5794   20381597.2384  107106062.879 8  83459296.39447
        29.656          23.106
  24008163.328    24008163.5104   24008174.4664  126163888.831 5  98309478.40941
      3896.159        3035.918
  22378970.545    22378969.5864   22378975.1534  117602753.629 7  91638473.85344
     -2179.028       -1697.941
  25075850.691                                   131774499.069 4
      2628.025
  21653866.967    21653866.5694   21653876.2564  113792212.085 7  88669169.75244
      3004.639        2341.279
  21033195.083    21033194.422    21033201.263   112434856.826 7  87449457.218 5
      3769.640        2931.939
  21559205.183    21559204.258    21559206.392   115408504.035 6  89762309.424 5
     -3014.368       -2344.507
  19180483.717    19180483.287    19180487.226   102711225.610 8  79886685.553 7
       -14.795         -11.514
  21376031.346    21376031.254    21376038.373   114106788.634 7  88749767.833 6
     -2408.143       -1872.995
  19340728.384    19340727.794    19340734.416   103459924.171 8  80468878.372 7
      1073.936         835.282
  21766457.978    21766458.315    21766463.427   116395084.776 6  90529554.554 5
      4032.168        3136.131
 11 10 10 16 37  0.0000000  0 16G03G06G11G14G16G19G20G22G28G32R01R07
                                R08R22R23R24
  21438758.155    21438757.5104   21438765.8634  112661500.673 7  87788213.63644
     -2434.213       -1896.787
  22452758.926    22452758.2524   22452767.6494  117990105.385 6  91940376.00743
     -2411.746       -1879.269
  21080539.381    21080538.6734   21080545.4484  110779075.450 8  86321382.78645
      2376.678        1851.956
  22405077.595    22405076.9104   22405084.3874  117739606.506 6  91745150.76243
      1404.973        1094.786
  25134725.339                                   132083497.589 4
     -2962.305
  20381469.262    20381468.0204   20381473.7854  107105413.722 8  83458790.56147
        13.653          10.641
  23985937.559    23985936.4094   23985950.5384  126047087.446 5  98218464.79841
      3890.617        3031.641
  22391431.896    22391430.3314   22391435.8194  117668236.255 7  91689499.27744
     -2186.449       -1703.728
  25060885.440                                   131695853.252 4
      2615.075
  21636752.554    21636751.7574   21636761.6884  113702274.660 7  88599088.73844
      2991.242        2330.832
  21012083.032    21012082.807    21012090.047   112322004.655 7  87361683.422 5
      3753.853        2919.659
  21576123.836    21576122.700    21576124.695   115499070.418 6  89832749.943 5
     -3023.362       -2351.502
  19180632.565    19180631.945    19180635.831   102712022.272 8  79887305.206 7
       -38.255         -29.751
  21389603.386    21389603.471    21389610.334   114179237.393 7  88806116.840 6
     -2421.764       -1883.595
  19334759.563    19334759.225    19334765.761   103427996.830 8  80444046.013 7
      1054.620         820.261
  21743851.541    21743851.549    21743857.521   116274198.221 7  90435531.760 5
      4026.956        3132.076
 11 10 10 16 37 30.0000000  0 16G03G06G11G14G16G19G20G22G28G32R01R07
                                R08R22R23R24
  21452688.510    21452687.7404   21452696.5894  112734705.500 7  87845256.34144
     -2446.042       -1906.009
  22466555.449    22466554.4914   22466564.0864  118062606.009 6  91996869.95243
     -2421.582       -1886.944
  21066996.525    21066996.0224   21067003.1004  110707908.801 7  86265928.30945
      2367.824        1845.054
  22397108.830    22397108.0524   22397115.9864  117697729.646 7  91712519.50843
      1386.830        1080.646
  25151628.788                                   132172325.751 4
     -2959.507
  20381438.384    20381437.1874   20381442.7854  107105251.578 8  83458664.22547
        -2.813          -2.192
  23963741.967    23963740.8024   23963753.7084  125930457.493 5  98127584.76441
      3884.675        3026.999
  22403935.848    22403934.9084   22403940.5704  117733947.280 7  91740702.66744
     -2194.242       -1709.787
  25045998.382                                   131617607.588 4
      2601.454
  21619716.356    21619715.2984   21619724.8264  113612746.849 7  88529326.91244
      2977.294        2319.964
  20991061.170    20991061.322    20991068.474   112209633.746 7  87274283.949 5
      3737.546        2906.974
  21593093.943    21593093.019    21593095.130   115589913.532 6  89903405.702 5
     -3032.826       -2358.867
  19180913.680    19180913.210    19180917.408   102713529.395 8  79888477.448 7
       -62.127         -48.325
  21403254.074    21403253.373    21403259.797   114252100.976 7  88862788.494 6
     -2435.794       -1894.507
  19328901.070    19328900.772    19328907.304   103396657.345 8  80419670.876 7
      1034.722         804.786
  21721275.924    21721275.876    21721281.629   116153476.657 7  90341637.308 5
      4021.181        3127.569
 11 10 10 16 38  0.0000000  0 16G03G06G11G14G16G19G20G22G28G32R01R07
                                R08R22R23R24
  21466683.582    21466683.2474   21466692.4664  112808252.718 7  87902565.83944
     -2457.331       -1914.797
  22480406.052    22480405.3234   22480415.0284  118135391.283 6  92053585.69943
     -2430.895       -1894.203
  21053502.341    21053501.7854   21053508.7244  110636996.558 8  86210672.07045
      2359.460        1838.540
  22389241.088    22389240.3894   22389247.6864  117656385.916 7  91680303.69343
      1369.190        1066.890
  25168517.174                                   132261057.465 3
     -2956.015
  20381499.433    20381498.2644   20381503.8154  107105572.596 8  83458914.38147
       -18.798         -14.647
  23941578.655    23941580.8824   23941592.5994  125813995.612 5  98036835.67441
      3879.217        3022.753
  22416482.254    22416481.3014   22416486.9284  117799879.964 7  91792078.78344
     -2201.434       -1715.398
  25031182.611                                   131539759.095 4
      2588.235
  21602756.835    21602755.9324   21602765.3524  113523625.296 7  88459881.65744
      2963.919        2309.538
  20970130.612    20970129.913    20970137.075   112097741.989 7  87187257.152 5
      3721.692        2894.644
  21610115.061    21610114.173    21610116.519   115681029.474 6  89974273.656 5
     -3041.608       -2365.694
  19181326.488    19181326.053    19181330.283   102715740.129 8  79890196.936 7
       -85.380         -66.406
  21416979.640    21416979.567    21416985.625   114325373.576 7  88919778.256 6
     -2449.263       -1904.981
  19323151.823    19323151.578    19323158.324   103365902.850 8  80395750.729 7
      1015.332         789.703
  21698731.639    21698731.028    21698737.049   116032918.601 7  90247870.028 6
      4015.817        3123.403
 11 10 10 16 38 30.0000000  0 15G03G06G11G14G19G20G22G28G32R01R07R08
                                R22R23R24
  21480743.111    21480742.8234   21480751.9144  112882135.869 7  87960137.10144
     -2468.587       -1923.570
  22494309.338    22494308.8354   22494318.2674  118208454.713 6  92110518.19743
     -2440.288       -1901.522
  21040056.243    21040055.4284   21040062.2224  110566334.907 8  86155611.10045
      2350.938        1831.891
  22381474.310    22381473.2964   22381480.7564  117615571.312 6  91648500.16843
      1351.423        1053.050
  20381651.622    20381650.3424   20381655.9454  107106371.830 9  83459537.17647
       -34.870         -27.172
  23919449.170    23919449.0254   23919461.6164  125697698.163 5  97946214.70541
      3873.591        3018.385
  22429069.836    22429068.7494   22429074.7254  117866027.066 7  91843621.96944
     -2208.711       -1721.075
  25016445.786                                   131462304.497 4
      2575.113
  21585874.752    21585873.3884   21585882.4014  113434906.301 7  88390750.08544
      2950.321        2298.949
  20949287.800    20949287.347    20949294.186   111986326.495 7  87100600.769 5
      3705.623        2882.147
  21627185.453    21627184.176    21627186.960   115772406.683 6  90045344.812 5
     -3050.464       -2372.584
  19181869.628    19181869.085    19181873.372   102718647.728 8  79892458.424 7
      -108.756         -84.589
  21430782.404    21430781.831    21430787.989   114399048.751 7  88977081.121 6
     -2462.803       -1915.510
  19317511.483    19317511.134    19317517.628   103335730.406 8  80372283.295 7
       995.772         774.488
  21676216.206    21676216.143    21676221.923   115912521.599 7  90154228.002 6
      4010.217        3119.052
 11 10 10 16 39  0.0000000  0 15G03G06G11G14G19G20G22G28G32R01R07R08
                                R22R23R24
  21494868.336    21494867.7254   21494877.1654  112956363.882 7  88017977.09244
     -2480.290       -1932.688
  22508267.656    22508267.1344   22508276.3854  118281805.786 6  92167674.83343
     -2450.099       -1909.161
  21026659.793    21026658.9614   21026665.3184  110495936.377 8  86100755.15245
      2341.917        1824.869
  22373810.781    22373810.2284   22373817.1814  117575298.652 6  91617118.93443
      1333.086        1038.772
  20381896.681    20381895.4934   20381901.4324  107107660.750 8  83460541.54147
       -51.415         -40.064
  23897353.102    23897351.9254   23897364.4264  125581577.782 5  97855731.71741
      3867.394        3013.535
  22441700.221    22441699.0884   22441704.4334  117932397.719 7  91895339.35744
     -2216.342       -1727.024
  25001783.522                                   131385256.974 4
      2561.198
  21569070.584    21569069.3024   21569079.0394  113346602.144 7  88321941.76045
      2936.252        2287.983
  20928536.977    20928536.495    20928543.334   111875400.966 7  87014325.483 5
      3689.062        2869.268
  21644305.554    21644304.109    21644307.039   115864052.712 6  90116625.056 5
     -3059.662       -2379.735
  19182544.376    19182543.960    19182548.054   102722261.294 8  79895269.004 7
      -132.451        -103.019
  21444661.010    21444660.478    21444667.699   114473136.350 7  89034704.772 6
     -2476.758       -1926.366
  19311981.879    19311981.804    19311988.342   103306153.297 8  80349278.897 7
       975.656         758.841
  21653734.405    21653733.947    21653740.260   115792300.298 7  90060722.633 6
      4004.117        3114.312
 11 10 10 16 39 30.0000000  0 15G03G06G11G14G19G20G22G28G32R01R07R08
                                R22R23R24
  21509058.969    21509057.8944   21509067.5534  113030935.765 7  88076085.02744
     -2491.498       -1941.421
  22522280.867    22522280.1094   22522289.4694  118355443.657 6  92225054.95243
     -2459.406       -1916.417
  21013313.556    21013313.0514   21013319.3924  110425802.692 7  86046105.57545
      2333.309        1818.163
  22366250.301    22366249.8534   22366257.3014  117535569.926 6  91586161.55243
      1315.199        1024.826
  20382235.422    20382234.1734   20382240.0134  107109440.438 8  83461928.32247
       -67.556         -52.639
  23875289.223    23875287.1154   23875300.7894  125465636.664 5  97765388.35141
      3861.662        3009.100
  22454372.266    22454370.9594   22454376.5854  117998990.609 7  91947229.91744
     -2223.496       -1732.588
  24987198.748                                   131308619.336 5
      2547.622
  21552346.021    21552345.1664   21552354.7254  113258714.953 7  88253458.33844
      2922.573        2277.329
  20907878.028    20907877.604    20907884.653   111764968.383 7  86928433.599 5
      3672.807        2856.625
  21661475.046    21661474.352    21661476.988   115955965.533 6  90188112.787 5
     -3068.267       -2386.430
  19183350.771    19183350.258    19183354.736   102726579.709 8  79898627.794 7
      -155.715        -121.113
  21458617.346    21458616.711    21458624.007   114547636.051 7  89092648.944 6
     -2490.230       -1936.841
  19306564.845    19306564.648    19306571.208   103277174.365 8  80326739.745 7
       955.919         743.495
  21631285.554    21631285.270    21631291.569   115672258.468 7  89967356.853 6
      3998.282        3109.778
 11 10 10 16 40  0.0000000  0 15G03G06G11G14G19G20G22G28G32R01R07R08
                                R22R23R24
  21523314.187    21523313.7174   21523322.4474  113105846.514 7  88134457.01244
     -2502.508       -1950.004
  22536346.861    22536347.0744   22536356.5844  118429363.998 6  92282655.17643
     -2468.556       -1923.559
  21000017.869    21000017.3094   21000023.6964  110355932.417 8  85991661.25245
      2324.757        1811.497
  22358793.485    22358792.6484   22358800.6744  117496383.959 6  91555627.09143
      1297.307        1010.883
  20382667.112    20382665.8304   20382671.5564  107111708.570 8  83463695.70947
       -83.601         -65.142
  23853258.524    23853258.6944   23853269.1094  125349873.583 5  97675183.73241
      3855.937        3004.613
  22467086.054    22467084.9614   22467090.1084  118065801.061 7  91999290.02244
     -2230.479       -1738.033
  24972693.523                                   131232390.346 5
      2534.197
  21535700.933    21535699.9914   21535709.1984  113171243.020 7  88185298.49845
      2908.968        2266.723
  20887310.742    20887310.433    20887317.719   111655028.549 7  86842924.961 5
      3656.574        2844.000
  21678695.082    21678693.265    21678695.463   116048138.759 6  90259803.067 5
     -3076.461       -2392.808
  19184287.847    19184287.544    19184291.817   102731598.526 8  79902531.345 7
      -178.813        -139.080
  21472650.170    21472649.592    21472656.361   114622543.676 7  89150910.384 6
     -2503.531       -1947.191
  19301259.311    19301258.987    19301265.388   103248792.753 8  80304665.177 7
       936.233         728.182
  21608870.419    21608870.209    21608876.808   115552396.400 7  89874130.883 6
      3992.548        3105.311
 11 10 10 16 40 30.0000000  0 15G03G06G11G14G19G20G22G28G32R01R07R08
                                R22R23R24
  21537631.316    21537630.7874   21537639.9344  113181083.145 7  88193082.93644
     -2513.395       -1958.487
  22550465.266    22550464.7614   22550474.0944  118503554.493 6  92340465.91543
     -2477.560       -1930.565
  20986769.978    20986769.3474   20986775.6434  110286315.085 7  85937414.03945
      2316.260        1804.871
  22351438.441    22351437.2034   22351445.3664  117457731.221 7  91525508.14843
      1279.478         996.984
  20383189.447    20383188.3324   20383194.0634  107114454.504 8  83465835.40947
       -99.569         -77.590
  23831263.125    23831262.2194   23831271.7114  125234278.856 5  97585110.31941
      3850.249        3000.201
  22479838.469    22479837.3914   22479842.4174  118132816.005 7  92051509.47144
     -2237.316       -1743.368
  24958261.113                                   131156561.109 4
      2520.838
  21519132.360    21519131.3264   21519140.9524  113084176.864 7  88117454.84645
      2895.327        2256.091
  20866834.435    20866834.361    20866841.371   111545572.445 7  86757792.566 5
      3640.383        2831.402
  21695958.816    21695957.771    21695959.957   116140556.678 6  90331683.656 5
     -3084.803       -2399.291
  19185353.631    19185353.074    19185357.128   102737304.331 8  79906969.225 7
      -201.712        -156.892
  21486756.530    21486756.555    21486762.760   114697846.753 7  89209479.411 6
     -2516.764       -1957.482
  19296063.663    19296063.396    19296070.172   103220999.600 8  80283048.300 7
       916.513         712.841
  21586487.543    21586486.960    21586493.997   115432706.237 7  89781038.596 6
      3986.672        3100.738
 11 10 10 16 41  0.0000000  0 15G03G06G11G14G19G20G22G28G32R01R07R08
                                R22R23R24
  21552010.600    21552009.9244   21552018.6204  113256646.402 7  88251963.37244
     -2524.249       -1966.952
  22564634.822    22564634.2474   22564644.3594  118578015.747 6  92398487.63643
     -2486.580       -1937.598
  20973571.141    20973570.5214   20973576.9414  110216954.409 8  85883366.80445
      2307.670        1798.183
  22344185.152    22344183.9594   22344192.7204  117419615.386 6  91495807.57443
      1261.519         983.001
  20383803.455    20383802.3094   20383808.0844  107117681.102 8  83468349.65147
      -115.632         -90.102
  23809297.719    23809297.1444   23809309.0064  125118856.521 5  97495171.18241
      3844.460        2995.660
  22492629.964    22492628.5164   22492634.1564  118200035.859 7  92103888.58244
     -2244.122       -1748.665
  24943908.817                                   131081135.759 4
      2507.405
  21502642.049    21502641.0884   21502650.7354  112997520.011 7  88049930.13445
      2881.673        2245.460
  20846450.502    20846450.064    20846456.790   111436604.718 7  86673040.011 5
      3624.036        2818.692
  21713268.737    21713268.112    21713270.308   116233221.232 6  90403756.067 5
     -3092.677       -2405.417
  19186547.343    19186546.958    19186550.846   102743697.789 8  79911941.935 7
      -224.602        -174.690
  21500938.739    21500938.073    21500944.001   114773546.295 7  89268356.793 6
     -2529.975       -1967.751
  19290978.762    19290978.374    19290985.505   103193799.155 8  80261892.411 7
       896.758         697.479
  21564138.599    21564138.352    21564145.102   115313193.566 7  89688084.391 6
      3980.732        3096.118
 11 10 10 16 41 30.0000000  0 15G03G06G11G14G19G20G22G28G32R01R07R08
                                R22R23R24
  21566450.032    21566449.2594   21566458.3834  113332526.550 7  88311090.73544
     -2534.681       -1975.075
  22578854.036    22578853.3674   22578863.2114  118652738.074 6  92456712.79443
     -2495.159       -1944.286
  20960419.509    20960418.8014   20960425.6864  110147843.531 8  85829514.22545
      2299.439        1791.767
  22337032.529    22337031.6654   22337039.6774  117382029.592 6  91466520.01743
      1243.953         969.310
  20384507.465    20384506.1684   20384511.9194  107121380.285 8  83471232.15047
      -131.263        -102.283
  23787365.664    23787363.8774   23787376.6414  125003599.784 5  97405361.07641
      3839.138        2991.559
  22505458.463    22505457.3264   22505462.3664  118267450.236 7  92156419.26343
     -2250.468       -1753.613
  24929631.654                                   131006108.019 4
      2494.178
  21486227.781    21486227.1484   21486236.6374  112911265.458 7  87982718.90145
      2868.324        2235.053
  20826155.714    20826155.306    20826162.272   111328119.306 7  86588662.598 5
      3608.047        2806.252
  21730622.787    21730621.998    21730624.392   116326116.721 6  90476008.090 5
     -3100.425       -2411.438
  19187867.404    19187867.007    19187871.144   102750768.357 8  79917441.296 7
      -247.019        -192.121
  21515191.812    21515191.606    21515198.114   114849632.647 7  89327535.017 6
     -2542.733       -1977.678
  19286003.418    19286003.262    19286009.817   103167185.140 8  80241192.642 7
       877.260         682.311
  21541820.465    21541820.532    21541827.051   115193852.942 7  89595263.969 6
      3974.988        3091.654
 11 10 10 16 42  0.0000000  0 15G03G06G11G14G19G20G22G28G32R01R07R08
                                R22R23R24
  21580948.205    21580947.5554   21580956.6414  113408714.822 7  88370458.19644
     -2544.803       -1982.962
  22593121.154    22593121.0114   22593130.6544  118727713.729 6  92515135.34943
     -2503.449       -1950.733
  20947314.659    20947314.1294   20947320.8304  110078977.218 8  85775852.22045
      2291.378        1785.483
  22329979.338    22329978.8924   22329987.6254  117344968.878 6  91437641.60543
      1226.497         955.702
  20385299.986    20385298.8504   20385304.5654  107125546.199 9  83474478.32847
      -146.735        -114.340
  23765462.762    23765463.5254   23765474.0484  124888503.788 5  97315676.21141
      3833.851        2987.414
  22518322.349    22518321.3624   22518326.9284  118335050.971 6  92209095.16443
     -2256.514       -1758.318
  24915429.634                                   130931473.181 4
      2481.129
  21469890.437    21469888.6994   21469898.3214  112825408.046 7  87915817.12345
      2855.187        2224.812
  20805951.276    20805950.325    20805957.006   111220112.239 7  86504657.220 5
      3592.142        2793.885
  21748019.057    21748017.619    21748019.687   116419235.049 6  90548433.433 5
     -3107.771       -2417.154
  19189313.018    19189312.431    19189316.488   102758507.258 8  79923460.474 7
      -269.165        -209.350
  21529516.070    21529516.177    21529522.498   114926098.323 7  89387008.270 6
     -2555.227       -1987.402
  19281136.936    19281136.716    19281143.398   103141153.168 8  80220945.573 7
       857.912         667.262
  21519534.910    21519534.861    21519541.394   115074681.390 6  89502575.070 6
      3969.450        3087.346
 11 10 10 16 42 30.0000000  0 15G03G06G11G14G19G20G22G28G32R01R07R08
                                R22R23R24
  21595504.968    21595504.3874   21595513.0624  113485210.412 7  88430065.12744
     -2554.899       -1990.824
  22607436.547    22607436.1734   22607446.1914  118802942.149 6  92573754.86143
     -2511.775       -1957.219
  20934256.778    20934256.1384   20934262.9054  110010357.815 7  85722382.60845
      2283.240        1779.148
  22323027.886    22323027.0724   22323035.0974  117308435.691 6  91409174.24943
      1209.014         942.085
  20386181.979    20386180.6974   20386186.4424  107130179.907 8  83478089.02347
      -162.218        -126.402
  23743592.196    23743589.7274   23743602.3804  124773571.111 5  97226118.59041
      3828.349        2983.118
  22531221.372    22531220.2414   22531225.8354  118402837.094 7  92261915.52243
     -2262.569       -1763.049
  24901302.641                                   130857233.960 5
      2468.121
  21453627.978    21453626.8804   21453635.8864  112739950.074 7  87849226.59745
      2841.932        2214.490
  20785835.798    20785835.425    20785842.112   111112586.625 7  86421026.326 5
      3576.159        2781.453
  21765455.844    21765454.356    21765456.381   116512575.610 6  90621031.652 5
     -3115.009       -2422.783
  19190882.738    19190882.243    19190886.541   102766914.084 8  79929999.148 7
      -291.309        -226.572
  21543912.844    21543912.176    21543918.353   115002942.585 7  89446775.978 6
     -2567.723       -1997.114
  19276379.964    19276379.757    19276386.401   103115706.193 8  80201153.505 7
       838.529         652.190
  21497282.341    21497282.105    21497288.221   114955683.060 7  89410020.908 6
      3963.704        3082.876
 11 10 10 16 43  0.0000000  0 15G03G06G11G14G19G20G22G28G32R01R07R08
                                R22R23R24
  21610120.955    21610120.2094   21610129.2954  113562018.838 7  88489915.83344
     -2565.618       -1999.180
  22621802.117    22621801.5024   22621810.7914  118878429.272 6  92632575.96343
     -2520.673       -1964.166
  20921247.284    20921246.6504   20921253.6114  109941993.507 8  85669111.77145
      2274.420        1772.270
  22316178.509    22316177.1024   22316184.5034  117272438.927 6  91381124.89743
      1190.773         927.874
  20387154.310    20387153.1284   20387158.8974  107135289.686 8  83482070.68347
      -178.385        -139.000
  23721752.852    23721752.4944   23721764.5164  124658810.731 5  97136695.26841
      3822.266        2978.372
  22544157.078    22544155.9974   22544162.0164  118470814.061 7  92314884.58343
     -2269.206       -1768.213
  24887253.494                                   130783399.982 5
      2454.224
  21437442.957    21437442.1434   21437451.7194  112654900.409 7  87782954.25345
      2828.008        2203.638
  20765812.470    20765812.324    20765818.936   111005552.580 7  86337777.768 5
      3559.446        2768.449
  21782934.238    21782933.288    21782935.056   116606140.918 6  90693804.664 5
     -3122.524       -2428.629
  19192578.487    19192577.964    19192581.731   102775993.694 8  79937061.105 7
      -313.958        -244.195
  21558380.130    21558379.397    21558386.239   115080172.038 7  89506843.291 6
     -2580.858       -2007.335
  19271734.084    19271733.792    19271740.483   103090853.926 8  80181823.994 7
       818.333         636.477
  21475062.635    21475062.218    21475068.702   114836868.999 7  89317610.062 6
      3957.216        3077.831
 11 10 10 16 43 30.0000000  0 15G03G06G11G14G19G20G22G28G32R01R07R08
                                R22R23R24
  21624797.511    21624797.0314   21624806.4154  113639145.954 7  88550014.85744
     -2576.175       -2007.406
  22636217.841    22636216.4514   22636225.2034  118954181.154 6  92691603.37043
     -2529.419       -1970.980
  20908288.074    20908287.4154   20908294.4434  109873893.078 8  85616046.55145
      2265.642        1765.433
  22309432.114    22309431.0314   22309439.0444  117236987.379 6  91353500.38643
      1172.680         913.768
  20388218.750    20388217.5364   20388223.1884  107140883.065 8  83486429.17047
      -194.483        -151.545
  23699949.861    23699947.6544   23699959.5714  124544231.467 5  97047413.02341
      3816.316        2973.753
  22557130.115    22557128.6734   22557134.7504  118538987.632 6  92368006.84843
     -2275.670       -1773.252
  24873281.074                                   130709980.731 5
      2440.348
  21421337.954    21421337.2894   21421346.6944  112570267.655 7  87717006.75945
      2814.188        2192.870
  20745883.359    20745882.814    20745889.831   110899020.020 7  86254919.246 5
      3542.742        2755.466
  21800455.288    21800454.376    21800456.646   116699935.520 6  90766756.012 5
     -3130.132       -2434.547
  19194400.487    19194400.128    19194404.209   102785752.543 8  79944651.355 7
      -336.535        -261.745
  21572920.838    21572920.480    21572926.994   115157792.822 7  89567214.979 5
     -2593.853       -2017.438
  19267201.121    19267200.910    19267207.706   103066606.035 8  80162964.548 7
       798.215         620.834
  21452880.457    21452880.332    21452886.627   114718250.152 7  89225351.022 6
      3950.736        3072.793
 11 10 10 16 44  0.0000000  0 15G03G06G11G14G19G20G22G28G32R01R07R08
                                R22R23R24
  21639533.845    21639533.0814   21639542.3914  113716584.840 7  88610356.81944
     -2586.490       -2015.445
  22650681.519    22650680.8294   22650689.6154  119030191.214 6  92750831.94843
     -2538.016       -1977.675
  20895378.708    20895378.1604   20895384.7134  109806052.811 8  85563184.05345
      2256.963        1758.667
  22302788.396    22302787.8034   22302795.5854  117202077.304 6  91326297.80243
      1154.613         899.695
  20389374.383    20389373.0774   20389378.6624  107146955.361 8  83491160.83747
      -210.418        -163.961
  23678178.173    23678178.6584   23678189.7824  124429829.903 5  96958269.23541
      3810.410        2969.179
  22570138.732    22570137.4854   22570144.0914  118607350.744 6  92421276.80243
     -2281.947       -1778.142
  24859388.363                                   130636972.975 5
      2426.685
  21405311.667    21405310.7174   21405320.0604  112486047.977 7  87651381.15245
      2800.368        2182.100
  20726047.325    20726046.725    20726053.423   110792985.928 7  86172448.419 5
      3526.148        2742.549
  21818017.971    21818017.373    21818019.934   116793951.344 6  90839879.420 5
     -3137.666       -2440.409
  19196348.579    19196347.982    19196351.730   102796182.522 8  79952763.591 7
      -358.817        -279.085
  21587533.852    21587533.300    21587540.006   115235798.483 7  89627886.031 5
     -2606.626       -2027.374
  19262780.932    19262780.542    19262787.166   103042959.198 8  80144572.587 7
       778.169         605.243
  21430733.614    21430733.914    21430739.835   114599824.656 7  89133242.406 6
      3944.217        3067.721
 11 10 10 16 44 30.0000000  0 15G03G06G11G14G19G20G22G28G32R01R07R08
                                R22R23R24
  21654329.428    21654328.8104   21654337.8084  113794335.652 7  88670941.84444
     -2596.904       -2023.564
  22665194.712    22665194.1524   22665203.8014  119106460.293 6  92810262.35443
     -2546.621       -1984.380
  20882519.514    20882518.5544   20882525.2774  109738476.313 8  85510527.09245
      2248.122        1751.780
  22296248.721    22296248.3424   22296256.5794  117167712.537 7  91299520.13143
      1136.358         885.476
  20390621.594    20390620.3124   20390625.6474  107153509.536 8  83496267.99747
      -226.525        -176.517
  23656442.852    23656442.1424   23656453.5094  124315610.050 5  96869267.05041
      3804.358        2964.478
  22583183.778    22583183.0434   22583188.8324  118675903.718 6  92474694.69343
     -2288.247       -1783.055
  24845575.145                                   130564380.899 5
      2412.759
  21389364.264    21389363.3944   21389372.5534  112402245.109 7  87586080.33045
      2786.481        2171.283
  20706305.378    20706304.926    20706311.781   110687455.079 7  86090369.005 5
      3509.281        2729.437
  21835622.362    21835621.491    21835623.902   116888185.588 6  90913172.696 5
     -3144.706       -2445.877
  19198421.774    19198421.048    19198425.119   102807284.405 8  79961398.423 7
      -381.243        -296.522
  21602219.047    21602218.563    21602224.637   115314190.255 7  89688857.365 5
     -2619.467       -2037.358
  19258473.352    19258473.001    19258479.609   103019917.813 8  80126651.534 7
       757.916         589.488
  21408625.971    21408625.431    21408630.819   114481598.166 7  89041288.548 6
      3937.510        3062.503
 11 10 10 16 45  0.0000000  0 15G03G06G11G14G19G20G22G28G32R01R07R08
                                R22R23R24
  21669185.858    21669184.9014   21669194.0924  113872405.246 7  88731775.26944
     -2607.813       -2032.053
  22679758.439    22679758.3674   22679768.1534  119182995.477 6  92869900.12143
     -2555.764       -1991.509
  20869712.125    20869711.2634   20869717.8224  109671173.488 8  85458083.38445
      2238.666        1744.417
  22289815.259    22289814.6094   22289822.1494  117133903.014 7  91273175.12343
      1117.496         870.779
  20391961.686    20391960.8204   20391966.2324  107160554.378 8  83501757.49547
      -243.194        -189.498
  23634744.207    23634743.4304   23634756.7784  124201582.005 5  96780414.29741
      3797.524        2959.096
  22596266.741    22596265.5184   22596271.4104  118744653.442 7  92528265.90543
     -2295.104       -1788.386
  24831841.203                                   130492214.745 5
      2398.244
  21373498.451    21373497.4154   21373506.5864  112318868.765 7  87521111.86045
      2771.914        2159.932
  20686659.873    20686659.637    20686666.081   110582438.485 7  86008689.565 5
      3491.776        2715.823
  21853268.403    21853267.746    21853269.743   116982646.097 6  90986641.969 5
     -3152.483       -2451.934
  19200621.706    19200620.846    19200624.702   102819064.793 8  79970560.989 7
      -404.135        -314.326
  21616977.970    21616977.607    21616984.225   115392975.338 7  89750134.611 5
     -2632.925       -2047.829
  19254281.094    19254280.773    19254287.568   102997492.750 8  80109209.852 7
       737.005         573.227
  21386555.578    21386555.157    21386561.742   114363583.084 7  88949499.136 6
      3930.121        3056.761
 11 10 10 16 45 30.0000000  0 15G03G06G11G14G19G20G22G28G32R01R07R08
                                R22R23R24
  21684102.648    21684102.0224   21684110.9344  113950794.955 7  88792858.13744
     -2618.200       -2040.153
  22694375.129    22694373.6874   22694383.2204  119259798.436 6  92929746.52243
     -2564.401       -1998.229
  20856957.423    20856956.6484   20856963.6074  109604148.872 8  85405856.45745
      2229.641        1737.387
  22283488.452    22283487.7754   22283495.2954  117100652.895 6  91247266.01243
      1099.122         856.450
  20393396.453    20393395.4454   20393400.9744  107168093.240 8  83507631.94447
      -259.394        -202.125
  23613083.960    23613083.0064   23613094.0334  124087750.443 5  96691714.65041
      3791.167        2954.123
  22609387.225    22609386.6284   22609392.0164  118813601.384 6  92581991.56943
     -2301.434       -1793.324
  24818189.903                                   130420479.650 5
      2384.110
  21357713.937    21357713.3244   21357722.3704  112235923.288 7  87456479.11945
      2757.756        2148.902
  20667111.821    20667111.112    20667117.506   110477941.726 7  85927414.435 5
      3474.664        2702.512
  21870957.283    21870955.602    21870958.112   117077332.505 6  91060286.939 5
     -3159.835       -2457.649
  19202948.146    19202947.741    19202951.812   102831524.971 8  79980252.270 7
      -426.536        -331.748
  21631811.104    21631810.700    21631817.751   115472155.766 7  89811719.342 6
     -2645.813       -2057.855
  19250205.357    19250204.979    19250211.638   102975689.207 8  80092251.561 7
       716.518         557.292
  21364527.939    21364527.305    21364532.967   114245785.782 7  88857879.117 6
      3922.999        3051.222
 11 10 10 16 46  0.0000000  0 15G03G06G11G14G19G20G22G28G32R01R07R08
                                R22R23R24
  21699081.034    21699080.2404   21699089.3714  114029505.111 7  88854190.70744
     -2628.981       -2048.556
  22709040.396    22709039.7804   22709049.1304  119336869.749 6  92989802.05643
     -2573.515       -2005.341
  20844256.484    20844255.9714   20844262.6424  109537405.548 8  85353848.72845
      2220.073        1729.928
  22277267.812    22277267.4984   22277274.9654  117067965.914 6  91221795.69343
      1080.153         841.674
  20394925.550    20394924.3444   20394929.9844  107176128.574 8  83513893.25247
      -276.117        -215.156
  23591460.487    23591458.4634   23591469.4874  123974118.941 5  96603170.86241
      3784.344        2948.823
  22622544.913    22622544.1144   22622549.8304  118882747.583 6  92635871.72243
     -2308.137       -1798.538
  24804622.804                                   130349179.656 5
      2369.430
  21342012.632    21342012.0334   21342020.9784  112153412.132 7  87392184.80845
      2743.108        2137.485
  20647661.008    20647660.568    20647666.989   110373968.792 7  85846546.727 5
      3457.018        2688.788
  21888686.731    21888685.836    21888687.990   117172243.461 6  91134106.549 5
     -3167.423       -2463.549
  19205401.953    19205401.360    19205405.600   102844664.500 8  79990471.931 7
      -449.267        -349.430
  21646718.400    21646718.348    21646725.268   115551732.199 7  89873612.085 6
     -2659.177       -2068.244
  19246246.365    19246245.972    19246252.704   102954510.913 8  80075779.576 7
       695.478         540.931
  21342540.248    21342539.809    21342545.889   114128211.994 7  88766432.940 6
      3915.380        3045.294
 11 10 10 16 46 30.0000000  0 15G03G06G11G14G19G20G22G28G32R01R07R08
                                R22R23R24
  21714119.277    21714118.5484   21714127.5034  114108531.870 7  88915769.97344
     -2639.094       -2056.428
  22723756.662    22723756.7504   22723766.1154  119414206.169 6  93050064.15043
     -2581.931       -2011.893
  20831608.910    20831608.4924   20831615.0744  109470943.159 8  85302059.90345
      2211.101        1722.935
  22271155.198    22271153.9794   22271162.0274  117035841.498 6  91196763.74143
      1061.782         827.357
  20396549.017    20396547.6924   20396553.4254  107184658.985 8  83520540.33747
      -292.224        -227.708
  23569872.971    23569873.3504   23569883.8244  123860687.420 5  96514782.90941
      3778.038        2943.911
  22635740.346    22635738.9724   22635744.7664  118952088.583 6  92689903.67243
     -2314.214       -1803.302
  24791138.020    24791139.0124   24791146.9544  130278314.555 5 101515578.76841
      2355.374        1835.351
  21326394.314    21326393.1374   21326402.1334  112071334.754 7  87328228.51045
      2729.058        2126.535
  20628308.846    20628308.331    20628315.211   110270520.569 7  85766087.118 5
      3439.935        2675.498
  21906457.035    21906456.708    21906459.056   117267373.750 6  91208096.769 5
     -3174.205       -2468.819
  19207981.931    19207981.311    19207985.214   102858479.763 8  80001217.162 7
      -471.358        -366.608
  21661699.248    21661699.592    21661706.223   115631701.661 7  89935810.521 5
     -2671.780       -2078.043
  19242404.114    19242403.671    19242410.459   102933958.492 8  80059794.384 7
       675.013         525.008
  21320595.819    21320595.558    21320601.446   114010863.185 7  88675161.722 6
      3908.209        3039.716
 11 10 10 16 47  0.0000000  0 15G03G06G11G14G19G20G22G28G32R01R07R08
                                R22R23R24
  21729213.659    21729213.1044   21729222.2964  114187854.617 7  88977579.89344
     -2648.773       -2063.980
  22738520.231    22738519.8234   22738529.2334  119491787.562 6  93110517.14043
     -2589.918       -2018.114
  20819012.074    20819011.4064   20819017.8374  109404744.072 8  85250476.25045
      2202.467        1716.205
  22265145.298    22265144.7124   22265153.0524  117004261.967 7  91172156.36643
      1043.809         813.352
  20398262.717    20398261.7174   20398267.3694  107193665.798 8  83527558.64247
      -307.959        -239.969
  23548323.433    23548321.5834   23548333.7474  123747438.400 5  96426537.15441
      3772.155        2939.321
  22648968.577    22648967.3104   22648973.3694  119021603.647 6  92744071.25143
     -2319.791       -1807.634
  24777731.961    24777734.3504   24777738.9914  130207867.677 4 101460685.12341
      2341.523        1824.570
  21310854.413    21310853.4304   21310862.6464  111989673.342 7  87264596.33445
      2715.321        2115.826
  20609052.220    20609051.353    20609057.913   110167579.848 7  85686022.227 5
      3423.121        2662.422
  21924265.357    21924264.450    21924266.787   117362700.436 6  91282239.733 5
     -3180.602       -2473.797
  19210683.799    19210683.339    19210687.258   102872949.223 8  80012471.212 7
      -492.951        -383.402
  21676750.927    21676750.247    21676757.812   115712043.162 7  89998298.325 6
     -2684.002       -2087.558
  19238675.465    19238675.229    19238682.054   102914014.279 8  80044282.238 7
       654.888         509.356
  21298689.278    21298689.126    21298695.390   113893723.578 7  88584053.256 6
      3901.367        3034.390
 11 10 10 16 47 30.0000000  0 15G03G06G11G14G19G20G22G28G32R01R07R08
                                R22R23R24
  21744363.820    21744363.4734   21744372.4664  114267470.943 7  89039618.57144
     -2658.970       -2071.926
  22753330.171    22753329.6854   22753339.1384  119569611.537 6  93171159.13943
     -2598.379       -2024.700
  20806464.947    20806464.2264   20806470.7704  109338808.933 8  85199098.27045
      2193.211        1708.990
  22259239.749    22259238.6414   22259246.4844  116973228.078 6  91147974.17643
      1025.152         798.807
  20400067.359    20400066.2214   20400071.8034  107203148.927 8  83534948.10847
      -324.265        -252.674
  23526806.990    23526805.6044   23526817.0724  123634373.058 5  96338434.53541
      3765.531        2934.156
  22662229.809    22662228.2794   22662234.4994  119091290.440 6  92798372.64443
     -2325.989       -1812.465
  24764406.443    24764409.1224   24764413.3424  130137840.236 5 101406118.30041
      2326.921        1813.233
  21295393.921    21295392.7744   21295402.0404  111908428.692 7  87201288.92045
      2700.989        2104.660
  20589889.872    20589889.323    20589895.506   110065148.477 7  85606353.500 5
      3405.654        2648.837
  21942109.767    21942108.348    21942110.590   117458220.549 6  91356533.137 5
     -3187.483       -2479.154
  19213507.804    19213507.145    19213511.023   102888070.435 8  80024232.182 7
      -515.064        -400.607
  21691871.403    21691870.872    21691876.746   115792755.225 7  90061074.342 5
     -2696.779       -2097.493
  19235061.398    19235061.092    19235067.486   102894679.809 8  80029244.341 7
       634.085         493.175
  21276823.876    21276823.724    21276828.862   113776796.404 7  88493109.975 6
      3893.767        3028.485
 11 10 10 16 48  0.0000000  0 15G03G06G11G14G19G20G22G28G32R01R07R08
                                R22R23R24
  21759570.439    21759570.0634   21759579.1504  114347381.347 7  89101886.38944
     -2668.524       -2079.369
  22768185.277    22768185.1544   22768194.6794  119647679.147 6  93231990.99443
     -2606.248       -2030.847
  20793968.526    20793968.0704   20793974.3284  109273141.589 8  85147928.95745
      2184.469        1702.183
  22253438.437    22253437.5234   22253445.4564  116942743.229 6  91124219.81843
      1007.016         784.685
  20401963.090    20401961.9194   20401967.4994  107213110.880 8  83542710.68047
      -339.999        -264.936
  23505328.393    23505324.9554   23505338.3814  123521495.093 5  96250477.90241
      3759.510        2929.504
  22675523.141    22675521.9404   22675528.2634  119161149.384 6  92852808.16943
     -2331.438       -1816.697
  24751161.690    24751160.4704   24751168.7204  130068236.212 4 101351881.44641
      2313.075        1802.382
  21280013.182    21280012.2404   21280021.4664  111827604.187 7  87138308.87845
      2687.164        2093.893
  20570823.593    20570823.297    20570830.119   109963230.708 7  85527084.244 5
      3388.670        2635.632
  21959988.970    21959988.721    21959990.985   117553933.786 6  91430976.756 5
     -3193.607       -2483.918
  19216453.282    19216452.657    19216456.696   102903843.171 8  80036499.885 7
      -536.540        -417.308
  21707061.326    21707060.439    21707066.327   115873838.768 7  90124139.288 5
     -2708.942       -2106.955
  19231561.871    19231561.510    19231567.930   102875959.315 8  80014683.979 7
       613.809         477.408
  21254997.852    21254997.599    21255003.434   113660087.194 7  88402336.243 6
      3886.653        3022.949
 11 10 10 16 48 30.0000000  0 15G03G06G11G14G19G20G22G28G32R01R07R08
                                R22R23R24
  21774834.253    21774833.4964   21774842.6134  114427592.436 7  89164388.51444
     -2678.720       -2087.315
  22783088.909    22783088.6244   22783097.3684  119725997.056 6  93293017.87643
     -2614.788       -2037.493
  20781525.093    20781524.7044   20781531.3264  109207751.582 8  85096975.74645
      2174.980        1694.788
  22247743.476    22247742.8824   22247750.3714  116912817.188 6  91100900.89443
       988.175         770.007
  20403951.302    20403950.2494   20403955.9304  107223560.166 9  83550852.99047
      -356.480        -277.777
  23483884.668    23483884.7594   23483895.0124  123408814.573 5  96162675.15541
      3752.690        2924.172
  22688851.172    22688850.0934   22688855.5754  119231187.144 6  92907383.03843
     -2337.528       -1821.439
  24737998.110    24737995.9954   24738009.1744  129999065.804 5 101297982.40341
      2298.283        1790.846
  21264714.559    21264713.6124   21264722.6614  111747209.564 7  87075663.80845
      2672.588        2082.533
  20551855.962    20551855.744    20551862.123   109861837.369 7  85448222.868 5
      3370.985        2621.872
  21977907.157    21977905.980    21977908.313   117649844.919 6  91505574.271 5
     -3200.462       -2489.246
  19219521.434    19219521.023    19219524.836   102920273.925 8  80049279.377 7
      -558.641        -434.502
  21722320.310    21722320.398    21722327.156   115955300.898 7  90187498.688 5
     -2721.728       -2116.898
  19228178.816    19228178.444    19228185.035   102857863.143 8  80000609.194 7
       592.764         461.039
  21233216.318    21233215.903    21233221.279   113543608.129 7  88311741.497 6
      3878.733        3016.788
 11 10 10 16 49  0.0000000  0 15G03G06G11G14G19G20G22G28G32R01R07R08
                                R22R23R24
  21790153.407    21790152.5324   21790161.9824  114508094.903 7  89227117.69144
     -2688.156       -2094.660
  22798038.103    22798037.7364   22798047.3394  119804556.941 6  93354233.32343
     -2622.576       -2043.561
  20769133.507    20769133.1604   20769139.8234  109142633.284 8  85046234.26545
      2166.176        1687.929
  22242154.208    22242153.5624   22242160.6014  116883443.818 6  91078012.62043
       969.995         755.843
  20406031.281    20406030.0884   20406035.7674  107234489.859 8  83559369.64747
      -372.228        -290.047
  23462479.339    23462477.2474   23462488.3974  123296325.688 5  96075021.71441
      3746.539        2919.397
  22702211.366    22702210.1204   22702216.5684  119301394.743 6  92962090.24343
     -2342.917       -1825.650
  24724916.591    24724915.9344   24724923.9034  129930323.577 5 101244417.06041
      2284.328        1779.985
  21249496.568    21249495.6274   21249504.6604  111667238.528 7  87013348.80845
      2658.756        2071.753
  20532985.254    20532985.139    20532991.236   109760963.418 7  85369765.464 5
      3353.857        2608.544
  21995857.986    21995857.529    21995859.727   117745943.368 6  91580317.476 5
     -3206.218       -2493.725
  19222710.711    19222710.313    19222714.196   102937353.421 8  80062563.451 7
      -579.999        -451.108
  21737650.500    21737650.242    21737657.502   116037132.792 7  90251145.684 6
     -2733.756       -2126.253
  19224911.497    19224911.264    19224917.814   102840385.556 8  79987015.531 7
       572.393         445.194
  21211476.197    21211475.701    21211481.627   113427355.402 7  88221322.792 6
      3871.375        3011.068
 11 10 10 16 49 30.0000000  0 15G03G06G11G14G19G20G22G28G32R01R07R08
                                R22R23R24
  21805526.422    21805525.4644   21805534.6564  114588878.626 7  89290066.03044
     -2697.463       -2101.921
  22813031.999    22813031.6054   22813040.9714  119883348.620 6  93415629.41242
     -2630.223       -2049.542
  20756792.491    20756791.8374   20756798.3494  109077779.350 7  84995698.77345
      2157.351        1681.048
  22236668.633    22236667.2424   22236675.3684  116854616.043 7  91055549.48843
       951.823         741.675
  20408201.099    20408199.9004   20408205.4614  107245891.913 8  83568254.37647
      -387.965        -302.312
  23441107.927    23441105.6984   23441118.0484  123184021.945 5  95987512.53941
      3740.333        2914.548
  22715601.973    22715600.3504   22715606.4824  119371762.094 6  93016921.93843
     -2348.192       -1829.755
  24711916.493    24711916.3704   24711925.1014  129862002.954 5 101191180.22341
      2270.274        1769.040
  21234357.627    21234356.9154   21234366.0384  111587684.154 7  86951358.46845
      2644.858        2060.926
  20514210.802    20514210.160    20514216.893   109660602.493 7  85291707.073 5
      3336.785        2595.276
  22013843.578    22013842.382    22013844.411   117842217.276 6  91655197.142 5
     -3212.164       -2498.348
  19226019.613    19226018.945    19226022.869   102955070.368 8  80076343.312 7
      -601.230        -467.620
  21753047.973    21753047.559    21753054.506   116119324.600 7  90315072.602 6
     -2745.737       -2135.574
  19221758.807    19221758.487    19221765.011   102823520.388 9  79973898.196 7
       551.934         429.283
  21189778.194    21189777.808    21189783.171   113311324.149 7  88131076.325 6
      3863.968        3005.306
 11 10 10 16 50  0.0000000  0 15G03G06G11G14G19G20G22G28G32R01R07R08
                                R22R23R24
  21820952.436    21820952.0234   21820960.7634  114669944.706 7  89353234.38644
     -2707.005       -2109.354
  22828070.077    22828069.2184   22828079.3004  119962373.899 6  93477207.50242
     -2638.186       -2055.730
  20744502.255    20744501.6574   20744508.2424  109013194.206 8  84945372.73145
      2148.230        1673.941
  22231287.099    22231286.3824   22231294.1924  116826338.259 7  91033514.92843
       933.326         727.266
  20410461.655    20410460.2084   20410465.7454  107257769.756 8  83577509.85347
      -403.961        -314.773
  23419773.317    23419772.0254   23419782.0484  123071907.657 5  95900150.98441
      3733.870        2909.493
  22729022.785    22729022.2464   22729027.5554  119442290.692 6  93071879.28543
     -2353.731       -1834.081
  24698996.071    24698995.0304   24699005.7444  129794109.034 4 101138275.94241
      2255.896        1757.814
  21219299.178    21219298.0834   21219307.0064  111508550.508 7  86889695.97945
      2630.644        2049.852
  20495532.792    20495532.636    20495538.794   109560759.839 7  85214051.784 5
      3319.302        2581.675
  22031861.086    22031859.923    22031861.788   117938667.694 6  91730214.106 4
     -3218.044       -2502.929
  19229447.301    19229446.581    19229450.458   102973425.697 8  80090619.695 7
      -622.596        -484.237
  21768513.516    21768513.353    21768519.632   116201878.280 7  90379280.975 5
     -2757.922       -2145.051
  19218721.248    19218721.030    19218727.596   102807272.357 8  79961260.854 7
       531.167         413.127
  21168121.932    21168122.028    21168127.755   113195521.083 7  88041007.346 6
      3856.122        2999.202
 11 10 10 16 50 30.0000000  0 15G03G06G11G14G19G20G22G28G32R01R07R08
                                R22R23R24
  21836434.061    21836433.1044   21836442.0394  114751299.898 7  89416628.02844
     -2716.735       -2116.931
  22843153.773    22843152.8144   22843163.4804  120041639.617 6  93538972.94342
     -2646.309       -2062.072
  20732265.070    20732264.4474   20732270.6344  108948887.542 8  84895263.68145
      2138.771        1666.570
  22226012.211    22226012.0884   22226019.1774  116798619.845 6  91011916.22743
       914.491         712.590
  20412813.760    20412812.5894   20412818.0714  107270132.002 8  83587142.78747
      -420.272        -327.486
  23398475.546    23398474.4074   23398487.3334  122959992.890 5  95812944.89041
      3727.027        2904.169
  22742476.353    22742475.0114   22742480.6874  119512986.982 6  93126967.29743
     -2359.453       -1838.537
  24686159.288    24686157.0544   24686168.0394  129726652.091 4 101085712.09841
      2241.132        1746.333
  21204322.245    21204321.3884   21204330.1144  111429847.350 7  86828368.92745
      2616.140        2038.548
  20476954.320    20476953.961    20476959.942   109461446.189 7  85136807.940 5
      3301.486        2567.819
  22049913.050    22049911.688    22049913.087   118035299.319 6  91805372.037 4
     -3224.187       -2507.704
  19232995.253    19232994.781    19232998.467   102992425.870 8  80105397.632 7
      -644.174        -501.026
  21784046.530    21784046.842    21784053.671   116284800.934 7  90443776.339 5
     -2770.328       -2154.699
  19215801.469    19215801.012    19215807.279   102791651.809 8  79949111.552 7
       510.119         396.757
  21146510.735    21146510.777    21146516.898   113079958.242 7  87951125.207 6
      3847.947        2992.845
 11 10 10 16 51  0.0000000  0 15G03G06G11G14G19G20G22G28G32R01R07R08
                                R22R23R24
  21851969.733    21851969.4064   21851978.1434  114832941.225 7  89480244.63644
     -2726.121       -2124.249
  22858282.635    22858281.9064   22858292.4004  120121143.188 6  93600923.73142
     -2654.091       -2068.134
  20720080.887    20720080.3164   20720086.4354  108884859.912 8  84845372.06445
      2129.578        1659.411
  22220843.624    22220843.1574   22220850.3734  116771460.846 7  90990753.43143
       895.951         698.141
  20415258.314    20415257.0874   20415262.5844  107282977.913 8  83597152.60747
      -436.258        -339.944
  23377216.600    23377216.9544   23377226.6184  122848278.389 5  95725894.87141
      3720.486        2899.087
  22755960.690    22755959.1874   22755965.1244  119583848.453 6  93182184.02243
     -2364.799       -1842.706
  24673406.628    24673405.4234   24673413.6344  129659632.658 5 101033489.17341
      2226.607        1735.019
  21189427.788    21189426.7844   21189435.3524  111351574.585 7  86767377.25245
      2601.873        2027.432
  20458474.738    20458474.313    20458480.099   109362662.497 7  85059976.283 5
      3283.947        2554.172
  22067997.426    22067996.427    22067997.641   118132108.517 6  91880668.106 4
     -3229.876       -2512.128
  19236662.752    19236662.559    19236666.571   103012067.594 8  80120674.548 7
      -665.382        -517.514
  21799649.543    21799649.394    21799656.258   116368089.794 7  90508556.539 5
     -2782.422       -2164.107
  19212998.702    19212998.351    19213005.097   102776659.427 8  79937450.822 7
       489.256         380.533
  21124945.217    21124945.430    21124951.136   112964638.309 7  87861431.985 6
      3839.892        2986.578
 11 10 10 16 51 30.0000000  0 15G03G06G11G14G19G20G22G28G32R01R07R08
                                R22R23R24
  21867558.826    21867557.4574   21867566.9724  114914860.504 7  89544077.81644
     -2735.416       -2131.487
  22873455.387    22873455.5874   22873464.5284  120200877.148 6  93663054.03043
     -2661.770       -2074.104
  20707949.053    20707948.4124   20707954.5354  108821106.669 8  84795694.25345
      2120.353        1652.224
  22215781.710    22215780.7574   22215788.1674  116744856.271 6  90970022.66743
       877.385         683.664
  20417793.708    20417792.4894   20417797.9654  107296301.333 8  83607534.50547
      -452.266        -352.415
  23355995.917    23355995.5544   23356006.4844  122736759.403 5  95638997.19841
      3713.805        2893.898
  22769475.714    22769473.9074   22769479.6754  119654867.313 6  93237523.39543
     -2370.099       -1846.825
  24660735.188    24660734.9924   24660744.3294  129593046.383 4 100981603.79741
      2212.127        1723.750
  21174613.739    21174612.8054   21174621.5784  111273727.424 8  86706717.20845
      2587.621        2016.324
  20440093.457    20440093.319    20440099.011   109264404.721 7  84983553.662 5
      3266.259        2540.426
  22086114.156    22086113.271    22086113.393   118229086.543 6  91956095.470 4
     -3235.560       -2516.543
  19240449.426    19240448.836    19240452.917   103032342.437 8  80136443.899 7
      -686.523        -533.960
  21815320.543    21815319.746    21815326.126   116451737.390 7  90573615.764 5
     -2794.408       -2173.428
  19210312.600    19210312.267    19210318.802   102762290.895 8  79926275.313 7
       468.352         364.275
  21103424.262    21103424.463    21103430.758   112849558.598 7  87771925.633 6
      3831.770        2980.264
 11 10 10 16 52  0.0000000  0 15G03G06G11G14G19G20G22G28G32R01R07R08
                                R22R23R24
  21883200.150    21883199.5734   21883209.1374  114997059.864 7  89608129.24644
     -2744.412       -2138.496
  22888672.766    22888672.3664   22888682.3344  120280843.700 6  93725365.55943
     -2669.190       -2079.884
  20695870.313    20695869.5304   20695875.9594  108757632.587 8  84746233.97045
      2111.348        1645.202
  22210825.386    22210824.3254   22210831.7814  116718811.204 7  90949727.87743
       859.052         669.371
  20420420.689    20420419.4214   20420425.0304  107310106.245 8  83618291.59347
      -467.980        -364.663
  23334812.018    23334811.0164   23334823.9184  122625441.159 5  95552255.96441
      3707.506        2888.951
  22783019.604    22783018.8804   22783024.7754  119726045.370 6  93292986.81843
     -2375.012       -1850.673
  24648148.501    24648148.5444   24648158.2434  129526898.497 5 100930060.01741
      2197.735        1712.520
  21159881.229    21159880.6084   21159889.4854  111196310.550 8  86646392.45345
      2573.601        2005.402
  20421811.511    20421811.234    20421817.331   109166678.615 7  84907544.574 5
      3248.840        2526.867
  22104261.788    22104261.147    22104262.344   118326233.102 6  92031653.925 4
     -3240.723       -2520.567
  19244353.914    19244353.446    19244357.287   103053251.473 8  80152706.501 7
      -707.307        -550.125
  21831058.378    21831057.406    21831064.050   116535746.155 7  90638955.892 5
     -2806.059       -2182.490
  19207744.186    19207743.928    19207750.324   102748551.603 8  79915589.208 7
       447.700         348.208
  21081950.445    21081950.489    21081955.631   112734726.731 7  87682612.019 6
      3823.774        2974.048
 11 10 10 16 52 30.0000000  0 15G03G06G11G14G19G20G22G28G32R01R07R08
                                R22R23R24
  21898895.457    21898894.9294   21898904.5764  115079539.347 7  89672398.96144
     -2754.328       -2146.228
  22903934.270    22903933.5334   22903943.4274  120361043.155 6  93787858.58443
     -2677.484       -2086.342
  20683845.409    20683844.7734   20683851.2864  108694440.880 8  84696993.71445
      2101.321        1637.388
  22205975.421    22205974.9504   22205982.2544  116693328.179 7  90929871.03443
       839.694         654.299
  20423139.531    20423138.3964   20423144.1134  107324394.677 8  83629425.44947
      -484.691        -377.680
  23313667.697    23313666.8154   23313677.3724  122514327.259 5  95465673.94241
      3700.014        2883.104
  22796594.966    22796593.9464   22796599.4724  119797382.651 6  93348574.30743
     -2380.871       -1855.228
  24635645.392    24635645.4894   24635651.9354  129461193.058 4 100878860.97841
      2182.446        1700.619
  21145231.807    21145231.1394   21145239.9044  111119326.958 7  86586405.32945
      2558.528        1993.654
  20403629.707    20403629.478    20403635.662   109069488.362 7  84831952.265 5
      3230.383        2512.515
  22122441.321    22122440.100    22122441.807   118423546.952 6  92107342.465 5
     -3247.110       -2525.528
  19248376.866    19248376.374    19248380.040   103074794.656 8  80169462.340 7
      -728.983        -566.993
  21846862.657    21846862.729    21846870.126   116620116.365 7  90704577.143 5
     -2818.710       -2192.328
  19205293.921    19205293.629    19205300.399   102735445.412 8  79905395.525 7
       425.955         331.300
  21060523.905    21060523.712    21060529.324   112620147.978 7  87593495.290 6
      3814.718        2967.003
 11 10 10 16 53  0.0000000  0 15G03G06G11G14G19G20G22G28G32R01R07R08
                                R22R23R24
  21914647.740    21914647.0474   21914655.5344  115162314.535 7  89736899.07844
     -2763.848       -2153.641
  22919242.698    22919242.4724   22919251.9484  120441491.515 6  93850545.58942
     -2685.489       -2092.612
  20671877.915    20671877.1214   20671883.7914  108631550.766 8  84647988.46645
      2091.516        1629.750
  22201237.068    22201236.2444   22201243.7884  116668426.163 6  90910466.93043
       820.568         639.413
  20425954.120    20425952.7934   20425958.4134  107339184.416 8  83640949.93847
      -501.115        -390.481
  23292566.980    23292563.8524   23292575.6184  122403436.589 5  95379265.87141
      3692.809        2877.507
  22810203.238    22810202.0904   22810207.7834  119868895.363 6  93404298.48843
     -2386.426       -1859.548
  24623228.433    24623229.8914   24623238.7164  129395949.016 5 100828021.54641
      2167.241        1688.724
  21130668.225    21130667.5264   21130676.5034  111042795.308 7  86526770.36845
      2543.721        1982.120
  20385552.528    20385551.897    20385558.182   108972853.781 7  84756792.125 5
      3212.079        2498.282
  22140653.954    22140653.125    22140655.064   118521045.365 6  92183174.558 5
     -3252.544       -2529.755
  19252521.209    19252520.792    19252524.511   103096987.220 8  80186723.242 7
      -750.302        -583.569
  21862739.999    21862739.542    21862746.253   116704864.508 7  90770492.341 5
     -2831.013       -2201.896
  19202966.253    19202965.684    19202972.256   102722991.597 8  79895709.241 7
       404.459         314.579
  21039147.776    21039148.104    21039153.336   112505844.174 7  87504592.409 6
      3805.738        2960.012
 11 10 10 16 53 30.0000000  0 15G03G06G11G14G19G20G22G28G32R01R07R08
                                R22R23R24
  21930451.646    21930451.2894   21930459.9474  115245367.603 7  89801615.74544
     -2773.028       -2160.802
  22934596.104    22934595.9864   22934605.8404  120522171.668 6  93913413.19142
     -2693.167       -2098.571
  20659964.591    20659964.1354   20659970.6994  108568947.634 8  84599206.84045
      2081.980        1622.321
  22196606.009    22196605.6384   22196612.9494  116644089.870 7  90891503.65243
       801.747         624.734
  20428860.859    20428859.5694   20428865.3554  107354459.842 8  83652852.87847
      -517.280        -403.074
  23271504.485    23271503.1704   23271512.5654  122292755.016 5  95293020.74741
      3685.876        2872.091
  22823841.623    22823840.7884   22823846.3834  119940565.925 6  93460145.68443
     -2391.650       -1863.616
  24610898.258    24610896.8784   24610908.2794  129331152.558 5 100777530.80741
      2152.446        1677.258
  21116187.993    21116187.0814   21116196.1294  110966700.829 8  86467476.05345
      2529.187        1970.790
  20367575.905    20367575.613    20367582.152   108876760.582 7  84682053.063 5
      3194.057        2484.256
  22158898.624    22158897.365    22158899.762   118618707.734 6  92259134.172 5
     -3257.798       -2533.839
  19256783.410    19256782.734    19256786.566   103119810.629 8  80204474.805 7
      -771.303        -599.902
  21878683.018    21878683.117    21878689.634   116789973.028 7  90836687.848 5
     -2842.954       -2211.188
  19200757.088    19200756.744    19200763.355   102711175.764 8  79886519.162 7
       383.177         298.026
  21017821.290    21017821.713    21017827.170   112391802.500 7  87415893.411 6
      3796.979        2953.204
 11 10 10 16 54  0.0000000  0 15G03G06G11G14G19G20G22G28G32R01R07R08
                                R22R23R24
  21946309.419    21946308.2974   21946317.5434  115328696.551 7  89866547.37944
     -2782.143       -2167.911
  22949992.576    22949991.9494   22950001.4704  120603081.248 6  93976459.57642
     -2700.712       -2104.448
  20648106.702    20648105.8894   20648112.5284  108506632.365 8  84550649.52545
      2072.407        1614.865
  22192082.757    22192082.3114   22192089.3664  116620320.061 7  90872981.78543
       782.911         610.068
  20431859.806    20431858.7664   20431864.4254  107370220.487 8  83665133.91347
      -533.393        -415.630
  23250481.618    23250480.7654   23250490.6234  122182283.743 5  95206939.45541
      3678.936        2866.681
  22837509.918    22837508.8004   22837514.0814  120012391.958 6  93516114.03243
     -2396.722       -1867.577
  24598652.766    24598651.7104   24598662.4174  129266804.509 5 100727389.51841
      2137.503        1665.623
  21101790.972    21101790.1334   21101799.0144  110891044.053 8  86408522.81245
      2514.664        1959.474
  20349701.356    20349701.060    20349707.329   108781210.293 8  84607736.265 5
      3176.000        2470.219
  22177172.725    22177171.629    22177173.876   118716529.397 6  92335217.696 5
     -3263.415       -2538.218
  19261162.875    19261162.243    19261165.846   103143262.227 8  80222714.959 7
      -792.107        -616.086
  21894693.798    21894694.178    21894700.700   116875439.794 7  90903161.982 5
     -2854.781       -2220.385
  19198667.998    19198667.454    19198673.805   102699999.173 8  79877826.269 7
       361.937         281.506
  20996545.324    20996544.959    20996550.940   112278026.461 7  87327401.017 6
      3788.110        2946.306
 11 10 10 16 54 30.0000000  0 15G03G06G11G14G19G20G22G28G32R01R07R08
                                R22R23R24
  21962219.223    21962218.4754   21962227.6354  115412305.335 7  89931697.07043
     -2791.689       -2175.333
  22965434.146    22965433.3054   22965443.3054  120684225.226 6  94039688.61042
     -2708.773       -2110.719
  20636304.571    20636303.9934   20636310.2994  108444612.560 8  84502322.44645
      2062.291        1606.976
  22187668.214    22187667.9994   22187674.9504  116597123.968 7  90854906.97443
       763.500         594.930
  20434952.639    20434951.4374   20434956.9104  107386472.783 8  83677798.05347
      -550.049        -428.613
  23229500.901    23229500.0024   23229510.3524  122072030.300 5  95121027.93541
      3671.340        2860.765
  22851208.464    22851207.2634   22851212.4444  120084378.152 6  93572207.17943
     -2402.321       -1871.957
  24586495.422    24586493.8384   24586506.6644  129202912.934 4 100677603.91341
      2122.019        1653.515
  21087478.692    21087477.9114   21087486.6224  110815832.282 7  86349916.32045
      2499.531        1947.678
  20331929.982    20331929.484    20331935.671   108686211.333 8  84533848.278 5
      3157.306        2455.683
  22195477.030    22195475.382    22195477.444   118814513.979 6  92411427.929 4
     -3269.098       -2542.635
  19265660.303    19265659.632    19265663.361   103167345.478 8  80241446.398 7
      -813.388        -632.636
  21910773.332    21910772.704    21910779.140   116961269.680 7  90969918.528 5
     -2867.169       -2230.021
  19196699.559    19196699.021    19196705.472   102689469.748 8  79869636.738 7
       340.075         264.499
  20975320.224    20975320.020    20975325.154   112164525.946 7  87239122.924 6
      3778.607        2938.913
 11 10 10 16 55  0.0000000  0 15G03G06G11G14G19G20G22G28G32R01R07R08
                                R22R23R24
  21978180.728    21978180.5654   21978189.6224  115496186.860 7  89997059.28143
     -2800.396       -2182.125
  22980917.836    22980917.6174   22980927.7304  120765596.914 6  94103095.08142
     -2715.995       -2116.381
  20624558.046    20624557.4394   20624563.6804  108382884.395 8  84454222.61745
      2052.904        1599.664
  22183362.886    22183362.1944   22183368.5744  116574497.220 7  90837275.80043
       744.921         580.464
  20438137.838    20438136.6814   20438142.1974  107403211.635 8  83690841.32647
      -565.891        -440.955
  23208560.513    23208559.9544   23208569.1754  121961990.890 5  95035283.17841
      3664.514        2855.473
  22864936.892    22864935.6254   22864939.9744  120156517.637 6  93628419.76543
     -2406.984       -1875.555
  24574423.695    24574421.9134   24574432.1084  129139474.470 5 100628171.39241
      2107.325        1642.087
  21073250.471    21073249.2754   21073258.0814  110741061.456 8  86291653.41645
      2485.196        1936.515
  20314260.907    20314260.361    20314266.512   108591760.363 8  84460386.503 5
      3139.374        2441.734
  22213810.539    22213809.292    22213811.068   118912655.154 6  92487759.986 4
     -3273.811       -2546.302
  19270274.100    19270273.502    19270277.589   103192052.950 8  80260663.345 7
      -833.800        -648.506
  21926918.848    21926918.836    21926924.854   117047456.096 7  91036952.370 5
     -2878.653       -2238.952
  19194851.178    19194850.782    19194857.564   102679583.757 8  79861947.650 7
       318.988         248.102
  20954146.031    20954146.043    20954151.556   112051299.420 7  87151057.923 6
      3769.809        2932.071
 11 10 10 16 55 30.0000000  0 15G03G06G11G14G19G20G22G28G32R01R07R08
                                R22R23R24
  21994191.141    21994190.8264   21994199.6594  115580321.127 6  90062618.43743
     -2808.842       -2188.699
  22996442.453    22996442.5154   22996452.4254  120847176.344 6  94166663.40442
     -2722.938       -2121.761
  20612863.639    20612863.1174   20612869.1554  108321431.054 8  84406336.94145
      2043.658        1592.464
  22179162.257    22179161.4194   22179168.0314  116552422.723 7  90820074.93943
       726.440         566.072
  20441412.218    20441411.0894   20441416.5844  107420418.659 8  83704249.41147
      -581.563        -453.166
  23187658.220    23187656.5664   23187667.8064  121852149.146 5  94949692.43741
      3657.909        2850.310
  22878689.383    22878687.6304   22878692.6104  120228790.679 6  93684736.44043
     -2411.488       -1879.068
  24562434.212    24562434.0474   24562442.7294  129076472.460 5 100579078.93841
      2092.578        1630.549
  21059102.732    21059101.4304   21059110.2664  110666714.288 8  86233720.63645
      2470.960        1925.422
  20296691.156    20296690.793    20296696.484   108497840.753 8  84387338.016 5
      3121.614        2427.922
  22232168.512    22232167.899    22232169.212   119010929.979 5  92564195.979 4
     -3278.281       -2549.774
  19275000.847    19275000.173    19275003.976   103217363.521 8  80280349.373 7
      -853.900        -664.146
  21943127.596    21943127.168    21943133.530   117133978.821 7  91104247.777 5
     -2889.854       -2247.662
  19193120.292    19193119.814    19193126.604   102670324.201 8  79854745.785 7
       298.009         231.784
  20933020.485    20933020.243    20933025.834   111938331.939 7  87063194.410 6
      3761.024        2925.239
 11 10 10 16 56  0.0000000  0 15G03G06G11G14G19G20G22G28G32R01R07R08
                                R22R23R24
  22010252.746    22010252.1764   22010261.0344  115664724.692 7  90128387.43543
     -2817.864       -2195.734
  23012009.555    23012008.9804   23012018.2054  120928980.739 6  94230407.04242
     -2730.491       -2127.635
  20601225.505    20601224.8214   20601231.0374  108260272.377 8  84358680.88045
      2033.767        1584.750
  22175070.322    22175069.2544   22175076.2694  116530919.739 7  90803319.43043
       707.272         551.117
  20444779.109    20444778.0734   20444783.7934  107438112.603 8  83718036.91147
      -597.862        -465.869
  23166797.553    23166796.2934   23166806.1904  121742524.767 5  94864271.07442
      3650.566        2844.606
  22892469.889    22892468.9574   22892474.9794  120301214.260 6  93741170.39943
     -2416.563       -1883.033
  24550532.131    24550531.6724   24550541.6904  129013926.713 5 100530342.03941
      2077.299        1618.642
  21045038.699    21045038.0594   21045046.6134  110592810.094 8  86176133.04045
      2456.130        1913.861
  20279224.866    20279224.399    20279230.652   108404473.035 8  84314718.772 5
      3103.094        2413.515
  22250556.471    22250554.709    22250555.864   119109354.800 5  92640748.633 4
     -3283.252       -2553.637
  19279842.896    19279842.343    19279846.100   103243293.482 8  80300517.149 7
      -874.560        -680.214
  21959401.280    21959401.643    21959409.127   117220855.160 7  91171818.221 5
     -2901.700       -2256.877
  19191510.049    19191509.838    19191516.357   102661711.507 8  79848047.033 7
       276.328         214.921
  20911947.586    20911947.400    20911952.912   111825646.216 7  86975550.025 6
      3751.469        2917.806
 11 10 10 16 56 30.0000000  0 15G03G06G11G14G19G20G22G28G32R01R07R08
                                R22R23R24
  22026363.683    22026363.5244   22026372.2414  115749386.057 6  90194357.30943
     -2826.536       -2202.485
  23027617.645    23027616.9654   23027626.0974  121010998.528 6  94294316.97142
     -2737.655       -2133.220
  20589642.060    20589641.2974   20589647.5244  108199400.073 8  84311247.96645
      2024.078        1577.197
  22171085.044    22171084.3914   22171091.6674  116509979.334 6  90787002.28543
       688.395         536.413
  20448237.175    20448235.9204   20448241.4944  107456283.850 8  83732196.33247
      -613.893        -478.357
  23145976.643    23145976.0264   23145985.5354  121633109.729 5  94779012.82442
      3643.462        2839.064
  22906278.481    22906277.0824   22906283.0074  120373776.622 6  93797712.50842
     -2421.248       -1886.690
  24538714.808    24538715.8964   24538723.9094  128951829.466 5 100481954.61841
      2062.188        1606.893
  21031057.987    21031057.0454   21031065.7494  110519340.342 8  86118883.96845
      2441.539        1902.497
  20261860.049    20261859.688    20261865.756   108311649.544 8  84242522.823 5
      3084.778        2399.265
  22268967.080    22268966.601    22268968.615   119207918.141 5  92717408.987 4
     -3288.049       -2557.377
  19284798.534    19284797.857    19284801.650   103269830.608 8  80321157.156 7
      -894.863        -696.006
  21975741.177    21975740.508    21975748.287   117308073.451 7  91239654.634 5
     -2913.138       -2265.770
  19190019.530    19190019.174    19190025.698   102653737.269 8  79841844.866 7
       254.927         198.276
  20890926.347    20890925.885    20890931.114   111713235.915 7  86888119.857 6
      3742.144        2910.556
 11 10 10 16 57  0.0000000  0 15G03G06G11G14G19G20G22G28G32R01R07R08
                                R22R23R24
  22042522.933    22042522.1824   22042530.8724  115834304.070 6  90260527.17843
     -2834.761       -2208.907
  23043266.203    23043264.3384   23043274.6984  121093229.155 6  94358392.74342
     -2744.450       -2138.539
  20578113.037    20578112.5104   20578118.8394  108138816.259 8  84264039.84545
      2014.726        1569.918
  22167207.753    22167207.3054   22167214.4454  116489603.392 6  90771124.99743
       669.872         521.978
  20451785.878    20451784.7654   20451790.3764  107474933.180 8  83746728.28847
      -629.532        -490.546
  23125195.868    23125194.4244   23125204.6314  121523906.235 6  94693919.41142
      3636.614        2833.694
  22920112.816    22920111.6144   22920118.4974  120446477.037 6  93854362.19543
     -2425.506       -1890.005
  24526984.109    24526983.9754   24526994.7474  128890183.248 5 100433918.66441
      2047.434        1595.342
  21017159.582    21017158.9574   21017167.7454  110446306.783 8  86061974.79145
      2427.269        1891.375
  20244597.629    20244597.287    20244603.278   108219372.818 8  84170752.138 5
      3066.852        2385.326
  22287406.649    22287404.847    22287406.604   119306615.248 6  92794173.381 4
     -3291.790       -2560.279
  19289867.174    19289866.564    19289870.275   103296972.784 8  80342267.760 7
      -914.729        -711.449
  21992144.405    21992143.628    21992151.274   117395633.285 7  91307756.688 5
     -2924.243       -2274.411
  19188648.472    19188648.163    19188654.450   102646403.671 8  79836140.972 7
       233.847         181.881
  20869957.682    20869957.454    20869962.457   111601105.736 7  86800907.554 6
      3733.045        2903.481
 11 10 10 16 57 30.0000000  0 15G03G06G11G14G19G20G22G28G32R01R07R08
                                R22R23R24
  22058730.471    22058730.0024   22058738.6074  115919473.862 6  90326893.23343
     -2843.201       -2215.476
  23058952.988    23058952.0184   23058962.3534  121175668.205 6  94422630.90242
     -2751.448       -2143.990
  20566639.445    20566638.4074   20566644.6484  108078519.591 8  84217055.47945
      2005.066        1562.386
  22163437.869    22163437.0754   22163443.4854  116469789.796 6  90755685.87543
       651.046         507.307
  20455425.241    20455424.0154   20455429.7154  107494057.711 8  83761630.53147
      -645.452        -502.951
  23104455.103    23104454.6054   23104463.6744  121414913.157 5  94608989.99042
      3629.518        2828.180
  22933973.398    22933971.9284   22933978.6094  120519311.247 6  93911116.12843
     -2430.061       -1893.542
  24515339.196    24515339.6464   24515347.7644  128828986.513 5 100386232.90941
      2032.411        1583.705
  21003344.875    21003343.7064   21003352.3664  110373707.480 8  86005403.99845
      2412.685        1880.015
  20227437.939    20227437.253    20227442.961   108127641.863 8  84099405.939 5
      3048.542        2371.085
  22305867.291    22305866.506    22305868.660   119405442.850 5  92871039.269 5
     -3296.299       -2563.784
  19295047.600    19295047.127    19295051.042   103324714.934 8  80363845.013 7
      -934.703        -726.990
  22008610.145    22008609.047    22008617.181   117483529.976 7  91376120.745 5
     -2935.546       -2283.197
  19187397.343    19187396.930    19187402.974   102639709.562 8  79830934.458 7
       212.445         165.234
  20849041.275    20849041.136    20849045.929   111489256.515 7  86713913.784 6
      3723.560        2896.100
 11 10 10 16 58  0.0000000  0 15G03G06G11G14G19G20G22G28G32R01R07R08
                                R22R23R24
  22074984.782    22074984.5014   22074993.5164  116004893.824 7  90393454.20743
     -2851.401       -2221.860
  23074679.912    23074679.8114   23074689.5904  121258314.338 6  94487030.42742
     -2758.208       -2149.234
  20555220.162    20555219.3174   20555225.3724  108018511.678 8  84170296.11646
      1995.503        1554.938
  22159773.805    22159773.0134   22159780.6204  116450539.509 6  90740685.70643
       632.342         492.729
  20459155.257    20459153.9214   20459159.4224  107513657.788 8  83776903.32546
      -661.199        -515.217
  23083753.581    23083752.4174   23083763.3634  121306132.365 5  94524225.94842
      3622.565        2822.768
  22947857.917    22947857.1954   22947862.8654  120592277.836 6  93967973.22343
     -2434.337       -1896.892
  24503780.580    24503779.1004   24503788.5714  128768241.107 5 100338898.90841
      2017.379        1571.983
  20989612.325    20989611.5274   20989619.8094  110301543.848 8  85949172.67945
      2398.236        1868.755
  20210380.214    20210379.621    20210385.009   108036458.698 8  84028485.798 5
      3030.351        2356.940
  22324351.456    22324351.398    22324354.330   119504398.036 5  92948004.396 5
     -3300.654       -2567.169
  19300339.826    19300339.497    19300343.403   103353054.794 8  80385887.145 7
      -954.500        -742.385
  22025138.899    22025138.540    22025145.912   117571762.438 6  91444745.944 5
     -2946.619       -2291.815
  19186265.465    19186265.247    19186271.815   102633656.478 8  79826226.515 7
       191.154         148.678
  20828178.097    20828177.631    20828183.143   111377692.456 7  86627141.782 6
      3714.073        2888.726
 11 10 10 16 58 30.0000000  0 15G03G06G11G14G19G20G22G28G32R01R07R08
                                R22R23R24
  22091287.193    22091285.9984   22091295.2134  116090559.120 7  90460206.36343
     -2859.646       -2228.298
  23090445.184    23090444.9514   23090455.0004  121341163.163 6  94551587.90342
     -2765.104       -2154.626
  20543855.673    20543854.9004   20543860.8574  107958790.577 8  84123760.25046
      1985.825        1547.395
  22156217.204    22156216.6664   22156223.6244  116431850.373 7  90726122.78743
       613.538         478.077
  20462974.996    20462973.6164   20462979.1574  107533730.553 8  83792544.45047
      -677.045        -527.567
  23063092.873    23063093.1884   23063102.8634  121197562.032 5  94439625.90942
      3615.424        2817.201
  22961767.706    22961766.6254   22961772.8844  120665372.282 6  94024929.94343
     -2438.704       -1900.282
  24492304.459    24492305.8534   24492313.8984  128707945.741 5 100291915.53841
      2002.224        1560.178
  20975962.970    20975961.6174   20975970.2044  110229813.401 8  85893278.90345
      2383.687        1857.416
  20193424.015    20193423.573    20193429.564   107945822.129 8  83957990.786 5
      3012.013        2342.675
  22342862.105    22342860.107    22342862.203   119603473.538 5  93025063.118 5
     -3304.612       -2570.253
  19305742.913    19305742.293    19305746.124   103381986.692 8  80408389.755 7
      -974.287        -757.780
  22041730.051    22041729.768    22041735.924   117660325.960 7  91513628.630 5
     -2957.667       -2300.411
  19185253.593    19185253.157    19185259.677   102628242.940 8  79822016.005 7
       169.689         131.979
  20807368.648    20807368.272    20807373.694   111266414.073 7  86540591.981 6
      3704.385        2881.188
 11 10 10 16 59  0.0000000  0 15G03G06G11G14G19G20G22G28G32R01R07R08
                                R22R23R24
  22107635.689    22107635.1034   22107644.0264  116176473.186 6  90527152.37243
     -2867.680       -2234.550
  23106251.260    23106250.5784   23106260.7244  121424218.183 6  94616306.05042
     -2771.662       -2159.726
  20532546.793    20532546.0914   20532552.0824  107899363.477 8  84077453.46946
      1976.225        1539.917
  22152769.001    22152768.4344   22152774.9154  116413728.519 7  90712001.90443
       594.868         463.534
  20466885.220    20466884.1064   20466889.6904  107554280.803 8  83808557.63647
      -692.728        -539.787
  23042474.710    23042472.7414   23042483.3654  121089208.940 5  94355195.14442
      3608.405        2811.737
  22975701.695    22975700.7974   22975706.9704  120738598.124 6  94081989.06243
     -2442.804       -1903.485
  24480917.895    24480917.9184   24480928.2774  128648107.252 5 100245288.15541
      1987.260        1548.521
  20962396.437    20962395.4724   20962404.0624  110158522.827 8  85837727.88445
      2369.276        1846.191
  20176572.491    20176572.104    20176577.670   107855739.156 8  83887926.352 5
      2993.775        2328.488
  22361392.503    22361391.337    22361393.437   119702672.236 5  93102217.651 5
     -3308.390       -2573.198
  19311256.827    19311256.346    19311259.991   103411513.767 8  80431355.277 7
      -993.859        -773.002
  22058383.608    22058383.204    22058389.673   117749224.260 7  91582771.697 5
     -2968.547       -2308.869
  19184362.607    19184362.160    19184368.459   102623475.664 8  79818308.144 7
       148.382         115.408
  20786614.284    20786613.571    20786619.265   111155430.631 7  86454271.589 6
      3694.753        2873.694
 11 10 10 16 59 30.0000000  0 15G03G06G11G14G19G20G22G28G32R01R07R08
                                R22R23R24
  22124031.404    22124030.6334   22124040.0184  116262633.968 6  90594290.61243
     -2876.098       -2241.115
  23122093.917    23122094.0774   23122103.5614  121507478.023 6  94681183.80042
     -2778.649       -2165.188
  20521293.951    20521293.4534   20521299.7554  107840231.216 8  84031376.42846
      1966.179        1532.087
  22149428.583    22149427.8914   22149434.8534  116396174.233 6  90698323.28643
       575.692         448.585
  20470886.645    20470885.5624   20470891.2124  107575308.774 8  83824943.07747
      -708.857        -552.356
  23021897.191    23021896.1744   23021905.7934  120981074.542 5  94270934.77942
      3600.838        2805.845
  22989660.033    22989659.7134   22989665.6674  120811953.543 6  94139149.13543
     -2447.285       -1906.964
  24469619.425    24469619.7834   24469627.5024  128588726.861 5 100199017.75841
      1971.808        1536.443
  20948914.092    20948913.0494   20948921.5364  110087672.490 8  85782519.90545
      2354.361        1834.564
  20159823.908    20159823.790    20159829.955   107766211.499 8  83818293.826 5
      2975.028        2313.909
  22379946.505    22379944.598    22379947.757   119801991.705 5  93179466.135 4
     -3312.682       -2576.527
  19316880.897    19316880.562    19316884.400   103441632.423 8  80454780.913 7
     -1013.769        -788.486
  22075099.092    22075099.582    22075106.197   117838455.521 7  91652173.725 5
     -2979.855       -2317.662
  19183592.407    19183591.986    19183598.341   102619355.704 8  79815103.755 7
       126.572          98.442
  20765915.130    20765914.740    20765920.541   111044745.570 7  86368183.262 6
      3684.530        2865.744
 11 10 10 17  0  0.0000000  1 15G03G06G11G14G19G20G22G28G32R01R07R08
                                R22R23R24
  22140472.938    22140472.4674   22140481.9294  116349036.918 6  90661617.56143
     -2884.127       -2247.362
  23137976.198    23137975.3934   23137985.3594  121590937.867 6  94746217.38542
     -2785.308       -2170.371
  20510097.608    20510096.8874   20510103.0514  107781392.671 8  83985528.26146
      1956.367        1524.442
  22146195.400    22146194.6964   22146202.6904  116379185.967 6  90685085.71943
       556.794         433.865
  20474978.747    20474977.5024   20474983.1654  107596811.723 8  83841698.63047
      -724.686        -564.690
  23001361.125    23001359.0984   23001369.1294  120873157.428 6  94186843.72942
      3593.646        2800.223
  23003643.581    23003642.9264   23003648.8334  120885434.376 6  94196406.91743
     -2451.463       -1910.229
  24458407.507    24458404.4754   24458412.7844  128529803.296 5 100153103.31141
      1956.527        1524.482
  20935515.073    20935514.0074   20935522.7754  110017260.696 8  85727653.64945
      2339.719        1823.157
  20143179.680    20143179.485    20143185.583   107677238.266 8  83749092.523 5
      2956.524        2299.510
  22398520.389    22398520.126    22398522.129   119901426.676 5  93256804.427 4
     -3316.425       -2579.438
  19322614.908    19322614.344    19322618.360   103472337.824 8  80478662.907 7
     -1033.214        -803.614
  22091877.642    22091876.935    22091883.728   117928015.439 7  91721831.390 5
     -2990.769       -2326.154
  19182942.753    19182942.512    19182949.211   102615881.710 8  79812401.780 7
       104.987          81.655
  20745272.666    20745272.424    20745277.591   110934360.273 7  86282328.091 6
      3674.466        2857.921
 11 10 10 17  0 30.0000000  0 15G03G06G11G14G19G20G22G28G32R01R07R08
                                R22R23R24
  22156960.721    22156959.8234   22156969.5154  116435679.584 6  90729131.30843
     -2892.283       -2253.718
  23153896.212    23153894.5694   23153905.4954  121674596.211 5  94811405.63242
     -2792.170       -2175.701
  20498957.091    20498956.4004   20498962.6564  107722849.080 8  83939909.92746
      1946.316        1516.607
  22143070.490    22143070.1934   22143077.5374  116362763.967 7  90672289.41143
       537.738         419.020
  20479160.880    20479159.6774   20479165.3064  107618789.091 8  83858823.86547
      -740.691        -577.164
  22980866.787    22980866.2744   22980876.1514  120765458.914 6  94102923.02242
      3586.033        2794.307
  23017650.786    23017649.5784   23017655.8444  120959038.804 6  94253761.02343
     -2455.733       -1913.564
  24447280.984    24447280.6784   24447290.8034  128471338.010 5 100107546.00341
      1941.000        1512.513
  20922199.706    20922198.5974   20922207.2864  109947288.003 7  85673129.55645
      2324.872        1811.584
  20126639.575    20126639.026    20126644.913   107588820.603 8  83680323.317 5
      2937.779        2284.940
  22417116.591    22417116.845    22417118.375   120000974.066 5  93334230.137 4
     -3320.242       -2582.408
  19328458.045    19328457.559    19328461.125   103503626.739 8  80502998.745 7
     -1052.875        -818.896
  22108717.358    22108716.461    22108723.592   118017902.076 7  91791743.162 5
     -3001.883       -2334.794
  19182414.261    19182413.995    19182420.658   102613054.857 8  79810203.137 7
        83.219          64.727
  20724686.385    20724685.927    20724691.323   110824278.022 7  86196708.625 6
      3664.101        2849.856
 11 10 10 17  1  0.0000000  0 15G03G06G11G14G19G20G22G28G32R01R07R08
                                R22R23R24
  22173495.364    22173494.2194   22173504.1744  116522568.508 6  90796836.93843
     -2900.370       -2260.028
  23169853.592    23169853.3554   23169864.1514  121758459.784 5  94876753.80042
     -2798.873       -2180.958
  20487874.667    20487873.9894   20487880.0034  107664609.944 8  83894528.82446
      1936.215        1508.741
  22140055.163    22140054.7004   22140061.7024  116346917.087 6  90659941.24743
       518.660         404.152
  20483434.714    20483433.5914   20483439.2494  107641249.008 8  83876325.10746
      -756.697        -589.636
  22960415.378    22960414.2674   22960424.0414  120657988.830 5  94019180.31842
      3578.521        2788.437
  23031681.832    23031680.5604   23031686.4134  121032773.363 6  94311216.50843
     -2460.003       -1916.887
  24436243.174    24436242.3404   24436253.5484  128413340.572 4 100062353.26541
      1925.420        1500.347
  20908969.440    20908968.4624   20908977.1144  109877763.561 8  85618954.74345
      2310.025        1800.019
  20110205.164    20110204.594    20110210.436   107500968.726 8  83611994.170 5
      2918.967        2270.306
  22435735.350    22435734.716    22435736.394   120100638.260 5  93411746.704 4
     -3324.056       -2585.378
  19334411.197    19334410.593    19334414.073   103535505.209 8  80527793.130 7
     -1072.349        -834.047
  22125617.186    22125617.433    22125624.765   118108122.011 7  91861914.171 5
     -3012.864       -2343.338
  19182008.311    19182008.035    19182014.740   102610884.532 8  79808515.121 7
        61.394          47.751
  20704159.338    20704159.352    20704164.488   110714511.093 7  86111334.403 6
      3653.647        2841.723
 11 10 10 17  1 30.0000000  0 15G03G06G11G14G19G20G22G28G32R01R07R08
                                R22R23R24
  22190076.190    22190075.3714   22190084.6904  116609701.558 6  90864732.80643
     -2908.494       -2266.363
  23185851.225    23185851.3924   23185861.6754  121842527.193 5  94942260.80342
     -2805.638       -2186.212
  20476850.246    20476849.6464   20476855.5034  107606676.836 8  83849386.18446
      1925.989        1500.770
  22137149.129    22137148.2904   22137155.4784  116331646.110 7  90648041.82643
       499.430         389.171
  20487800.699    20487799.5224   20487805.0174  107664191.517 8  83894202.39447
      -772.796        -602.180
  22940007.267    22940007.2084   22940017.4184  120550748.635 5  93935616.74242
      3570.807        2782.445
  23045737.916    23045736.3624   23045742.5054  121106636.931 6  94368772.52243
     -2464.256       -1920.182
  24425297.063    24425296.2084   24425305.0064  128355812.734 5 100017526.45041
      1909.710        1488.050
  20895824.754    20895823.6984   20895832.5154  109808688.299 8  85565129.94545
      2295.013        1788.316
  20093876.505    20093876.189    20093881.954   107413684.445 8  83544106.483 5
      2899.990        2255.549
  22454375.557    22454374.319    22454376.678   120200419.034 5  93489353.946 4
     -3327.903       -2588.372
  19340473.798    19340473.181    19340476.856   103567970.706 8  80553044.093 7
     -1091.907        -849.266
  22142581.202    22142580.714    22142587.907   118198673.997 7  91932343.442 5
     -3023.903       -2351.922
  19181725.681    19181725.445    19181731.812   102609372.386 8  79807339.027 7
        39.448          30.681
  20683691.915    20683691.850    20683697.212   110605063.584 7  86026208.639 6
      3642.868        2833.341
 11 10 10 17  2  0.0000000  0 15G03G06G11G14G19G20G22G28G32R01R07R08
                                R22R23R24
  22506495.170    22506494.7224   22506504.0514  118272495.277 6  92160416.21043
     -2916.705       -2272.766
  23501680.142    23501679.3124   23501688.9964  123502214.778 6  96235523.81742
     -2812.523       -2191.588
  20765677.399    20765676.7734   20765682.9054  109124474.461 8  85032085.67446
      1915.547        1492.632
  22434145.613    22434144.6284   22434151.7434  117892373.241 7  91864192.88743
       480.073         374.083
  20792050.899    20792049.6424   20792055.0384  109263036.992 8  85140056.01947
      -789.047        -614.844
  23219438.900    23219436.9574   23219446.3364  122019164.662 6  95079837.23942
      3562.902        2776.281
  23359610.725    23359609.3234   23359614.5754  122756046.306 6  95654026.58043
     -2468.606       -1923.582
  24714232.400    24714233.3174   24714239.6564  129874179.017 5 101200669.02441
      1893.806        1475.690
  21182558.767    21182557.8304   21182566.4594  111315486.653 8  86739258.60945
      2279.810        1776.474
  20377447.901    20377447.339    20377453.115   108929535.958 8  84723102.192 5
      2880.818        2240.636
  22772829.552    22772827.066    22772829.327   121905122.681 5  94815234.553 4
     -3331.842       -2591.428
  19646438.321    19646437.771    19646441.530   105206395.770 8  81827374.710 7
     -1111.574        -864.554
  22459398.634    22459398.429    22459405.074   119889866.858 7  93247715.613 5
     -3035.083       -2360.614
  19481359.289    19481358.873    19481365.314   104212208.327 8  81053989.220 7
        17.238          13.407
  20963078.527    20963078.364    20963083.604   112099069.008 7  87188212.927 6
      3631.917        2824.817
 11 10 10 17  2 30.0000000  0 15G03G06G11G14G19G20G22G28G32R01R07R08
                                R22R23R24
  22523167.937    22523167.5514   22523176.7194  118360110.775 6  92228687.99643
     -2924.369       -2278.725
  23517754.763    23517753.9314   23517763.0434  123586684.201 6  96301344.09242
     -2818.871       -2196.519
  20754770.399    20754769.5784   20754775.4814  109067157.047 8  84987422.79746
      1905.538        1484.830
  22431458.677    22431458.0784   22431465.4914  117878255.278 6  91853191.92743
       461.110         359.314
  20796600.286    20796599.0504   20796604.2624  109286943.902 8  85158684.79146
      -804.817        -627.132
  23199120.263    23199118.5274   23199127.2764  121912388.053 6  94996634.90742
      3555.434        2770.471
  23373713.823    23373712.5354   23373718.7884  122830162.213 6  95711779.24343
     -2472.482       -1926.618
  24703463.458    24703462.5344   24703473.3034  129817593.950 4 101156576.83341
      1878.371        1463.684
  21169585.580    21169584.6114   21169593.0104  111247311.835 8  86686135.45145
      2265.057        1764.972
  20361332.167    20361332.120    20361337.891   108843391.293 8  84656100.869 5
      2862.069        2226.046
  22791508.359    22791508.379    22791510.608   122005125.775 5  94893014.740 4
     -3335.123       -2593.987
  19652718.711    19652718.023    19652721.919   105240026.528 8  81853531.982 7
     -1130.593        -879.354
  22476485.714    22476485.474    22476491.234   119981077.179 6  93318656.909 5
     -3045.695       -2368.869
  19481323.187    19481322.738    19481329.240   104212015.705 8  81053839.418 7
        -4.482          -3.491
  20942732.538    20942732.423    20942737.804   111990271.088 7  87103592.399 6
      3621.227        2816.503
 11 10 10 17  3  0.0000000  0 15G03G06G11G14G19G20G22G28G32R01R07R08
                                R22R23R24
  22539886.102    22539885.5534   22539894.6514  118447964.204 6  92297145.19643
     -2932.546       -2285.094
  23533865.961    23533865.6784   23533875.0494  123671351.905 6  96367318.85942
     -2825.607       -2201.768
  20743921.923    20743921.4864   20743927.3834  109010149.437 8  84943001.32446
      1894.949        1476.582
  22428881.969    22428881.2184   22428888.5504  117864714.483 6  91842640.72143
       441.597         344.103
  20801241.035    20801239.9114   20801245.4284  109311332.446 8  85177688.86546
      -821.118        -639.832
  23178844.638    23178844.0244   23178853.2474  121805845.320 6  94913614.80142
      3547.386        2764.209
  23387841.386    23387839.6944   23387845.0834  122904401.972 6  95769628.41243
     -2476.822       -1929.993
  24692786.025    24692785.5674   24692796.5024  129761482.015 5 101112853.26741
      1862.311        1451.124
  21156698.185    21156697.1754   21156705.3944  111179588.035 8  86633363.73445
      2249.792        1753.087
  20345324.225    20345323.941    20345329.810   108757818.611 8  84589544.417 5
      2842.743        2211.021
  22810210.078    22810209.627    22810211.280   122105235.027 5  94970877.506 4
     -3338.919       -2596.932
  19659106.447    19659106.130    19659110.079   105274235.600 8  81880139.064 7
     -1150.038        -894.481
  22493633.272    22493633.157    22493638.376   120072613.777 6  93389851.980 5
     -3056.771       -2377.487
  19481410.575    19481410.337    19481416.771   104212484.108 8  81054203.750 7
       -26.780         -20.826
  20922449.033    20922448.366    20922453.983   111881803.445 7  87019228.746 6
      3609.887        2807.687
 11 10 10 17  3 30.0000000  0 15G03G06G11G14G19G20G22G28G32R01R07R08
                                R22R23R24
  22556648.030    22556648.2014   22556657.1814  118536050.786 6  92365784.06943
     -2940.243       -2291.098
  23550014.025    23550014.7614   23550023.2554  123756213.671 5  96433444.84342
     -2832.144       -2206.854
  20733132.359    20733131.7674   20733137.9204  108953450.217 8  84898820.15146
      1884.639        1468.546
  22426415.362    22426414.5944   22426421.5294  117851748.738 6  91832537.59943
       422.436         329.175
  20805973.305    20805971.9564   20805977.6524  109336199.900 8  85197066.11246
      -837.061        -652.254
  23158614.738    23158613.3784   23158622.8474  121699535.293 6  94830776.02842
      3539.597        2758.119
  23401991.181    23401990.2334   23401995.4014  122978761.253 6  95827570.72643
     -2480.770       -1933.080
  24682198.277    24682197.2654   24682207.1014  129705842.073 5 101069497.54841
      1846.642        1438.918
  21143895.802    21143895.0374   21143903.5944  111112313.510 8  86580942.09545
      2234.849        1741.439
  20329422.562    20329422.545    20329428.269   108672816.637 8  84523431.849 5
      2823.711        2196.219
  22828931.708    22828930.210    22828931.725   122205445.432 5  95048818.956 4
     -3342.248       -2599.524
  19665601.743    19665601.306    19665605.057   105309017.386 8  81907191.577 7
     -1169.065        -909.266
  22510841.847    22510840.694    22510847.882   120164472.282 6  93461297.437 5
     -3067.465       -2385.804
  19481621.570    19481621.104    19481627.659   104213612.272 8  81055081.225 7
       -48.759         -37.925
  20902227.165    20902226.745    20902231.488   111773667.364 7  86935122.971 6
      3598.797        2799.061
 11 10 10 17  4  0.0000000  0 15G03G06G11G14G19G20G22G28G32R01R07R08
                                R22R23R24
  22573455.772    22573454.6174   22573464.1544  118624372.556 6  92434606.20743
     -2947.833       -2297.015
  23566200.866    23566200.4424   23566210.4774  123841271.873 5  96499723.88542
     -2838.343       -2211.694
  20722402.641    20722402.0004   20722408.1084  108897064.723 8  84854883.44146
      1874.380        1460.550
  22424058.111    22424057.3124   22424064.8274  117839362.517 6  91822886.06543
       403.307         314.263
  20810797.252    20810795.9614   20810801.5414  109361550.018 8  85216819.46046
      -852.927        -664.620
  23138430.138    23138428.4714   23138437.9554  121593463.017 5  94748122.50242
      3531.884        2752.109
  23416164.347    23416162.2114   23416168.7284  123053242.358 6  95885607.95042
     -2484.599       -1936.051
  24671700.997    24671699.1514   24671711.2194  129650679.498 5 101026513.74041
      1830.880        1426.680
  21131180.651    21131179.5774   21131187.9794  111045492.901 8  86528874.15846
      2219.908        1729.795
  20313629.493    20313628.851    20313634.513   108588390.798 8  84457767.389 5
      2804.722        2181.443
  22847669.895    22847669.383    22847671.173   122305758.174 5  95126839.968 4
     -3345.218       -2601.836
  19672204.489    19672203.849    19672207.786   105344373.450 8  81934690.754 7
     -1187.976        -923.986
  22528109.581    22528110.484    22528116.941   120256654.927 6  93532995.005 5
     -3078.039       -2394.031
  19481956.896    19481956.526    19481962.894   104215405.147 8  81056475.694 7
       -70.745         -55.027
  20882068.486    20882068.175    20882072.867   111665870.610 8  86851281.130 6
      3587.642        2790.386
 11 10 10 17  4 30.0000000  0 15G03G06G11G14G19G20G22G28G32R01R07R08
                                R22R23R24
  22590306.344    22590305.5844   22590315.0534  118712925.549 6  92503608.50943
     -2955.573       -2303.042
  23582423.777    23582423.6364   23582433.0804  123926522.576 6  96566152.93542
     -2844.945       -2216.839
  20711732.570    20711731.9074   20711737.8194  108840992.145 8  84811190.56646
      1863.879        1452.372
  22421810.855    22421810.3144   22421817.3494  117827553.905 6  91813684.60343
       384.030         299.237
  20815712.564    20815711.4104   20815716.9184  109387380.334 8  85236946.98846
      -869.010        -677.152
  23118289.540    23118289.7314   23118298.2904  121487627.813 6  94665653.72242
      3523.893        2745.886
  23430359.350    23430358.4634   23430364.8084  123127841.453 6  95943737.13742
     -2488.642       -1939.181
  24661295.667    24661294.2864   24661303.4464  129595993.278 5 100983901.10041
      1814.933        1414.238
  21118551.008    21118550.0734   21118558.5074  110979124.498 8  86477158.59146
      2204.743        1717.978
  20297943.247    20297942.706    20297948.571   108504540.513 8  84392550.583 5
      2785.392        2166.412
  22866429.212    22866427.652    22866428.769   122406169.457 6  95204937.668 4
     -3348.441       -2604.341
  19678913.041    19678912.679    19678916.340   105380298.378 8  81962632.390 7
     -1206.937        -938.723
  22545440.041    22545439.382    22545446.363   120349157.635 6  93604941.513 5
     -3088.748       -2402.359
  19482416.135    19482415.600    19482421.822   104217861.397 8  81058386.126 7
       -92.917         -72.268
  20861973.634    20861973.117    20861978.649   111558414.636 7  86767704.336 6
      3576.162        2781.454
 11 10 10 17  5  0.0000000  0 15G03G06G11G14G19G20G22G28G32R01R07R08
                                R22R23R24
  22607199.916    22607199.4724   22607208.5444  118801703.154 6  92572785.84843
     -2962.688       -2308.594
  23598682.674    23598682.0534   23598691.3064  124011959.262 6  96632726.92342
     -2850.671       -2221.294
  20701121.130    20701120.4284   20701126.2944  108785228.989 8  84767738.80046
      1853.885        1444.586
  22419672.397    22419671.8984   22419679.2684  117816318.623 6  91804929.89643
       365.252         284.615
  20820718.271    20820717.0484   20820722.6504  109413685.690 8  85257444.67846
      -884.471        -689.198
  23098193.476    23098193.3264   23098203.0034  121382026.207 6  94583366.94142
      3516.413        2740.049
  23444576.521    23444576.0644   23444581.7824  123202552.340 6  96001953.41742
     -2491.958       -1941.789
  24650977.114    24650976.6754   24650987.2324  129541779.954 4 100941657.04241
      1799.443        1402.143
  21106006.952    21106005.8154   21106014.3234  110913204.446 8  86425792.38145
      2190.153        1706.609
  20282364.259    20282363.735    20282369.531   108421262.487 8  84327778.863 5
      2766.657        2151.838
  22885201.104    22885201.267    22885202.871   122506669.269 5  95283104.187 4
     -3351.064       -2606.382
  19685726.525    19685726.215    19685730.176   105416784.821 8  81991010.758 7
     -1225.263        -952.982
  22562827.565    22562827.072    22562834.359   120441973.999 6  93677131.982 5
     -3098.777       -2410.161
  19482998.325    19482997.983    19483004.656   104220977.473 8  81060809.755 7
      -114.565         -89.108
  20841941.768    20841941.640    20841947.014   111451298.473 7  86684391.837 6
      3565.148        2772.889
 11 10 10 17  5 30.0000000  0 15G03G06G11G14G19G20G22G28G32R01R07R08
                                R22R23R24
  22624135.594    22624135.0064   22624143.9474  118890698.943 6  92642133.20343
     -2970.306       -2314.523
  23614974.605    23614973.9524   23614983.6794  124097576.694 6  96699441.73442
     -2857.014       -2226.240
  20690568.068    20690567.4054   20690573.1934  108729772.868 7  84724526.28146
      1843.226        1436.278
  22417642.831    22417642.4054   22417649.7934  117805653.111 7  91796619.17443
       345.853         269.496
  20825813.556    20825812.3414   20825817.9734  109440462.070 8  85278309.40246
      -900.553        -701.734
  23078142.479    23078141.6054   23078151.1234  121276655.779 5  94501260.29542
      3508.344        2733.768
  23458813.912    23458813.0044   23458818.8754  123277369.488 6  96060252.48142
     -2495.827       -1944.798
  24640749.994    24640749.9974   24640762.1224  129488036.819 4 100899779.32241
      1783.455        1389.676
  21093546.673    21093546.1474   21093554.7504  110847729.393 8  86374772.92946
      2174.907        1694.730
  20266891.706    20266891.334    20266897.181   108338554.067 8  84263450.171 5
      2747.261        2136.751
  22903990.747    22903990.394    22903992.786   122607253.309 5  95361336.215 4
     -3354.370       -2608.962
  19692643.555    19692642.945    19692647.213   105453825.777 8  82019820.403 7
     -1244.020        -967.570
  22580272.337    22580272.363    22580278.882   120535098.060 6  93749561.758 5
     -3109.451       -2418.458
  19483703.565    19483703.309    19483709.812   104224750.170 8  81063744.087 7
      -136.875        -106.460
  20821974.328    20821974.029    20821979.652   111344522.010 7  86601343.546 6
      3553.336        2763.705
 11 10 10 17  6  0.0000000  0 15G03G06G11G14G19G20G22G28G32R01R07R08
                                R22R23R24
  22641113.530    22641112.0804   22641121.4904  118979916.851 6  92711653.62143
     -2977.476       -2320.102
  23631302.268    23631300.7714   23631311.6144  124183378.744 5  96766300.41841
     -2862.992       -2230.906
  20680074.855    20680074.1244   20680079.9194  108674630.795 8  84681558.47246
      1832.928        1428.255
  22415723.485    22415722.9384   22415729.6844  117795563.731 6  91788757.37743
       326.819         254.659
  20830999.655    20830998.3594   20831003.8634  109467714.818 8  85299545.32246
      -916.251        -713.964
  23058136.651    23058135.0594   23058145.5704  121171523.569 6  94419339.28142
      3500.541        2727.663
  23473072.656    23473070.7034   23473077.3194  123352297.506 6  96118637.96242
     -2499.343       -1947.541
  24630614.581    24630615.0964   24630624.3204  129434771.052 5 100858273.60441
      1767.673        1377.391
  21081173.408    21081172.6274   21081181.0704  110782705.888 8  86324105.33146
      2160.045        1683.150
  20251527.238    20251526.977    20251532.865   108256422.475 8  84199570.128 5
      2728.178        2121.911
  22922800.235    22922797.146    22922799.703   122707924.465 5  95439636.018 4
     -3357.018       -2611.016
  19699664.867    19699664.319    19699668.134   105491424.153 8  82049063.604 7
     -1262.412        -981.877
  22597776.276    22597776.093    22597782.237   120628533.874 6  93822234.007 5
     -3119.575       -2426.333
  19484533.113    19484532.727    19484538.858   104229186.395 8  81067194.500 7
      -158.844        -123.549
  20802071.676    20802071.331    20802076.873   111238095.115 7  86518567.144 6
      3541.816        2754.740
 11 10 10 17  6 30.0000000  0 15G03G06G11G14G19G20G22G28G32R01R07R08
                                R22R23R24
  22658131.649    22658131.4034   22658140.6004  119069351.607 6  92781343.02043
     -2985.371       -2326.278
  23647663.685    23647663.0014   23647673.8704  124269360.654 5  96833299.25841
     -2869.646       -2236.105
  20669640.874    20669640.3334   20669646.3264  108619801.089 8  84638834.06546
      1821.807        1419.585
  22413912.778    22413911.7644   22413918.4064  117786047.468 7  91781342.16443
       307.017         239.242
  20836275.561    20836274.3964   20836279.9684  109495440.483 8  85321149.75046
      -932.695        -726.778
  23038175.850    23038174.2904   23038183.8904  121066627.866 6  94337602.54142
      3491.969        2721.000
  23487350.666    23487349.9504   23487355.6174  123427331.186 6  96177105.78142
     -2503.519       -1950.781
  24620569.712    24620570.7234   24620578.8454  129381980.667 5 100817138.26241
      1751.093        1364.466
  21068885.058    21068884.2564   21068892.6774  110718131.208 8  86273787.46846
      2144.375        1670.938
  20236270.562    20236270.104    20236275.983   108174865.975 8  84136137.373 5
      2708.346        2106.487
  22941619.206    22941618.787    22941620.838   122808677.071 5  95517999.167 4
     -3360.285       -2613.557
  19706789.276    19706788.597    19706792.581   105529574.275 8  82078735.948 7
     -1281.480        -996.709
  22615336.852    22615337.008    22615342.798   120722276.430 7  93895144.832 5
     -3130.513       -2434.842
  19485485.785    19485485.387    19485492.052   104234283.714 8  81071159.101 7
      -181.551        -141.212
  20782234.309    20782234.263    20782240.067   111132018.302 7  86436063.046 6
      3529.400        2745.084
 11 10 10 17  7  0.0000000  0 15G03G06G11G14G19G20G22G28G32R01R07R08
                                R22R23R24
  22675198.701    22675198.2374   22675208.0954  119159039.876 6  92851229.94443
     -2993.395       -2332.517
  23664066.377    23664066.5464   23664076.7904  124355558.802 5  96900466.55942
     -2876.386       -2241.344
  20659274.320    20659273.5784   20659279.5914  108565323.050 8  84596383.68546
      1810.459        1410.743
  22412217.709    22412217.4464   22412224.6344  117777142.845 7  91774403.55843
       287.035         223.662
  20841648.870    20841647.5854   20841653.2024  109523676.841 8  85343152.11846
      -949.322        -739.733
  23018266.278    23018265.2134   23018274.4404  120962008.139 6  94256080.85442
      3483.100        2714.106
  23501656.925    23501654.9214   23501660.8044  123502507.501 6  96235684.72842
     -2507.846       -1954.166
  24610622.052    24610619.1804   24610631.4254  129329705.173 5 100776404.13641
      1734.252        1351.368
  21056689.918    21056688.9654   21056697.3764  110654044.324 8  86223849.70545
      2128.486        1658.557
  20221128.958    20221128.250    20221134.516   108093924.559 8  84073183.006 5
      2688.176        2090.804
  22960463.832    22960462.781    22960464.157   122909546.953 5  95596453.530 4
     -3363.954       -2616.407
  19714023.231    19714022.680    19714026.540   105568311.881 8  82108865.216 7
     -1300.616       -1011.591
  22632962.643    22632962.340    22632968.386   120816362.479 6  93968322.820 5
     -3141.450       -2443.349
  19486569.718    19486569.403    19486575.864   104240081.933 8  81075668.837 7
      -204.559        -159.102
  20762471.180    20762471.112    20762476.323   111026334.309 7  86353864.453 6
      3516.635        2735.161
 11 10 10 17  7 30.0000000  0 15G03G06G11G14G19G20G22G28G32R01R07R08
                                R22R23R24
  22692309.688    22692309.5994   22692318.7084  119248957.799 6  92921295.83743
     -3001.066       -2338.480
  23680506.063    23680506.5794   23680517.0044  124441950.415 5  96967784.60542
     -2882.970       -2246.457
  20648970.618    20648969.9294   20648975.7044  108511177.020 8  84554192.01146
      1799.295        1402.048
  22410635.833    22410635.2644   22410641.8864  117768828.896 6  91767925.21243
       267.251         208.246
  20847114.923    20847113.7784   20847119.5384  109552402.164 8  85365535.49046
      -965.692        -752.486
  22998407.299    22998406.0504   22998414.6014  120857644.183 6  94174758.45742
      3474.504        2707.413
  23515985.202    23515983.7374   23515989.7094  123577803.535 6  96294356.94442
     -2511.859       -1957.277
  24600767.176    24600767.0064   24600776.2014  129277924.246 4 100736055.42441
      1717.703        1338.433
  21044583.451    21044582.5354   21044590.5824  110590424.579 8  86174275.94646
      2112.857        1646.383
  20206097.939    20206097.879    20206103.342   108013577.874 8  84010691.206 5
      2668.266        2075.312
  22979324.304    22979323.832    22979325.165   123010509.261 5  95674979.783 4
     -3366.996       -2618.767
  19721362.320    19721361.706    19721365.669   105607612.382 8  82139432.287 7
     -1319.392       -1026.191
  22650648.424    22650648.502    22650654.888   120910769.062 6  94041750.090 5
     -3152.282       -2451.774
  19487780.637    19487780.410    19487786.862   104246560.581 8  81080707.798 7
      -227.292        -176.783
  20742777.665    20742777.447    20742782.834   110921025.183 8  86271957.425 6
      3503.988        2725.321
 11 10 10 17  8  0.0000000  0 15G03G06G11G14G19G20G22G28G32R01R07R08
                                R22R23R24
  22709462.907    22709462.0204   22709472.3504  119339097.242 6  92991534.32743
     -3008.266       -2344.103
  23696981.183    23696980.4484   23696990.7564  124528527.006 5  97035246.80142
     -2888.885       -2251.074
  20638728.880    20638728.4514   20638734.3534  108457357.764 8  84512254.96646
      1788.525        1393.656
  22409164.566    22409164.1584   22409171.3024  117761099.103 7  91761902.05943
       247.921         193.185
  20852673.139    20852671.8514   20852677.4754  109581609.802 8  85388294.69946
      -981.622        -764.903
  22978595.645    22978593.8874   22978602.0974  120753531.224 6  94093631.64242
      3466.249        2700.964
  23530334.028    23530332.3854   23530337.8794  123653211.161 6  96353116.16942
     -2515.469       -1960.109
  24591006.363    24591007.0164   24591015.4344  129226632.659 5 100696088.01741
      1701.518        1325.882
  21032564.773    21032563.6804   21032571.8334  110527265.739 8  86125061.33846
      2097.627        1634.516
  20191177.391    20191177.669    20191183.021   107933820.593 8  83948657.826 5
      2648.767        2060.149
  22998199.402    22998198.857    22998202.095   123111555.853 5  95753571.584 4
     -3369.650       -2620.829
  19728804.670    19728804.176    19728807.911   105647466.295 8  82170429.789 7
     -1337.623       -1040.367
  22668392.103    22668392.483    22668399.404   121005486.934 6  94115419.490 5
     -3162.429       -2459.668
  19489117.611    19489117.554    19489123.929   104253713.425 8  81086271.128 7
      -249.662        -194.181
  20723154.356    20723153.882    20723159.119   110816088.204 8  86190339.834 6
      3491.668        2715.739
 11 10 10 17  8 30.0000000  0 15G03G06G11G14G19G20G22G28G32R01R07R08
                                R22R23R24
  22726656.336    22726656.3024   22726665.2724  119429447.426 6  93061937.03243
     -3015.126       -2349.458
  23713489.293    23713488.6844   23713499.4164  124615278.616 5  97102845.36441
     -2894.658       -2255.595
  20628548.409    20628547.8644   20628553.5864  108403858.157 8  84470566.99546
      1777.950        1385.415
  22407803.290    22407802.7494   22407809.3764  117753945.691 7  91756328.02543
       228.789         178.275
  20858321.097    20858319.9624   20858325.5484  109611290.896 8  85411422.82946
      -997.293        -777.109
  22958828.046    22958827.8444   22958837.8234  120649661.838 6  94012694.62242
      3458.185        2694.692
  23544702.837    23544701.7714   23544707.9724  123728720.794 6  96411954.83542
     -2518.755       -1962.646
  24581339.506    24581339.9974   24581348.5644  129175823.221 5 100656496.28141
      1685.591        1313.455
  21020632.406    21020631.0484   21020639.4154  110464560.207 8  86076199.95546
      2082.591        1622.794
  20176366.854    20176366.486    20176371.697   107854645.658 8  83887077.395 5
      2629.436        2045.118
  23017089.502    23017088.631    23017091.345   123212674.898 5  95832219.721 4
     -3371.860       -2622.554
  19736348.537    19736347.919    19736351.722   105687862.445 8  82201849.032 7
     -1355.578       -1054.334
  22686193.362    22686192.436    22686199.885   121100506.317 6  94189323.393 5
     -3172.362       -2467.392
  19490579.562    19490579.238    19490585.619   104261532.939 8  81092352.979 7
      -271.804        -211.400
  20703598.775    20703598.851    20703603.971   110711518.859 8  86109008.183 6
      3479.427        2706.225
 11 10 10 17  9  0.0000000  0 15G03G06G11G14G19G20G22G28G32R01R07R08
                                R22R23R24
  22743888.508    22743888.2644   22743896.8874  119520002.420 6  93132499.33443
     -3021.964       -2354.782
  23730030.626    23730029.4974   23730039.9864  124702199.578 5  97170575.89741
     -2900.262       -2259.952
  20618428.207    20618427.4124   20618433.1634  108350675.426 8  84429125.93346
      1767.362        1377.163
  22406550.949    22406550.3554   22406556.6354  117747364.897 7  91751200.19343
       209.705         163.402
  20864058.523    20864057.3064   20864062.9054  109641440.925 8  85434916.36446
     -1012.925        -789.295
  22939108.820    22939107.7834   22939117.4044  120546033.591 6  93931945.49142
      3450.130        2688.402
  23559090.972    23559089.1194   23559094.5884  123804326.585 6  96470868.45142
     -2521.820       -1965.057
  24571761.267    24571761.5744   24571770.5654  129125492.794 5 100617277.81041
      1669.622        1300.992
  21008785.352    21008784.3654   21008792.4574  110402304.417 8  86027689.01746
      2067.585        1611.105
  20161664.092    20161663.457    20161668.752   107776049.898 8  83825947.429 5
      2610.078        2030.055
  23035992.143    23035990.853    23035993.050   123313859.321 5  95910918.705 4
     -3373.991       -2624.216
  19743992.006    19743991.682    19743995.084   105728793.637 8  82233684.422 7
     -1373.351       -1068.162
  22704047.951    22704048.131    22704055.803   121195821.142 6  94263457.080 5
     -3182.101       -2474.968
  19492165.401    19492165.121    19492171.342   104270015.746 8  81098950.725 7
      -293.926        -228.611
  20684112.752    20684112.749    20684117.267   110607316.753 8  86027962.162 6
      3467.154        2696.668
 11 10 10 17  9 30.0000000  0 15G03G06G11G14G19G20G22G28G32R01R07R08
                                R22R23R24
  22761161.110    22761159.8834   22761168.0614  119610765.272 6  93203223.59943
     -3028.796       -2360.097
  23746602.772    23746604.1254   23746614.0944  124789293.364 5  97238441.10341
     -2905.904       -2264.345
  20608369.176    20608368.4574   20608374.3554  108297816.105 8  84387936.88246
      1756.671        1368.828
  22405408.799    22405408.0864   22405414.0894  117741361.605 7  91746522.35743
       190.552         148.480
  20869886.036    20869884.9184   20869890.4434  109672064.678 8  85458779.03946
     -1028.588        -801.500
  22919436.024    22919434.4534   22919442.8884  120442653.040 6  93851389.39042
      3441.980        2682.051
  23573496.656    23573495.8284   23573501.6134  123880032.169 6  96529859.84642
     -2525.024       -1967.557
  24562276.833    24562275.3904   24562284.1144  129075647.924 5 100578437.69641
      1653.495        1288.432
  20997024.786    20997023.8534   20997032.2814  110340504.114 8  85979533.00746
      2052.504        1599.352
  20147069.873    20147069.882    20147075.358   107698040.188 8  83765273.282 5
      2590.644        2014.939
  23054906.914    23054906.125    23054908.048   123415112.642 5  95989671.275 4
     -3376.269       -2625.986
  19751736.133    19751735.446    19751739.201   105770262.147 8  82265937.727 7
     -1391.066       -1081.938
  22721958.804    22721959.569    22721967.222   121291434.646 6  94337823.075 5
     -3191.929       -2482.613
  19493876.326    19493876.111    19493882.329   104279167.912 8  81106069.085 7
      -316.149        -245.896
  20664696.779    20664696.686    20664701.121   110503490.927 8  85947208.802 6
      3454.641        2686.943
 11 10 10 17 10  0.0000000  0 15G03G06G11G14G19G20G22G28G32R01R07R08
                                R22R23R24
  22778471.351    22778470.8354   22778479.1014  119701733.792 6  93274108.13443
     -3035.484       -2365.311
  23763209.303    23763209.2324   23763219.2694  124876557.658 5  97306439.12741
     -2911.427       -2268.615
  20598372.196    20598371.4764   20598377.2924  108245281.076 8  84347000.52846
      1745.969        1360.494
  22404375.621    22404375.2094   22404381.6634  117735935.917 7  91742294.59643
       171.425         133.576
  20875803.587    20875802.4404   20875808.0094  109703161.175 8  85483010.08146
     -1044.199        -813.664
  22899810.830    22899809.4324   22899817.3774  120339520.662 6  93771026.62842
      3433.848        2675.715
  23587922.869    23587920.7054   23587926.4524  123955835.830 6  96588927.62642
     -2528.212       -1970.040
  24552884.329    24552882.5864   24552891.4064  129026289.084 5 100539976.32341
      1637.353        1275.808
  20985351.211    20985350.3354   20985358.7514  110279159.249 8  85931731.87546
      2037.456        1587.626
  20132586.613    20132585.966    20132591.988   107620617.055 8  83705055.355 5
      2571.228        1999.842
  23073833.847    23073833.813    23073835.411   123516432.857 5  96068475.903 4
     -3378.152       -2627.449
  19759579.520    19759578.894    19759582.880   105812264.149 8  82298605.974 7
     -1408.693       -1095.650
  22739927.532    22739927.045    22739933.615   121387344.512 6  94412419.573 5
     -3201.697       -2490.212
  19495712.237    19495711.878    19495718.538   104288989.406 8  81113708.030 7
      -338.323        -263.139
  20645351.414    20645351.021    20645356.309   110400045.037 8  85866750.961 6
      3442.054        2677.154
 11 10 10 17 10 30.0000000  0 15G03G06G11G14G19G20G22G28G32R01R07R08
                                R22R23R24
  22795819.610    22795818.5444   22795827.9304  119792900.706 6  93345147.25243
     -3042.440       -2370.720
  23779847.267    23779846.4914   23779856.7404  124963985.709 5  97374564.76241
     -2917.270       -2273.176
  20588435.827    20588435.2894   20588441.1754  108193066.722 8  84306314.05146
      1734.846        1351.830
  22403451.991    22403451.6714   22403458.5014  117731082.839 6  91738513.02243
       151.953         118.408
  20881809.926    20881808.6794   20881814.3274  109734725.082 8  85507605.33946
     -1060.184        -826.114
  22880232.097    22880230.4804   22880239.8574  120236632.971 6  93690854.56342
      3425.229        2669.006
  23602365.505    23602363.5864   23602368.4984  124031731.105 6  96648066.79342
     -2531.632       -1972.689
  24543582.608    24543582.6414   24543589.3504  128977412.446 5 100501890.64741
      1620.933        1263.075
  20973763.462    20973762.7414   20973771.1144  110218265.545 8  85884282.30046
      2022.021        1575.604
  20118211.902    20118211.400    20118216.980   107543776.671 8  83645290.687 5
      2551.356        1984.391
  23092773.677    23092772.807    23092773.509   123617810.368 5  96147325.101 4
     -3380.486       -2629.262
  19767521.370    19767520.760    19767524.643   105854792.317 8  82331683.455 7
     -1426.635       -1109.602
  22757947.587    22757947.955    22757954.681   121483543.614 6  94487241.022 5
     -3211.690       -2497.973
  19497672.627    19497672.448    19497678.965   104299476.225 8  81121864.451 7
      -360.906        -280.700
  20626077.152    20626077.107    20626082.090   110296977.878 8  85786587.683 6
      3428.956        2666.967
 11 10 10 17 11  0.0000000  0 15G03G06G11G14G19G20G22G28G32R01R07R08
                                R22R23R24
  22813208.984    22813207.8984   22813217.4684  119884284.402 6  93416355.28542
     -3049.552       -2376.281
  23796519.581    23796516.7564   23796528.8314  125051596.696 5  97442832.95541
     -2923.273       -2277.872
  20578565.016    20578564.4744   20578570.5334  108141195.163 8  84265894.69346
      1723.479        1342.971
  22402641.746    22402641.2714   22402647.9734  117726823.218 6  91735193.88143
       132.240         103.044
  20887909.075    20887908.0134   20887913.3844  109766776.608 8  85532580.56446
     -1076.358        -838.723
  22860701.888    22860701.5724   22860711.0804  120134011.700 6  93610890.08042
      3416.404        2662.145
  23616827.173    23616826.3314   23616832.6634  124107736.977 6  96707292.16442
     -2535.182       -1975.467
  24534377.757    24534376.4524   24534385.7754  128929039.631 5 100464197.59841
      1604.194        1250.022
  20962265.939    20962264.8534   20962273.0794  110157843.996 8  85837200.64346
      2006.350        1563.390
  20103950.264    20103949.744    20103955.422   107467540.945 8  83585996.302 5
      2531.263        1968.758
  23111725.631    23111724.028    23111725.972   123719263.784 5  96226233.343 4
     -3382.857       -2631.104
  19775564.888    19775564.238    19775567.801   105897864.524 8  82365184.084 7
     -1444.614       -1123.594
  22776027.926    22776027.522    22776034.379   121580051.119 6  94562302.329 5
     -3221.836       -2505.865
  19499761.419    19499761.279    19499767.682   104310649.869 8  81130555.072 7
      -383.725        -298.453
  20606878.919    20606878.614    20606883.642   110194314.038 8  85706738.096 6
      3415.511        2656.506
 11 10 10 17 11 30.0000000  0 15G03G06G11G14G19G20G22G28G32R01R07R08
                                R22R23R24
  22830635.465    22830635.2644   22830644.4124  119975863.163 6  93487715.31542
     -3055.604       -2380.987
  23813222.455    23813220.5924   23813231.5334  125139368.954 5  97511226.80741
     -2928.112       -2281.650
  20568755.996    20568755.3104   20568761.4604  108089647.885 8  84225728.01846
      1713.093        1334.877
  22401940.274    22401939.5104   22401947.1374  117723137.481 7  91732321.92343
       113.603          88.518
  20894097.007    20894095.9744   20894101.5024  109799295.108 8  85557919.66346
     -1091.451        -850.482
  22841222.270    22841221.6634   22841229.0014  120031638.312 6  93531118.75242
      3408.510        2655.967
  23631307.981    23631307.5534   23631313.4594  124183832.252 6  96766587.19242
     -2537.662       -1977.406
  24525265.229    24525264.7994   24525272.9324  128881152.116 5 100426882.70141
      1588.464        1237.782
  20950853.935    20950853.1664   20950861.5234  110097874.985 8  85790471.60646
      1991.693        1551.963
  20089798.427    20089797.856    20089803.323   107391890.845 8  83527157.406 5
      2512.187        1953.917
  23130688.420    23130685.920    23130689.453   123820771.525 5  96305183.837 4
     -3384.212       -2632.168
  19783705.291    19783704.658    19783708.177   105941457.137 8  82399089.470 7
     -1461.449       -1136.688
  22794160.880    22794160.545    22794167.700   121676844.799 6  94637586.201 5
     -3230.933       -2512.944
  19501975.343    19501974.782    19501981.064   104322490.532 8  81139764.479 7
      -405.521        -315.406
  20587752.563    20587752.320    20587757.442   110092037.361 8  85627189.643 6
      3402.988        2646.768
 11 10 10 17 12  0.0000000  0 15G03G06G11G14G19G20G22G28G32R01R07R08
                                R22R23R24
  22848098.781    22848097.7284   22848107.4284  120067629.772 6  93559221.73142
     -3062.152       -2386.102
  23829953.930    23829952.3624   23829962.7934  125227295.299 5  97579740.73241
     -2933.539       -2285.869
  20559007.932    20559007.1584   20559013.3574  108038420.981 8  84185810.98346
      1702.083        1326.302
  22401346.640    22401346.3864   22401353.7904  117720019.944 6  91729892.70943
        94.324          73.508
  20900373.250    20900371.8464   20900377.3174  109832275.089 8  85583618.35446
     -1107.154        -862.715
  22821787.586    22821787.0034   22821795.0264  119929509.020 6  93451537.63342
      3400.107        2649.432
  23645804.073    23645803.2324   23645809.6884  124260010.132 6  96825946.58542
     -2540.742       -1979.803
  24516242.508    24516243.0134   24516251.4074  128833745.356 5 100389942.37541
      1572.077        1224.997
  20939527.841    20939526.8234   20939534.8484  110038354.072 8  85744091.72946
      1976.413        1540.061
  20075755.291    20075754.780    20075760.377   107316822.250 8  83468770.791 5
      2492.424        1938.559
  23149657.724    23149656.581    23149660.151   123922325.502 5  96384170.299 4
     -3386.177       -2633.689
  19791941.643    19791941.143    19791944.543   105985562.296 8  82433393.506 7
     -1478.788       -1150.157
  22812345.975    22812345.086    22812353.073   121773917.439 6  94713087.045 5
     -3240.518       -2520.391
  19504312.672    19504312.169    19504318.313   104334993.649 8  81149489.130 7
      -427.975        -332.863
  20568698.835    20568698.162    20568703.711   109990146.472 8  85547941.232 6
      3389.720        2636.452
 11 10 10 17 12 30.0000000  0 15G03G06G11G14G19G20G22G28G32R01R07R08
                                R22R23R24
  22865597.313    22865596.3584   22865606.2184  120159585.646 6  93630875.61542
     -3068.144       -2390.760
  23846714.837    23846714.3194   23846724.9394  125315377.476 5  97648376.05741
     -2938.465       -2289.688
  20549321.444    20549320.8524   20549326.7304  107987519.071 8  84146147.19646
      1691.516        1318.064
  22400862.899    22400862.1574   22400868.9364  117717474.111 7  91727909.00343
        75.563          58.882
  20906737.164    20906736.0824   20906741.7184  109865719.566 8  85609678.99346
     -1122.345        -874.551
  22802400.062    22802399.6654   22802407.6694  119827628.468 6  93372150.32442
      3392.016        2643.122
  23660315.930    23660315.4384   23660321.8334  124336272.659 5  96885371.95242
     -2543.285       -1981.783
  24507313.832    24507313.6974   24507323.4894  128786823.523 5 100353379.96141
      1556.146        1212.613
  20928287.030    20928286.0364   20928294.0424  109979284.845 8  85698063.82646
      1961.671        1528.575
  20061821.835    20061821.158    20061827.237   107242339.754 8  83410840.037 5
      2473.183        1923.589
  23168639.541    23168637.683    23168640.724   124023926.029 5  96463192.927 4
     -3387.253       -2634.522
  19800274.058    19800273.188    19800276.545   106030180.164 8  82468096.319 7
     -1495.601       -1163.246
  22830582.322    22830583.364    22830590.999   121871270.715 6  94788806.151 5
     -3249.552       -2527.424
  19506774.406    19506773.987    19506780.428   104348163.060 8  81159732.014 7
      -449.860        -349.889
  20549717.433    20549717.328    20549722.514   109888648.437 8  85468998.386 6
      3376.922        2626.494
 11 10 10 17 13  0.0000000  0 15G03G06G11G14G19G20G22G28G32R01R07R08
                                R22R23R24
  22883134.952    22883134.4914   22883142.8214  120251744.204 6  93702687.44143
     -3074.760       -2395.924
  23863509.438    23863508.3714   23863517.7814  125403629.417 5  97717143.68641
     -2943.963       -2293.994
  20539700.370    20539699.5644   20539705.2574  107936959.301 8  84106750.00746
      1680.137        1309.197
  22400490.260    22400489.4114   22400496.0344  117715515.712 6  91726383.02243
        55.994          43.624
  20913192.520    20913191.3834   20913197.1684  109899643.274 8  85636113.05846
     -1138.261        -886.961
  22783064.157    22783062.1294   22783070.7934  119726013.029 6  93292969.58542
      3383.274        2636.321
  23674848.502    23674846.7724   23674852.4864  124412633.801 6  96944874.16242
     -2546.452       -1984.260
  24498482.220    24498480.4864   24498489.6654  128740403.667 5 100317208.65341
      1539.475        1199.566
  20917135.406    20917134.3934   20917142.4824  109920683.477 8  85652400.48646
      1946.108        1516.445
  20048000.874    20048000.373    20048005.967   107168460.181 8  83353378.213 5
      2453.150        1907.998
  23187629.734    23187629.076    23187630.939   124125586.831 5  96542262.433 4
     -3389.162       -2636.018
  19808704.069    19808703.486    19808707.329   106075323.989 8  82503208.201 7
     -1512.959       -1176.750
  22848875.774    22848875.618    22848883.545   121968918.234 6  94864754.111 5
     -3259.228       -2534.948
  19509363.575    19509363.432    19509369.830   104362015.443 8  81170506.087 7
      -472.586        -367.573
  20530814.140    20530813.956    20530819.306   109787563.304 8  85390376.680 6
      3363.137        2615.766
 11 10 10 17 13 30.0000000  0 15G03G06G11G14G19G20G22G28G32R01R07R08
                                R22R23R24
  22900702.388    22900701.2944   22900710.3374  120344060.238 6  93774621.98742
     -3079.741       -2399.788
  23880326.305    23880326.3624   23880336.9444  125492006.104 5  97786008.49341
     -2947.895       -2297.055
  20530136.055    20530135.5134   20530141.1514  107886699.459 8  84067586.53146
      1670.347        1301.568
  22400220.908    22400220.3844   22400226.6514  117714101.551 7  91725281.12743
        38.097          29.684
  20919731.011    20919729.9254   20919735.4674  109934002.490 8  85662886.47846
     -1152.531        -898.075
  22763768.282    22763767.7004   22763777.1424  119624621.339 6  93213963.21742
      3376.062        2630.691
  23689388.888    23689387.6164   23689394.1474  124489048.871 6  97004418.36442
     -2548.033       -1985.485
  24489735.015    24489734.7474   24489743.1154  128694443.349 5 100281395.48341
      1524.388        1187.854
  20906064.944    20906063.9284   20906071.8074  109862506.921 8  85607068.16846
      1932.151        1505.573
  20034284.763    20034284.347    20034289.883   107095140.288 8  83296351.698 5
      2434.670        1893.632
  23206624.313    23206623.055    23206625.875   124227262.073 5  96621343.165 4
     -3389.316       -2636.137
  19817223.675    19817222.968    19817226.935   106120945.997 8  82538692.008 7
     -1528.661       -1188.959
  22867215.868    22867215.114    22867222.107   122066814.219 6  94940895.317 5
     -3267.270       -2541.199
  19512072.872    19512072.490    19512078.641   104376506.970 8  81181777.283 7
      -493.666        -383.961
  20511980.348    20511980.213    20511985.157   109686850.907 8  85312044.871 6
      3350.889        2606.245
 11 10 10 17 14  0.0000000  0 15G03G06G11G14G19G20G22G28G32R01R07R08
                                R22R23R24
  22918299.310    22918299.5824   22918308.8614  120436539.476 6  93846683.68942
     -3085.626       -2404.377
  23897169.045    23897167.9254   23897179.8094  125580513.667 5  97854975.29841
     -2952.678       -2300.771
  20520630.973    20520630.1314   20520635.9834  107836748.804 8  84028663.98146
      1659.574        1293.174
  22400056.521    22400056.0914   22400062.8714  117713239.659 7  91724609.57043
        19.237          14.981
  20926353.712    20926352.5394   20926358.1364  109968804.502 8  85690004.93846
     -1167.726        -909.917
  22744519.077    22744517.8374   22744527.3464  119523462.295 6  93135138.09943
      3367.809        2624.269
  23703941.165    23703939.2434   23703947.4644  124565524.641 5  97064009.91142
     -2550.462       -1987.364
  24481078.613    24481079.4034   24481086.2674  128648951.377 5 100245947.19741
      1508.355        1175.333
  20895076.654    20895075.6354   20895083.4994  109804763.685 8  85562073.50646
      1917.282        1493.982
  20020675.167    20020674.933    20020680.613   107022389.308 8  83239767.658 5
      2415.256        1878.528
  23225621.097    23225620.111    23225622.860   124328956.872 5  96700439.155 4
     -3390.591       -2637.129
  19825833.252    19825832.917    19825836.493   106167051.743 8  82574552.047 7
     -1545.141       -1201.781
  22885602.525    22885602.301    22885608.993   122164964.518 6  95017234.336 5
     -3276.168       -2548.126
  19514903.038    19514902.740    19514908.949   104391646.434 8  81193552.434 7
      -515.707        -401.104
  20493218.655    20493218.406    20493223.328   109586523.002 8  85234012.129 6
      3337.506        2595.842
 11 10 10 17 14 30.0000000  0 15G03G06G11G14G19G20G22G28G32R01R07R08
                                R22R23R24
  22935931.265    22935930.9204   22935939.3324  120529193.088 6  93918881.27742
     -3091.606       -2409.046
  23914037.688    23914037.7714   23914048.5504  125669163.611 5  97924053.04941
     -2957.543       -2304.591
  20511186.995    20511186.3924   20511192.4614  107787121.896 8  83989993.70046
      1648.586        1284.610
  22399999.981    22399999.0154   22400006.6264  117712942.915 6  91724378.39443
         0.207           0.161
  20933062.835    20933061.6064   20933067.3304  110004061.843 8  85717478.20046
     -1183.062        -921.871
  22725316.354    22725315.0014   22725324.0474  119422550.233 6  93056505.46843
      3359.369        2617.682
  23718508.067    23718506.9344   23718514.2174  124642072.604 6  97123657.69542
     -2553.001       -1989.352
  24472510.703    24472510.8904   24472521.1434  128603942.060 5 100210875.04941
      1491.984        1162.602
  20884173.477    20884172.4654   20884180.3744  109747467.066 8  85517426.84646
      1902.214        1482.241
  20007175.029    20007174.306    20007179.538   106950221.497 8  83183637.203 5
      2395.627        1863.261
  23244622.937    23244622.562    23244625.945   124430683.099 5  96779559.590 4
     -3391.635       -2637.939
  19834535.844    19834535.039    19834538.811   106213651.784 8  82610796.541 7
     -1561.725       -1214.678
  22904039.069    22904039.582    22904045.038   122263380.662 6  95093780.100 5
     -3285.168       -2555.127
  19517856.642    19517856.417    19517862.882   104407447.504 8  81205842.163 7
      -537.976        -418.427
  20474531.881    20474531.757    20474536.816   109486597.061 8  85156292.014 6
      3323.896        2585.247
 11 10 10 17 15  0.0000000  0 15G03G06G11G14G19G20G22G28G32R01R07R08
                                R22R23R24
  22953596.455    22953595.4204   22953604.6074  120622019.535 6  93991213.52342
     -3097.139       -2413.353
  23930934.405    23930933.6974   23930946.2164  125757954.684 5  97993240.74041
     -2962.135       -2308.169
  20501805.217    20501804.6584   20501810.6784  107737820.410 8  83951576.99546
      1637.883        1276.269
  22400051.161    22400050.4124   22400057.5214  117713211.638 6  91724587.83443
       -18.441         -14.370
  20939858.889    20939857.5714   20939863.2644  110039774.501 8  85745306.24746
     -1198.042        -933.539
  22706159.924    22706159.3774   22706167.1084  119321887.034 6  92978066.72943
      3351.244        2611.353
  23733087.804    23733087.6414   23733093.5044  124718692.008 6  97183361.15342
     -2555.196       -1991.050
  24464040.306    24464038.2414   24464049.0584  128559416.274 5 100176179.67741
      1476.077        1150.188
  20873355.517    20873354.4614   20873362.4364  109690618.041 8  85473128.96146
      1887.467        1470.750
  19993783.718    19993783.201    19993788.387   106878638.459 8  83127961.572 5
      2376.286        1848.221
  23263633.195    23263631.075    23263634.289   124532437.523 5  96858701.961 4
     -3392.267       -2638.433
  19843329.795    19843329.369    19843332.841   106260743.398 8  82647423.367 7
     -1577.955       -1227.294
  22922524.414    22922524.676    22922530.988   122362061.144 6  95170531.461 5
     -3293.776       -2561.820
  19520934.727    19520934.456    19520940.610   104423911.190 8  81218647.260 7
      -559.846        -435.436
  20455921.081    20455921.124    20455925.861   109387077.379 8  85078887.874 6
      3310.447        2574.793
 11 10 10 17 15 30.0000000  0 15G03G06G11G14G19G20G22G28G32R01R07R08
                                R22R23R24
  22971291.531    22971289.8134   22971299.9714  120715012.288 6  94063675.37142
     -3102.538       -2417.556
  23947857.414    23947855.4534   23947866.5254  125846880.452 5  98062533.40441
     -2966.450       -2311.535
  20492484.928    20492484.2294   20492489.9834  107688841.341 8  83913411.52546
      1627.162        1267.912
  22400208.749    22400208.2364   22400215.5734  117714041.203 7  91725234.30643
       -37.070         -28.894
  20946740.361    20946739.1834   20946744.8584  110075937.386 8  85773485.12646
     -1213.009        -945.204
  22687051.579    22687050.6294   22687058.7214  119221469.187 6  92899819.19043
      3343.097        2605.015
  23747682.095    23747679.8374   23747686.7834  124795376.624 6  97243115.42642
     -2557.277       -1992.674
  24455658.775    24455656.5344   24455665.7254  128515370.378 5 100141858.23141
      1460.130        1137.790
  20862621.623    20862620.6964   20862628.7194  109634212.282 8  85429176.48246
      1872.719        1459.255
  19980501.318    19980500.694    19980505.830   106807636.170 8  83072737.637 5
      2356.980        1833.193
  23282646.506    23282644.809    23282646.710   124634213.564 5  96937861.133 4
     -3392.915       -2638.948
  19852213.899    19852213.568    19852216.941   106308318.813 8  82684426.491 7
     -1593.925       -1239.731
  22941060.601    22941059.272    22941066.429   122460999.132 6  95247483.100 5
     -3302.262       -2568.430
  19524135.227    19524134.938    19524141.291   104441032.816 8  81231964.095 7
      -581.781        -452.504
  20437386.098    20437386.110    20437390.862   109287963.089 8  85001799.042 6
      3296.968        2564.298
 11 10 10 17 16  0.0000000  0 15G03G06G11G14G19G20G22G28G32R01R07R08
                                R22R23R24
  22989021.837    22989021.3394   22989029.6354  120808185.585 6  94136277.88242
     -3109.364       -2422.863
  23964808.433    23964806.8834   23964816.9364  125935956.027 5  98131942.81341
     -2972.277       -2316.060
  20483229.216    20483228.6254   20483234.4024  107640203.009 8  83875511.56646
      1614.943        1258.396
  22400477.048    22400476.3384   22400483.0774  117715448.541 7  91726330.97743
       -57.204         -44.570
  20953710.684    20953709.4314   20953715.0374  110112566.546 8  85802027.33146
     -1229.393        -957.968
  22667992.985    22667992.0254   22667999.5414  119121314.880 6  92821777.00543
      3333.424        2597.484
  23762288.892    23762288.0134   23762294.6804  124872142.089 5  97302932.69442
     -2560.829       -1995.446
  24447370.855    24447372.0654   24447378.7754  128471822.842 5 100107925.10041
      1442.678        1124.135
  20851975.744    20851974.6344   20851982.5144  109578267.110 8  85385582.90146
      1856.521        1446.644
  19967330.794    19967330.366    19967335.551   106737233.023 8  83017979.704 5
      2336.091        1816.958
  23301667.240    23301665.009    23301665.279   124736026.211 5  97017048.764 4
     -3394.996       -2640.552
  19861191.437    19861190.851    19861194.535   106356392.512 8  82721817.160 7
     -1611.402       -1253.307
  22959645.547    22959645.226    22959652.747   122560210.043 6  95324647.005 5
     -3312.215       -2576.159
  19527462.485    19527462.032    19527468.573   104458830.623 8  81245806.841 7
      -605.188        -470.699
  20418931.012    20418930.889    20418936.155   109189275.738 8  84925042.277 6
      3281.758        2552.479
 11 10 10 17 16 30.0000000  0 15G03G06G11G14G19G20G22G28G32R01R07R08
                                R22R23R24
  23006792.215    23006791.4324   23006800.8974  120901567.772 6  94209043.19342
     -3116.057       -2428.096
  23981791.830    23981792.6774   23981801.2034  126025209.939 5  98201491.19641
     -2977.860       -2320.420
  20474044.299    20474043.8064   20474049.5454  107591936.768 8  83837901.54946
      1602.839        1248.963
  22400860.144    22400859.9264   22400867.0044  117717463.499 7  91727901.11543
       -77.109         -60.083
  20960775.281    20960774.2494   20960779.8284  110149691.898 8  85830956.18046
     -1245.589        -970.592
  22648990.180    22648988.9204   22648996.9594  119021455.480 6  92743964.60843
      3323.904        2590.037
  23776917.871    23776916.4524   23776922.3874  124949017.292 5  97362835.48042
     -2564.161       -1998.037
  24439186.270    24439185.8684   24439193.2344  128428804.062 5 100074404.01341
      1425.287        1110.600
  20841423.284    20841422.1484   20841429.8594  109522812.942 8  85342371.92246
      1840.478        1434.137
  19954278.435    19954277.880    19954283.348   106667460.424 8  82963712.184 6
      2315.419        1800.876
  23320696.933    23320696.142    23320697.504   124837904.151 5  97096287.176 4
     -3396.788       -2641.948
  19870267.181    19870266.597    19870270.428   106404991.924 8  82759616.720 7
     -1628.469       -1266.585
  22978288.626    22978287.594    22978295.938   122659722.529 6  95402045.468 5
     -3321.877       -2583.673
  19530921.310    19530921.204    19530927.733   104477335.121 8  81260199.233 7
      -628.416        -488.770
  20400562.294    20400562.158    20400566.855   109091049.451 8  84848644.109 6
      3266.668        2540.740
 11 10 10 17 17  0.0000000  0 15G03G06G11G14G19G20G22G28G32R01R07R08
                                R22R23R24
  23024596.955    23024595.3774   23024605.2054  120995131.257 6  94281949.75442
     -3121.658       -2432.458
  23998805.303    23998805.3894   23998816.0994  126114614.466 5  98271156.90141
     -2982.497       -2324.032
  20464925.741    20464925.0894   20464931.0034  107544018.285 8  83800562.51746
      1591.589        1240.197
  22401354.939    22401354.5744   22401360.6604  117720060.107 7  91729924.48343
       -96.143         -74.914
  20967929.528    20967928.3334   20967933.9064  110187286.852 8  85860250.95446
     -1260.842        -982.471
  22630038.986    22630037.8494   22630045.9404  118921866.443 6  92666362.88343
      3315.225        2583.298
  23791562.411    23791561.1734   23791566.8454  125025975.084 5  97422802.60042
     -2566.463       -1999.842
  24431095.895    24431095.6604   24431105.1474  128386289.250 5 100041275.64841
      1408.869        1097.793
  20830958.614    20830957.9904   20830965.7374  109467824.427 8  85299523.78346
      1825.307        1422.318
  19941338.857    19941338.490    19941344.028   106598292.990 8  82909915.354 5
      2295.626        1785.482
  23339734.779    23339733.402    23339736.670   124939818.405 5  97175553.841 4
     -3397.628       -2642.596
  19879435.276    19879434.714    19879438.401   106454087.514 8  82797802.190 7
     -1644.673       -1279.192
  22996980.728    22996980.239    22996988.829   122759507.972 6  95479656.237 5
     -3330.587       -2590.456
  19534508.213    19534507.688    19534514.003   104496520.455 8  81275121.167 7
      -650.747        -506.137
  20382275.580    20382275.373    20382279.990   108993262.120 8  84772587.352 6
      3252.334        2529.590
 11 10 10 17 17 30.0000000  0 15G03G06G11G14G19G20G22G28G32R01R07R08
                                R22R23R24
  23042432.181    23042432.1444   23042441.3864  121088858.325 6  94354983.77142
     -3127.025       -2436.628
  24015843.595    24015842.8904   24015855.4074  126204152.543 5  98340926.69741
     -2986.888       -2327.421
  20455870.988    20455870.1214   20455875.8254  107496432.982 8  83763483.10146
      1580.475        1231.541
  22401956.437    22401955.8204   22401962.4244  117723222.852 7  91732389.00743
      -114.967         -89.588
  20975169.774    20975168.4524   20975174.1304  110225334.669 8  85889898.60846
     -1275.934        -994.232
  22611136.234    22611135.4074   22611143.4234  118822533.325 6  92588960.58643
      3306.679        2576.620
  23806219.138    23806217.9764   23806224.3454  125102998.379 5  97482820.80342
     -2568.661       -2001.563
  24423097.500    24423096.7534   24423107.0854  128344263.571 5 100008528.36441
      1392.557        1085.109
  20820580.368    20820579.5674   20820587.3794  109413286.019 8  85257026.37346
      1810.324        1410.643
  19928510.341    19928509.784    19928515.468   106529715.594 8  82856577.437 5
      2275.928        1770.164
  23358776.832    23358775.607    23358777.983   125041751.291 5  97254834.995 4
     -3397.795       -2642.731
  19888692.862    19888692.040    19888695.637   106503660.579 8  82836359.030 7
     -1660.496       -1291.498
  23015722.448    23015722.064    23015729.391   122859548.742 6  95557465.601 4
     -3339.067       -2597.044
  19538218.690    19538218.490    19538224.930   104516370.904 8  81290560.414 7
      -672.889        -523.356
  20364068.551    20364068.163    20364073.510   108895901.740 8  84696862.675 6
      3238.059        2518.487
 11 10 10 17 18  0.0000000  0 15G03G06G11G14G19G20G22G28G32R01R07R08
                                R22R23R24
  23060300.015    23060299.7654   23060309.8394  121182757.514 6  94428151.93242
     -3132.786       -2441.128
  24032909.545    24032908.3544   24032919.3664  126293832.756 5  98410807.24241
     -2991.670       -2331.191
  20446881.137    20446880.5724   20446886.4884  107449193.156 8  83726672.89246
      1568.944        1222.551
  22402667.887    22402667.0994   22402674.1454  117726961.848 6  91735302.53543
      -134.163        -104.538
  20982497.871    20982496.7734   20982502.3414  110263845.421 8  85919906.99146
     -1291.352       -1006.247
  22592284.002    22592283.6074   22592292.1694  118723467.823 6  92511766.80543
      3297.753        2569.693
  23820890.844    23820890.3534   23820893.8254  125180096.144 6  97542897.02042
     -2571.091       -2003.450
  24415196.030    24415196.1644   24415204.5244  128302738.395 5  99976171.11741
      1375.944        1072.175
  20810290.101    20810288.9684   20810296.8884  109359208.705 8  85214888.25546
      1794.936        1398.653
  19915794.268    19915793.464    19915798.686   106461739.859 8  82803707.485 5
      2255.886        1754.581
  23377822.060    23377820.928    23377824.901   125143710.693 4  97334136.753 4
     -3399.084       -2643.730
  19898041.008    19898040.312    19898043.904   106553718.814 8  82875293.220 7
     -1676.605       -1304.025
  23034513.079    23034512.626    23034520.092   122959853.404 6  95635480.184 4
     -3347.785       -2603.823
  19542055.961    19542055.803    19542062.286   104536897.678 8  81306525.685 7
      -695.453        -540.904
  20345944.231    20345943.995    20345948.770   108798982.858 8  84621481.371 6
      3223.271        2506.984
 11 10 10 17 18 30.0000000  0 15G03G06G11G14G19G20G22G28G32R01R07R08
                                R22R23R24
  23078200.927    23078199.5374   23078209.3254  121276822.881 6  94501449.58142
     -3138.227       -2445.372
  24050002.096    24050001.1304   24050010.5564  126383649.501 5  98480794.16841
     -2996.113       -2334.637
  20437956.882    20437956.2104   20437962.1764  107402295.919 8  83690129.63746
      1557.562        1213.684
  22403487.654    22403486.9844   22403494.1644  117731272.756 7  91738661.72543
      -153.202        -119.389
  20989913.636    20989912.5454   20989918.0304  110302814.729 8  85950272.69446
     -1306.557       -1018.097
  22573483.150    22573481.2824   22573491.0164  118624667.237 6  92434779.44643
      3288.997        2562.856
  23835575.307    23835573.8024   23835578.8244  125257263.352 5  97603027.34442
     -2573.330       -2005.210
  24407387.667    24407387.6164   24407396.0384  128261710.450 5  99944201.32741
      1359.293        1059.179
  20800086.448    20800085.3864   20800093.5204  109305588.649 8  85173106.44446
      1779.744        1386.810
  19903189.405    19903188.988    19903194.217   106394362.415 8  82751302.864 5
      2235.977        1739.091
  23396873.345    23396872.556    23396875.311   125245689.005 5  97413453.243 4
     -3399.509       -2644.063
  19907478.166    19907477.519    19907480.982   106604255.453 8  82914599.511 7
     -1692.451       -1316.349
  23053352.129    23053351.182    23053358.463   123060415.911 6  95713695.319 4
     -3356.318       -2610.468
  19546019.278    19546018.833    19546025.128   104558096.696 8  81323013.815 7
      -717.776        -558.273
  20327902.928    20327902.389    20327906.765   108702505.489 8  84546443.475 6
      3208.560        2495.540
 11 10 10 17 19  0.0000000  0 15G03G06G11G14G19G20G22G28G32R01R07R08
                                R22R23R24
  23096129.496    23096129.3394   23096139.5054  121371042.753 6  94574867.62042
     -3143.034       -2449.110
  24067116.914    24067115.6524   24067127.8734  126473591.636 5  98550878.78641
     -3000.002       -2337.665
  20429096.104    20429095.6274   20429101.4674  107355733.312 8  83653847.13046
      1546.665        1205.190
  22404415.177    22404414.3744   22404421.9284  117736146.236 6  91742459.27343
      -171.618        -133.731
  20997414.768    20997413.4384   20997418.8914  110342232.363 8  85980987.73346
     -1321.217       -1029.520
  22554731.115    22554729.6124   22554738.4414  118526123.237 6  92357992.03743
      3280.688        2556.373
  23850271.004    23850269.4994   23850274.3954  125334489.370 6  97663203.46642
     -2574.981       -2006.481
  24399674.266    24399675.2644   24399682.7464  128221171.243 5  99912612.40041
      1343.276        1046.674
  20789968.143    20789967.1684   20789975.3164  109252416.933 8  85131673.98546
      1765.090        1375.392
  19890695.489    19890694.957    19890699.925   106327574.582 8  82699356.831 5
      2216.622        1724.037
  23415927.445    23415925.615    23415927.368   125347677.339 5  97492777.532 4
     -3399.610       -2644.146
  19917002.770    19917001.863    19917005.503   106655257.371 8  82954267.686 7
     -1707.580       -1328.123
  23072237.484    23072236.344    23072243.597   123161224.900 6  95792102.154 4
     -3364.201       -2616.601
  19550105.974    19550105.636    19550111.952   104579958.914 8  81340017.766 7
      -739.600        -575.246
  20309942.788    20309942.362    20309946.929   108606464.037 8  84471744.622 6
      3194.251        2484.411
 11 10 10 17 19 30.0000000  0 16G03G06G11G14G19G20G22G28G32R01R02R07
                                R08R22R23R24
  23114087.772    23114087.3954   23114097.2134  121465414.225 6  94648403.77642
     -3148.403       -2453.307
  24084255.748    24084255.5954   24084267.7314  126563656.389 5  98621058.91941
     -3004.338       -2341.049
  20420299.225    20420298.7334   20420304.4634  107309505.734 8  83617825.69146
      1535.131        1196.202
  22405448.898    22405448.8494   22405455.9604  117741581.160 6  91746694.31843
      -190.661        -148.567
  21005000.570    21004999.3114   21005004.7584  110382096.526 8  86012050.72146
     -1336.417       -1041.363
  22536027.475    22536026.0434   22536035.1644  118427836.376 6  92281404.99643
      3271.760        2549.415
  23864977.340    23864975.8434   23864982.1954  125411771.828 5  97723423.59042
     -2577.125       -2008.158
  24392052.441    24392052.7004   24392059.5404  128181120.698 5  99881404.21441
      1326.712        1033.778
  20779935.031    20779933.9994   20779942.0204  109199692.682 8  85090590.20246
      1749.830        1363.499
  19878310.978    19878311.056    19878316.372   106261376.015 8  82647869.119 5
      2196.619        1708.478
  24035095.742    24035095.385    24035115.873   128255877.280 5  99754619.744
      4377.036        3404.293
  23434980.579    23434979.713    23434980.422   125449670.778 5  97572105.778 4
     -3399.993       -2644.441
  19926612.771    19926612.265    19926616.012   106706720.598 8  82994294.645 7
     -1723.329       -1340.372
  23091168.675    23091167.486    23091173.454   123262277.249 6  95870698.243 4
     -3372.642       -2623.158
  19554316.453    19554316.256    19554322.937   104602483.283 8  81357536.725 7
      -762.047        -592.707
  20292063.895    20292063.878    20292068.562   108510861.421 8  84397387.081 6
      3179.221        2472.725
 11 10 10 17 20  0.0000000  0 16G03G06G11G14G19G20G22G28G32R01R02R07
                                R08R22R23R24
  23132075.982    23132075.4314   23132085.1194  121559942.082 6  94722061.80542
     -3153.624       -2457.366
  24101420.802    24101418.4024   24101428.7434  126653848.733 5  98691338.49341
     -3008.716       -2344.451
  20411567.642    20411567.0124   20411572.8944  107263621.392 8  83582071.70446
      1523.583        1187.203
  22406591.893    22406591.4424   22406597.5914  117747583.511 7  91751371.51343
      -209.700        -163.397
  21012672.744    21012671.4424   21012676.8404  110422413.287 8  86043466.38546
     -1351.598       -1053.194
  22517374.283    22517373.0844   22517381.7554  118329814.393 6  92205024.34243
      3262.840        2542.474
  23879695.038    23879693.5414   23879699.6224  125489116.242 5  97783691.98541
     -2579.335       -2009.871
  24384526.385    24384526.0924   24384533.9814  128141566.254 5  99850582.58441
      1310.006        1020.770
  20769988.283    20769987.4044   20769995.3924  109147422.757 8  85049860.44346
      1734.571        1351.609
  19866039.167    19866039.137    19866044.344   106195774.384 8  82596845.685 5
      2176.605        1692.915
  24010502.854    24010502.992    24010522.940   128124656.285 5  99652561.207 4
      4370.852        3399.465
  23454033.688    23454034.120    23454035.362   125551674.587 5  97651442.126 4
     -3400.399       -2644.763
  19936310.038    19936309.269    19936313.045   106758649.170 8  83034683.543 7
     -1738.829       -1352.424
  23110144.413    23110144.462    23110150.995   123363577.544 6  95949487.185 4
     -3380.993       -2629.655
  19558652.564    19558652.208    19558658.652   104625676.907 8  81375576.215 7
      -784.430        -610.112
  20274269.934    20274269.773    20274274.386   108415708.305 8  84323379.155 6
      3164.055        2460.930
 11 10 10 17 20 30.0000000  0 16G03G06G11G14G19G20G22G28G32R01R02R07
                                R08R22R23R24
  23150094.920    23150094.0554   23150104.4314  121654630.254 6  94795844.74242
     -3158.777       -2461.390
  24118608.290    24118607.0334   24118618.6674  126744173.118 5  98761720.95441
     -3012.936       -2347.716
  20402902.725    20402902.2064   20402907.9514  107218087.224 8  83546590.57646
      1512.088        1178.254
  22407843.060    22407842.9104   22407848.6084  117754158.956 6  91756495.26343
      -228.630        -178.148
  21020431.910    21020430.6364   21020436.1344  110463187.789 8  86075238.72346
     -1366.648       -1064.917
  22498772.720    22498771.9134   22498781.1324  118232064.231 6  92128855.50443
      3253.879        2535.500
  23894426.587    23894424.9644   23894429.5974  125566527.126 5  97844012.18941
     -2581.315       -2011.438
  24377094.178    24377093.4454   24377102.3214  128102514.490 5  99820152.66741
      1293.476        1007.913
  20760129.439    20760128.2414   20760136.0974  109095613.397 8  85009489.55646
      1719.415        1339.805
  19853880.061    19853879.770    19853884.665   106130776.318 8  82546291.692 5
      2156.653        1677.396
  23985946.967    23985946.344    23985965.284   127993627.944 5  99550652.411 4
      4364.475        3394.530
  23473092.914    23473092.282    23473092.474   125653691.826 5  97730788.902 4
     -3400.645       -2644.939
  19946094.571    19946094.193    19946097.566   106811046.155 8  83075436.768 7
     -1754.257       -1364.422
  23129168.834    23129168.295    23129175.630   123465129.731 6  96028472.018 5
     -3389.084       -2635.949
  19563114.550    19563114.069    19563120.381   104649545.474 8  81394140.659 7
      -806.761        -627.477
  20256561.266    20256561.219    20256566.193   108321014.730 8  84249728.638 6
      3148.893        2449.141
 11 10 10 17 21  0.0000000  0 16G03G06G11G14G19G20G22G28G32R01R02R07
                                R08R22R23R24
  23168142.021    23168142.0874   23168151.9664  121749469.382 6  94869745.31842
     -3163.753       -2465.262
  24135819.277    24135819.5054   24135829.8354  126834620.187 5  98832198.97141
     -3016.897       -2350.823
  20394304.002    20394303.1094   20394308.6334  107172897.537 8  83511377.87646
      1500.598        1169.294
  22409202.060    22409202.0254   22409207.9834  117761300.435 7  91762060.08043
      -247.432        -192.797
  21028276.293    21028275.2624   21028280.7924  110504412.157 8  86107361.61446
     -1381.612       -1076.582
  22480222.540    22480220.8644   22480229.9594  118134580.129 6  92052893.98443
      3245.061        2528.623
  23909167.572    23909166.2374   23909171.0974  125643996.177 5  97904377.67242
     -2583.164       -2012.853
  24369757.014    24369757.0284   24369767.0524  128063958.874 5  99790109.38141
      1276.901         994.963
  20750356.721    20750355.5714   20750363.3334  109044257.745 8  84969472.21946
      1704.314        1328.033
  19841832.525    19841832.031    19841837.373   106066375.315 8  82496202.082 6
      2136.784        1661.943
  23961425.596    23961425.165    23961443.868   127862787.486 5  99448889.609 4
      4358.268        3389.703
  23492149.874    23492149.721    23492151.603   125755713.589 5  97810139.194 4
     -3400.797       -2645.069
  19955964.921    19955964.323    19955968.003   106863900.925 8  83116546.044 7
     -1769.391       -1376.193
  23148239.487    23148238.038    23148246.135   123566924.484 6  96107645.504 5
     -3397.158       -2642.224
  19567701.423    19567701.014    19567707.096   104674082.115 8  81413224.719 7
      -828.997        -644.775
  20238938.510    20238938.474    20238943.299   108226777.451 8  84176433.028 6
      3133.604        2437.239
 11 10 10 17 21 30.0000000  0 16G03G06G11G14G19G20G22G28G32R01R02R07
                                R08R22R23R24
  23186218.707    23186218.4774   23186227.4444  121844461.321 5  94943764.94442
     -3169.130       -2469.435
  24153053.852    24153054.5964   24153064.1124  126925192.413 5  98902774.51341
     -3021.342       -2354.276
  20385770.815    20385770.3874   20385775.8334  107128057.949 8  83476437.97946
      1488.626        1159.963
  22410669.186    22410668.8024   22410675.1114  117769011.511 6  91768068.74343
      -266.663        -207.785
  21036207.311    21036206.1904   21036211.6064  110546089.767 8  86139837.67946
     -1396.981       -1088.558
  22461723.135    22461722.5024   22461731.1204  118037367.141 6  91977143.71443
      3235.715        2521.333
  23923921.306    23923920.2984   23923925.2394  125721526.029 5  97964790.55941
     -2585.440       -2014.614
  24362515.871    24362514.4584   24362523.4784  128025903.951 5  99760456.19141
      1259.943         981.776
  20740671.154    20740670.0764   20740677.7044  108993360.021 8  84929811.70546
      1688.789        1315.935
  19829897.335    19829896.980    19829902.404   106002576.102 8  82446580.523 6
      2116.427        1646.105
  23936943.640    23936941.399    23936959.474   127732141.464 5  99347277.920 4
      4351.408        3384.366
  23511208.891    23511208.587    23511211.563   125857742.024 4  97889494.657 4
     -3401.171       -2645.355
  19965920.680    19965920.571    19965924.051   106917214.691 8  83158012.317 7
     -1784.926       -1388.281
  23167354.069    23167353.399    23167362.012   123668964.010 6  96187009.376 5
     -3405.504       -2648.720
  19572413.795    19572413.470    19572419.762   104699291.221 8  81432831.808 7
      -851.667        -662.411
  20221402.488    20221402.374    20221407.206   108133004.250 8  84103498.361 7
      3117.818        2424.965
