     2.11           OBSERVATION DATA    M (MIXED)           RINEX VERSION / TYPE
teqc  2012Jun6                          20151118 02:01:21UTCPGM / RUN BY / DATE
OSX ker:10.8.0|Core 2 Duo|gcc 4.2 -m64|OSX ker:10.8.0+|=+   COMMENT
     2              OBSERVATION DATA    M (MIXED)           COMMENT
CCRINEXO V2.3.3 UX  BKG Frankfurt       11-OCT-11 00:16     COMMENT
Concatenated RINEX hourly files (24/24)                     COMMENT
JPS2RIN 1.40 lnx    SAC                 10-OCT-11 01:01     COMMENT
build Feb  6 2004 (c) Javad Navigation Systems              COMMENT
Stazione Astronomica Cagliari                               COMMENT
/home/srv/htdocs/glonass/hdata/CAGZ.tps                     COMMENT
SE TPS 8b1daea3                                             COMMENT
CAGZ                                                        MARKER NAME
12725M004                                                   MARKER NUMBER
SAC                 SAC-DIST                                OBSERVER / AGENCY
AGNV7TGA2O0         TPS E_GGD           3.3 Jul,10,2008 p4  REC # / TYPE / VERS
RRA052              JPSREGANT_DD_E  NONE                    ANT # / TYPE
  4893378.7999   772650.4734  4004179.0402                  APPROX POSITION XYZ
        0.0945        0.0000        0.0000                  ANTENNA: DELTA H/E/N
     1     1                                                WAVELENGTH FACT L1/2
     7    C1    P1    P2    L1    L2    D1    D2            # / TYPES OF OBSERV
    30.0000                                                 INTERVAL
teqc windowed: start @ 2011 Oct 10 20:00:00.000             COMMENT
teqc windowed: delta = 14400.000 sec                        COMMENT
  2011    10    10    20     0    0.0000000     GPS         TIME OF FIRST OBS
    15                                                      LEAP SECONDS
                                                            END OF HEADER
 11 10 10 20  0  0.0000000  1 15G04G11G13G17G20G23G31G32R01R02R11R12
                                R17R18R24
  24250707.565    24250708.7974   24250715.7904  127438365.207 4  99302623.08041
      3875.101        3019.540
  22443406.256    22443405.5274   22443410.4704  117941009.545 6  91902115.93443
     -2620.771       -2042.158
  22209871.757    22209870.7684   22209876.6354  116714085.047 7  90945839.32844
      3616.191        2817.811
  22209701.130    22209701.2384   22209706.8674  116712833.488 7  90945084.55644
       783.120         610.217
  20429713.156    20429712.2914   20429717.7184  107359128.621 8  83656449.92546
        32.084          25.003
  20755964.728    20755963.9864   20755967.2914  109073738.313 8  84992427.37846
      2036.416        1586.817
  23624558.765    23624558.7124   23624565.5674  124147923.191 6  96738657.74442
      -181.489        -141.412
  22013612.107    22013611.2384   22013617.8984  115682731.168 7  90142313.91645
     -1429.462       -1113.870
  21424186.599    21424186.190    21424189.775   114524985.030 7  89075125.859 4
     -1876.962       -1459.860
  20079019.954    20079019.459    20079022.875   107145750.454 8  83335697.216 7
       843.668         656.188
  22159922.503    22159921.859    22159926.317   118415935.698 6  92101306.363 4
      1535.438        1194.233
  23306003.964    23306004.983    23306011.817   124496560.176 6  96830696.740 5
      4209.172        3273.800
  20081927.938    20081926.978    20081930.429   107462512.148 7  83581997.147 5
      -189.542        -147.421
  22377804.636    22377805.111    22377812.224   119454256.944 6  92908908.540 5
      3546.592        2758.459
  21879878.420    21879878.205    21879882.779   117001618.662 7  91001309.315 5
     -3660.794       -2847.280
 11 10 10 20  0 30.0000000  0 15G04G11G13G17G20G23G31G32R01R02R11R12
                                R17R18R24
  24228594.113    24228593.5864   24228600.0644  127322153.668 5  99212068.74641
      3872.504        3017.521
  22458392.798    22458392.0274   22458397.1074  118019765.109 7  91963483.89043
     -2629.430       -2048.913
  22189258.476    22189257.9884   22189263.4494  116605763.795 7  90861433.21243
      3605.374        2809.385
  22205287.131    22205287.3494   22205292.9554  116689638.968 7  90927010.91544
       763.364         594.828
  20429556.825    20429555.7604   20429561.3714  107358306.241 8  83655809.10446
        22.903          17.841
  20744383.934    20744383.3004   20744386.8844  109012882.040 8  84945006.92746
      2020.849        1574.689
  23625648.795    23625648.8194   23625653.3924  124153648.974 5  96743119.43142
      -200.029        -155.863
  22021784.494    22021783.7524   22021790.6154  115725678.128 7  90175779.07745
     -1433.475       -1116.992
  21434730.887    21434730.044    21434733.525   114581348.725 7  89118964.289 4
     -1880.427       -1462.554
  20074304.642    20074304.398    20074308.017   107120591.187 8  83316128.912 7
       833.793         648.502
  22151372.293    22151372.389    22151376.440   118370246.871 6  92065770.646 4
      1510.725        1175.003
  23282382.990    23282382.375    23282389.128   124370369.782 6  96732548.722 5
      4203.640        3269.491
  20083068.202    20083067.397    20083070.713   107468614.533 7  83586743.440 5
      -217.076        -168.836
  22357925.787    22357925.527    22357929.893   119348132.852 6  92826367.636 5
      3528.491        2744.381
  21900445.570    21900444.663    21900450.003   117111598.179 7  91086848.844 5
     -3670.946       -2855.179
 11 10 10 20  1  0.0000000  0 15G04G11G13G17G20G23G31G32R01R02R11R12
                                R17R18R24
  24206493.504    24206493.3794   24206501.9834  127206013.398 5  99121569.96241
      3869.975        3015.544
  22473427.157    22473426.8164   22473432.1304  118098772.536 7  92025048.09343
     -2637.865       -2055.471
  22168705.582    22168705.2494   22168711.5194  116497761.050 6  90777275.29044
      3594.647        2801.022
  22200984.826    22200984.7844   22200990.6194  116667029.914 7  90909393.48344
       743.783         579.580
  20429451.160    20429450.1304   20429455.7444  107357752.219 8  83655377.40046
        13.885          10.818
  20732890.904    20732890.4674   20732893.7924  108952486.213 8  84897945.25846
      2005.406        1562.654
  23626842.883    23626842.8034   23626847.3604  124159926.133 5  96748010.73542
      -218.471        -170.229
  22029978.563    22029977.5714   22029984.6854  115768738.260 7  90209332.42545
     -1437.306       -1119.981
  21445292.912    21445292.308    21445295.984   114637809.929 7  89162878.544 4
     -1883.787       -1465.167
  20069643.765    20069643.480    20069647.276   107095720.156 8  83296784.794 7
       824.142         640.997
  22142959.614    22142959.216    22142963.294   118325293.246 6  92030806.743 4
      1486.072        1155.838
  23258789.163    23258789.371    23258795.807   124244341.733 6  96634526.984 5
      4198.191        3265.255
  20084361.371    20084360.339    20084363.897   107475534.403 7  83592125.561 5
      -244.442        -190.120
  22338144.757    22338144.316    22338151.415   119242545.556 6  92744244.230 5
      3510.317        2730.244
  21921067.442    21921066.934    21921071.978   117221872.957 7  91172618.022 5
     -3680.830       -2862.868
 11 10 10 20  1 30.0000000  0 15G04G11G13G17G20G23G31G32R01R02R11R12
                                R17R18R24
  24184405.282    24184405.2804   24184413.9504  127089944.013 5  99031126.36541
      3867.911        3013.964
  22488509.466    22488508.6984   22488514.0754  118178027.864 7  92086805.47243
     -2645.823       -2061.674
  22148214.572    22148213.8124   22148219.5214  116390076.695 7  90693365.45044
      3584.274        2792.939
  22196793.512    22196793.5624   22196799.2364  116645003.904 7  90892230.37144
       724.649         564.662
  20429396.520    20429395.4534   20429400.8834  107357463.934 8  83655152.76646
         5.301           4.130
  20721485.354    20721484.6094   20721487.9944  108892549.084 8  84851241.02146
      1990.385        1550.948
  23628142.675    23628142.2574   23628147.3644  124166752.212 6  96753329.76842
      -236.543        -184.304
  22038193.646    22038192.6784   22038199.5904  115811908.689 7  90242971.72444
     -1440.733       -1122.650
  21455872.280    21455871.910    21455876.473   114694365.276 7  89206866.029 4
     -1886.589       -1467.352
  20065035.922    20065035.792    20065039.674   107071134.060 8  83277662.292 7
       814.947         633.847
  22134683.526    22134683.558    22134688.751   118281074.692 6  91996414.563 4
      1461.779        1136.928
  23235228.582    23235227.838    23235233.235   124118478.057 6  96536633.096 5
      4192.781        3261.045
  20085806.696    20085805.738    20085809.483   107483269.490 7  83598141.738 5
      -271.305        -211.013
  22318466.681    22318466.011    22318470.537   119137496.355 6  92662539.379 5
      3492.791        2716.610
  21941743.560    21941742.951    21941747.670   117332436.384 7  91258611.699 6
     -3690.104       -2870.085
 11 10 10 20  2  0.0000000  0 15G04G11G13G17G20G23G31G32R01R02R11R12
                                R17R18R24
  24162333.082    24162332.2524   24162339.3114  126973947.121 5  98940739.31341
      3865.505        3012.080
  22503637.458    22503637.1604   22503642.4314  118257528.889 6  92148754.31743
     -2653.977       -2068.026
  22127783.735    22127783.2524   22127788.3794  116282712.148 7  90609704.81944
      3573.620        2784.643
  22192713.145    22192713.1344   22192718.3924  116623560.781 7  90875521.45944
       705.215         549.520
  20429391.974    20429391.1724   20429396.4524  107357441.279 8  83655135.12446
        -3.501          -2.730
  20710166.955    20710166.4574   20710169.6204  108833071.201 8  84804894.63346
      1975.090        1539.035
  23629545.139    23629545.1694   23629550.1214  124174126.434 6  96759075.93142
      -254.764        -198.511
  22046429.912    22046428.6754   22046435.4514  115855188.536 7  90276696.28644
     -1444.340       -1125.453
  21466470.063    21466469.410    21466473.486   114751013.417 7  89250925.694 4
     -1889.666       -1469.740
  20060482.091    20060481.413    20060485.564   107046832.070 8  83258760.751 7
       805.492         626.498
  22126547.569    22126546.638    22126552.965   118237593.055 6  91962595.547 4
      1437.243        1117.855
  23211696.810    23211697.169    23211702.776   123992783.204 6  96438870.516 4
      4187.167        3256.678
  20087404.000    20087403.113    20087406.854   107491817.380 7  83604790.096 5
      -298.300        -232.009
  22298887.511    22298887.536    22298894.051   119032988.752 6  92581255.719 5
      3474.637        2702.498
  21962472.120    21962471.800    21962477.061   117443283.987 7  91344826.399 5
     -3699.454       -2877.346
 11 10 10 20  2 30.0000000  0 15G04G11G13G17G20G23G31G32R01R02R11R12
                                R17R18R24
  24140272.613    24140271.0424   24140280.9174  126858026.288 5  98850411.53441
      3862.555        3009.781
  22518813.114    22518812.5804   22518817.8234  118337275.726 7  92210894.69643
     -2662.401       -2074.596
  22107414.334    22107413.9474   22107419.6254  116175670.926 7  90526296.11944
      3562.498        2775.976
  22188743.703    22188743.6374   22188749.4694  116602702.360 7  90859268.15244
       685.424         534.088
  20429438.377    20429437.5174   20429442.9324  107357685.227 8  83655325.22046
       -12.673          -9.875
  20698936.631    20698935.8814   20698939.2464  108774054.601 8  84758907.68446
      1959.418        1526.818
  23631053.065    23631052.7364   23631058.6484  124182049.841 6  96765250.01842
      -273.299        -212.980
  22054686.588    22054685.7844   22054692.3094  115898578.775 7  90310506.86844
     -1448.276       -1128.522
  21477085.001    21477084.304    21477088.621   114807755.102 7  89295058.104 4
     -1893.044       -1472.366
  20055981.389    20055980.930    20055984.383   107022814.495 8  83240080.428 7
       795.742         618.906
  22118549.720    22118549.225    22118554.913   118194852.173 6  91929352.672 4
      1412.227        1098.395
  23188199.191    23188199.601    23188204.701   123867263.175 6  96341243.898 4
      4180.941        3251.841
  20089153.504    20089152.713    20089156.850   107501178.823 7  83612071.208 5
      -325.695        -253.319
  22279413.356    22279413.404    22279418.232   118929028.762 7  92500398.015 5
      3455.962        2687.962
  21983253.832    21983253.623    21983259.042   117554413.154 7  91431260.103 5
     -3709.017       -2884.788
 11 10 10 20  3  0.0000000  0 15G04G11G13G17G20G23G31G32R01R02R11R12
                                R17R18R24
  24118230.006    24118230.8124   24118236.5674  126742186.298 5  98760146.73541
      3859.996        3007.790
  22534035.387    22534034.7674   22534040.1654  118417269.446 7  92273227.45243
     -2670.468       -2080.877
  22087107.030    22087106.9274   22087112.6434  116068958.000 7  90443143.23144
      3551.643        2767.506
  22184886.251    22184886.3084   22184892.2934  116582431.278 7  90843472.51744
       665.956         518.924
  20429536.271    20429535.2174   20429540.5684  107358198.503 8  83655725.17846
       -21.528         -16.774
  20687795.045    20687794.1304   20687797.3604  108715503.289 8  84713283.29746
      1944.037        1514.830
  23632665.170    23632666.0164   23632670.1094  124190525.066 5  96771854.10242
      -291.666        -227.245
  22062964.749    22062963.9004   22062970.3474  115942081.694 7  90344405.24744
     -1451.872       -1131.323
  21487717.819    21487716.607    21487720.452   114864592.387 7  89339264.894 4
     -1896.125       -1474.763
  20051534.562    20051533.831    20051537.500   106999083.769 8  83221623.202 7
       786.323         611.589
  22110689.999    22110690.291    22110695.273   118152857.120 6  91896689.892 4
      1387.493        1079.162
  23164736.986    23164736.583    23164742.968   123741925.708 6  96243759.254 4
      4174.873        3247.122
  20091056.049    20091054.681    20091058.369   107511356.543 7  83619987.212 5
      -352.750        -274.359
  22260041.053    22260041.001    22260046.237   118825622.701 6  92419971.114 5
      3437.678        2673.744
  22004088.612    22004088.514    22004093.307   117665822.351 6  91517911.590 5
     -3718.201       -2891.932
 11 10 10 20  3 30.0000000  0 15G04G11G13G17G20G23G31G32R01R02R11R12
                                R17R18R24
  24096202.173    24096201.9054   24096209.3504  126626430.266 5  98669947.40041
      3856.948        3005.421
  22549304.190    22549303.6104   22549309.3464  118497508.574 7  92335751.42643
     -2678.905       -2087.462
  22066864.038    22066863.6204   22066868.8664  115962576.080 7  90360248.26944
      3540.329        2758.702
  22181141.790    22181140.7994   22181146.5464  116562748.401 7  90828135.22444
       646.144         503.496
  20429685.100    20429684.1694   20429689.6304  107358981.541 8  83656335.33546
       -30.778         -23.979
  20676741.543    20676740.9694   20676744.1574  108657418.500 8  84668022.43446
      1928.214        1502.511
  23634384.056    23634383.7044   23634387.8024  124199552.801 5  96778888.71142
      -310.307        -241.795
  22071264.528    22071263.3174   22071270.3294  115985697.596 7  90378391.65944
     -1455.911       -1134.476
  21498367.066    21498366.902    21498371.352   114921525.041 7  89383545.832 4
     -1899.512       -1477.398
  20047140.934    20047140.505    20047144.304   106975640.142 8  83203389.286 7
       776.492         603.937
  22102970.828    22102969.900    22102975.673   118111610.948 6  91864609.571 4
      1362.143        1059.445
  23141307.483    23141307.568    23141314.449   123616776.126 6  96146420.733 5
      4168.354        3242.055
  20093110.390    20093108.806    20093112.932   107522349.475 7  83628537.277 5
      -380.188        -295.702
  22240775.136    22240774.431    22240780.282   118722774.675 6  92339978.299 5
      3418.740        2659.029
  22024973.388    22024973.910    22024979.382   117777508.478 6  91604778.474 5
     -3727.607       -2899.240
 11 10 10 20  4  0.0000000  0 15G04G11G13G17G20G23G31G32R01R02R11R12
                                R17R18R24
  24074191.055    24074189.9964   24074198.6144  126510765.353 5  98579819.06341
      3854.162        3003.224
  22564620.552    22564620.3694   22564625.2694  118577996.887 6  92398469.57843
     -2686.962       -2093.741
  22046683.723    22046683.9834   22046689.5074  115856532.695 7  90277617.10144
      3529.256        2750.072
  22177508.607    22177508.1954   22177513.8344  116543658.922 7  90813260.31544
       626.529         488.206
  20429886.496    20429885.5624   20429890.9034  107360039.569 8  83657159.77346
       -39.727         -30.957
  20665778.258    20665777.5884   20665780.7304  108599806.097 8  84623129.67046
      1912.661        1490.387
  23636208.083    23636206.5934   23636212.0284  124209137.662 5  96786357.44742
      -328.639        -256.079
  22079586.448    22079585.7804   22079592.5564  116029431.142 7  90412469.74544
     -1459.596       -1137.351
  21509037.423    21509036.492    21509040.130   114978557.855 7  89427904.688 4
     -1902.655       -1479.852
  20042802.398    20042801.845    20042805.149   106952487.831 8  83185381.950 7
       767.017         596.567
  22095394.455    22095393.048    22095398.287   118071120.815 6  91833117.269 4
      1337.153        1040.011
  23117917.753    23117917.193    23117923.810   123491824.417 6  96049236.095 5
      4161.812        3236.975
  20095317.875    20095316.410    20095319.857   107534161.954 7  83637724.764 5
      -407.269        -316.765
  22221613.993    22221613.497    22221618.805   118620493.923 7  92260426.646 5
      3399.929        2644.386
  22045912.830    22045912.314    22045917.016   117889472.515 7  91691861.512 5
     -3736.598       -2906.238
 11 10 10 20  4 30.0000000  0 15G04G11G13G17G20G23G31G32R01R02R11R12
                                R17R18R24
  24052197.622    24052196.7364   24052205.6594  126395186.693 5  98489757.90941
      3851.052        3000.826
  22579982.972    22579982.4404   22579987.7724  118658725.628 6  92461375.07743
     -2695.022       -2100.009
  22026567.920    22026567.4264   22026573.4244  115750822.999 7  90195245.95144
      3518.006        2741.295
  22173986.874    22173987.0654   22173992.8614  116525155.878 7  90798842.36144
       606.943         472.939
  20430138.968    20430137.8424   20430143.1814  107361365.709 8  83658193.13046
       -48.723         -37.965
  20654903.761    20654903.0934   20654906.3884  108542660.090 8  84578600.33646
      1897.022        1478.193
  23638135.109    23638136.1414   23638140.8914  124219272.627 5  96794254.81542
      -347.089        -270.460
  22087929.890    22087928.8164   22087935.8814  116073275.018 7  90446633.79244
     -1463.343       -1140.268
  21519722.152    21519722.503    21519726.032   115035682.794 7  89472335.208 4
     -1905.753       -1482.246
  20038516.745    20038516.352    20038520.019   106929619.376 8  83167595.388 7
       757.507         589.166
  22087958.843    22087957.311    22087961.378   118031381.963 6  91802209.278 4
      1312.059        1020.492
  23094561.906    23094561.955    23094569.337   123367068.292 6  95952203.599 5
      4155.169        3231.796
  20097676.529    20097675.507    20097679.200   107546786.897 7  83647544.168 5
      -434.417        -337.882
  22202559.112    22202558.657    22202564.311   118518778.017 6  92181314.341 5
      3381.009        2629.669
  22066901.268    22066900.215    22066904.767   118001703.409 7  91779152.088 5
     -3745.487       -2913.153
 11 10 10 20  5  0.0000000  0 15G04G11G13G17G20G23G31G32R01R02R11R12
                                R17R18R24
  24030219.736    24030220.0304   24030228.7604  126279698.533 5  98399767.31841
      3848.141        2998.573
  22595390.490    22595390.1564   22595395.2584  118739695.527 6  92524468.48343
     -2702.939       -2106.181
  22006516.098    22006515.9174   22006521.9624  115645451.255 7  90113138.14544
      3506.769        2732.542
  22170578.454    22170578.2534   22170583.9504  116507241.737 7  90784883.29844
       587.360         457.680
  20430442.686    20430441.6344   20430446.8374  107362961.989 8  83659436.98846
       -57.690         -44.956
  20644118.504    20644117.7354   20644121.0384  108485983.161 8  84534436.51846
      1881.436        1466.047
  23640169.225    23640169.6174   23640174.3544  124229959.355 5  96802582.17042
      -365.402        -284.750
  22096294.745    22096294.0694   22096299.9474  116117231.119 7  90480885.29244
     -1467.026       -1143.138
  21530426.653    21530426.752    21530430.565   115092901.630 7  89516838.755 4
     -1908.778       -1484.599
  20034284.801    20034284.344    20034288.091   106907036.364 8  83150030.842 7
       748.053         581.820
  22080663.203    22080663.221    22080667.161   117992398.663 6  91771888.972 4
      1286.869        1000.896
  23071243.598    23071244.444    23071252.273   123242514.581 6  95855328.548 5
      4148.383        3226.519
  20100187.855    20100186.949    20100190.116   107560224.714 7  83657995.805 5
      -461.418        -358.883
  22183611.671    22183610.484    22183615.745   118417632.255 6  92102645.464 5
      3361.994        2614.883
  22087937.235    22087937.522    22087942.745   118114199.155 6  91866648.657 5
     -3754.196       -2919.929
 11 10 10 20  5 30.0000000  0 15G04G11G13G17G20G23G31G32R01R02R11R12
                                R17R18R24
  24008262.428    24008262.6064   24008268.9044  126164308.062 5  98309852.78941
      3844.745        2995.897
  22610845.973    22610845.0974   22610850.3234  118820910.117 6  92587752.55843
     -2711.165       -2112.599
  21986530.266    21986529.5904   21986536.1884  115540424.324 7  90031299.02344
      3495.163        2723.491
  22167282.517    22167282.1164   22167287.8524  116489921.503 7  90771387.02744
       567.444         442.165
  20430798.573    20430797.5724   20430802.9264  107364833.122 8  83660895.01446
       -66.923         -52.151
  20633423.646    20633422.9294   20633425.9204  108429781.109 8  84490642.72746
      1865.505        1453.639
  23642309.107    23642309.9604   23642313.7844  124241202.733 5  96811343.24842
      -383.980        -299.207
  22104681.496    22104680.7254   22104687.0014  116161303.662 7  90515227.52744
     -1471.031       -1146.263
  21541149.159    21541148.784    21541153.770   115150218.297 7  89561418.387 4
     -1912.144       -1487.223
  20030106.460    20030106.111    20030110.432   106884742.670 8  83132691.308 7
       738.305         574.235
  22073510.562    22073509.954    22073514.331   117954177.910 6  91742161.757 4
      1261.308         981.010
  23047967.680    23047967.635    23047974.839   123118173.183 6  95758618.624 5
      4141.134        3220.879
  20102851.387    20102850.247    20102853.968   107574478.722 7  83669082.254 5
      -488.660        -380.071
  22164771.358    22164770.919    22164776.798   118317065.683 6  92024427.077 5
      3342.572        2599.771
  22109024.141    22109024.001    22109029.904   118226960.486 6  91954351.784 5
     -3763.077       -2926.837
 11 10 10 20  6  0.0000000  0 15G04G11G13G17G20G23G31G32R01R02R11R12
                                R17R18R24
  23986321.026    23986320.8344   23986328.2604  126049006.888 5  98220007.86741
      3841.861        2993.638
  22626344.560    22626344.2464   22626348.2774  118902356.867 6  92651217.53543
     -2718.595       -2118.373
  21966608.227    21966608.3744   21966614.3744  115435733.665 7  89949721.92244
      3484.195        2714.962
  22164097.383    22164097.2854   22164102.4424  116473184.342 7  90758345.08544
       548.287         427.234
  20431205.017    20431204.0794   20431209.2454  107366968.542 8  83662558.98046
       -75.450         -58.790
  20622816.908    20622816.3844   20622819.5364  108374044.111 8  84447211.31546
      1850.323        1441.812
  23644552.599    23644551.8714   23644556.4404  124252991.492 5  96820529.30042
      -401.949        -313.216
  22113087.773    22113087.2584   22113093.8834  116205481.867 7  90549652.09944
     -1474.226       -1148.745
  21551887.804    21551887.128    21551891.187   115207621.570 7  89606065.363 4
     -1914.762       -1489.258
  20025981.233    20025980.740    20025984.385   106862727.322 8  83115568.280 7
       729.336         567.258
  22066498.715    22066498.319    22066503.208   117916711.200 6  91713021.000 4
      1236.440         961.682
  23024730.803    23024729.540    23024736.369   122994037.975 6  95662069.077 5
      4134.506        3215.726
  20105665.789    20105664.651    20105668.443   107589537.168 7  83680794.380 5
      -515.186        -400.704
  22146039.176    22146038.681    22146044.245   118217071.529 7  91946653.920 5
      3323.728        2585.119
  22130158.261    22130157.825    22130163.959   118339972.797 6  92042250.104 5
     -3771.089       -2933.066
 11 10 10 20  6 30.0000000  0 15G04G11G13G17G20G23G31G32R01R02R11R12
                                R17R18R24
  23964398.770    23964398.0604   23964406.7454  125933803.207 5  98130238.87541
      3838.334        2990.899
  22641888.289    22641887.4484   22641892.2414  118984039.904 6  92714866.64143
     -2726.786       -2124.772
  21946752.284    21946751.9654   21946757.7864  115331387.480 7  89868413.24444
      3472.366        2705.742
  22161024.634    22161024.5544   22161029.6094  116457036.372 7  90745762.25644
       528.342         411.702
  20431662.927    20431661.9084   20431667.3594  107369374.364 8  83664433.64646
       -84.776         -66.058
  20612300.218    20612299.6654   20612302.9144  108318778.571 8  84404147.27346
      1834.212        1429.259
  23646901.054    23646901.2144   23646905.7514  124265331.428 6  96830144.84242
      -420.566        -327.711
  22121516.013    22121515.5834   22121522.1604  116249771.392 7  90584163.41444
     -1478.295       -1151.915
  21562643.700    21562643.215    21562646.648   115265116.675 7  89650783.767 4
     -1918.128       -1491.878
  20021908.595    20021907.927    20021911.947   106840995.742 8  83098665.943 7
       719.569         559.670
  22059629.290    22059629.325    22059634.325   117880006.646 6  91684473.026 4
      1210.683         941.648
  23001532.747    23001532.599    23001537.688   122870119.880 6  95565688.421 5
      4126.850        3209.773
  20108630.666    20108629.859    20108633.435   107605405.087 7  83693136.100 5
      -542.515        -421.961
  22127415.591    22127415.724    22127421.118   118117659.696 7  91869333.636 5
      3303.844        2569.656
  22151339.674    22151339.386    22151345.181   118453238.116 6  92130345.217 5
     -3779.821       -2939.858
 11 10 10 20  7  0.0000000  0 15G04G11G13G17G20G23G31G32R01R02R11R12
                                R17R18R24
  23942494.157    23942492.2394   23942500.1844  125818693.904 5  98040543.44541
      3835.404        2988.615
  22657475.926    22657475.2464   22657480.3324  119065952.702 6  92778694.77843
     -2734.273       -2130.613
  21926961.645    21926960.5914   21926965.7514  115227382.520 7  89787370.46444
      3461.101        2696.952
  22158062.573    22158062.3354   22158067.8044  116441472.300 7  90733634.41744
       509.057         396.672
  20432171.139    20432170.1294   20432175.5884  107372045.168 8  83666514.79246
       -93.467         -72.835
  20601872.611    20601871.9704   20601875.3124  108263980.600 8  84361447.56746
      1818.775        1417.226
  23649352.743    23649353.7764   23649357.2714  124278216.691 5  96840185.32042
      -438.645        -341.806
  22129964.641    22129963.5454   22129970.5064  116294166.582 7  90618757.05644
     -1481.612       -1154.497
  21573415.086    21573414.718    21573418.051   115322698.047 7  89695569.280 4
     -1920.840       -1493.991
  20017888.239    20017887.806    20017891.249   106819541.966 8  83081979.677 7
       710.500         552.605
  22052903.079    22052902.732    22052907.455   117844061.004 6  91656515.294 4
      1185.482         922.036
  22978375.191    22978374.930    22978380.591   122746418.463 6  95469476.293 5
      4119.729        3204.234
  20111746.236    20111745.648    20111748.867   107622076.901 7  83706103.065 5
      -569.094        -442.627
  22108900.481    22108900.700    22108907.735   118018828.814 7  91792465.232 6
      3284.510        2554.616
  22172566.172    22172566.851    22172571.769   118566746.945 6  92218629.716 5
     -3787.650       -2945.952
 11 10 10 20  7 30.0000000  0 15G04G11G13G17G20G23G31G32R01R02R11R12
                                R17R18R24
  23920607.998    23920607.1164   23920616.1264  125703684.653 5  97950925.96941
      3831.775        2985.843
  22673107.435    22673107.1574   22673112.0474  119148096.618 6  92842703.00443
     -2742.010       -2136.622
  21907234.919    21907235.0674   21907240.4654  115123724.211 7  89706597.78344
      3449.405        2687.844
  22155212.241    22155212.3224   22155217.9794  116426495.128 7  90721963.90144
       489.390         381.346
  20432730.295    20432729.3314   20432734.8224  107374984.098 8  83668804.86846
      -102.493         -79.862
  20591534.636    20591533.9344   20591537.2144  108209653.646 8  84319114.88746
      1802.960        1404.909
  23651908.460    23651908.7114   23651913.9454  124291650.532 5  96850653.26742
      -457.073        -356.180
  22138433.112    22138432.0614   22138438.9344  116338670.358 7  90653435.32344
     -1485.333       -1157.398
  21584203.430    21584202.924    21584207.503   115380368.000 7  89740423.675 4
     -1923.879       -1496.346
  20013919.935    20013919.792    20013923.238   106798368.706 8  83065511.597 7
       701.044         545.255
  22046320.115    22046318.631    22046323.922   117808879.259 6  91629151.734 4
      1159.859         902.114
  22955260.455    22955259.658    22955266.133   122622941.828 6  95373438.985 5
      4111.993        3198.213
  20115012.616    20115011.308    20115014.606   107639552.831 7  83719695.450 5
      -595.994        -463.547
  22090497.924    22090497.674    22090502.886   117920586.078 7  91716054.279 5
      3264.897        2539.364
  22193840.085    22193839.123    22193843.468   118680498.436 7  92307102.945 5
     -3795.749       -2952.248
 11 10 10 20  8  0.0000000  0 15G04G11G13G17G20G23G31G32R01R02R11R12
                                R17R18R24
  23898741.889    23898740.6114   23898750.4824  125588774.042 5  97861385.30941
      3828.730        2983.424
  22688781.539    22688781.0254   22688786.7164  119230466.658 6  92906887.43243
     -2749.458       -2142.440
  21887575.361    21887574.9904   21887580.3614  115020410.994 7  89626094.00644
      3437.983        2678.944
  22152473.260    22152473.2804   22152478.4364  116412101.518 7  90710748.10344
       470.029         366.257
  20433340.132    20433338.9604   20433344.3954  107378187.700 8  83671301.18446
      -111.219         -86.662
  20581285.915    20581285.2154   20581288.3774  108155795.250 8  84277147.32046
      1787.445        1392.815
  23654570.448    23654569.7924   23654574.6084  124305628.945 5  96861545.54842
      -474.896        -370.037
  22146922.289    22146920.9324   22146927.7344  116383278.855 7  90688195.19444
     -1488.691       -1160.013
  21595008.433    21595007.792    21595011.251   115438122.544 7  89785343.861 4
     -1926.578       -1498.444
  20010004.343    20010003.849    20010007.554   106777471.882 8  83049258.522 7
       691.948         538.178
  22039877.316    22039877.748    22039883.003   117774459.882 6  91602381.156 4
      1134.526         882.404
  22932186.275    22932186.668    22932193.741   122499691.055 6  95277577.321 5
      4104.474        3192.368
  20118427.512    20118426.520    20118430.011   107657829.066 7  83733910.301 5
      -622.562        -484.214
  22072203.051    22072202.380    22072208.945   117822930.972 7  91640100.362 6
      3245.281        2524.103
  22215154.832    22215155.133    22215159.888   118794485.195 6  92395759.156 5
     -3803.502       -2958.275
 11 10 10 20  8 30.0000000  0 15G04G11G13G17G20G23G31G32R01R02R11R12
                                R17R18R24
  23876894.410    23876893.7054   23876901.3484  125473961.596 5  97771921.20241
      3825.389        2980.809
  22704498.486    22704498.0054   22704504.0434  119313058.396 6  92971244.60343
     -2756.816       -2148.168
  21867980.881    21867980.4744   21867985.9274  114917442.128 7  89545858.56344
      3426.495        2670.003
  22149844.901    22149844.9234   22149850.5354  116398288.449 7  90699984.68144
       450.686         351.187
  20433999.494    20433998.5414   20434003.9404  107381653.219 8  83674001.59346
      -119.930         -93.454
  20571125.664    20571124.9504   20571127.9504  108102402.936 8  84235542.93546
      1771.890        1380.692
  23657333.074    23657332.3604   23657336.4344  124320148.594 6  96872859.57342
      -493.062        -384.202
  22155429.958    22155429.0434   22155435.4174  116427988.882 7  90723034.17444
     -1492.079       -1162.658
  21605827.402    21605826.748    21605830.317   115495957.972 7  89830326.956 4
     -1929.269       -1500.542
  20006139.237    20006138.854    20006142.375   106756847.935 8  83033217.688 7
       682.867         531.119
  22033579.933    22033579.589    22033583.157   117740801.709 6  91576202.604 4
      1109.224         862.731
  22909155.796    22909155.640    22909163.612   122376668.108 6  95181892.875 5
      4096.770        3186.367
  20121991.953    20121990.710    20121994.417   107676901.070 7  83748744.079 5
      -649.044        -504.812
  22054018.630    22054018.911    22054024.732   117725865.336 7  91564604.918 5
      3225.572        2508.778
  22236514.765    22236513.940    22236519.079   118908700.145 6  92484592.838 5
     -3811.000       -2964.111
 11 10 10 20  9  0.0000000  0 15G04G11G13G17G20G23G31G32R01R02R11R12
                                R17R18R24
  23855063.805    23855065.8004   23855070.4544  125359251.333 5  97682536.66041
      3822.158        2978.304
  22720257.323    22720256.2624   22720262.3334  119395871.620 6  93035774.36743
     -2763.969       -2153.738
  21848452.352    21848452.3714   21848457.1214  114814821.507 7  89465894.48344
      3414.993        2661.029
  22147327.409    22147327.1844   22147332.5554  116385057.662 7  90689674.97844
       431.463         336.197
  20434709.084    20434708.0844   20434713.5204  107385382.249 8  83676907.33546
      -128.558        -100.176
  20561054.547    20561053.8024   20561056.7774  108049479.133 8  84194303.62746
      1756.458        1368.671
  23660198.222    23660198.7794   23660202.6894  124335210.533 6  96884596.16642
      -510.969        -398.154
  22163957.450    22163956.5604   22163962.9104  116472801.910 7  90757953.42444
     -1495.335       -1165.194
  21616662.233    21616661.194    21616664.828   115553875.674 7  89875374.055 4
     -1931.797       -1502.505
  20002325.956    20002325.498    20002328.825   106736498.145 8  83017390.092 7
       673.904         524.145
  22027424.423    22027423.763    22027428.462   117707908.448 6  91550618.970 4
      1083.776         842.934
  22886170.518    22886169.567    22886177.151   122253879.668 6  95086390.796 5
      4089.163        3180.457
  20125704.828    20125703.953    20125706.832   107696769.618 7  83764197.398 5
      -675.398        -525.308
  22035946.644    22035946.934    22035953.035   117629393.818 7  91489571.580 5
      3205.970        2493.531
  22257915.858    22257915.210    22257919.826   119023140.987 6  92573602.208 5
     -3818.302       -2969.782
 11 10 10 20  9 30.0000000  0 15G04G11G13G17G20G23G31G32R01R02R11R12
                                R17R18R24
  23833255.991    23833253.9844   23833260.9654  125244644.163 5  97593232.43841
      3818.638        2975.564
  22736057.351    22736056.6534   22736062.4914  119478903.630 6  93100474.62343
     -2771.308       -2159.459
  21828990.826    21828990.9764   21828995.8084  114712550.075 7  89386202.49944
      3403.243        2651.870
  22144919.878    22144919.9374   22144925.2674  116372407.586 7  90679817.78044
       412.052         321.074
  20435468.787    20435467.7194   20435473.0864  107389373.557 8  83680017.44846
      -137.371        -107.043
  20551072.409    20551071.7464   20551074.8654  107997023.311 8  84153428.98146
      1740.785        1356.452
  23663168.310    23663167.4484   23663173.6704  124350813.427 6  96896754.25042
      -529.069        -412.259
  22172504.350    22172503.5294   22172509.7604  116517716.390 7  90792951.71944
     -1498.774       -1167.875
  21627511.141    21627511.062    21627514.888   115611873.713 7  89920483.630 4
     -1934.579       -1504.675
  19998563.491    19998562.818    19998566.627   106716420.535 8  83001774.179 7
       664.762         517.041
  22021412.268    22021411.390    22021415.906   117675780.759 6  91525630.756 4
      1058.193         823.036
  22863227.869    22863228.337    22863235.318   122131329.081 6  94991073.734 5
      4081.029        3174.132
  20129566.303    20129564.905    20129568.496   107717431.570 7  83780267.808 5
      -701.894        -545.918
  22017986.710    22017986.627    22017991.687   117533519.296 7  91415002.558 5
      3185.881        2477.904
  22279356.785    22279357.142    22279362.177   119137802.320 6  92662783.052 5
     -3825.639       -2975.491
 11 10 10 20 10  0.0000000  0 15G04G11G13G17G20G23G31G32R01R02R11R12
                                R17R18R24
  23811467.359    23811465.7344   23811473.2964  125130141.888 5  97504010.01941
      3815.127        2972.820
  22751899.379    22751898.2164   22751904.5994  119562152.222 6  93165343.63543
     -2778.403       -2164.994
  21809596.486    21809595.9714   21809601.1604  114610629.168 7  89306783.64644
      3391.632        2642.821
  22142622.801    22142622.9594   22142628.3644  116360337.465 7  90670412.50044
       392.793         306.073
  20436277.928    20436276.8864   20436282.4414  107393626.842 8  83683331.70146
      -146.020        -113.782
  20541179.369    20541178.7404   20541181.8664  107945035.611 8  84112919.10046
      1725.242        1344.344
  23666239.796    23666239.3934   23666244.9344  124366956.075 5  96909332.94942
      -546.967        -426.204
  22181070.784    22181069.6064   22181076.1144  116562731.505 7  90828028.42944
     -1502.056       -1170.435
  21638376.386    21638375.705    21638379.315   115669951.067 7  89965654.899 4
     -1937.094       -1506.626
  19994851.428    19994851.052    19994854.670   106696614.192 8  82986369.258 7
       655.812         510.075
  22015541.838    22015541.880    22015548.075   117644419.873 6  91501238.994 4
      1032.679         803.196
  22840331.556    22840332.122    22840338.392   122009021.081 6  94895945.350 5
      4072.907        3167.813
  20133574.886    20133574.056    20133577.413   107738885.224 7  83796953.980 5
      -728.159        -566.343
  22000137.840    22000137.908    22000143.694   117438244.774 6  91340900.198 5
      3165.853        2462.328
  22300840.355    22300839.923    22300845.381   119252679.806 6  92752132.024 5
     -3832.689       -2980.972
 11 10 10 20 10 30.0000000  0 15G04G11G13G17G20G23G31G32R01R02R11R12
                                R17R18R24
  23789698.973    23789698.3984   23789705.2284  125015750.649 5  97414874.06741
      3811.300        2969.841
  22767782.543    22767781.3624   22767788.4874  119645619.470 6  93230383.03143
     -2785.781       -2170.740
  21790269.187    21790268.9784   21790274.3724  114509064.610 7  89227642.46844
      3379.552        2633.414
  22140437.531    22140436.9204   22140442.8234  116348850.992 7  90661462.01044
       373.247         290.833
  20437137.827    20437136.7594   20437142.3744  107398145.536 8  83686852.76546
      -154.982        -120.765
  20531376.346    20531375.6564   20531378.6304  107893520.379 8  84072777.37746
      1709.361        1331.968
  23669414.342    23669414.4654   23669418.3804  124383641.770 5  96922334.82442
      -565.179        -440.401
  22189656.407    22189655.1304   22189662.4984  116607850.805 7  90863186.30844
     -1505.667       -1173.243
  21649256.024    21649255.185    21649259.490   115728111.096 7  90010890.461 4
     -1939.990       -1508.872
  19991191.001    19991190.686    19991194.404   106677082.160 8  82971177.692 7
       646.558         502.877
  22009817.760    22009817.626    22009823.490   117613831.353 6  91477447.938 4
      1006.793         783.062
  22817482.837    22817483.151    22817488.922   121886964.061 6  94801012.162 5
      4064.395        3161.203
  20137732.629    20137731.548    20137734.871   107761132.470 7  83814257.390 5
      -754.742        -587.023
  21982404.303    21982404.030    21982409.064   117343578.096 7  91267270.613 5
      3145.479        2446.483
  22322363.947    22322363.595    22322368.984   119367773.310 6  92841648.981 5
     -3839.940       -2986.611
 11 10 10 20 11  0.0000000  0 15G04G11G13G17G20G23G31G32R01R02R11R12
                                R17R18R24
  23767951.904    23767952.1834   23767959.6234  124901472.613 5  97325826.35841
      3807.383        2966.750
  22783707.566    22783706.5764   22783712.0294  119729303.621 6  93295591.44043
     -2793.003       -2176.360
  21771010.055    21771009.9014   21771015.2864  114407858.367 7  89148780.48344
      3367.660        2624.146
  22138362.104    22138362.3064   22138368.3154  116337947.897 7  90652966.10344
       353.824         275.712
  20438048.207    20438047.1554   20438052.6264  107402929.551 8  83690580.57046
      -163.804        -127.639
  20521663.204    20521662.6464   20521665.6894  107842478.135 8  84033004.21446
      1693.617        1319.702
  23672692.557    23672693.1114   23672697.9994  124400869.597 5  96935759.10842
      -583.190        -454.448
  22198261.838    22198260.8634   22198268.0024  116653073.632 7  90898424.85444
     -1509.073       -1175.901
  21660151.696    21660151.250    21660154.457   115786353.017 7  90056189.726 4
     -1942.646       -1510.948
  19987582.271    19987581.754    19987585.467   106657823.787 8  82956198.963 7
       637.469         495.803
  22004239.653    22004239.253    22004243.960   117584016.740 6  91454258.800 4
       980.979         762.979
  22794681.167    22794681.834    22794687.306   121765162.598 6  94706277.743 5
      4055.875        3154.567
  20142038.103    20142037.053    20142040.253   107784172.310 7  83832177.262 5
      -781.097        -607.517
  21964783.489    21964783.751    21964789.384   117249522.731 6  91194116.487 5
      3125.012        2430.563
  22343926.400    22343926.172    22343931.860   119483078.354 6  92931330.465 5
     -3846.897       -2992.019
 11 10 10 20 11 30.0000000  0 15G04G11G13G17G20G23G31G32R01R02R11R12
                                R17R18R24
  23746228.615    23746227.8154   23746236.1554  124787314.026 5  97236871.71341
      3803.170        2963.501
  22799673.368    22799672.9734   22799678.7204  119813207.001 6  93360970.67943
     -2800.497       -2182.199
  21751820.783    21751820.2294   21751826.1714  114307016.215 7  89070202.21944
      3355.243        2614.469
  22136399.340    22136399.4044   22136405.1234  116327631.887 7  90644927.66144
       334.023         260.271
  20439009.908    20439008.8204   20439014.2434  107407983.016 8  83694518.33746
      -172.995        -134.804
  20512041.238    20512040.6764   20512043.6214  107791913.432 8  83993603.16446
      1677.453        1307.104
  23676076.039    23676075.6094   23676079.4914  124418643.445 6  96949608.88542
      -601.637        -468.808
  22206887.986    22206887.0104   22206893.9984  116698403.945 7  90933747.15744
     -1512.878       -1178.859
  21671063.048    21671062.569    21671066.708   115844680.205 7  90101555.291 4
     -1945.759       -1513.371
  19984025.136    19984024.726    19984028.097   106638842.536 8  82941435.775 7
       627.992         488.439
  21998804.827    21998805.420    21998810.200   117554981.652 6  91431675.971 4
       954.755         742.583
  22771930.123    22771929.178    22771935.849   121643625.759 6  94611749.150 5
      4046.736        3147.460
  20146492.527    20146491.125    20146494.486   107808006.579 7  83850715.029 5
      -807.777        -628.273
  21947279.782    21947280.262    21947285.380   117156086.590 6  91121443.975 5
      3104.116        2414.307
  22365528.290    22365528.408    22365534.355   119598595.158 6  93021176.629 5
     -3854.080       -2997.612
 11 10 10 20 12  0.0000000  0 15G04G11G13G17G20G23G31G32R01R02R11R12
                                R17R18R24
  23724527.084    23724527.0014   23724532.4674  124673273.145 5  97148008.76941
      3799.499        2960.646
  22815680.409    22815679.6484   22815685.8414  119897323.991 6  93426516.36143
     -2807.336       -2187.537
  21732699.983    21732699.5064   21732705.4214  114206536.364 7  88991906.27044
      3343.367        2605.222
  22134546.936    22134547.2064   22134552.6994  116317898.612 7  90637343.29844
       314.810         245.305
  20440021.966    20440020.9814   20440026.4314  107413301.907 8  83698662.93046
      -181.619        -141.522
  20502509.510    20502508.7074   20502511.7894  107741822.644 8  83954571.39146
      1661.879        1294.969
  23679560.422    23679560.1484   23679564.5924  124436958.397 6  96963880.27542
      -619.405        -482.663
  22215533.808    22215533.0864   22215539.3584  116743837.257 7  90969149.73644
     -1516.056       -1181.345
  21681988.577    21681988.290    21681992.441   115903088.239 7  90146983.754 4
     -1948.188       -1515.250
  19980519.312    19980518.809    19980522.187   106620133.914 8  82926884.630 7
       619.194         481.597
  21993517.741    21993516.957    21993521.347   117526723.623 6  91409697.505 4
       929.060         722.595
  22749226.842    22749226.413    22749233.447   121522354.200 6  94517426.865 5
      4038.022        3140.684
  20151093.784    20151092.527    20151095.509   107832629.560 7  83869866.232 5
      -833.806        -648.510
  21929892.648    21929892.132    21929897.724   117063268.337 7  91049252.056 5
      3083.693        2398.427
  22387168.866    22387168.961    22387174.633   119714315.552 6  93111181.134 5
     -3860.621       -3002.697
 11 10 10 20 12 30.0000000  0 15G04G11G13G17G20G23G31G32R01R02R11R12
                                R17R18R24
  23702848.449    23702847.4874   23702854.9094  124559354.435 5  97059241.03441
      3795.063        2957.169
  22831728.269    22831727.6174   22831733.1744  119981654.907 6  93492228.74243
     -2814.702       -2193.266
  21713648.585    21713648.5294   21713654.3474  114106422.927 7  88913895.82744
      3330.872        2595.492
  22132806.128    22132805.9894   22132811.9264  116308749.775 7  90630214.33744
       295.114         229.964
  20441085.128    20441084.1244   20441089.5214  107418888.276 8  83703015.94446
      -190.780        -148.662
  20493068.138    20493067.3734   20493070.3524  107692208.535 9  83915911.05946
      1645.733        1282.381
  23683148.866    23683147.8344   23683152.9694  124455816.018 5  96978574.51742
      -637.714        -496.926
  22224199.843    22224198.6944   22224205.5664  116789375.656 7  91004634.19144
     -1519.785       -1184.244
  21692930.645    21692930.373    21692934.406   115961578.901 7  90192476.478 4
     -1951.200       -1517.596
  19977064.459    19977063.932    19977067.572   106601699.422 8  82912546.705 7
       609.778         474.270
  21988375.200    21988374.849    21988380.063   117499246.265 6  91388326.265 4
       902.814         702.185
  22726574.585    22726575.544    22726582.353   121401355.084 6  94423316.476 5
      4028.562        3133.328
  20155841.915    20155841.369    20155844.709   107858041.953 7  83889631.426 5
      -860.336        -669.150
  21912621.354    21912621.538    21912626.595   116971074.987 7  90977546.134 5
      3062.588        2382.011
  22408848.315    22408847.503    22408852.669   119830237.829 6  93201342.642 5
     -3867.529       -3008.071
 11 10 10 20 13  0.0000000  0 15G04G11G13G17G20G23G31G32R01R02R11R12
                                R17R18R24
  23681194.672    23681193.4464   23681201.0254  124445565.018 5  96970574.04341
      3790.858        2953.904
  22847817.903    22847816.8144   22847821.9394  120066202.925 6  93558110.28743
     -2821.809       -2198.807
  21694668.395    21694668.5994   21694674.2664  114006682.313 7  88836175.90544
      3318.523        2585.859
  22131177.235    22131177.2394   22131182.8804  116300190.264 7  90623544.58544
       275.574         214.735
  20442199.802    20442198.9304   20442204.2594  107424746.954 8  83707581.14846
      -199.761        -155.660
  20483718.787    20483717.9254   20483720.7954  107643076.419 8  83877626.31046
      1629.789        1269.967
  23686841.518    23686841.9404   23686846.6724  124475220.512 5  96993694.91442
      -655.894        -511.100
  22232886.324    22232885.2714   22232892.3004  116835023.435 7  91040203.88744
     -1523.359       -1187.026
  21703889.694    21703889.055    21703892.747   116020156.304 7  90238036.670 4
     -1953.955       -1519.739
  19973662.055    19973661.603    19973665.198   106583543.405 8  82898425.373 7
       600.640         467.159
  21983380.896    21983380.477    21983385.700   117472556.130 6  91367567.302 4
       876.620         681.816
  22703977.024    22703976.953    22703984.377   121280637.887 6  94329425.348 5
      4019.276        3126.096
  20160739.495    20160738.363    20160742.163   107884247.290 7  83910013.354 5
      -886.641        -689.608
  21895469.471    21895468.932    21895474.859   116879514.248 7  90906332.278 6
      3041.514        2365.621
  22430564.329    22430563.396    22430569.196   119946362.650 6  93291661.687 5
     -3874.105       -3013.188
 11 10 10 20 13 30.0000000  0 15G04G11G13G17G20G23G31G32R01R02R11R12
                                R17R18R24
  23659567.488    23659568.1604   23659572.7214  124331911.483 5  96882012.94341
      3786.112        2950.191
  22863948.130    22863947.1644   22863952.4704  120150970.329 6  93624162.78943
     -2829.264       -2204.620
  21675761.120    21675760.5704   21675766.2824  113907320.932 7  88758751.48744
      3305.656        2575.829
  22129662.002    22129661.3514   22129666.9044  116292223.360 7  90617336.61644
       255.630         199.192
  20443367.359    20443366.3244   20443371.6044  107430882.018 8  83712361.72046
      -209.171        -162.991
  20474461.619    20474460.9014   20474463.9084  107594430.977 8  83839720.78546
      1613.343        1257.149
  23690639.112    23690638.5444   23690643.3844  124495175.422 6  97009244.20642
      -674.426        -525.519
  22241594.243    22241593.1334   22241600.1604  116880784.691 7  91075862.01244
     -1527.317       -1190.119
  21714863.840    21714863.260    21714868.438   116078824.269 7  90283667.312 4
     -1957.205       -1522.277
  19970312.552    19970312.139    19970315.556   106565669.579 8  82884523.512 7
       591.059         459.715
  21978534.138    21978534.048    21978538.739   117446658.751 6  91347424.922 4
       849.959         661.078
  22681432.825    22681433.014    22681440.155   121160211.836 6  94235760.670 5
      4009.295        3118.341
  20165785.367    20165784.215    20165787.415   107911247.919 7  83931013.834 5
      -913.299        -710.345
  21878436.722    21878436.434    21878441.866   116788594.264 7  90835616.776 5
      3019.861        2348.778
  22452317.222    22452317.203    22452323.502   120062690.354 6  93382138.511 5
     -3880.992       -3018.533
 11 10 10 20 14  0.0000000  0 15G04G11G13G17G20G23G31G32R01R02R11R12
                                R17R18R24
  23637966.656    23637964.3484   23637973.7654  124218392.240 5  96793556.47941
      3781.787        2946.853
  22880118.850    22880118.6924   22880123.2774  120235951.579 6  93690381.92043
     -2836.120       -2209.965
  21656924.535    21656924.4614   21656929.9284  113808336.919 7  88681621.12344
      3293.289        2566.194
  22128257.500    22128257.0864   22128263.0064  116284845.054 7  90611587.29244
       236.239         184.086
  20444586.539    20444585.5294   20444590.9244  107437289.693 8  83717354.71346
      -218.011        -169.882
  20465296.577    20465295.9984   20465299.0374  107546268.980 8  83802191.96746
      1597.460        1244.774
  23694539.354    23694539.7304   23694543.7504  124515676.074 6  97025218.74242
      -692.355        -539.505
  22250322.693    22250321.8244   22250329.0324  116926655.182 7  91111605.24444
     -1530.700       -1192.752
  21725855.345    21725854.653    21725859.555   116137578.481 6  90329365.021 4
     -1959.738       -1524.242
  19967014.961    19967014.529    19967017.912   106548073.407 8  82870837.608 7
       582.058         452.711
  21973835.286    21973835.095    21973839.445   117421551.603 6  91327897.154 4
       823.806         640.735
  22658945.015    22658943.806    22658950.620   121040077.920 6  94142323.219 5
      3999.711        3110.885
  20170978.380    20170977.081    20170980.800   107939037.454 7  83952627.913 5
      -939.353        -730.609
  21861523.118    21861523.605    21861529.273   116698315.142 7  90765399.726 5
      2998.645        2332.273
  22474107.341    22474107.832    22474113.546   120179213.027 6  93472766.945 5
     -3887.134       -3023.313
 11 10 10 20 14 30.0000000  0 15G04G11G13G17G20G23G31G32R01R02R11R12
                                R17R18R24
  23616388.742    23616388.3374   23616395.9384  124105004.170 5  96705202.22941
      3777.343        2943.395
  22896330.337    22896329.4754   22896334.2114  120321139.915 6  93756762.41743
     -2843.026       -2215.329
  21638159.648    21638159.4374   21638164.9394  113709726.636 7  88604781.97744
      3280.740        2556.425
  22126963.808    22126963.9994   22126969.3404  116278049.520 7  90606292.06844
       216.806         168.947
  20445856.957    20445855.8184   20445861.1304  107443964.615 8  83722555.95146
      -226.965        -176.852
  20456222.728    20456222.1114   20456225.3174  107498585.575 8  83765036.07446
      1581.454        1232.300
  23698543.379    23698543.0814   23698548.4644  124536716.248 5  97041613.68242
      -710.292        -553.467
  22259071.336    22259070.4844   22259077.6004  116972629.415 7  91147429.31844
     -1534.219       -1195.492
  21736861.549    21736860.987    21736865.958   116196412.994 7  90375125.181 4
     -1962.514       -1526.395
  19963768.723    19963768.038    19963771.361   106530748.921 8  82857363.018 7
       572.940         445.618
  21969284.036    21969283.476    21969288.457   117397230.790 6  91308980.994 4
       797.550         620.311
  22636508.598    22636508.744    22636515.370   120920235.336 6  94049112.364 5
      3989.833        3103.201
  20176317.296    20176316.507    20176320.093   107967609.209 7  83974850.372 5
      -965.414        -750.877
  21844731.613    21844731.219    21844736.279   116608674.054 7  90695678.897 5
      2977.330        2315.701
  22495932.918    22495933.014    22495938.962   120295921.029 6  93563539.504 5
     -3893.340       -3028.143
 11 10 10 20 15  0.0000000  0 15G04G11G13G17G20G23G31G32R01R02R11R12
                                R17R18R24
  23594834.998    23594835.6144   23594843.2564  123991745.810 5  96616949.06041
      3773.062        2940.005
  22912580.169    22912578.4984   22912583.6374  120406529.491 6  93823299.73443
     -2849.675       -2220.532
  21619465.615    21619465.5234   21619470.8004  113611488.419 7  88528232.74644
      3268.369        2546.783
  22125780.900    22125780.6234   22125786.5434  116271832.525 7  90601447.65544
       197.612         153.977
  20447177.144    20447176.1374   20447181.5674  107450902.860 8  83727962.37846
      -235.680        -183.648
  20447239.180    20447238.6364   20447241.7734  107451377.016 8  83728250.19646
      1565.673        1220.005
  23702649.618    23702649.2464   23702653.1694  124558291.429 5  97058425.51142
      -728.010        -567.281
  22267839.482    22267838.3404   22267845.2874  117018702.995 7  91183330.80544
     -1537.454       -1198.022
  21747882.025    21747881.894    21747886.070   116255323.106 7  90420944.146 4
     -1964.934       -1528.281
  19960571.577    19960571.234    19960575.181   106513691.509 8  82844096.148 7
       564.149         438.783
  21964879.467    21964879.568    21964885.124   117373693.318 6  91290674.095 4
       771.541         600.087
  22614128.373    22614128.568    22614134.703   120800684.967 6  93956128.793 5
      3980.061        3095.603
  20181801.971    20181800.801    20181804.150   107996956.673 7  83997676.161 5
      -991.145        -770.892
  21828058.546    21828057.646    21828063.437   116519670.679 7  90626454.089 5
      2956.031        2299.132
  22517791.828    22517791.515    22517797.875   120412806.149 6  93654449.798 5
     -3899.153       -3032.660
 11 10 10 20 15 30.0000000  0 15G04G11G13G17G20G23G31G32R01R02R11R12
                                R17R18R24
  23573309.028    23573309.0824   23573318.3574  123878626.364 5  96528804.11941
      3768.448        2936.448
  22928867.915    22928867.1564   22928872.6564  120492125.463 6  93889997.86143
     -2856.630       -2225.940
  21600843.837    21600843.8044   21600848.4934  113513630.655 7  88451979.97444
      3255.572        2536.806
  22124709.622    22124709.2664   22124714.6404  116266200.350 7  90597058.95644
       178.005         138.706
  20448548.874    20448547.8524   20448553.1294  107458111.038 8  83733579.14146
      -244.774        -190.734
  20438347.520    20438346.7674   20438349.8484  107404650.811 8  83691840.18046
      1549.503        1207.403
  23706857.857    23706857.8484   23706862.9114  124580407.984 5  97075659.18842
      -746.172        -581.442
  22276627.519    22276626.2494   22276632.6784  117064882.688 7  91219314.96044
     -1541.093       -1200.843
  21758918.645    21758918.158    21758922.834   116314315.511 7  90466827.114 4
     -1967.769       -1530.494
  19957426.267    19957425.943    19957429.872   106496907.748 8  82831042.111 7
       554.902         431.587
  21960624.426    21960623.465    21960627.828   117350947.790 6  91272983.118 4
       744.956         579.409
  22591805.616    22591805.716    22591811.739   120681438.793 6  93863381.806 5
      3969.724        3087.556
  20187431.773    20187430.844    20187434.710   108027085.327 7  84021109.541 5
     -1017.309        -791.245
  21811506.295    21811506.311    21811511.828   116431315.705 7  90557733.584 5
      2934.331        2282.257
  22539684.509    22539683.374    22539690.019   120529871.904 6  93745500.565 5
     -3905.163       -3037.338
 11 10 10 20 16  0.0000000  0 15G04G11G13G17G20G23G31G32R01R02R11R12
                                R17R18R24
  23551810.168    23551808.9114   23551817.2914  123765644.217 5  96440766.14841
      3764.058        2933.015
  22945193.939    22945193.3954   22945199.2044  120577922.330 6  93956852.52843
     -2863.022       -2230.936
  21582294.373    21582293.9774   21582299.2234  113416151.661 7  88376022.34044
      3243.175        2527.143
  22123748.129    22123747.8524   22123753.3034  116261148.387 6  90593122.36744
       158.953         123.851
  20449971.308    20449970.2154   20449975.5694  107465585.659 8  83739403.52246
      -253.382        -197.446
  20429546.624    20429546.1664   20429549.0864  107358403.384 8  83655803.22946
      1533.818        1195.182
  23711168.713    23711168.0834   23711173.6924  124603060.994 6  97093310.88742
      -763.800        -595.178
  22285434.191    22285433.3874   22285439.6554  117111164.291 7  91255378.53144
     -1544.205       -1203.283
  21769968.100    21769967.887    21769972.224   116373385.933 7  90512770.761 4
     -1970.071       -1532.277
  19954331.596    19954331.203    19954334.660   106480392.973 8  82818197.291 7
       546.224         424.835
  21956515.111    21956514.320    21956519.034   117328991.289 6  91255905.859 4
       718.948         559.186
  22569539.344    22569539.249    22569545.912   120562497.424 6  93770871.879 5
      3959.716        3079.776
  20193207.267    20193206.024    20193209.586   108057988.955 7  84045145.669 5
     -1042.792        -811.060
  21795076.233    21795075.912    21795080.479   116343608.561 7  90489516.934 5
      2912.823        2265.526
  22561607.482    22561607.865    22561614.249   120647110.143 6  93836685.467 5
     -3910.546       -3041.522
 11 10 10 20 16 30.0000000  0 15G04G11G13G17G20G23G31G32R01R02R11R12
                                R17R18R24
  23530335.649    23530334.8704   23530342.1234  123652795.111 5  96352831.87241
      3759.330        2929.337
  22961557.319    22961556.2644   22961562.5934  120663911.577 6  94023857.10942
     -2869.465       -2235.940
  21563815.695    21563815.6614   21563820.8834  113319046.438 7  88300355.95344
      3230.614        2517.357
  22122896.039    22122895.6054   22122901.2924  116256669.726 7  90589632.49544
       139.770         108.909
  20451442.844    20451441.9484   20451447.3254  107473319.733 8  83745430.07546
      -262.119        -204.250
  20420836.158    20420835.6234   20420838.4404  107312628.388 8  83620134.41146
      1517.982        1182.840
  23715580.155    23715579.9784   23715585.8464  124626243.222 6  97111374.97542
      -781.559        -609.014
  22294259.452    22294258.2994   22294264.6254  117157540.874 7  91291516.11944
     -1547.462       -1205.817
  21781031.128    21781031.184    21781035.089   116432527.120 7  90558769.447 4
     -1972.527       -1534.184
  19951285.811    19951285.429    19951288.856   106464139.895 8  82805556.017 7
       537.423         417.992
  21952551.889    21952551.478    21952557.056   117307818.238 6  91239437.937 4
       692.730         538.793
  22547329.898    22547329.708    22547336.676   120443858.851 6  93678597.446 5
      3949.515        3071.845
  20199125.349    20199124.415    20199127.916   108089658.970 7  84069777.883 5
     -1068.384        -830.960
  21778766.437    21778765.658    21778772.321   116256545.740 7  90421801.447 6
      2891.286        2248.778
  22583563.810    22583562.858    22583568.574   120764509.699 6  93927995.841 5
     -3915.922       -3045.704
 11 10 10 20 17  0.0000000  0 15G04G11G13G17G20G23G31G32R01R02R11R12
                                R17R18R24
  23508887.304    23508887.0794   23508894.8444  123540085.577 5  96265006.33341
      3754.608        2925.664
  22977957.589    22977957.1014   22977963.3564  120750095.822 6  94091013.63742
     -2876.049       -2241.069
  21545408.918    21545408.9644   21545414.6494  113222321.009 7  88224985.51544
      3217.854        2507.414
  22122153.312    22122153.0914   22122158.7824  116252767.917 6  90586592.12644
       120.471          93.871
  20452964.946    20452963.9674   20452969.2454  107481317.525 8  83751662.11446
      -270.960        -211.138
  20412216.341    20412215.7204   20412218.6964  107267330.481 8  83584837.35546
      1501.995        1170.383
  23720092.039    23720092.7924   23720098.2014  124649957.657 5  97129853.76842
      -799.295        -622.813
  22303103.653    22303102.2664   22303108.7594  117204016.505 7  91327730.89544
     -1550.786       -1208.413
  21792109.988    21792109.044    21792112.843   116491742.591 7  90604825.912 4
     -1975.091       -1536.183
  19948289.550    19948289.267    19948292.860   106448152.163 8  82793121.125 7
       528.538         411.076
  21948736.631    21948736.781    21948742.176   117287434.231 6  91223583.711 4
       666.358         518.278
  22525178.452    22525179.090    22525185.737   120325532.115 6  93586565.559 5
      3938.999        3063.669
  20205186.929    20205186.316    20205189.890   108122097.610 7  84095007.921 5
     -1094.018        -850.903
  21762578.183    21762578.017    21762582.576   116170135.260 7  90354593.351 5
      2869.465        2231.807
  22605547.430    22605547.310    22605553.341   120882071.099 6  94019432.077 5
     -3921.325       -3049.902
 11 10 10 20 17 30.0000000  0 15G04G11G13G17G20G23G31G32R01R02R11R12
                                R17R18R24
  23487466.231    23487466.1984   23487472.1864  123427513.107 5  96177287.61841
      3750.058        2922.128
  22994394.006    22994393.5664   22994398.7374  120836468.498 6  94158316.99142
     -2882.205       -2245.868
  21527074.746    21527074.6844   21527079.9054  113125972.678 7  88149908.92344
      3205.290        2497.630
  22121518.670    22121519.3634   22121524.9644  116249437.645 6  90583997.11444
       101.469          79.071
  20454536.002    20454535.1534   20454540.4974  107489574.268 8  83758095.93846
      -279.578        -217.851
  20403686.355    20403685.7134   20403688.6594  107222505.173 8  83549908.56146
      1486.295        1158.150
  23724705.321    23724704.7614   23724710.2894  124674198.872 5  97148743.01942
      -816.846        -636.506
  22311964.840    22311964.0704   22311970.8594  117250586.058 7  91364018.85344
     -1553.930       -1210.852
  21803200.371    21803199.588    21803203.855   116551027.439 7  90650936.335 4
     -1977.361       -1537.949
  19945342.369    19945341.885    19945345.650   106432424.610 8  82780888.582 7
       519.896         404.365
  21945070.604    21945069.521    21945074.652   117267835.353 6  91208340.158 4
       640.174         497.922
  22503086.698    22503086.510    22503092.671   120207517.572 6  93494776.498 5
      3928.476        3055.484
  20211392.209    20211390.519    20211393.873   108155297.330 7  84120829.893 5
     -1119.348        -870.605
  21746512.246    21746512.790    21746517.969   116084375.369 7  90287891.225 6
      2847.789        2214.941
  22627561.833    22627561.132    22627567.518   120999785.646 6  94110987.393 5
     -3926.312       -3053.779
 11 10 10 20 18  0.0000000  0 15G04G11G13G17G20G23G31G32R01R02R11R12
                                R17R18R24
  23466069.718    23466069.9034   23466077.5754  123315078.929 5  96089676.66541
      3745.424        2918.513
  23010864.939    23010864.9984   23010870.5184  120923026.414 6  94225764.70442
     -2888.329       -2250.640
  21508812.722    21508812.0834   21508817.5704  113030001.674 7  88075126.35244
      3192.704        2487.823
  22120993.974    22120993.7174   22121000.0604  116246677.014 7  90581845.98644
        82.509          64.291
  20456156.378    20456155.4084   20456160.5684  107498088.598 7  83764730.48046
      -288.120        -224.512
  20395246.112    20395245.4274   20395248.2954  107178151.542 8  83515347.30446
      1470.561        1145.892
  23729417.782    23729418.8644   23729424.1874  124698964.667 5  97168041.06542
      -834.276        -650.100
  22320844.459    22320843.4574   22320850.3314  117297248.150 7  91400378.92444
     -1556.941       -1213.202
  21814302.948    21814302.488    21814306.356   116610379.683 6  90697099.181 4
     -1979.568       -1539.658
  19942443.549    19942442.879    19942446.672   106416955.186 8  82768856.815 7
       511.361         397.729
  21941549.755    21941548.888    21941553.939   117249021.297 6  91193707.031 4
       614.014         477.565
  22481053.025    22481052.715    22481059.284   120089818.275 6  93403232.619 5
      3917.956        3047.297
  20217737.849    20217736.498    20217739.750   108189255.400 7  84147241.706 5
     -1144.574        -890.221
  21730569.451    21730569.027    21730574.106   115999268.181 7  90221696.795 5
      2826.015        2198.011
  22649603.577    22649601.920    22649608.497   121117647.721 6  94202657.427 5
     -3931.184       -3057.571
 11 10 10 20 18 30.0000000  0 15G04G11G13G17G20G23G31G32R01R02R11R12
                                R17R18R24
  23444700.006    23444700.8604   23444708.5944  123202785.034 5  96002174.99441
      3740.646        2914.792
  23027371.558    23027371.2494   23027376.6664  121009767.564 6  94293355.19842
     -2894.484       -2255.438
  21490621.905    21490621.7354   21490627.1984  112934409.763 7  88000639.18245
      3179.969        2477.893
  22120576.612    22120576.8624   22120582.5794  116244485.288 7  90580138.14444
        63.476          49.459
  20457825.633    20457824.6624   20457829.7414  107506860.820 8  83771565.97946
      -296.810        -231.279
  20386895.660    20386894.8344   20386897.8854  107134269.333 8  83481153.38346
      1454.760        1133.574
  23734231.190    23734231.1704   23734236.0564  124724253.816 5  97187746.87242
      -851.774        -663.693
  22329741.872    22329740.6434   22329746.9784  117344002.219 7  91436810.66644
     -1560.109       -1215.665
  21825418.345    21825417.706    21825422.056   116669798.562 6  90743313.847 4
     -1981.866       -1541.452
  19939592.890    19939592.522    19939595.798   106401743.378 8  82757025.416 7
       502.654         390.949
  21938175.470    21938174.779    21938180.068   117230992.845 6  91179684.928 4
       587.722         457.120
  22459079.324    22459079.118    22459085.181   119972439.104 6  93311937.737 5
      3907.156        3038.901
  20224224.448    20224223.349    20224226.911   108223969.006 7  84174241.157 5
     -1169.797        -909.839
  21714748.399    21714748.066    21714752.788   115914816.929 7  90156012.507 5
      2803.986        2180.881
  22671670.147    22671670.054    22671676.733   121235653.268 6  94294439.028 5
     -3935.993       -3061.311
 11 10 10 20 19  0.0000000  0 15G04G11G13G17G20G23G31G32R01R02R11R12
                                R17R18R24
  23423359.503    23423359.7594   23423367.8114  123090640.567 5  95914789.77741
      3735.473        2910.732
  23043913.844    23043913.2704   23043919.9174  121096696.680 6  94361092.14242
     -2900.953       -2260.469
  21472505.185    21472505.0554   21472510.2164  112839205.287 7  87926453.91245
      3166.792        2467.625
  22120269.890    22120269.4234   22120274.7734  116242867.990 7  90578877.91144
        44.160          34.418
  20459545.263    20459544.1464   20459549.3954  107515896.940 8  83778607.11346
      -305.804        -238.290
  20378636.092    20378635.5494   20378638.7194  107090866.040 8  83447332.64546
      1438.603        1120.988
  23739143.805    23739143.4434   23739149.3094  124750071.884 5  97207864.86242
      -869.620        -677.641
  22338657.104    22338656.0484   22338662.7654  117390854.573 7  91473319.00344
     -1563.573       -1218.376
  21836547.783    21836547.269    21836551.010   116729290.552 6  90789585.383 4
     -1984.510       -1543.515
  19936791.075    19936790.951    19936794.445   106386795.024 8  82745398.927 7
       493.701         383.989
  21934949.716    21934949.383    21934954.106   117213757.556 6  91166279.724 4
       561.101         436.405
  22437167.574    22437167.289    22437173.532   119855391.253 6  93220900.551 5
      3895.812        3030.077
  20230853.765    20230852.722    20230856.361   108259442.948 7  84201831.967 5
     -1195.350        -929.713
  21699052.250    21699051.960    21699057.922   115831031.360 7  90090845.980 6
      2781.534        2163.414
  22693765.796    22693765.179    22693772.285   121353804.871 6  94386334.200 5
     -3940.991       -3065.194
 11 10 10 20 19 30.0000000  0 15G04G11G13G17G20G23G31G32R01R02R11R12
                                R17R18R24
  23402049.622    23402049.3614   23402056.9704  122978651.540 5  95827525.66441
      3730.358        2906.745
  23060492.820    23060491.7404   23060496.4974  121183815.893 6  94428977.21742
     -2907.140       -2265.303
  21454463.026    21454462.5654   21454468.1254  112744393.881 7  87852574.91945
      3153.797        2457.510
  22120071.357    22120071.5174   22120076.6854  116241828.145 7  90578067.65144
        25.031          19.504
  20461315.871    20461314.6394   20461320.0464  107525200.552 8  83785856.68046
      -314.589        -245.132
  20370468.676    20370468.0844   20370471.2294  107047945.536 8  83413888.11146
      1422.639        1108.547
  23744157.790    23744158.3674   23744163.7654  124776421.818 5  97228397.25142
      -887.215        -691.335
  22347592.660    22347591.6384   22347597.7574  117437808.765 7  91509906.67844
     -1566.901       -1220.959
  21847691.713    21847690.766    21847695.058   116788858.985 6  90835916.375 4
     -1986.868       -1545.339
  19934039.742    19934039.383    19934043.050   106372113.388 8  82733979.883 7
       484.939         377.176
  21931873.107    21931873.320    21931878.667   117197320.128 6  91153495.050 4
       534.672         415.848
  22415320.236    22415319.453    22415325.642   119738683.429 6  93130127.828 5
      3884.531        3021.301
  20237624.964    20237624.188    20237628.226   108295678.286 7  84230014.978 5
     -1220.533        -949.298
  21683483.241    21683482.869    21683487.138   115747918.632 7  90026202.769 5
      2759.170        2146.021
  22715890.072    22715888.194    22715894.541   121472102.301 6  94478342.743 5
     -3945.629       -3068.799
 11 10 10 20 20  0.0000000  0 15G04G11G13G17G20G23G31G32R01R02R11R12
                                R17R18R24
  23380766.090    23380765.7784   23380772.5204  122866808.118 5  95740375.02041
      3725.906        2903.276
  23077104.470    23077103.8144   23077109.0274  121271111.453 6  94496999.70442
     -2912.593       -2269.546
  21436493.815    21436493.4694   21436498.5804  112649964.972 7  87778993.97945
      3141.384        2447.835
  22119980.535    22119980.8524   22119986.0694  116241353.152 7  90577697.53044
         6.590           5.136
  20463134.528    20463133.5314   20463139.0934  107534759.621 8  83793305.30246
      -322.754        -251.494
  20362391.041    20362390.2264   20362393.3914  107005495.632 8  83380810.28146
      1407.300        1096.595
  23749271.472    23749270.7034   23749275.9704  124803290.381 5  97249333.79342
      -904.090        -704.465
  22356544.383    22356543.4364   22356549.8884  117484852.341 7  91546564.01144
     -1569.427       -1222.931
  21858846.512    21858846.117    21858850.441   116848491.314 6  90882297.053 4
     -1988.645       -1546.726
  19931336.291    19931335.710    19931339.305   106357685.625 8  82722758.302 7
       476.844         370.885
  21928945.289    21928944.330    21928950.081   117181669.275 6  91141322.203 4
       508.620         395.590
  22393533.758    22393533.614    22393539.856   119622308.145 6  93039613.768 5
      3873.690        3012.876
  20244536.392    20244535.254    20244539.124   108332660.900 7  84258779.210 5
     -1245.002        -968.331
  21668037.321    21668037.133    21668042.651   115665468.956 7  89962075.285 6
      2737.365        2129.057
  22738035.270    22738035.074    22738041.862   121590529.452 6  94570452.162 5
     -3949.542       -3071.847
 11 10 10 20 20 30.0000000  0 15G04G11G13G17G20G23G31G32R01R02R11R12
                                R17R18R24
  23359513.055    23359513.7844   23359519.2674  122755117.587 5  95653343.49341
      3720.381        2899.004
  23093750.428    23093749.6764   23093755.5404  121358586.419 6  94565161.98642
     -2918.901       -2274.468
  21418598.400    21418598.3914   21418603.3684  112555925.098 7  87705716.17745
      3128.058        2437.446
  22119998.953    22119998.7704   22120004.0614  116241446.722 7  90577770.43544
       -12.683          -9.883
  20465003.135    20465002.0634   20465007.6454  107544579.065 8  83800956.80946
      -331.757        -258.511
  20354403.457    20354402.7924   20354405.8364  106963521.467 8  83348103.15346
      1391.122        1083.988
  23754483.373    23754482.6614   23754487.5514  124830681.694 5  97270677.68042
      -921.849        -718.322
  22365514.900    22365513.4804   22365519.7244  117531990.003 7  91583294.65844
     -1572.877       -1225.619
  21870014.411    21870014.216    21870019.052   116908191.698 6  90928730.675 4
     -1991.247       -1548.756
  19928681.073    19928680.382    19928684.035   106343516.149 8  82711737.597 7
       467.927         363.939
  21926164.172    21926164.110    21926169.031   117166810.622 6  91129765.494 4
       481.978         374.876
  22371812.866    22371812.408    22371818.554   119506274.951 6  92949365.742 5
      3861.939        3003.735
  20251587.282    20251586.195    20251590.085   108370392.351 7  84288125.856 5
     -1270.254        -987.979
  21652718.006    21652717.641    21652721.584   115583691.734 7  89898470.805 5
      2714.538        2111.307
  22760206.919    22760206.614    22760213.152   121709086.987 6  94662662.956 5
     -3954.111       -3075.398
 11 10 10 20 21  0.0000000  0 15G04G11G13G17G20G23G31G32R01R02R11R12
                                R17R18R24
  23338289.358    23338289.8764   23338296.3384  122643585.254 5  95566435.25841
      3714.954        2894.765
  23110430.687    23110429.8544   23110435.1464  121446241.625 6  94633464.70742
     -2924.969       -2279.186
  21400778.451    21400778.2144   21400783.3884  112462279.148 7  87632745.33245
      3114.812        2427.129
  22120126.176    22120125.4384   22120130.2544  116242111.376 7  90578288.35244
       -31.784         -24.765
  20466921.478    20466920.7544   20466926.3524  107554661.609 8  83808813.33346
      -340.595        -265.394
  20346507.188    20346506.4864   20346509.4544  106922026.372 8  83315769.32046
      1375.060        1071.477
  23759796.321    23759796.5834   23759801.1274  124858597.344 5  97292430.14642
      -939.394        -731.999
  22374502.637    22374501.9734   22374508.7254  117579224.347 7  91620100.62144
     -1576.214       -1228.213
  21881195.739    21881195.767    21881200.270   116967962.970 6  90975219.423 4
     -1993.676       -1550.634
  19926074.429    19926073.754    19926077.757   106329607.465 8  82700919.722 7
       459.163         357.128
  21923532.643    21923532.251    21923536.512   117152747.676 6  91118827.655 4
       455.338         354.157
  22350156.098    22350156.235    22350162.166   119390591.632 6  92859389.849 5
      3850.077        2994.508
  20258778.515    20258777.603    20258781.537   108408873.890 7  84318055.914 5
     -1295.340       -1007.482
  21637524.332    21637524.251    21637530.005   115502592.506 7  89835393.643 6
      2691.782        2093.610
  22782403.160    22782402.209    22782408.755   121827773.898 6  94754974.360 5
     -3958.464       -3078.780
 11 10 10 20 21 30.0000000  0 15G04G11G13G17G20G23G31G32R01R02R11R12
                                R17R18R24
  23317096.872    23317095.7704   23317103.7474  122532217.763 5  95479655.46441
      3709.344        2890.393
  23127145.331    23127145.2424   23127150.1724  121534079.558 6  94701909.82042
     -2931.030       -2283.920
  21383033.995    21383033.7824   21383039.3684  112369032.774 7  87560085.84145
      3101.484        2416.741
  22120361.029    22120361.2694   22120366.3544  116243350.284 6  90579253.74444
       -50.910         -39.667
  20468891.257    20468890.3634   20468895.9264  107565011.763 8  83816878.37646
      -349.514        -272.348
  20338702.758    20338702.0374   20338705.1104  106881014.415 8  83283811.96846
      1358.965        1058.934
  23765207.911    23765208.2274   23765212.3314  124887040.504 5  97314593.65042
      -956.910        -745.660
  22383510.362    22383509.5804   22383516.2754  117626559.534 6  91656985.16744
     -1579.552       -1230.815
  21892391.560    21892391.319    21892395.424   117027808.835 6  91021766.204 4
     -1996.162       -1552.557
  19923517.481    19923517.007    19923521.225   106315963.244 8  82690307.550 7
       450.355         350.280
  21921051.165    21921050.580    21921055.552   117139485.573 6  91108512.687 4
       428.664         333.405
  22328567.020    22328566.721    22328573.592   119275267.166 6  92769693.047 5
      3838.060        2985.160
  20266110.176    20266109.486    20266113.196   108448107.712 7  84348571.096 5
     -1320.318       -1026.914
  21622460.261    21622460.831    21622465.322   115422178.882 7  89772849.767 6
      2668.986        2075.881
  22804622.106    22804621.572    22804628.946   121946590.609 6  94847386.687 5
     -3962.768       -3082.129
 11 10 10 20 22  0.0000000  0 15G04G11G13G17G20G23G31G32R01R02R11R12
                                R17R18R24
  23295935.608    23295936.3624   23295942.4474  122421016.834 5  95393005.46142
      3703.974        2886.207
  23143895.321    23143894.8204   23143899.5424  121622097.970 6  94770495.54942
     -2936.842       -2288.445
  21365366.290    21365365.8544   21365371.6274  112276187.424 7  87487738.83445
      3088.221        2406.410
  22120705.862    22120705.5544   22120711.1784  116245162.118 7  90580665.55444
       -69.860         -54.433
  20470911.730    20470910.7404   20470916.2934  107575628.559 8  83825151.20446
      -358.241        -279.148
  20330990.402    20330989.7784   20330992.7294  106840485.488 9  83252231.00647
      1342.989        1046.486
  23770720.831    23770719.8404   23770725.1364  124916009.493 5  97337166.87242
      -974.337        -759.224
  22392536.960    22392535.8944   22392543.0084  117673994.613 7  91693947.57044
     -1582.747       -1233.314
  21903600.986    21903600.165    21903604.592   117087728.474 6  91068370.338 4
     -1998.441       -1554.335
  19921009.895    19921009.442    19921013.282   106302582.357 8  82679900.199 7
       441.708         343.553
  21918719.136    21918718.262    21918723.857   117127024.566 6  91098820.828 4
       402.088         312.742
  22307046.039    22307045.777    22307052.401   119160305.778 6  92680278.658 5
      3826.037        2975.806
  20273582.273    20273581.093    20273584.737   108488090.092 7  84379668.492 5
     -1345.096       -1046.184
  21607524.804    21607524.639    21607529.073   115342452.871 7  89710840.670 5
      2646.157        2058.120
  22826864.995    22826864.609    22826872.591   122065532.505 6  94939896.347 5
     -3966.701       -3085.177
 11 10 10 20 22 30.0000000  0 15G04G11G13G17G20G23G31G32R01R02R11R12
                                R17R18R24
  23274806.166    23274805.4734   23274812.2254  122309979.756 5  95306483.13941
      3698.694        2882.091
  23160677.231    23160676.5764   23160682.0084  121710289.979 6  94839216.57442
     -2942.442       -2292.810
  21347773.475    21347773.4474   21347779.0824  112183739.562 7  87415701.57245
      3075.127        2396.200
  22121158.703    22121158.4004   22121164.0644  116247541.057 7  90582519.27744
       -88.561         -69.009
  20472982.074    20472981.0264   20472986.3664  107586507.108 8  83833627.99746
      -366.814        -285.826
  20323368.992    20323368.2874   20323371.2564  106800434.568 9  83221022.51147
      1327.249        1034.222
  23776332.551    23776332.2534   23776337.4784  124945498.371 5  97360145.20542
      -991.463        -772.583
  22401581.404    22401580.6054   22401587.2354  117721524.408 7  91730983.74344
     -1585.704       -1235.612
  21914823.576    21914822.844    21914826.383   117147716.287 6  91115027.506 4
     -2000.537       -1555.965
  19918550.631    19918550.195    19918553.929   106289458.939 8  82669693.099 7
       433.346         337.051
  21916536.041    21916536.029    21916540.592   117115359.901 6  91089748.315 4
       375.700         292.204
  22285592.576    22285592.958    22285598.813   119045707.082 6  92591146.368 5
      3814.069        2966.498
  20281192.419    20281191.204    20281194.998   108528814.125 7  84411342.722 5
     -1369.627       -1065.269
  21592718.890    21592718.818    21592723.202   115263413.256 7  89649365.451 6
      2623.396        2040.420
  22849129.314    22849129.739    22849137.722   122184590.378 5  95032496.182 5
     -3970.278       -3087.969
 11 10 10 20 23  0.0000000  0 15G04G11G13G17G20G23G31G32R01R02R11R12
                                R17R18R24
  23253708.412    23253709.1424   23253714.7404  122199109.595 6  95220090.86341
      3692.858        2877.520
  23177492.184    23177491.2014   23177496.9154  121798654.179 6  94908071.76442
     -2948.329       -2297.400
  21330257.398    21330257.2504   21330262.5594  112091691.210 7  87343975.60945
      3061.574        2385.638
  22121719.117    22121718.6774   22121724.2274  116250486.555 7  90584814.46744
      -107.646         -83.882
  20475101.743    20475100.7834   20475106.2964  107597647.880 8  83842309.11546
      -375.741        -292.786
  20315838.704    20315838.0094   20315840.7434  106760862.114 8  83190186.84147
      1311.076        1021.614
  23782042.563    23782042.9874   23782048.4224  124975506.221 5  97383527.93542
     -1008.886        -786.150
  22410644.308    22410643.0364   22410649.8664  117769149.098 7  91768093.86944
     -1589.108       -1238.265
  21926058.713    21926057.904    21926062.225   117207772.543 6  91161737.918 4
     -2003.014       -1557.902
  19916139.718    19916139.235    19916143.321   106276593.355 8  82659686.543 7
       424.561         330.214
  21914502.332    21914502.835    21914506.677   117104492.549 6  91081295.921 4
       348.919         271.376
  22264208.768    22264208.527    22264214.564   118931476.247 6  92502300.196 5
      3801.465        2956.692
  20288941.172    20288939.539    20288943.096   108570277.282 7  84443591.827 5
     -1394.423       -1084.555
  21578040.484    21578040.405    21578045.455   115185062.526 7  89588426.008 5
      2600.174        2022.353
  22871416.434    22871416.407    22871424.245   122303760.749 6  95125183.458 5
     -3974.188       -3091.010
 11 10 10 20 23 30.0000000  0 15G04G11G13G17G20G23G31G32R01R02R11R12
                                R17R18R24
  23232643.281    23232642.2534   23232648.8284  122088410.932 5  95133832.24541
      3686.960        2872.938
  23194339.728    23194339.4794   23194344.4734  121887191.151 6  94977061.59242
     -2954.224       -2301.995
  21312818.189    21312817.7754   21312823.1584  112000046.666 7  87272564.29145
      3047.939        2375.019
  22122387.612    22122386.9834   22122393.2614  116254000.224 7  90587552.38544
      -126.713         -98.729
  20477272.100    20477271.2154   20477276.6784  107609053.026 8  83851196.24246
      -384.711        -299.774
  20308399.709    20308399.1644   20308401.8804  106721770.834 9  83159726.10947
      1294.893        1009.009
  23787851.820    23787851.3334   23787856.9774  125006034.357 5  97407316.06542
     -1026.415        -799.812
  22419725.348    22419724.3824   22419731.1194  117816870.975 7  91805279.74744
     -1592.473       -1240.890
  21937306.283    21937305.291    21937309.566   117267898.974 6  91208502.900 4
     -2005.525       -1559.851
  19913777.174    19913776.797    19913780.496   106263987.283 8  82649881.819 7
       415.746         323.358
  21912618.467    21912618.202    21912622.927   117094425.794 6  91073466.224 4
       322.106         250.529
  22242894.686    22242894.775    22242900.348   118817620.395 6  92413745.669 5
      3788.801        2946.848
  20296827.303    20296825.908    20296829.803   108612479.087 7  84476415.451 5
     -1419.151       -1103.785
  21563493.170    21563493.005    21563497.895   115107406.489 7  89528026.901 6
      2576.716        2004.113
  22893722.764    22893723.179    22893731.041   122423042.283 6  95217957.159 5
     -3978.004       -3093.973
 11 10 10 20 24  0.0000000  0 15G04G11G13G17G20G23G31G32R01R02R11R12
                                R17R18R24
  23211610.644    23211609.6594   23211617.2424  121977886.683 5  95047709.50941
      3681.614        2868.814
  23211220.411    23211219.8944   23211225.6244  121975899.592 6  95046185.02442
     -2959.472       -2306.088
  21295455.886    21295455.5014   21295461.1604  111908807.800 7  87201469.08845
      3034.831        2364.801
  22123164.240    22123164.1014   22123169.9144  116258081.410 7  90590732.53744
      -145.166        -113.111
  20479493.118    20479491.9084   20479497.5404  107620723.328 8  83860289.98046
      -393.097        -306.308
  20301052.673    20301051.9474   20301054.8714  106683161.402 9  83129640.85047
      1279.278         996.840
  23793760.165    23793759.6274   23793764.3704  125037082.258 5  97431509.24241
     -1043.233        -812.899
  22428826.092    22428824.7224   22428830.5584  117864690.312 7  91842541.55044
     -1595.285       -1243.076
  21948567.412    21948566.745    21948570.660   117328096.132 6  91255322.907 4
     -2007.437       -1561.340
  19911463.759    19911463.145    19911466.780   106251640.878 8  82640279.067 7
       407.584         317.009
  21910885.007    21910884.242    21910888.527   117085160.463 6  91066259.860 4
       295.827         230.094
  22221652.619    22221652.418    22221658.014   118704145.071 7  92325487.127 5
      3776.471        2937.255
  20304851.329    20304850.315    20304853.821   108655417.403 7  84509811.912 5
     -1443.174       -1122.467
  21549076.322    21549076.023    21549081.523   115030448.569 7  89468170.763 6
      2553.957        1986.411
  22916050.345    22916050.073    22916057.840   122542431.113 6  95310814.275 5
     -3981.037       -3096.332
 11 10 10 20 24 30.0000000  0 15G04G11G13G17G20G23G31G32R01R02R11R12
                                R17R18R24
  23190610.896    23190611.2204   23190617.9374  121867535.325 5  94961721.53642
      3675.594        2864.090
  23228132.634    23228131.7014   23228138.5104  122064773.630 6  95115437.49542
     -2965.090       -2310.442
  21278170.315    21278170.3104   21278175.8624  111817972.197 7  87130688.12145
      3021.197        2354.177
  22124047.642    22124047.5274   22124053.5214  116262724.955 6  90594350.87844
      -164.061        -127.845
  20481763.354    20481762.3984   20481767.9524  107632654.483 8  83869586.97646
      -401.967        -313.223
  20293796.334    20293795.6644   20293798.7524  106645029.637 8  83099927.80147
      1263.193         984.304
  23799766.660    23799766.3884   23799771.7594  125068644.647 5  97456103.33241
     -1060.596        -826.450
  22437942.860    22437941.5784   22437947.9954  117912602.721 7  91879875.88544
     -1598.575       -1245.645
  21959841.105    21959839.542    21959843.843   117388359.445 6  91302194.333 4
     -2009.734       -1563.124
  19909197.744    19909197.407    19909200.724   106239549.181 8  82630874.426 7
       398.887         310.241
  21909300.045    21909299.495    21909303.489   117076692.740 6  91059673.872 4
       269.081         209.287
  22200480.646    22200480.180    22200486.554   118591050.394 6  92237524.639 5
      3763.566        2927.218
  20313011.735    20313010.317    20313014.077   108699085.310 7  84543775.816 5
     -1467.667       -1141.516
  21534790.085    21534789.811    21534795.328   114954187.844 7  89408856.884 6
      2530.373        1968.067
  22938394.866    22938395.298    22938403.502   122661919.427 6  95403748.717 5
     -3984.445       -3098.975
 11 10 10 20 25  0.0000000  0 15G04G11G13G17G20G23G31G32R01R02R11R12
                                R17R18R24
  23169644.270    23169645.1604   23169651.0154  121757356.559 5  94875868.00342
      3669.789        2859.577
  23245075.808    23245075.2384   23245081.3654  122153808.645 6  95184815.39242
     -2970.458       -2314.639
  21260961.704    21260961.2114   21260966.5724  111727538.793 7  87060220.55545
      3007.820        2343.750
  22125037.347    22125037.3564   22125043.1044  116267927.197 6  90598404.57544
      -182.643        -142.324
  20484082.823    20484081.8734   20484087.5594  107644843.867 8  83879085.18946
      -410.529        -319.891
  20286630.546    20286629.8304   20286632.8094  106607372.700 9  83070584.73647
      1247.389         971.993
  23805869.797    23805869.8674   23805874.8924  125100717.634 5  97481095.28042
     -1077.553        -839.666
  22447077.788    22447076.4414   22447083.4734  117960605.351 7  91917280.51444
     -1601.511       -1247.928
  21971125.150    21971124.656    21971129.194   117448685.647 6  91349114.688 4
     -2011.817       -1564.739
  19906979.147    19906978.637    19906982.131   106227709.119 8  82621665.502 7
       390.554         303.765
  21907864.397    21907864.159    21907868.797   117069020.357 6  91053706.480 4
       242.612         188.693
  22179380.749    22179380.120    22179386.370   118478338.596 6  92149859.932 5
      3750.735        2917.237
  20321307.604    20321306.521    20321309.609   108743478.363 7  84578303.732 5
     -1491.679       -1160.196
  21520634.375    21520633.987    21520639.749   114878624.498 7  89350085.429 6
      2507.150        1950.005
  22960759.690    22960758.705    22960766.533   122781500.250 6  95496755.077 5
     -3987.455       -3101.323
 11 10 10 20 25 30.0000000  0 15G04G11G13G17G20G23G31G32R01R02R11R12
                                R17R18R24
  23148711.651    23148709.9554   23148716.4604  121647350.249 5  94790148.87441
      3664.129        2855.180
  23262048.725    23262047.9274   23262053.6224  122243000.753 6  95254315.71142
     -2975.583       -2318.650
  21243829.209    21243828.8964   21243833.8544  111637506.974 7  86990065.91245
      2994.424        2333.314
  22126133.338    22126133.2434   22126139.0604  116273684.967 6  90602891.13744
      -201.077        -156.683
  20486451.263    20486450.0844   20486455.6744  107657288.942 8  83888782.63646
      -419.027        -326.516
  20279554.494    20279553.8784   20279556.8684  106570188.706 9  83041610.20247
      1231.686         959.754
  23812068.634    23812068.9984   23812075.1984  125133297.580 5  97506482.25442
     -1094.274        -852.685
  22456228.354    22456227.7434   22456234.6554  118008695.690 7  91954753.47544
     -1604.395       -1250.173
  21982422.295    21982421.421    21982424.988   117509072.265 6  91396082.051 4
     -2013.821       -1566.301
  19904806.339    19904806.038    19904809.755   106216117.578 8  82612649.863 7
       382.330         297.367
  21906577.502    21906576.486    21906581.669   117062141.149 6  91048355.997 4
       216.197         168.153
  22158352.174    22158352.142    22158358.873   118366011.965 6  92062494.801 5
      3737.821        2907.190
  20329737.639    20329736.341    20329740.165   108788590.286 7  84613390.763 5
     -1515.597       -1178.796
  21506609.485    21506609.342    21506614.410   114803758.833 7  89291856.580 6
      2483.931        1931.947
  22983137.013    22983137.566    22983146.166   122901167.539 6  95589828.613 5
     -3990.198       -3103.449
 11 10 10 20 26  0.0000000  0 15G04G11G13G17G20G23G31G32R01R02R11R12
                                R17R18R24
  23127810.587    23127810.0144   23127816.1024  121537515.522 6  94704563.46941
      3658.382        2850.690
  23279050.142    23279049.2834   23279054.8494  122332344.301 6  95323934.02942
     -2980.532       -2322.489
  21226772.660    21226772.4734   21226777.4594  111547874.838 7  86920222.70345
      2981.111        2322.944
  22127333.902    22127333.8714   22127339.7464  116279993.434 7  90607806.83244
      -219.380        -170.946
  20488867.455    20488866.5204   20488871.6724  107669986.084 8  83898676.51046
      -427.380        -333.023
  20272567.837    20272567.2574   20272570.2684  106533473.843 9  83013001.22547
      1216.073         947.591
  23818364.628    23818364.6154   23818369.9474  125166379.501 5  97532260.37142
     -1111.086        -865.799
  22465395.728    22465395.0204   22465401.6144  118056869.929 7  91992291.83144
     -1607.197       -1252.355
  21993729.811    21993728.871    21993733.387   117569514.989 6  91443093.037 4
     -2015.605       -1567.692
  19902680.067    19902679.442    19902683.406   106204770.747 8  82603824.553 7
       374.235         291.077
  21905438.916    21905437.644    21905441.640   117056052.119 6  91043620.084 4
       189.890         147.695
  22137396.543    22137396.701    22137403.167   118254071.371 6  91975429.933 5
      3724.867        2897.116
  20338301.643    20338300.216    20338303.501   108834415.173 7  84649032.315 5
     -1539.344       -1197.269
  21492715.385    21492715.401    21492720.062   114729590.648 7  89234170.247 6
      2460.716        1913.890
  23005531.659    23005531.758    23005540.718   123020913.662 5  95682963.411 5
     -3992.767       -3105.447
 11 10 10 20 26 30.0000000  0 15G04G11G13G17G20G23G31G32R01R02R11R12
                                R17R18R24
  23106942.475    23106942.6824   23106948.5414  121427857.633 5  94619115.82442
      3652.148        2845.840
  23296079.708    23296080.0864   23296085.8304  122421840.481 6  95393671.26942
     -2985.818       -2326.614
  21209793.470    21209792.9104   21209798.0234  111458647.052 7  86850694.58145
      2967.391        2312.253
  22128639.847    22128639.5714   22128644.9514  116286854.400 6  90613153.03844
      -238.010        -185.462
  20491332.269    20491331.1934   20491336.4054  107682938.744 8  83908769.48946
      -436.135        -339.850
  20265671.236    20265670.4484   20265673.4454  106497231.195 8  82984760.20147
      1200.101         935.143
  23824754.758    23824755.1144   23824761.5424  125199965.364 5  97558431.15542
     -1128.007        -878.949
  22474579.530    22474578.8034   22474585.5644  118105131.124 7  92029897.95144
     -1610.257       -1254.750
  22005046.867    22005046.511    22005051.334   117630017.062 6  91490150.188 4
     -2017.803       -1569.406
  19900599.856    19900599.504    19900603.208   106193671.154 8  82595191.539 7
       365.742         284.470
  21904446.749    21904446.016    21904450.637   117050756.351 6  91039501.140 4
       163.146         126.888
  22116515.804    22116515.205    22116521.163   118142524.837 7  91888671.553 5
      3711.470        2886.696
  20346997.945    20346997.049    20347000.707   108880954.460 7  84685229.512 5
     -1563.279       -1215.883
  21478953.365    21478952.854    21478957.722   114656125.333 7  89177030.560 6
      2436.927        1895.386
  23027939.538    23027939.798    23027949.486   123140737.651 5  95776158.734 5
     -3995.492       -3107.548
 11 10 10 20 27  0.0000000  0 15G04G11G13G17G20G23G31G32R01R02R11R12
                                R17R18R24
  23086109.396    23086109.4484   23086115.4704  121318377.953 5  94533807.02442
      3646.354        2841.333
  23313139.773    23313138.9304   23313144.1704  122511486.365 6  95463525.15842
     -2990.677       -2330.375
  21192890.700    21192890.5754   21192895.8554  111369823.752 7  86781481.64345
      2954.017        2301.832
  22130049.683    22130049.4944   22130055.5084  116294266.121 7  90618928.39544
      -256.223        -199.655
  20493845.402    20493844.3714   20493849.7134  107696145.521 8  83919060.48546
      -444.450        -346.326
  20258863.951    20258863.3474   20258866.4464  106461459.875 9  82956886.45147
      1184.534         923.013
  23831241.097    23831241.5604   23831246.6444  125234052.826 5  97584992.80941
     -1144.565        -891.856
  22483779.821    22483778.8844   22483785.6424  118153477.854 6  92067570.71944
     -1612.988       -1256.873
  22016375.930    22016375.701    22016380.154   117690576.987 6  91537252.329 4
     -2019.597       -1570.803
  19898566.067    19898565.557    19898569.132   106182817.216 8  82586749.594 7
       357.731         278.238
  21903603.451    21903603.213    21903608.365   117046253.031 6  91035998.585 4
       136.905         106.484
  22095707.537    22095707.615    22095714.100   118031375.855 6  91802222.364 5
      3698.246        2876.413
  20355827.832    20355826.767    20355830.089   108928202.868 7  84721978.267 5
     -1586.705       -1234.100
  21465323.014    21465322.200    21465327.724   114583365.152 7  89120439.328 6
      2413.613        1877.253
  23050363.762    23050362.069    23050371.401   123260634.679 6  95869410.804 5
     -3997.693       -3109.271
 11 10 10 20 27 30.0000000  0 15G04G11G13G17G20G23G31G32R01R02R11R12
                                R17R18R24
  23065313.047    23065312.5014   23065317.9304  121209086.948 6  94448645.29942
      3640.297        2836.575
  23330228.799    23330228.1764   23330233.1244  122601287.897 6  95533500.35942
     -2995.568       -2334.208
  21176067.262    21176066.8814   21176071.9934  111281414.329 8  86712591.20745
      2940.477        2291.283
  22131565.874    22131566.1244   22131571.4844  116302234.857 7  90625137.79744
      -274.492        -213.891
  20496408.278    20496407.3224   20496412.6134  107709613.896 8  83929555.31646
      -452.899        -352.907
  20252148.098    20252147.5004   20252150.6144  106426167.538 9  82929385.93747
      1168.845         910.787
  23837826.257    23837826.2264   23837830.0684  125268647.715 5  97611949.87242
     -1161.174        -904.810
  22492997.484    22492996.7404   22493003.4974  118201917.632 7  92105316.00144
     -1615.782       -1259.050
  22027717.938    22027716.946    22027721.036   117751202.148 6  91584405.209 4
     -2021.496       -1572.265
  19896579.194    19896578.877    19896582.659   106172215.954 8  82578504.170 7
       349.568         271.889
  21902910.450    21902910.514    21902915.788   117042549.991 6  91033118.463 4
       110.515          85.955
  22074977.443    22074976.860    22074983.265   117920636.888 7  91716092.079 5
      3684.796        2865.950
  20364791.255    20364789.783    20364792.921   108976164.932 7  84759282.085 5
     -1610.161       -1252.347
  21451825.526    21451825.112    21451830.657   114511319.397 7  89064403.762 6
      2389.868        1858.788
  23072798.706    23072798.689    23072808.004   123380608.239 5  95962722.358 4
     -3999.983       -3111.056
 11 10 10 20 28  0.0000000  0 15G04G11G13G17G20G23G31G32R01R02R11R12
                                R17R18R24
  23044549.220    23044548.5624   23044555.6464  121099974.587 6  94363622.73342
      3633.970        2831.666
  23347344.460    23347343.9244   23347348.9784  122691231.213 6  95603586.02242
     -3000.624       -2338.136
  21159320.128    21159319.7674   21159325.0004  111193408.200 8  86644015.02445
      2926.653        2280.510
  22133185.854    22133186.0194   22133191.3324  116310747.549 6  90631771.05244
      -292.986        -228.298
  20499019.004    20499017.9224   20499023.2714  107723332.076 8  83940244.80046
      -461.595        -359.685
  20245521.131    20245520.5044   20245523.5594  106391342.117 9  82902249.25747
      1152.920         898.377
  23844503.116    23844502.9724   23844507.7164  125303737.471 5  97639292.53842
     -1178.023        -917.944
  22502230.366    22502229.5644   22502236.9764  118250438.357 7  92143124.36144
     -1618.869       -1261.449
  22039069.613    22039068.184    22039072.146   117811880.099 6  91631599.147 4
     -2023.586       -1573.897
  19894637.699    19894637.248    19894640.817   106161855.147 8  82570445.767 7
       341.223         265.391
  21902365.774    21902364.972    21902369.197   117039635.321 6  91030851.494 4
        83.876          65.232
  22054322.030    22054321.976    22054328.066   117810300.589 7  91630274.967 5
      3671.002        2855.228
  20373885.394    20373883.372    20373886.240   109024826.330 7  84797129.826 5
     -1633.819       -1270.753
  21438461.497    21438461.332    21438466.610   114439979.942 7  89008917.523 6
      2366.012        1840.228
  23095246.134    23095246.707    23095255.763   123500642.665 5  96056081.201 4
     -4002.272       -3112.842
 11 10 10 20 28 30.0000000  0 15G04G11G13G17G20G23G31G32R01R02R11R12
                                R17R18R24
  23023820.726    23023820.5544   23023827.2184  120991049.217 5  94278745.86542
      3627.577        2826.688
  23364488.057    23364487.3154   23364492.5374  122781320.042 6  95673785.05842
     -3005.530       -2341.946
  21142650.972    21142650.6984   21142655.6174  111105812.543 7  86575758.68645
      2912.887        2269.781
  22134910.750    22134910.7054   22134915.7634  116319808.689 7  90638831.67444
      -311.263        -242.543
  20501678.077    20501677.0134   20501682.1994  107737305.434 8  83951133.12346
      -470.160        -366.360
  20238983.777    20238983.3544   20238986.3574  106356988.881 9  82875480.51347
      1137.125         886.073
  23851274.740    23851275.2954   23851279.8784  125339325.745 5  97667023.67042
     -1194.742        -930.975
  22511479.966    22511479.0924   22511486.2814  118299045.240 7  92180999.83244
     -1621.774       -1263.713
  22050430.836    22050430.073    22050434.427   117872616.237 6  91678838.344 4
     -2025.634       -1575.491
  19892741.828    19892741.535    19892744.962   106151739.589 8  82562578.116 7
       332.977         258.981
  21901968.706    21901968.016    21901972.062   117037514.567 6  91029202.028 4
        57.314          44.576
  22033744.033    22033744.203    22033750.328   117700376.909 7  91544778.808 5
      3657.063        2844.380
  20383108.087    20383107.767    20383111.418   109074190.148 7  84835523.894 5
     -1657.262       -1288.976
  21425230.686    21425230.596    21425235.793   114369354.892 7  88953986.945 6
      2342.210        1821.718
  23117707.499    23117706.859    23117716.195   123620739.432 5  96149488.475 4
     -4004.360       -3114.457
 11 10 10 20 29  0.0000000  0 15G04G11G13G17G20G23G31G32R01R02R11R12
                                R17R18R24
  23003129.959    23003129.5654   23003135.8444  120882312.880 5  94194016.34042
      3621.285        2821.774
  23381659.552    23381656.2234   23381663.0294  122871552.396 6  95744095.94342
     -3010.194       -2345.587
  21126060.396    21126059.9544   21126065.1574  111018628.478 7  86507823.07645
      2899.201        2259.115
  22136738.595    22136738.9854   22136744.0264  116329416.584 7  90646318.33444
      -329.425        -256.690
  20504385.694    20504384.4354   20504389.7494  107751533.755 8  83962220.12346
      -478.609        -372.941
  20232536.684    20232535.8984   20232538.9894  106323107.573 9  82849079.50847
      1121.443         873.854
  23858142.679    23858142.1144   23858146.3634  125375411.520 5  97695142.43742
     -1211.219        -943.788
  22520746.269    22520745.4164   22520752.3894  118347738.056 7  92218942.26144
     -1624.585       -1265.913
  22061803.300    22061802.606    22061807.901   117933409.906 6  91726122.280 4
     -2027.427       -1576.889
  19890892.038    19890891.537    19890895.233   106141868.792 8  82554900.837 7
       324.905         252.705
  21901719.292    21901719.052    21901724.079   117036187.536 6  91028169.889 4
        30.945          24.066
  22013244.123    22013244.208    22013249.653   117590870.538 7  91459607.231 5
      3643.213        2833.613
  20392463.715    20392463.319    20392467.077   109124251.930 7  84874460.810 5
     -1680.374       -1306.962
  21412135.185    21412134.710    21412140.061   114299446.293 7  88899613.608 6
      2318.287        1803.115
  23140179.092    23140177.505    23140187.705   123740894.334 6  96242940.930 4
     -4006.153       -3115.849
 11 10 10 20 29 30.0000000  0 15G04G11G13G17G20G23G31G32R01R02R11R12
                                R17R18R24
  22982474.342    22982475.6554   22982480.7184  120773771.928 5  94109439.00942
      3614.873        2816.774
  23398856.971    23398855.7674   23398861.9964  122961930.508 6  95814520.41242
     -3014.858       -2349.247
  21109549.515    21109548.9294   21109553.9464  110931861.566 8  86440212.51345
      2885.389        2248.354
  22138671.657    22138671.7684   22138677.2014  116339574.164 7  90654233.32744
      -347.598        -270.857
  20507142.264    20507141.3394   20507146.6934  107766021.169 8  83973509.01946
      -487.093        -379.554
  20226179.365    20226178.8884   20226181.9704  106289702.059 9  82823049.24847
      1105.732         861.607
  23865104.262    23865103.8754   23865108.6764  125411997.202 5  97723650.76442
     -1227.707        -956.660
  22530029.323    22530028.6364   22530035.1614  118396520.699 7  92256954.69144
     -1627.412       -1268.112
  22073187.475    22073186.924    22073192.097   117994265.159 6  91773454.115 4
     -2029.389       -1578.414
  19889088.942    19889088.356    19889092.370   106132246.198 8  82547416.597 7
       316.772         246.376
  21901621.220    21901620.355    21901625.662   117035658.738 6  91027758.591 4
         4.468           3.471
  21992823.481    21992823.829    21992830.067   117481790.092 7  91374766.919 5
      3629.056        2822.601
  20401949.893    20401949.040    20401953.230   109175013.680 7  84913942.153 5
     -1703.482       -1324.929
  21399173.538    21399173.901    21399179.527   114230261.283 7  88845803.060 6
      2294.206        1784.380
  23162658.142    23162658.828    23162669.102   123861107.868 5  96336438.930 4
     -4007.952       -3117.248
 11 10 10 20 30  0.0000000  0 15G04G11G13G17G20G23G31G32R01R02R11R12
                                R17R18R24
  22961857.500    22961857.1374   22961864.1534  120665428.137 6  94025015.33842
      3608.036        2811.449
  23416082.837    23416082.7614   23416086.5324  123052451.353 6  95885056.09542
     -3019.800       -2353.096
  21093117.692    21093117.1324   21093122.4584  110845512.568 8  86372927.60145
      2871.240        2237.328
  22140708.570    22140709.0194   22140714.3404  116350279.539 7  90662575.17144
      -366.037        -285.229
  20509948.054    20509947.1054   20509952.7694  107780766.660 8  83984999.01046
      -495.890        -386.408
  20219913.092    20219912.5724   20219915.5254  106256771.694 9  82797389.23747
      1089.659         849.079
  23872161.003    23872161.0114   23872166.5364  125449080.277 5  97752546.68442
     -1244.484        -969.743
  22539329.765    22539329.0754   22539334.7794  118445392.119 7  92295036.29644
     -1630.601       -1270.589
  22084582.662    22084582.335    22084587.785   118055180.929 6  91820833.045 4
     -2031.644       -1580.169
  19887331.896    19887331.493    19887335.398   106122870.618 8  82540124.478 7
       308.319         239.804
  21901672.078    21901671.519    21901675.735   117035926.703 6  91027967.031 4
       -22.268         -17.315
  21972483.396    21972483.632    21972490.715   117373139.425 6  91290260.862 5
      3614.406        2811.202
  20411565.762    20411564.903    20411569.108   109226470.322 7  84953963.974 5
     -1726.893       -1343.136
  21386349.445    21386349.081    21386353.458   114161801.453 7  88792556.558 6
      2269.753        1765.362
  23185150.176    23185150.483    23185161.171   123981375.190 5  96429978.730 4
     -4009.874       -3118.750
 11 10 10 20 30 30.0000000  0 15G04G11G13G17G20G23G31G32R01R02R11R12
                                R17R18R24
  22941279.330    22941278.5784   22941284.8454  120557288.170 6  93940750.47642
      3601.216        2806.118
  23433336.094    23433334.9514   23433341.4804  123143117.558 6  95955705.05242
     -3024.643       -2356.865
  21076765.925    21076766.0754   21076771.4634  110759587.124 8  86305972.72445
      2857.087        2226.304
  22142850.983    22142850.9854   22142856.2374  116361535.151 7  90671345.75844
      -384.379        -299.521
  20512803.852    20512802.8204   20512808.5954  107795774.440 8  83996693.37546
      -504.663        -393.243
  20213738.018    20213737.2594   20213740.1014  106224320.407 9  82772102.53047
      1073.700         836.650
  23879312.706    23879313.0684   23879317.8964  125486663.570 5  97781832.35541
     -1261.104        -982.682
  22548647.190    22548646.3804   22548652.4774  118494356.398 6  92333190.26744
     -1633.719       -1273.025
  22095989.281    22095989.794    22095995.282   118116161.073 6  91868262.012 4
     -2033.764       -1581.820
  19885621.992    19885621.452    19885625.221   106113745.814 8  82533027.409 7
       299.953         233.297
  21901870.471    21901870.865    21901874.814   117036995.601 6  91028798.385 4
       -49.030         -38.130
  21952226.871    21952226.561    21952232.881   117264927.406 7  91206095.995 5
      3599.655        2799.730
  20421312.342    20421311.436    20421315.009   109278624.712 7  84994528.477 5
     -1750.116       -1361.198
  21373661.104    21373660.934    21373666.667   114094073.557 7  88739879.299 6
      2245.310        1746.347
  23207652.499    23207652.378    23207663.671   124101696.724 5  96523560.630 5
     -4011.601       -3120.079
 11 10 10 20 31  0.0000000  0 15G04G11G13G17G20G23G31G32R01R02R11R12
                                R17R18R24
  22920741.251    22920741.0404   22920746.5304  120449360.853 6  93856651.32642
      3593.707        2800.269
  23450617.999    23450616.4054   23450622.9124  123233933.400 6  96026470.59042
     -3029.981       -2361.019
  21060496.932    21060496.9544   21060502.2464  110674092.996 8  86239353.94145
      2842.256        2214.746
  22145098.879    22145099.0544   22145103.9054  116373346.188 7  90680549.16344
      -403.284        -314.245
  20515711.009    20515710.0184   20515715.6104  107811050.798 8  84008597.02746
      -514.013        -400.528
  20207655.084    20207654.4214   20207657.0544  106192354.389 9  82747193.95747
      1057.114         823.727
  23886561.443    23886559.8194   23886564.9854  125524752.247 5  97811511.85041
     -1278.362        -996.116
  22557983.495    22557982.3034   22557989.0054  118543419.750 6  92371421.44244
     -1637.409       -1275.900
  22107412.299    22107411.028    22107415.535   118177211.891 6  91915745.960 4
     -2036.546       -1583.981
  19883960.229    19883959.746    19883963.348   106104877.887 8  82526130.141 7
       290.983         226.321
  21902222.325    21902222.378    21902225.929   117038872.214 6  91030257.970 4
       -76.325         -59.364
  21932053.446    21932053.521    21932060.053   117157165.040 7  91122280.853 6
      3584.172        2787.691
  20431189.706    20431188.656    20431192.164   109331479.253 7  85035637.554 5
     -1773.794       -1379.619
  21361112.381    21361112.262    21361117.241   114027086.386 7  88687778.203 6
      2220.199        1726.818
  23230165.334    23230164.741    23230176.202   124222074.958 5  96617186.606 4
     -4013.922       -3121.886
 11 10 10 20 31 30.0000000  0 15G04G11G13G17G20G23G31G32R01R02R11R12
                                R17R18R24
  22900245.055    22900244.7904   22900250.6254  120341652.227 6  93772722.56042
      3586.844        2794.943
  23467928.279    23467926.9734   23467933.0704  123324900.661 6  96097354.12942
     -3034.535       -2364.579
  21044311.260    21044311.2954   21044316.2124  110589035.243 8  86173075.19345
      2828.169        2203.762
  22147453.232    22147452.5694   22147457.3364  116385715.108 7  90690187.27644
      -421.357        -328.336
  20518669.982    20518668.9664   20518674.2094  107826599.332 8  84020712.76546
      -522.621        -407.238
  20201665.014    20201664.4994   20201667.3624  106160877.179 9  82722666.27547
      1041.315         811.413
  23893904.983    23893904.9184   23893910.1004  125563348.264 5  97841586.68641
     -1294.765       -1008.902
  22567339.361    22567338.1644   22567345.2684  118592585.563 7  92409732.44943
     -1640.392       -1278.226
  22118846.276    22118845.826    22118850.535   118238336.906 6  91963287.627 4
     -2038.496       -1585.505
  19882347.475    19882346.700    19882350.528   106096270.021 8  82519435.137 7
       282.805         219.959
  21902725.974    21902724.992    21902729.488   117041559.639 6  91032348.208 4
      -102.879         -80.021
  21911965.502    21911965.761    21911972.555   117049860.700 7  91038821.947 6
      3569.396        2776.197
  20441197.805    20441196.789    20441200.489   109385034.980 7  85077291.994 5
     -1796.626       -1397.370
  21348702.986    21348702.958    21348707.858   113960846.251 7  88636258.098 6
      2195.740        1707.798
  23252688.051    23252687.630    23252699.940   124342509.697 5  96710856.506 4
     -4015.246       -3122.914
 11 10 10 20 32  0.0000000  0 15G04G11G13G17G20G23G31G32R01R02R11R12
                                R17R18R24
  22879788.132    22879787.8934   22879792.8364  120234149.382 6  93688954.14642
      3580.198        2789.765
  23485264.225    23485263.8484   23485270.2774  123416002.192 5  96168342.26442
     -3038.776       -2367.865
  21028205.938    21028205.7964   21028210.5794  110504399.967 7  86107125.64745
      2814.354        2193.002
  22149909.935    22149909.4824   22149913.9064  116398624.911 7  90700246.85744
      -439.077        -342.136
  20521677.715    20521676.5964   20521681.8644  107842404.502 8  84033028.47746
      -530.882        -413.674
  20195765.128    20195764.5544   20195767.5284  106129872.891 9  82698507.09947
      1025.822         799.340
  23901342.365    23901342.8944   23901346.0144  125602434.765 5  97872043.69141
     -1310.787       -1021.403
  22576711.757    22576710.9084   22576717.7534  118641838.189 7  92448111.09843
     -1642.975       -1280.238
  22130293.310    22130291.767    22130295.918   118299520.059 6  92010874.503 4
     -2040.129       -1586.774
  19880779.581    19880779.138    19880782.961   106087905.727 8  82512929.573 7
       274.975         213.869
  21903376.170    21903376.398    21903381.641   117045042.142 6  91035056.816 4
      -129.058        -100.382
  21891962.023    21891961.943    21891968.758   116943003.195 7  90955710.567 6
      3554.635        2764.717
  20451333.904    20451332.528    20451336.391   109439272.935 7  85119477.041 5
     -1819.033       -1414.800
  21336431.996    21336431.806    21336437.068   113895340.519 7  88585309.217 6
      2171.531        1688.967
  23275218.217    23275218.046    23275229.952   124462981.339 5  96804555.083 4
     -4016.006       -3123.510
 11 10 10 20 32 30.0000000  0 15G04G11G13G17G20G23G31G32R01R02R11R12
                                R17R18R24
  22859368.189    22859367.1194   22859373.0374  120126843.765 6  93605339.41142
      3573.363        2784.449
  23502623.489    23502622.4014   23502628.2694  123507224.825 6  96239424.78342
     -3043.013       -2371.165
  21012178.840    21012178.4214   21012183.4554  110420176.988 8  86041497.37045
      2800.330        2182.071
  22152466.182    22152466.3504   22152471.8314  116412063.227 7  90710718.25944
      -456.906        -356.021
  20524732.053    20524731.0624   20524736.3254  107858455.266 8  84045535.56346
      -539.331        -420.259
  20189953.067    20189952.4664   20189955.4804  106099330.466 9  82674707.82347
      1010.182         787.158
  23908870.793    23908871.1394   23908877.3974  125641999.009 5  97902872.94041
     -1327.010       -1034.014
  22586098.568    22586097.6824   22586104.4844  118691166.496 6  92486548.72043
     -1645.742       -1282.395
  22141746.195    22141745.826    22141749.722   118360749.966 6  92058497.760 4
     -2041.969       -1588.194
  19879255.631    19879255.103    19879258.822   106079773.681 8  82506604.649 7
       267.000         207.667
  21904175.305    21904174.760    21904179.824   117049307.842 6  91038374.600 4
      -155.507        -120.948
  21872040.983    21872040.235    21872046.959   116836585.800 7  90872941.517 6
      3539.655        2753.064
  20461593.486    20461592.887    20461596.302   109494178.212 7  85162181.130 5
     -1841.487       -1432.268
  21324296.215    21324295.708    21324300.992   113830559.535 7  88534924.028 6
      2147.075        1669.950
  23297752.095    23297751.949    23297764.305   124583475.025 5  96898270.814 4
     -4017.041       -3124.302
 11 10 10 20 33  0.0000000  0 15G04G11G13G17G20G23G31G32R01R02R11R12
                                R17R18R24
  22838988.132    22838987.8204   22838993.8864  120019746.028 6  93521886.66342
      3566.430        2779.023
  23520006.276    23520005.2034   23520012.2664  123598575.283 5  96310606.92442
     -3047.269       -2374.482
  20996232.257    20996231.8424   20996236.6294  110336376.171 8  85976198.05345
      2786.251        2171.105
  22155125.335    22155125.5284   22155130.7594  116426037.074 7  90721606.97044
      -474.748        -369.942
  20527834.767    20527833.7144   20527839.1554  107874760.229 8  84058240.72446
      -547.791        -426.850
  20184230.539    20184229.7824   20184232.7834  106069258.071 9  82651274.80347
       994.524         774.948
  23916492.864    23916492.8204   23916497.6084  125682047.747 5  97934079.75741
     -1343.124       -1046.582
  22595501.687    22595500.5864   22595506.5574  118740578.626 7  92525051.65643
     -1648.502       -1284.548
  22153209.693    22153209.648    22153214.571   118422034.774 6  92106163.681 4
     -2043.747       -1589.588
  19877776.738    19877776.209    19877780.032   106071881.795 8  82500466.524 7
       259.011         201.453
  21905121.815    21905121.239    21905125.951   117054365.137 6  91042308.057 4
      -181.779        -141.381
  21852202.905    21852203.268    21852209.721   116730621.460 7  90790524.834 5
      3524.472        2741.253
  20471980.712    20471978.781    20471982.417   109549755.842 7  85205408.159 5
     -1863.796       -1449.622
  21312298.410    21312298.017    21312303.835   113766514.320 7  88485111.097 6
      2122.538        1650.862
  23320290.477    23320290.560    23320303.666   124703995.078 5  96992007.047 4
     -4017.771       -3124.901
 11 10 10 20 33 30.0000000  0 15G04G11G13G17G20G23G31G32R01R02R11R12
                                R17R18R24
  22818648.120    22818647.9414   22818654.3194  119912858.897 5  93438598.01342
      3559.419        2773.569
  23537414.554    23537414.3584   23537419.9824  123690051.761 6  96381887.24842
     -3051.244       -2377.597
  20980366.101    20980365.7534   20980370.7364  110252999.293 8  85911229.07045
      2772.215        2160.170
  22157886.627    22157886.6444   22157891.8944  116440545.564 6  90732912.27644
      -492.452        -383.723
  20530985.828    20530984.8234   20530990.3424  107891319.482 8  84071144.02946
      -556.161        -433.371
  20178597.162    20178596.5884   20178599.6224  106039655.646 9  82628207.99147
       978.983         762.845
  23924206.546    23924206.8634   23924211.8664  125722580.117 5  97965663.40441
     -1359.030       -1058.990
  22604920.773    22604919.5694   22604925.7354  118790074.935 7  92563620.19143
     -1651.190       -1286.643
  22164685.175    22164684.712    22164689.842   118483374.655 6  92153872.437 4
     -2045.488       -1590.949
  19876342.871    19876342.295    19876346.127   106064229.995 8  82494515.128 7
       251.148         195.345
  21906216.603    21906216.039    21906220.242   117060213.869 6  91046857.069 4
      -208.027        -161.796
  21832452.482    21832452.461    21832458.300   116625115.311 7  90708464.524 5
      3509.285        2729.445
  20482491.636    20482490.250    20482493.024   109606003.464 7  85249156.311 5
     -1885.974       -1466.870
  21300438.803    21300438.603    21300444.606   113703208.203 7  88435873.043 6
      2097.977        1631.759
  23342833.480    23342832.924    23342847.096   124824538.468 5  97085761.513 4
     -4018.343       -3125.291
 11 10 10 20 34  0.0000000  0 15G04G11G13G17G20G23G31G32R01R02R11R12
                                R17R18R24
  22798347.054    22798347.1504   22798352.6974  119806175.569 6  93355468.16742
      3552.667        2768.316
  23554842.941    23554842.6914   23554848.2034  123781642.749 6  96453256.81742
     -3054.896       -2380.446
  20964579.216    20964578.9124   20964583.9984  110170038.742 8  85846584.49945
      2758.340        2149.355
  22160747.243    22160747.0814   22160752.3844  116455577.295 6  90744625.30944
      -509.854        -397.280
  20534183.465    20534182.5374   20534187.9724  107908123.422 8  84084237.99646
      -564.247        -439.666
  20173051.801    20173051.1584   20173053.9254  106010513.517 9  82605499.84147
       963.677         750.922
  23932009.993    23932009.2054   23932013.7694  125763584.896 5  97997615.20741
     -1374.796       -1071.271
  22614353.828    22614352.4074   22614358.8384  118839645.733 6  92602246.77543
     -1653.681       -1288.581
  22176170.143    22176168.974    22176173.243   118544759.919 6  92201616.511 4
     -2046.997       -1592.109
  19874951.997    19874951.351    19874955.251   106056808.114 8  82488742.563 7
       243.499         189.391
  21907457.664    21907456.922    21907461.409   117066844.196 6  91052014.002 4
      -234.037        -182.031
  21812786.598    21812786.451    21812792.564   116520062.179 7  90626756.555 5
      3494.097        2717.637
  20493125.531    20493124.194    20493127.530   109662907.617 7  85293415.096 5
     -1907.784       -1483.835
  21288716.499    21288716.308    21288721.842   113640633.280 7  88387203.661 6
      2073.551        1612.756
  23365376.987    23365378.225    23365392.368   124945091.393 5  97179523.487 5
     -4018.611       -3125.541
 11 10 10 20 34 30.0000000  0 15G04G11G13G17G20G23G31G32R01R02R11R12
                                R17R18R24
  22778085.165    22778084.4534   22778091.5634  119699699.105 6  93272499.52542
      3545.646        2762.842
  23572293.625    23572293.4574   23572298.6444  123873347.567 5  96524715.07042
     -3058.779       -2383.467
  20948871.535    20948871.4004   20948876.4904  110087495.639 8  85782265.20745
      2744.390        2138.490
  22163707.173    22163706.8694   22163712.5274  116471131.345 6  90756745.33544
      -527.203        -410.801
  20537427.763    20537426.7254   20537432.2724  107925172.606 8  84097523.07046
      -572.461        -446.065
  20167593.949    20167593.2794   20167596.1604  105981832.066 9  82583150.66847
       948.306         738.938
  23939901.819    23939900.5084   23939906.1464  125805060.665 5  98029933.96141
     -1390.423       -1083.411
  22623800.768    22623799.7074   22623806.6304  118889291.469 7  92640931.75443
     -1656.144       -1290.490
  22187661.551    22187661.042    22187664.747   118606190.703 6  92249396.006 4
     -2048.492       -1593.258
  19873603.894    19873603.668    19873607.271   106049616.600 8  82483149.164 7
       235.817         183.414
  21908843.417    21908843.478    21908849.283   117074255.870 6  91057778.653 4
      -260.149        -202.333
  21793206.069    21793206.019    21793211.680   116415467.240 7  90545404.983 5
      3478.741        2705.692
  20503881.310    20503880.190    20503883.791   109720465.677 7  85338182.462 5
     -1929.559       -1500.765
  21277131.551    21277131.566    21277137.534   113578792.420 7  88339105.243 6
      2049.004        1593.672
  23387925.075    23387925.181    23387939.176   125065650.620 5  97273290.257 5
     -4018.754       -3125.635
 11 10 10 20 35  0.0000000  0 15G04G11G13G17G20G23G31G32R01R02R11R12
                                R17R18R24
  22757864.364    22757863.9244   22757869.9524  119593433.434 6  93189695.15542
      3538.756        2757.470
  23589765.826    23589764.5414   23589771.4734  123965165.477 5  96596261.42241
     -3062.373       -2386.235
  20933244.176    20933243.9264   20933249.1454  110005372.916 8  85718273.48845
      2730.510        2127.668
  22166765.981    22166765.8974   22166771.6684  116487207.993 7  90769272.59044
      -544.488        -424.276
  20540719.071    20540718.0824   20540723.2934  107942468.650 8  84111000.50746
      -580.513        -452.346
  20162223.983    20162223.2914   20162225.9834  105953612.563 9  82561161.45247
       933.060         727.060
  23947882.826    23947882.8374   23947888.9064  125847007.989 5  98062620.18941
     -1405.996       -1095.600
  22633262.352    22633261.0804   22633268.2084  118939013.634 6  92679676.26943
     -1658.575       -1292.399
  22199162.566    22199162.154    22199165.707   118667668.688 6  92297212.190 4
     -2049.857       -1594.326
  19872300.017    19872299.378    19872302.779   106042656.346 8  82477735.632 7
       228.266         177.545
  21910376.981    21910377.289    21910382.311   117082450.362 6  91064152.141 4
      -286.040        -222.479
  21773712.389    21773712.652    21773717.844   116311336.305 7  90464414.278 5
      3463.377        2693.738
  20514759.365    20514758.034    20514762.304   109778676.064 7  85383457.193 5
     -1951.051       -1517.478
  21265685.151    21265684.711    21265689.278   113517690.033 7  88291581.178 6
      2024.573        1574.672
  23410472.828    23410472.645    23410485.431   125186213.619 5  97367059.967 4
     -4018.589       -3125.525
 11 10 10 20 35 30.0000000  0 16G04G11G13G17G20G23G31G32R01R02R11R12
                                R13R17R18R24
  22737682.696    22737682.0604   22737688.8134  119487379.979 6  93107056.13142
      3531.469        2751.808
  23607259.045    23607258.6214   23607265.5134  124057093.594 5  96667893.65441
     -3066.217       -2389.258
  20917697.155    20917696.3714   20917701.5524  109923671.032 8  85654609.69645
      2716.316        2116.612
  22169924.416    22169923.8144   22169929.5524  116503804.654 7  90782205.04044
      -561.917        -437.863
  20544057.123    20544056.2384   20544061.4884  107960010.352 8  84124669.36346
      -588.838        -458.835
  20156941.589    20156940.9874   20156943.7054  105925853.629 9  82539531.12347
       917.600         715.010
  23955955.207    23955954.6044   23955959.9604  125889424.065 5  98095671.65841
     -1421.711       -1107.828
  22642738.459    22642737.4404   22642744.3764  118988810.908 6  92718479.31443
     -1661.218       -1294.457
  22210671.437    22210670.735    22210675.213   118729192.347 6  92345063.876 4
     -2051.580       -1595.673
  19871038.555    19871038.290    19871041.779   106035925.853 8  82472500.807 7
       220.504         171.503
  21912058.336    21912056.911    21912061.490   117091425.617 6  91071132.882 4
      -312.232        -242.849
  21754306.664    21754306.597    21754313.151   116207672.943 7  90383787.228 6
      3447.531        2681.408
  24176686.619    24176685.807    24176706.282   129102155.987 4 100412822.346
      4764.408        3705.616
  20525758.045    20525757.219    20525760.751   109837534.485 7  85429235.943 5
     -1972.723       -1534.341
  21254378.245    21254377.337    21254381.967   113457326.689 7  88244631.919 6
      1999.743        1555.352
  23433019.645    23433019.149    23433034.043   125306776.069 5  97460829.293 4
     -4018.619       -3125.552
 11 10 10 20 36  0.0000000  0 16G04G11G13G17G20G23G31G32R01R02R11R12
                                R13R17R18R24
  22717544.503    22717544.3324   22717550.1064  119381552.619 6  93024593.27642
      3523.602        2745.667
  23624774.681    23624776.0184   23624782.1004  124149141.517 5  96739619.26541
     -3070.451       -2392.566
  20902231.941    20902231.4414   20902236.7074  109842402.584 8  85591283.64245
      2701.551        2105.111
  22173183.408    22173183.0914   22173188.7714  116520931.079 7  90795550.29044
      -579.800        -451.785
  20547444.244    20547443.3454   20547448.5864  107977808.958 8  84138538.41046
      -597.714        -465.749
  20151748.686    20151748.1204   20151751.2244  105898566.115 8  82518268.13347
       901.589         702.538
  23964118.495    23964118.4124   23964122.7744  125932318.362 5  98129095.78442
     -1437.918       -1120.439
  22652231.094    22652230.3324   22652236.9104  119038694.588 6  92757349.69343
     -1664.407       -1296.932
  22222191.092    22222190.010    22222194.836   118790773.229 6  92392960.074 4
     -2053.830       -1597.431
  19869822.951    19869822.353    19869825.626   106029436.224 8  82467453.322 7
       212.150         165.008
  21913884.170    21913884.514    21913889.159   117101192.844 6  91078729.628 4
      -338.915        -263.602
  21734991.385    21734991.362    21734997.201   116104493.212 7  90303536.345 5
      3431.106        2668.636
  24149906.775    24149907.402    24149928.669   128959173.744 5 100301616.077 4
      4767.626        3708.303
  20536880.252    20536879.137    20536882.225   109897049.713 7  85475525.548 5
     -1994.912       -1551.594
  21243210.028    21243210.048    21243214.964   113397716.084 7  88198268.131 6
      1974.369        1535.622
  23455567.553    23455566.931    23455582.689   125427345.655 6  97554604.226 5
     -4019.196       -3125.983
 11 10 10 20 36 30.0000000  0 16G04G11G13G17G20G23G31G32R01R02R11R12
                                R13R17R18R24
  22697448.799    22697448.3604   22697454.8924  119275950.429 6  92942305.90142
      3515.981        2739.719
  23642313.969    23642313.3144   23642318.8504  124241303.517 5  96811433.73541
     -3074.281       -2395.545
  20886849.073    20886848.9944   20886853.8684  109761565.871 8  85528294.01045
      2687.072        2093.821
  22176542.316    22176542.1404   22176547.6064  116538582.139 7  90809304.35444
      -597.380        -465.491
  20550879.783    20550878.6124   20550883.8414  107995861.252 8  84152605.13146
      -606.268        -472.416
  20146645.176    20146644.4944   20146647.5754  105871746.148 9  82497369.47047
       885.923         690.331
  23972370.823    23972370.1044   23972375.0874  125975686.100 5  98162888.82641
     -1453.734       -1132.774
  22661739.561    22661738.4114   22661745.1544  119088661.271 6  92796284.77143
     -1667.246       -1299.159
  22233720.672    22233720.791    22233725.681   118852407.762 6  92440898.018 4
     -2055.594       -1598.799
  19868650.800    19868650.463    19868653.925   106023183.749 8  82462590.289 7
       204.152         158.787
  21915860.522    21915859.950    21915864.324   117111747.889 6  91086939.101 4
      -365.279        -284.107
  21715766.782    21715766.437    21715772.194   116001798.134 7  90223662.406 5
      3414.683        2655.866
  24123110.836    24123109.616    24123129.832   128816081.691 5 100190323.369 4
      4771.205        3710.887
  20548123.071    20548122.258    20548126.157   109957214.156 7  85522320.091 5
     -2016.549       -1568.428
  21232183.754    21232183.521    21232188.979   113338857.055 7  88152488.902 6
      1949.086        1515.957
  23478116.408    23478114.981    23478131.213   125547914.832 5  97648378.772 5
     -4019.279       -3126.053
 11 10 10 20 37  0.0000000  0 16G04G11G13G17G20G23G31G32R01R02R11R12
                                R13R17R18R24
  22677397.752    22677398.1174   22677402.5474  119170582.416 6  92860200.97642
      3508.483        2733.876
  23659875.618    23659873.8024   23659878.9224  124333584.796 6  96883341.18641
     -3077.768       -2398.256
  20871550.032    20871549.6394   20871554.7354  109681167.858 7  85465646.22145
      2672.805        2082.707
  22180002.764    22180002.2174   22180007.2584  116556763.045 7  90823471.27044
      -614.656        -478.946
  20554364.141    20554363.1534   20554368.4044  108014173.637 8  84166874.51946
      -614.533        -478.858
  20141631.738    20141631.1064   20141634.2834  105845400.364 8  82476840.29647
       870.518         678.324
  23980712.982    23980713.3614   23980718.8834  126019532.067 5  98197054.51941
     -1469.309       -1144.908
  22671264.628    22671263.8344   22671270.5824  119138717.163 6  92835289.35443
     -1669.832       -1301.164
  22245261.781    22245262.129    22245267.104   118914102.247 6  92488882.567 4
     -2057.263       -1600.092
  19867524.735    19867524.188    19867527.720   106017174.502 8  82457916.430 7
       196.465         152.803
  21917984.468    21917984.196    21917988.139   117123096.637 6  91095765.904 4
      -391.278        -304.327
  21696634.246    21696633.985    21696639.863   115899598.594 7  90144173.886 5
      3398.605        2643.363
  24096295.188    24096292.926    24096312.763   128672892.726 5 100078956.400 4
      4774.754        3713.638
  20559488.660    20559487.178    20559491.122   110018030.511 7  85569621.684 5
     -2037.861       -1585.001
  21221299.988    21221299.606    21221305.124   113280758.165 7  88107300.883 6
      1924.095        1496.518
  23500663.121    23500663.606    23500680.343   125668486.503 5  97742155.270 5
     -4018.842       -3125.721
 11 10 10 20 37 30.0000000  0 15G04G11G13G17G20G23G31G32R01R02R11R12
                                R13R17R18
  22657390.363    22657390.0114   22657395.9024  119065443.912 6  92778274.91142
      3500.667        2727.777
  23677455.986    23677455.2464   23677461.0994  124425975.764 5  96955334.12041
     -3081.680       -2401.331
  20856333.267    20856332.9024   20856337.8444  109601203.010 8  85403335.96645
      2658.155        2071.291
  22183561.307    22183560.9564   22183566.0694  116575464.952 7  90838044.18344
      -632.154        -492.591
  20557896.625    20557895.8194   20557901.3614  108032738.831 8  84181340.89246
      -623.169        -485.587
  20136707.231    20136706.4684   20136709.5654  105819521.120 9  82456674.65547
       854.762         666.047
  23989147.519    23989147.6214   23989152.2714  126063847.034 5  98231585.65641
     -1485.079       -1157.206
  22680805.703    22680804.6474   22680811.8554  119188855.059 6  92874357.82143
     -1672.777       -1303.459
  22256811.426    22256811.695    22256816.704   118975849.060 6  92536907.855 4
     -2059.188       -1601.593
  19866442.595    19866442.335    19866445.700   106011400.899 8  82453425.859 7
       188.411         146.538
  21920254.280    21920254.381    21920259.249   117135230.987 6  91105203.750 4
      -417.670        -324.857
  21677594.296    21677594.374    21677600.531   115797891.940 7  90065068.741 6
      3381.803        2630.290
  24069459.978    24069457.607    24069477.530   128529604.057 5  99967512.429 4
      4777.797        3715.980
  20570973.405    20570972.384    20570975.929   110079488.567 7  85617422.388 5
     -2059.372       -1601.734
  21210557.771    21210557.342    21210562.235   113223414.588 7  88062700.354 6
      1898.736        1476.790
 11 10 10 20 38  0.0000000  0 15G04G11G13G17G20G23G31G32R01R02R11R12
                                R13R17R18
  22637428.465    22637427.3444   22637432.9794  118960540.598 6  92696532.09442
      3492.844        2721.690
  23695057.847    23695058.1964   23695062.7724  124518477.857 5  97027413.62141
     -3085.247       -2404.083
  20841199.872    20841199.2694   20841204.6624  109521675.525 8  85341366.51145
      2643.607        2059.953
  22187218.986    22187219.1154   22187224.4224  116594688.880 7  90853023.85944
      -649.510        -506.116
  20561478.400    20561477.3674   20561482.9354  108051559.753 8  84196006.53546
      -631.648        -492.192
  20131871.857    20131871.1094   20131873.9014  105794111.157 9  82436874.68747
       839.152         653.887
  23997669.164    23997668.2284   23997675.3574  126108632.800 5  98266483.63041
     -1500.809       -1169.474
  22690362.938    22690361.6614   22690368.6864  119239077.937 6  92913492.50743
     -1675.552       -1305.621
  22268374.345    22268373.384    22268379.535   119037651.617 6  92584976.489 4
     -2061.041       -1603.034
  19865405.303    19865405.002    19865408.531   106005865.719 8  82449120.722 7
       180.514         140.400
  21922672.725    21922672.704    21922677.717   117148153.257 6  91115254.389 4
      -443.883        -345.235
  21658648.834    21658648.743    21658654.355   115696685.701 7  89986352.804 6
      3365.104        2617.303
  24042604.092    24042605.111    24042623.826   128386222.369 5  99855996.487 4
      4780.819        3718.306
  20582578.329    20582577.232    20582580.953   110141588.850 7  85665722.595 5
     -2080.623       -1618.259
  21199958.088    21199957.872    21199961.613   113166831.336 7  88018691.167 6
      1873.406        1457.094
 11 10 10 20 38 30.0000000  0 17G04G10G11G13G17G20G23G31G32R01R02R11
                                R12R13R17R18R24
  22617510.043    22617510.2004   22617516.8634  118855876.978 6  92614976.05942
      3484.792        2715.428
  24203680.997                                   127191197.931 4
      3375.744
  23712681.975    23712681.2614   23712687.9594  124611091.320 5  97099579.91141
     -3088.872       -2406.915
  20826149.987    20826149.5524   20826154.7884  109442588.582 8  85279740.33945
      2628.883        2048.479
  22190976.705    22190977.0454   22190981.9294  116614435.621 7  90868410.91644
      -666.901        -519.658
  20565109.155    20565108.0874   20565113.4484  108070638.657 8  84210873.21646
      -640.229        -498.876
  20127126.001    20127125.2254   20127128.0684  105769171.976 9  82417441.56947
       823.492         641.683
  24006280.694    24006280.9924   24006285.7854  126153889.507 5  98301748.61141
     -1516.329       -1181.541
  22699936.695    22699935.7874   22699943.0704  119289387.866 6  92952695.02843
     -1678.391       -1307.835
  22279946.835    22279946.482    22279951.372   119099511.641 6  92633089.806 4
     -2062.938       -1604.511
  19864412.591    19864412.306    19864415.969   106000570.290 8  82445002.061 7
       172.546         134.199
  21925238.572    21925238.177    21925243.388   117161865.130 6  91125919.201 4
      -470.158        -365.677
  21639797.708    21639797.151    21639803.165   115595986.570 7  89908031.295 6
      3348.207        2604.161
  24015736.125    24015736.077    24015753.749   128242753.267 5  99744412.570 4
      4783.706        3720.557
  20594302.115    20594301.056    20594305.224   110204327.916 7  85714519.644 5
     -2101.880       -1634.798
  21189501.417    21189500.882    21189505.676   113111012.651 7  87975276.649 6
      1847.890        1437.244
  23568299.371    23568299.585    23568316.345   126030283.709 4  98023584.234 4
     -4017.832       -3124.990
 11 10 10 20 39  0.0000000  0 17G04G10G11G13G17G20G23G31G32R01R02R11
                                R12R13R17R18R24
  22597640.908    22597640.2234   22597647.5174  118751461.398 6  92533613.30142
      3476.625        2709.052
  24184416.591    24184415.3364   24184422.4044  127089961.247 5  99031155.77841
      3373.649        2628.786
  23730328.388    23730326.9284   23730333.8504  124703819.922 5  97171835.89241
     -3092.569       -2409.781
  20811185.357    20811185.0454   20811190.0984  109363949.502 8  85218463.15145
      2614.061        2036.931
  22194833.909    22194834.3294   22194839.8974  116634709.367 6  90884208.62544
      -684.306        -533.226
  20568789.824    20568788.8364   20568794.3414  108089981.514 8  84225945.57346
      -648.896        -505.634
  20122470.817    20122470.1044   20122472.9454  105744709.085 9  82398379.58547
       807.744         629.410
  24014984.037    24014982.9444   24014988.9194  126199621.205 5  98337383.68241
     -1532.091       -1193.830
  22709528.309    22709527.0254   22709533.9864  119339790.576 6  92991969.84743
     -1681.384       -1310.167
  22291531.448    22291530.495    22291533.806   119161435.082 6  92681252.444 4
     -2064.863       -1606.000
  19863466.232    19863465.872    19863470.047   105995520.670 8  82441074.572 7
       164.503         127.953
  21927954.103    21927953.476    21927958.042   117176371.302 6  91137201.788 4
      -496.514        -386.171
  21621042.459    21621042.798    21621049.143   115495804.675 7  89830112.056 6
      3330.947        2590.737
  23988851.799    23988851.712    23988869.731   128099206.724 5  99632768.326 4
      4786.426        3722.678
  20606146.641    20606145.339    20606149.597   110267708.768 7  85763815.858 5
     -2123.093       -1651.295
  21179189.491    21179188.854    21179193.503   113055966.107 7  87932462.682 6
      1822.275        1417.326
  23590838.223    23590840.608    23590857.674   126150818.095 5  98117332.537 4
     -4017.490       -3124.666
 11 10 10 20 39 30.0000000  0 17G04G10G11G13G17G20G23G31G32R01R02R11
                                R12R13R17R18R24
  22877609.182    22877609.5034   22877615.6194  120222705.829 6  93680037.58442
      3468.610        2702.817
  24464955.200    24464953.3714   24464960.2584  128564199.753 4 100179913.16041
      3371.928        2627.452
  24047785.191    24047783.2194   24047789.5964  126372064.853 6  98471766.93941
     -3095.957       -2412.423
  21096096.482    21096096.1934   21096101.4674  110861168.338 8  86385127.19945
      2599.479        2025.565
  22498581.512    22498582.2004   22498587.4424  118230913.708 6  92128004.20344
      -701.380        -546.528
  20872310.579    20872309.5884   20872314.9574  109684993.404 8  85468811.97546
      -657.301        -512.180
  20417696.142    20417695.4294   20417698.2854  107296128.893 9  83607278.15047
       792.294         617.373
  24323564.975    24323566.6054   24323571.0494  127821230.964 5  99600975.69641
     -1547.449       -1205.814
  23018926.443    23018925.4394   23018932.2144  120965690.264 6  94258904.65443
     -1684.087       -1312.273
  22602915.947    22602915.801    22602920.812   120825968.119 6  93975889.237 4
     -2066.612       -1607.364
  20162356.025    20162355.522    20162359.590   107590452.306 8  83681576.961 7
       156.711         121.887
  22230606.838    22230606.428    22230610.124   118793656.229 6  92395090.060 4
      -522.536        -406.418
  21902176.588    21902176.635    21902184.062   116997571.222 7  90998152.721 6
      3313.968        2577.532
  24261746.545    24261744.731    24261761.484   129556452.133 5 100766184.383 4
      4789.186        3724.826
  20917899.347    20917898.511    20917902.377   111935961.775 7  87061345.961 5
     -2143.919       -1667.492
  21468811.631    21468811.386    21468816.354   114601993.636 7  89134928.543 6
      1796.856        1397.557
  23913171.561    23913168.918    23913187.159   127874447.296 4  99457931.538 5
     -4016.466       -3123.973
 11 10 10 20 40  0.0000000  0 17G04G10G11G13G17G20G23G31G32R01R02R11
                                R12R13R17R18R24
  22857832.719    22857831.8444   22857838.7654  120118778.669 6  93599055.40342
      3459.893        2696.000
  24445712.472    24445712.8584   24445718.3144  128463079.740 5 100101118.41741
      3369.455        2625.573
  24065470.219    24065469.2484   24065476.1934  126465003.035 5  98544186.23041
     -3099.863       -2415.486
  21081299.802    21081299.8854   21081304.9324  110783412.848 8  86324538.52745
      2584.252        2013.696
  22502635.760    22502636.2754   22502642.1854  118252220.845 7  92144607.15644
      -719.047        -560.304
  20876088.852    20876087.7484   20876093.0244  109704848.327 7  85484283.33946
      -666.337        -519.230
  20413218.920    20413218.3994   20413221.3354  107272602.040 9  83588945.54747
       776.211         604.836
  24332444.878    24332445.3664   24332449.5754  127867892.767 5  99637335.54041
     -1563.353       -1218.187
  23028550.165    23028548.8214   23028555.9694  121016262.896 6  94298311.88243
     -1687.431       -1314.880
  22614520.689    22614520.717    22614526.002   120888002.584 6  94024138.221 4
     -2068.956       -1609.182
  20161498.634    20161498.354    20161502.582   107585877.245 8  83678018.576 7
       148.323         115.359
  22233615.606    22233614.817    22233619.696   118809732.801 6  92407594.046 4
      -549.170        -427.134
  21883615.673    21883615.407    21883622.137   116898421.521 7  90921036.320 6
      3296.073        2563.611
  24234833.186    24234831.764    24234847.361   129412746.594 5 100654416.247 4
      4791.203        3726.389
  20929978.560    20929977.620    20929981.996   112000600.527 7  87111620.529 5
     -2165.320       -1684.146
  21458786.539    21458786.476    21458792.159   114548481.504 7  89093308.017 6
      1770.647        1377.169
  23935702.821    23935702.642    23935721.108   127994958.415 4  99551664.899 4
     -4016.116       -3123.601
 11 10 10 20 40 30.0000000  0 17G04G10G11G13G17G20G23G31G32R01R02R11
                                R12R13R17R18R24
  22838105.124    22838104.7964   22838111.7084  120015108.578 6  93518273.53643
      3451.456        2689.443
  24426483.138    24426482.7664   24426490.4694  128362027.897 5 100022376.79441
      3367.399        2623.958
  24083176.527    24083176.4544   24083182.8464  126558052.271 5  98616692.02941
     -3103.356       -2418.199
  21066590.074    21066589.6644   21066594.4514  110706109.824 8  86264302.42345
      2569.345        2002.087
  22506791.174    22506790.9174   22506796.2274  118274051.143 7  92161617.76044
      -736.247        -573.697
  20879917.213    20879916.3224   20879922.1204  109724968.494 8  85499961.38446
      -674.960        -525.942
  20408832.667    20408831.9754   20408835.1024  107249551.567 9  83570984.14447
       760.550         592.633
  24341414.447    24341414.4904   24341419.8724  127915025.744 5  99674062.54341
     -1578.850       -1230.250
  23038191.532    23038191.2004   23038197.7594  121066929.462 6  94337792.29243
     -1690.260       -1317.085
  22626138.047    22626138.313    22626142.041   120950101.399 6  94072437.256 4
     -2070.941       -1610.731
  20160687.332    20160686.823    20160690.693   107581548.363 8  83674651.663 7
       140.352         109.161
  22236772.674    22236771.708    22236776.155   118826602.391 6  92420714.842 4
      -575.318        -447.476
  21865154.598    21865154.441    21865160.646   116799803.671 7  90844333.574 6
      3278.464        2549.910
  24207908.980    24207906.252    24207920.750   129268977.153 5 100542598.261 4
      4793.442        3728.148
  20942176.503    20942175.393    20942179.094   112065871.988 7  87162387.204 5
     -2186.079       -1700.286
  21448908.298    21448908.331    21448913.924   114495749.121 7  89052293.933 6
      1744.925        1357.161
  23958231.960    23958233.303    23958251.806   128115430.279 5  99645364.234 4
     -4015.188       -3122.902
 11 10 10 20 41  0.0000000  0 17G04G10G11G13G17G20G23G31G32R01R02R11
                                R12R13R17R18R24
  22818423.438    22818422.9294   22818429.9774  119911681.116 6  93437680.76243
      3443.827        2683.501
  24407263.719    24407261.8684   24407269.2974  128261027.839 5  99943675.50841
      3366.263        2623.100
  24100901.943    24100900.3574   24100906.7254  126651193.695 5  98689269.69042
     -3105.920       -2420.167
  21051962.845    21051962.4544   21051967.3864  110629243.644 8  86204406.71445
      2555.268        1991.116
  22511040.813    22511040.8094   22511046.5004  118296385.952 7  92179021.49744
      -752.531        -586.388
  20883793.773    20883792.7064   20883798.1924  109745336.918 8  85515832.88146
      -682.749        -532.016
  20404533.816    20404533.0794   20404536.0854  107226960.228 9  83553380.50847
       745.753         581.103
  24350470.900    24350468.4984   24350475.4794  127962611.354 5  99711142.24141
     -1593.297       -1241.497
  23047847.454    23047846.5344   23047854.3634  121117673.160 6  94377332.82643
     -1692.404       -1318.772
  22637765.180    22637764.217    22637767.509   121012247.738 6  94120773.307 4
     -2072.007       -1611.560
  20159918.618    20159918.435    20159922.214   107577448.095 8  83671462.570 7
       133.234         103.624
  22240074.148    22240073.534    22240078.552   118844247.086 6  92434438.496 4
      -600.695        -467.208
  21846789.858    21846790.083    21846795.840   116701704.944 7  90768034.588 6
      3261.619        2536.810
  24180967.019    24180966.198    24180979.951   129125130.506 5 100430720.065 4
      4796.514        3730.544
  20954488.055    20954486.941    20954490.647   112131754.806 7  87213629.369 5
     -2205.887       -1715.693
  21439172.897    21439172.582    21439178.132   114443780.656 7  89011874.030 6
      1719.878        1337.681
  23980754.475    23980755.529    23980774.000   128235862.781 4  99739032.334 4
     -4013.247       -3121.361
 11 10 10 20 41 30.0000000  0 17G04G10G11G13G17G20G23G31G32R01R02R11
                                R12R13R17R18R24
  22798788.716    22798787.9944   22798794.6594  119808497.519 6  93357277.98843
      3435.151        2676.750
  24388053.886    24388051.8174   24388057.2134  128160078.961 5  99865014.14441
      3363.944        2621.262
  24118642.531    24118641.4094   24118647.6674  126744423.965 6  98761916.57041
     -3109.349       -2422.869
  21037418.596    21037418.4604   21037423.3864  110552814.135 8  86144851.27045
      2540.129        1979.317
  22515387.424    22515386.7544   22515392.0244  118319222.226 7  92196815.99444
      -769.764        -599.810
  20887716.519    20887715.7104   20887721.0844  109765952.370 7  85531896.86546
      -691.501        -538.831
  20400321.753    20400321.0854   20400324.1324  107204826.092 9  83536133.13747
       729.970         568.806
  24359608.888    24359610.4524   24359615.4254  128010646.542 5  99748572.27141
     -1608.804       -1253.640
  23057518.906    23057517.2084   23057524.7024  121168492.454 6  94416932.23943
     -1695.449       -1321.132
  22649398.150    22649398.236    22649402.866   121074439.802 6  94169144.876 4
     -2074.096       -1613.182
  20159193.068    20159192.863    20159196.474   107573574.623 8  83668449.867 7
       125.106          97.304
  22243520.968    22243519.815    22243524.342   118862664.137 6  92448762.878 4
      -626.973        -487.642
  21828523.514    21828523.563    21828528.960   116604128.290 7  90692141.670 6
      3243.558        2522.767
  24154013.272    24154012.873    24154025.505   128981209.371 5 100318783.770 4
      4798.291        3731.937
  20966913.671    20966912.683    20966916.529   112198245.120 7  87265344.034 5
     -2226.666       -1731.847
  21429581.421    21429580.794    21429585.407   114392576.183 7  88972048.331 6
      1693.907        1317.478
  24003271.134                                   128356284.012 5
     -4012.426
 11 10 10 20 42  0.0000000  0 16G04G10G11G13G17G20G23G31G32R01R02R11
                                R12R13R17R18
  22779201.026    22779201.1494   22779207.1904  119705568.387 6  93277073.48943
      3426.694        2670.138
  24368854.545    24368852.5694   24368861.3134  128059189.556 5  99786399.08441
      3361.933        2619.659
  24136401.736    24136401.2684   24136407.2824  126837749.509 5  98834637.69941
     -3112.390       -2425.231
  21022959.495    21022959.0844   21022964.3334  110476830.739 8  86085643.44845
      2525.386        1967.825
  22519829.261    22519828.8214   22519834.0264  118342566.099 6  92215006.00244
      -786.555        -612.898
  20891688.164    20891687.1634   20891692.5974  109786822.650 8  85548159.41146
      -699.891        -545.370
  20396198.198    20396197.5624   20396200.5684  107183156.923 9  83519248.07847
       714.593         556.825
  24368838.710    24368837.3744   24368842.8664  128059137.206 5  99786357.20141
     -1623.868       -1265.343
  23067205.314    23067203.5254   23067211.6344  121219395.298 6  94456596.77643
     -1698.108       -1323.211
  22661042.091    22661041.595    22661046.679   121136685.830 6  94217558.419 4
     -2075.748       -1614.464
  20158511.231    20158510.654    20158514.473   107569935.785 8  83665619.650 7
       117.424          91.328
  22247112.777    22247112.196    22247116.057   118881860.501 6  92463693.379 4
      -652.827        -507.758
  21810356.949    21810356.952    21810362.032   116507086.110 7  90616664.446 6
      3225.789        2508.944
  24127046.309    24127046.957    24127059.972   128837225.842 5 100206798.762 4
      4800.456        3733.601
  20979452.652    20979451.997    20979455.408   112265346.626 7  87317534.082 5
     -2246.851       -1747.551
  21420132.912    21420132.995    21420138.410   114342146.210 7  88932825.035 6
      1668.149        1297.446
 11 10 10 20 42 30.0000000  0 17G04G10G11G13G17G20G23G31G32R01R02R11
                                R12R13R17R18R24
  22759661.036    22759661.1504   22759667.5984  119602886.404 6  93197061.60143
      3418.690        2663.925
  24349665.020    24349664.2604   24349670.7654  127958350.071 5  99707822.95141
      3360.625        2618.637
  24154176.503    24154175.8554   24154183.1144  126931158.269 5  98907423.66041
     -3114.867       -2427.172
  21008583.333    21008583.1404   21008588.4054  110401284.147 8  86026775.98445
      2511.071        1956.677
  22524365.646    22524365.5774   22524370.8004  118366406.034 6  92233582.55244
      -802.751        -625.518
  20895706.318    20895705.2744   20895710.7234  109807937.977 8  85564612.90746
      -707.766        -551.506
  20392161.285    20392160.5894   20392163.3984  107161942.126 9  83502717.07847
       699.728         545.240
  24378151.066    24378149.9674   24378154.5354  128108071.854 5  99824488.09141
     -1638.388       -1276.674
  23076905.708    23076904.5224   23076911.6694  121270371.864 6  94496318.75543
     -1700.316       -1324.921
  22672695.452    22672694.592    22672699.936   121198975.957 6  94266006.262 4
     -2076.904       -1615.370
  20157871.876    20157871.380    20157874.500   107566521.323 8  83662963.951 7
       110.218          85.722
  22250848.480    22250848.445    22250852.817   118901825.341 6  92479221.588 4
      -678.122        -527.430
  21792289.320    21792289.363    21792294.936   116410572.705 7  90541598.504 6
      3208.360        2495.389
  24100070.401    24100069.349    24100082.196   128693174.133 5 100094760.550 4
      4802.961        3735.574
  20992104.592    20992103.457    20992106.823   112333046.263 7  87370189.339 5
     -2266.436       -1762.783
  21410830.006    21410829.648    21410834.180   114292481.398 7  88894196.831 6
      1642.785        1277.721
  24048274.190    24048274.383    24048295.660   128596929.348 5 100019865.791 4
     -4008.820       -3117.937
 11 10 10 20 43  0.0000000  0 17G04G10G11G13G17G20G23G31G32R01R02R11
                                R12R13R17R18R24
  22740168.482    22740168.1664   22740174.3194  119500450.480 6  93117241.41643
      3410.294        2657.369
  24330485.748    24330484.4274   24330492.8094  127857557.647 5  99629283.44341
      3358.777        2617.219
  24171966.833    24171966.2724   24171973.3204  127024645.120 5  98980270.45741
     -3117.615       -2429.302
  20994290.023    20994289.9304   20994294.8674  110326171.917 7  85968246.98546
      2496.365        1945.223
  22528995.970    22528995.5564   22529000.7434  118390736.611 6  92252541.43544
      -819.282        -638.394
  20899770.350    20899769.3084   20899774.8204  109829294.734 8  85581254.52746
      -716.041        -557.950
  20388209.945    20388209.2214   20388212.0434  107141177.751 8  83486537.05247
       684.524         533.393
  24387544.334    24387544.2104   24387549.7844  128157445.196 5  99862960.79641
     -1653.204       -1288.180
  23086619.153    23086618.4784   23086625.6224  121321418.458 6  94536095.29343
     -1702.842       -1326.882
  22684356.595    22684355.437    22684360.401   121261306.091 6  94314485.223 4
     -2078.461       -1616.578
  20157273.112    20157272.710    20157275.958   107563327.105 8  83660479.569 7
       102.685          79.865
  22254728.276    22254727.589    22254732.219   118922553.709 6  92495343.662 4
      -703.791        -547.392
  21774321.481    21774321.104    21774327.124   116314588.755 7  90466944.345 6
      3190.510        2481.510
  24073081.029    24073078.853    24073091.019   128549054.941 5  99982669.732 4
      4804.970        3737.147
  21004866.141    21004865.015    21004868.730   112401335.717 7  87423303.345 5
     -2286.235       -1778.183
  21401669.495    21401669.315    21401673.489   114243581.459 7  88856163.551 6
      1617.123        1257.765
  24070761.619    24070759.496    24070782.213   128717164.019 4 100113380.897 4
     -4006.850       -3116.358
 11 10 10 20 43 30.0000000  0 17G04G10G11G13G17G20G23G31G32R01R02R11
                                R12R13R17R18R24
  22720726.066    22720725.5384   22720732.2804  119398277.374 6  93037626.05143
      3401.098        2650.194
  24311315.818    24311314.3284   24311323.6184  127756827.155 5  99550792.21541
      3356.395        2615.362
  24189773.215    24189773.9474   24189780.1324  127118222.343 5  99053187.69141
     -3120.928       -2431.890
  20980082.591    20980081.9694   20980086.8964  110251509.409 8  85910068.42546
      2481.053        1933.286
  22533721.260    22533721.0904   22533726.0714  118415570.000 6  92271892.10144
      -836.346        -651.693
  20903882.895    20903881.9224   20903887.3544  109850907.222 8  85598095.42446
      -724.875        -564.837
  20384346.941    20384346.2614   20384349.0194  107120877.500 9  83470718.68547
       668.737         521.092
  24397027.171    24397026.7204   24397031.8434  128207269.471 5  99901784.91641
     -1668.547       -1300.184
  23096349.125    23096348.2074   23096354.9954  121372549.320 6  94575937.50543
     -1705.940       -1329.299
  22696024.622    22696025.333    22696029.988   121323690.899 6  94363006.728 4
     -2080.614       -1618.253
  20156717.934    20156717.846    20156721.424   107560367.492 8  83658177.649 7
        94.569          73.554
  22258752.333    22258752.024    22258757.291   118944058.740 6  92512069.773 4
      -729.917        -567.716
  21756455.691    21756455.406    21756461.766   116219152.953 7  90392716.521 6
      3171.828        2466.977
  24046078.044    24046079.434    24046090.784   128404886.926 5  99870540.850 4
      4806.223        3738.113
  21017739.809    21017738.498    21017742.465   112470226.201 7  87476884.807 5
     -2306.585       -1794.014
  21392654.038    21392654.075    21392659.225   114195461.768 7  88818737.135 6
      1590.713        1237.222
  24093235.660    24093236.991    24093258.010   128837349.109 3 100206856.611 4
     -4005.593       -3115.400
 11 10 10 20 44  0.0000000  0 16G04G10G11G13G17G20G23G31G32R01R02R11
                                R12R13R17R18
  22701334.163    22701333.4364   22701339.3864  119296369.919 6  92958217.67443
      3392.663        2643.636
  24292159.747    24292160.0804   24292164.6004  127656159.189 5  99472349.71141
      3354.628        2613.999
  24207599.317    24207598.8894   24207603.1354  127211887.932 5  99126173.76541
     -3123.513       -2433.902
  20965960.425    20965960.2104   20965965.1104  110177298.089 8  85852241.43446
      2466.333        1921.818
  22538542.031    22538541.6784   22538547.2004  118440904.535 6  92291633.29044
      -852.653        -664.408
  20908044.290    20908043.2524   20908048.4654  109872775.430 8  85615135.57946
      -733.048        -571.201
  20380572.314    20380571.5084   20380574.4484  107101040.863 9  83455261.57447
       653.664         509.351
  24406593.336    24406595.0354   24406597.8514  128257542.896 5  99940958.99941
     -1683.152       -1311.555
  23106094.580    23106093.3074   23106100.6434  121423764.510 6  94615845.43643
     -1708.483       -1331.288
  22707706.069    22707705.859    22707709.945   121386130.241 6  94411570.664 4
     -2082.037       -1619.363
  20156207.543    20156207.111    20156210.549   107557642.291 8  83656058.042 7
        87.102          67.749
  22262921.583    22262921.046    22262926.185   118966339.463 6  92529399.217 4
      -755.442        -587.562
  21738692.420    21738692.612    21738699.469   116124269.702 7  90318918.471 6
      3153.638        2452.828
  24019072.409    24019072.478    24019082.851   128260674.161 5  99758377.020 4
      4807.926        3739.434
  21030724.443    21030724.414    21030727.853   112539713.979 7  87530930.847 5
     -2326.030       -1809.135
  21383786.467    21383786.628    21383791.425   114148123.258 7  88781918.308 6
      1565.016        1217.234
 11 10 10 20 44 30.0000000  0 16G04G10G11G13G17G20G23G31G32R01R02R11
                                R12R13R17R18
  22681991.165    22681990.9914   22681996.5804  119194724.807 6  92879013.71643
      3383.872        2636.774
  24273014.758    24273013.3344   24273022.7214  127555548.434 5  99393951.74941
      3352.758        2612.501
  24225437.886    24225437.3864   24225442.3344  127305634.219 5  99199222.73441
     -3126.151       -2435.910
  20951923.293    20951922.8744   20951927.9684  110103532.863 8  85794762.05646
      2451.452        1910.224
  22543457.584    22543456.9814   22543462.5294  118466732.530 7  92311758.99244
      -869.055        -677.187
  20912253.416    20912252.3644   20912257.7834  109894893.794 8  85632370.66946
      -741.419        -577.730
  20376884.384    20376883.7034   20376886.6384  107081661.551 9  83440160.81847
       638.414         497.466
  24416243.442    24416241.8544   24416248.2314  128308257.796 5  99980477.11541
     -1697.739       -1322.907
  23115855.755    23115854.7674   23115861.9004  121475058.197 6  94655814.53443
     -1711.060       -1333.280
  22719395.335    22719394.899    22719400.568   121448618.267 6  94460172.440 4
     -2083.647       -1620.613
  20155739.917    20155739.290    20155742.875   107555145.195 8  83654115.854 7
        79.489          61.824
  22267235.461    22267235.097    22267239.748   118989388.551 6  92547326.277 4
      -781.021        -607.468
  21721033.625    21721033.591    21721040.230   116029937.453 7  90245548.965 6
      3135.181        2438.470
  23992058.104    23992056.783    23992066.705   128116415.025 5  99646176.997 4
      4809.420        3740.612
  21043820.240    21043819.420    21043823.473   112609789.235 7  87585433.813 5
     -2345.519       -1824.296
  21375063.668    21375063.434    21375069.106   114101562.449 7  88745704.358 6
      1539.119        1197.093
 11 10 10 20 45  0.0000000  0 16G04G10G11G13G17G20G23G31G32R01R02R11
                                R12R13R17R18
  22662699.701    22662699.6544   22662705.3704  119093347.893 6  92800018.75043
      3374.754        2629.668
  24253879.446    24253877.7054   24253885.7454  127454999.269 5  99315601.80241
      3350.621        2610.856
  24243292.816    24243292.3554   24243296.7624  127399463.061 5  99272336.04741
     -3128.970       -2438.162
  20937972.086    20937971.6004   20937976.6324  110030218.430 8  85737633.93645
      2436.331        1898.439
  22548466.187    22548466.2064   22548471.6554  118493055.754 7  92332270.59144
      -885.627        -690.104
  20916510.661    20916509.6534   20916515.2724  109917266.100 8  85649803.63646
      -749.934        -584.365
  20373284.366    20373283.6184   20373286.4944  107062742.615 9  83425418.79947
       622.996         485.450
  24425979.372    24425978.4404   24425983.5584  128359416.004 5 100020340.60841
     -1712.685       -1334.551
  23125631.798    23125631.2724   23125638.2734  121526433.883 6  94695847.52143
     -1713.850       -1335.462
  22731094.812    22731094.717    22731100.304   121511158.769 6  94508814.992 4
     -2085.485       -1622.054
  20155315.383    20155314.798    20155318.397   107552879.655 8  83652353.765 7
        71.698          55.768
  22271692.246    22271692.177    22271696.751   119013208.303 6  92565852.748 4
      -806.756        -627.481
  21703479.084    21703478.808    21703485.210   115936163.847 7  90172613.944 6
      3116.448        2423.901
  23965033.509    23965033.535    23965043.120   127972117.398 5  99533946.934 4
      4810.543        3741.488
  21057026.585    21057024.374    21057028.305   112680451.712 7  87640393.492 5
     -2365.152       -1839.563
  21366488.558    21366488.399    21366492.578   114055784.859 7  88710099.583 6
      1512.954        1176.742
 11 10 10 20 45 30.0000000  0 16G04G10G11G13G17G20G23G31G32R01R02R11
                                R12R13R17R18
  22643459.529    22643458.8634   22643465.7954  118992240.969 6  92721234.15543
      3365.861        2622.740
  24234756.937    24234754.9844   24234764.1364  127354510.978 4  99237299.33341
      3348.799        2609.469
  24261163.497    24261162.7204   24261167.8294  127493371.741 5  99345511.52441
     -3131.420       -2440.039
  20924106.019    20924106.0344   20924111.0404  109957354.799 8  85680857.09345
      2421.451        1886.842
  22553569.406    22553569.5524   22553574.4264  118519871.197 6  92353165.72944
      -901.853        -702.736
  20920815.752    20920814.9234   20920820.6074  109939890.694 7  85667433.19846
      -758.179        -590.787
  20369771.278    20369770.6034   20369773.7144  107044282.658 9  83411034.42047
       607.875         473.669
  24435799.072    24435798.5824   24435801.7564  128411014.485 5 100060547.20641
     -1727.074       -1345.777
  23135424.811    23135423.3984   23135429.8434  121577890.713 6  94735943.74643
     -1716.387       -1337.449
  22742806.064    22742804.295    22742809.889   121573750.886 6  94557497.701 4
     -2087.099       -1623.295
  20154933.758    20154933.328    20154936.741   107550844.408 8  83650770.794 7
        64.202          49.936
  22276293.930    22276293.026    22276298.420   119037796.526 6  92584976.927 4
      -832.229        -647.286
  21686029.896    21686029.706    21686035.707   115842952.415 7  90100116.174 6
      3097.809        2409.409
  23938004.894    23938003.307    23938012.340   127827784.472 5  99421689.286 4
      4811.856        3742.511
  21070338.867    21070338.272    21070341.982   112751696.642 7  87695806.196 5
     -2384.337       -1854.486
  21358059.521    21358059.370    21358064.209   114010790.090 7  88675103.658 6
      1486.975        1156.533
 11 10 10 20 46  0.0000000  0 16G04G10G11G13G17G20G23G31G32R01R02R11
                                R12R13R17R18
  22624271.654    22624271.3234   22624277.6834  118891406.938 6  92642662.21543
      3356.360        2615.346
  24215646.994    24215645.7034   24215654.5294  127254084.652 4  99159045.11341
      3346.506        2607.650
  24279048.326    24279047.2384   24279054.2724  127587358.457 5  99418747.83041
     -3134.301       -2442.323
  20910326.748    20910326.5394   20910331.5274  109884943.066 8  85624432.37846
      2406.022        1874.822
  22558765.900    22558765.2184   22558770.8644  118547177.253 7  92374443.15944
      -918.530        -715.740
  20925169.361    20925168.2884   20925173.8154  109962768.230 7  85685259.83746
      -766.983        -597.649
  20366345.586    20366344.8954   20366347.9384  107026281.036 9  83397007.18647
       592.270         461.509
  24445699.989    24445700.1134   24445705.1944  128463051.335 5 100101095.37641
     -1741.922       -1357.326
  23145231.306    23145230.1674   23145237.3694  121629428.915 6  94776103.37043
     -1719.467       -1339.842
  22754523.278    22754522.543    22754527.456   121636394.537 6  94606220.532 4
     -2089.139       -1624.882
  20154595.408    20154594.935    20154598.434   107549039.622 8  83649367.070 7
        56.161          43.678
  22281039.709    22281038.600    22281042.900   119063152.050 6  92604697.871 4
      -858.164        -667.470
  21668686.320    21668686.078    21668692.413   115750307.347 7  90028058.918 6
      3078.451        2394.349
  23910968.051    23910966.953    23910976.095   127683420.816 5  99309407.642 4
      4812.458        3742.981
  21083761.722    21083760.228    21083763.833   112823520.792 7  87751669.414 5
     -2403.915       -1869.716
  21349778.244    21349777.820    21349782.116   113966580.569 7  88640718.474 6
      1460.469        1135.926
 11 10 10 20 46 30.0000000  0 16G04G10G11G13G17G20G23G31G32R01R02R11
                                R12R13R17R18
  22605137.032    22605136.4154   22605142.9614  118790853.753 6  92564309.08543
      3347.129        2608.157
  24196550.708    24196548.2454   24196556.4884  127153726.283 4  99080843.83441
      3344.213        2605.875
  24296948.664    24296948.6744   24296953.6134  127681426.756 5  99492047.68241
     -3136.905       -2444.320
  20896634.686    20896634.1874   20896639.4864  109812989.790 8  85568364.90446
      2390.843        1862.990
  22564055.370    22564055.3964   22564060.8264  118574977.160 6  92396105.40043
      -934.794        -728.409
  20929572.066    20929570.9774   20929576.5584  109985904.160 8  85703287.82845
      -775.438        -604.239
  20363008.086    20363007.5024   20363010.3204  107008742.651 9  83383340.91947
       576.949         449.569
  24455685.734    24455686.0994   24455692.3694  128515530.656 5 100141988.34341
     -1756.602       -1368.779
  23155055.159    23155054.8994   23155061.4584  121681053.748 6  94816330.47743
     -1722.210       -1341.971
  22766253.004    22766251.930    22766257.496   121699095.434 6  94654987.875 4
     -2090.938       -1626.284
  20154301.318    20154300.754    20154304.583   107547470.338 8  83648146.513 7
        48.458          37.685
  22285927.723    22285927.697    22285933.234   119089278.725 6  92625018.631 4
      -883.614        -687.246
  21651450.667    21651450.507    21651456.646   115658238.305 7  89956449.672 6
      3059.414        2379.544
  23883928.422    23883927.376    23883936.493   127539036.208 5  99197109.618 4
      4813.214        3743.560
  21097291.731    21097290.959    21097294.656   112895926.120 6  87807984.657 5
     -2423.099       -1884.626
  21341644.409    21341643.990    21341647.870   113923161.988 7  88606948.477 6
      1434.130        1115.431
 11 10 10 20 47  0.0000000  0 16G04G10G11G13G17G20G23G31G32R01R02R11
                                R12R13R17R18
  22586056.052    22586055.8024   22586062.3074  118690582.826 6  92486175.93843
      3337.700        2600.812
  24177464.629    24177464.5074   24177471.2914  127053435.089 4  99002694.94841
      3341.886        2604.020
  24314863.999    24314863.5264   24314869.1344  127775573.460 5  99565408.66541
     -3139.510       -2446.361
  20883029.445    20883029.2154   20883034.2964  109741494.633 8  85512654.40546
      2375.571        1851.094
  22569438.434    22569438.9524   22569444.2034  118603267.905 6  92418150.11943
      -951.149        -741.168
  20934023.540    20934022.5724   20934028.0474  110009297.121 8  85721516.10446
      -784.012        -610.921
  20359758.437    20359757.8404   20359760.7294  106991665.708 9  83370034.21647
       561.588         437.602
  24465757.893    24465757.5004   24465762.8634  128568449.011 5 100183223.43841
     -1771.170       -1380.135
  23164895.884    23164895.1384   23164901.4944  121732764.168 6  94856624.29343
     -1725.049       -1344.203
  22777992.530    22777991.559    22777996.369   121761852.245 5  94703798.686 4
     -2092.800       -1627.741
  20154050.966    20154050.474    20154054.304   107546135.148 8  83647108.029 7
        40.663          31.628
  22290961.238    22290960.799    22290965.518   119116174.017 6  92645937.172 4
      -909.233        -707.182
  21634323.973    21634323.793    21634329.302   115566748.436 7  89885290.898 6
      3039.962        2364.414
  23856884.254    23856885.352    23856893.335   127394633.426 5  99084797.374 4
      4813.739        3743.994
  21110930.463    21110928.897    21110933.159   112968906.153 7  87864746.897 5
     -2442.190       -1899.482
  21333658.591    21333658.026    21333663.469   113880535.378 7  88573794.451 6
      1407.781        1094.939
 11 10 10 20 47 30.0000000  0 16G04G10G11G13G17G20G23G31G32R01R02R11
                                R12R13R17R18
  22567029.004    22567029.1384   22567034.3594  118590594.248 6  92408262.78243
      3328.238        2593.430
  24158390.901    24158390.6384   24158396.3904  126953209.229 4  98924596.88541
      3339.881        2602.517
  24332794.411    24332792.9814   24332799.2704  127869794.361 5  99638827.41741
     -3141.892       -2448.219
  20869511.308    20869511.2044   20869516.1554  109670456.272 8  85457299.85646
      2360.344        1839.226
  22574915.525    22574914.7894   22574921.0274  118632045.081 6  92440573.85943
      -967.293        -753.745
  20938523.590    20938522.4804   20938528.1804  110032944.859 7  85739942.91046
      -792.477        -617.515
  20356596.395    20356595.6094   20356598.6354  106975047.513 9  83357084.97847
       546.319         425.701
  24475908.916    24475909.2224   24475915.2634  128621802.201 5 100224797.35041
     -1785.670       -1391.436
  23174751.466    23174750.8394   23174757.7674  121784557.700 6  94896982.85943
     -1727.775       -1346.318
  22789741.571    22789741.461    22789747.546   121824662.771 5  94752651.274 4
     -2094.482       -1629.038
  20153843.835    20153843.491    20153847.479   107545031.407 8  83646249.565 7
        32.937          25.616
  22296137.533    22296136.275    22296141.601   119143834.027 6  92667450.523 4
      -934.691        -726.981
  21617305.652    21617305.394    21617310.938   115475839.418 7  89814583.920 6
      3020.605        2349.355
  23829840.418    23829840.351    23829847.471   127250214.714 5  98972472.661 4
      4814.203        3744.335
  21124674.974    21124673.477    21124677.308   113042455.642 7  87921952.040 5
     -2461.082       -1914.180
  21325821.039    21325820.791    21325825.535   113838699.606 7  88541255.528 6
      1381.346        1074.379
 11 10 10 20 48  0.0000000  0 16G04G10G11G13G17G20G23G31G32R01R02R11
                                R12R13R17R18
  22548056.160    22548056.0334   22548062.0334  118490891.394 6  92330572.27443
      3318.740        2586.025
  24139333.237    24139330.4784   24139340.8424  126853049.796 4  98846550.65841
      3337.831        2600.946
  24350738.213    24350736.4554   24350744.6684  127964088.409 5  99712303.19041
     -3144.250       -2450.090
  20856080.453    20856080.3594   20856085.1304  109599876.392 8  85402302.56546
      2345.091        1827.343
  22580482.939    22580482.9464   22580489.4074  118661307.382 6  92463375.62043
      -983.390        -766.275
  20943072.284    20943071.3154   20943076.9304  110056848.205 7  85758568.89146
      -800.964        -624.130
  20353521.273    20353520.6284   20353523.6304  106958887.966 8  83344493.13047
       531.091         413.838
  24486145.112    24486144.7544   24486150.4844  128675588.615 5 100266708.83841
     -1799.944       -1402.548
  23184623.234    23184622.4394   23184629.5034  121836435.010 6  94937406.72743
     -1730.550       -1348.484
  22801502.661    22801502.645    22801507.417   121887527.324 6  94801545.891 4
     -2096.368       -1630.509
  20153680.912    20153680.578    20153683.991   107544159.493 8  83645571.402 7
        25.285          19.666
  22301455.820    22301455.962    22301459.975   119172257.729 6  92689557.828 4
      -960.142        -746.781
  21600396.011    21600396.037    21600402.361   115385515.885 7  89744332.333 6
      3001.012        2334.119
  23802791.078    23802791.266    23802799.548   127105784.544 5  98860138.974 4
      4814.572        3744.643
  21138524.911    21138523.961    21138527.562   113116571.003 7  87979597.297 5
     -2479.844       -1928.769
  21318132.481    21318132.076    21318137.362   113797656.640 7  88509333.220 6
      1354.954        1053.853
 11 10 10 20 48 30.0000000  0 16G04G10G11G13G17G20G23G31G32R01R02R11
                                R12R13R17R18
  22529138.812    22529138.3754   22529144.6964  118391480.045 6  92253108.90743
      3308.919        2578.383
  24120287.293    24120284.6514   24120292.3614  126752961.052 5  98768559.51941
      3335.264        2598.923
  24368696.467    24368695.0944   24368701.5404  128058457.132 5  99785837.12341
     -3146.728       -2451.942
  20842737.601    20842737.3814   20842742.2854  109529759.155 8  85347665.78046
      2329.656        1815.317
  22586144.664    22586144.1484   22586150.4614  118691056.231 6  92486556.52643
      -999.576        -778.890
  20947669.970    20947669.2364   20947674.6934  110081010.444 7  85777396.60946
      -809.578        -630.840
  20350534.043    20350533.3854   20350536.3664  106943189.575 9  83332260.62247
       515.720         401.862
  24496462.422    24496462.0674   24496469.6504  128729810.019 5 100308959.27441
     -1814.466       -1413.857
  23194512.152    23194511.3394   23194518.0744  121888399.667 6  94977898.63843
     -1733.491       -1350.770
  22813273.860    22813273.362    22813278.399   121950449.935 6  94850485.670 4
     -2098.216       -1631.945
  20153561.590    20153561.162    20153564.626   107543522.661 8  83645076.091 7
        17.457          13.578
  22306917.465    22306917.808    22306922.178   119201447.055 5  92712260.648 4
      -985.619        -766.597
  21583598.364    21583598.008    21583604.691   115295785.452 7  89674542.029 6
      2981.185        2318.698
  23775743.967    23775743.110    23775751.063   126961350.979 5  98747802.572 4
      4814.570        3744.637
  21152481.221    21152480.041    21152483.664   113191252.272 7  88037682.706 5
     -2498.641       -1943.374
  21310592.927    21310592.814    21310597.993   113757410.858 7  88478030.961 6
      1328.310        1033.126
 11 10 10 20 49  0.0000000  0 16G04G10G11G13G17G20G23G31G32R01R02R11
                                R12R13R17R18
  22510276.170    22510275.9214   22510281.8044  118292356.880 6  92175870.09243
      3299.331        2570.906
  24101253.372    24101252.0514   24101258.3564  126652937.224 5  98690618.90741
      3333.097        2597.232
  24386666.378    24386665.1084   24386673.2494  128152892.556 5  99859423.04541
     -3148.878       -2453.689
  20829481.984    20829481.5584   20829486.4774  109460099.362 8  85293385.44146
      2314.409        1803.434
  22591896.667    22591896.5834   22591902.3104  118721283.311 6  92510110.08743
     -1015.492        -791.297
  20952316.130    20952315.1324   20952320.6784  110105425.536 8  85796421.35645
      -817.991        -637.397
  20347633.098    20347632.4464   20347635.5144  106927945.697 9  83320382.28247
       500.602         390.079
  24506861.305    24506860.9184   24506866.8704  128784458.102 5 100351542.21841
     -1828.722       -1424.983
  23204416.526    23204415.5764   23204422.3344  121940445.569 6  95018453.87543
     -1736.134       -1352.828
  22825053.592    22825054.247    22825058.682   122013424.194 6  94899465.602 4
     -2099.952       -1633.295
  20153485.297    20153484.785    20153488.287   107543114.814 8  83644758.877 7
         9.842           7.656
  22312523.582    22312522.752    22312527.636   119231394.278 6  92735552.907 4
     -1010.844        -786.208
  21566911.699    21566911.594    21566917.536   115206645.999 7  89605211.367 6
      2961.544        2303.424
  23748694.139    23748693.938    23748701.614   126816912.597 5  98635462.378 4
      4814.667        3744.712
  21166540.307    21166539.300    21166543.420   113266488.250 7  88096199.564 5
     -2517.020       -1957.678
  21303202.080    21303201.862    21303206.718   113717957.183 7  88447344.762 6
      1301.912        1012.595
 11 10 10 20 49 30.0000000  0 16G04G10G11G13G17G20G23G31G32R01R02R11
                                R12R13R17R18
  22491467.756    22491467.6854   22491473.9454  118193519.392 6  92098853.88343
      3289.883        2563.545
  24082228.568    24082228.9524   24082235.9804  126552973.767 5  98612725.38441
      3331.212        2595.763
  24404648.640    24404646.8674   24404653.6184  128247387.737 5  99933055.51141
     -3150.820       -2455.180
  20816312.132    20816311.8934   20816317.0884  109390892.980 8  85239458.40146
      2299.365        1791.709
  22597738.373    22597737.9954   22597743.6694  118751981.784 6  92534030.94743
     -1031.072        -803.437
  20957009.252    20957008.3874   20957013.7914  110130088.291 7  85815639.07545
      -826.148        -643.753
  20344817.841    20344817.0244   20344820.0694  106913150.702 9  83308853.72047
       485.749         378.503
  24517340.674    24517339.9334   24517347.1654  128839525.975 5 100394452.26641
     -1842.494       -1435.693
  23214335.023    23214333.8414   23214340.7414  121992567.587 6  95059068.42843
     -1738.567       -1354.727
  22836845.140    22836844.814    22836848.435   122076445.145 6  94948481.851 4
     -2101.426       -1634.442
  20153451.063    20153450.391    20153453.976   107542930.393 8  83644615.446 7
         2.488           1.932
  22318267.617    22318266.998    22318272.152   119262092.371 5  92759429.215 4
     -1035.754        -805.585
  21550335.316    21550334.981    21550340.890   115118096.506 7  89536339.563 6
      2941.827        2288.083
  23721644.207    23721643.646    23721651.029   126672467.845 5  98523117.173 4
      4814.907        3744.906
  21180702.176    21180701.333    21180704.491   113342270.771 6  88155141.504 5
     -2535.098       -1971.741
  21295958.693    21295958.313    21295963.926   113679292.201 7  88417272.011 6
      1275.702         992.209
 11 10 10 20 50  0.0000000  0 16G04G10G11G13G17G20G23G31G32R01R02R11
                                R12R13R17R18
  22472713.398    22472713.2294   22472719.5584  118094963.944 6  92022057.46043
      3280.535        2556.256
  24063219.601    24063217.4684   24063225.2964  126453065.357 5  98534874.74341
      3329.431        2594.369
  24422639.945    24422639.2604   24422644.9544  128341934.260 5 100006727.93341
     -3152.299       -2456.313
  20803227.659    20803227.4724   20803232.7734  109322134.699 8  85185880.53246
      2284.539        1780.163
  22603668.085    22603667.9494   22603673.0014  118783143.118 6  92558312.47643
     -1046.339        -815.325
  20961748.330    20961747.3534   20961753.0384  110154992.485 8  85835044.92246
      -834.091        -649.940
  20342086.334    20342085.7124   20342088.6184  106898797.717 9  83297669.57947
       471.156         367.136
  24527897.302    24527899.6784   24527903.2794  128895005.498 4 100437683.03341
     -1856.037       -1446.258
  23224266.924    23224266.1624   23224272.2384  122044759.678 6  95099737.58243
     -1740.804       -1356.469
  22848641.976    22848641.033    22848646.388   122139506.292 6  94997529.377 4
     -2102.581       -1635.345
  20153456.585    20153456.216    20153460.111   107542962.939 8  83644640.769 7
        -4.627          -3.600
  22324152.552    22324151.386    22324156.321   119293533.639 6  92783883.544 4
     -1060.285        -824.664
  21533868.753    21533868.446    21533874.762   115030134.796 7  89467924.926 6
      2922.309        2272.904
  23694593.042    23694591.901    23694599.232   126528015.333 5  98410765.882 4
      4815.195        3745.127
  21194964.043    21194962.995    21194966.970   113418589.120 7  88214500.204 5
     -2552.734       -1985.463
  21288862.609    21288861.663    21288867.488   113641410.624 7  88387808.567 6
      1249.686         971.979
 11 10 10 20 50 30.0000000  0 16G04G10G11G13G17G20G23G31G32R01R02R11
                                R12R13R17R18
  22454012.555    22454012.1624   22454018.1134  117996689.412 6  91945479.91943
      3270.898        2548.758
  24044216.251    24044214.8064   24044224.1044  126353209.075 5  98457064.70841
      3327.359        2592.697
  24440640.469    24440639.9304   24440645.8944  128436526.891 5 100080436.34341
     -3154.130       -2457.760
  20790228.347    20790228.0434   20790233.1434  109253821.546 8  85132649.52346
      2269.424        1768.386
  22609685.466    22609684.9724   22609690.2534  118814761.635 6  92582950.25843
     -1061.780        -827.363
  20966533.004    20966531.8484   20966537.5344  110180134.758 8  85854636.29346
      -842.288        -656.329
  20339438.381    20339437.7474   20339440.4494  106884882.226 9  83286826.35147
       456.313         355.568
  24538532.428    24538534.2374   24538537.3334  128950890.799 5 100481230.00141
     -1869.842       -1457.050
  23234211.898    23234210.4634   23234217.2104  122097018.071 6  95140458.38543
     -1743.357       -1358.465
  22860444.921    22860444.954    22860450.438   122202604.226 6  95046605.507 4
     -2104.176       -1636.569
  20153502.108    20153501.811    20153506.002   107543208.547 8  83644831.795 7
       -12.007          -9.339
  22330172.702    22330172.267    22330177.918   119325712.444 6  92808911.487 4
     -1085.141        -843.997
  21517512.339    21517512.280    21517517.668   114942761.039 7  89399967.597 6
      2902.359        2257.390
  23667540.361    23667538.849    23667546.475   126383555.613 5  98298408.927 4
      4815.188        3745.124
  21209325.598    21209324.099    21209327.571   113495435.177 7  88274269.343 5
     -2570.551       -1999.320
  21281911.645    21281911.413    21281916.780   113604309.107 7  88358951.828 6
      1223.343         951.484
 11 10 10 20 51  0.0000000  0 16G04G10G11G13G17G20G23G31G32R01R02R11
                                R12R13R17R18
  22435366.597    22435366.4534   22435372.1614  117898704.843 6  91869128.30243
      3261.303        2541.284
  24025225.971    24025224.2804   24025233.0544  126253411.864 5  98379300.73641
      3325.640        2591.398
  24458650.773    24458649.0074   24458655.0124  128531170.364 5 100154184.34641
     -3155.679       -2458.981
  20777314.603    20777314.6354   20777319.6554  109185960.866 8  85079771.09746
      2254.449        1756.715
  22615790.499    22615789.6014   22615794.8784  118846841.494 6  92607947.54143
     -1077.007        -839.232
  20971363.959    20971362.9134   20971368.4394  110205521.517 8  85874418.17346
      -850.297        -662.567
  20336874.802    20336874.2164   20336876.9594  106871410.395 9  83276328.83447
       441.681         344.168
  24549245.330    24549246.1104   24549251.6304  129007186.449 5 100525096.76441
     -1883.327       -1467.508
  23244169.998    23244169.0994   23244175.0134  122149349.309 6  95181235.94343
     -1745.580       -1360.205
  22872257.344    22872257.333    22872261.578   122265745.450 6  95095715.322 4
     -2105.399       -1637.528
  20153589.364    20153589.051    20153593.333   107543673.534 8  83645193.449 7
       -19.178         -14.918
  22336334.344    22336333.753    22336338.171   119358633.512 6  92834516.763 4
     -1109.725        -863.120
  21501267.189    21501267.144    21501272.939   114855985.800 7  89332475.766 6
      2882.468        2241.920
  23640485.130    23640485.958    23640494.022   126239099.258 5  98186054.566 4
      4815.029        3745.004
  21223785.025    21223783.673    21223787.717   113572812.632 7  88334451.787 5
     -2588.024       -2012.912
  21275108.745    21275108.740    21275113.456   113567996.119 7  88330708.400 6
      1197.258         931.198
 11 10 10 20 51 30.0000000  0 16G04G10G11G13G17G20G23G31G32R01R02R11
                                R12R13R17R18
  22416776.379    22416776.2484   22416782.4774  117801014.593 6  91793006.06343
      3251.341        2533.522
  24006246.218    24006245.8514   24006253.6264  126153676.008 5  98301584.53341
      3323.446        2589.706
  24476670.026    24476670.6094   24476676.1994  128625864.563 5 100227971.86241
     -3157.344       -2460.241
  20764488.324    20764487.7334   20764492.8004  109118555.461 8  85027247.42846
      2239.206        1744.837
  22621981.360    22621981.7214   22621987.2564  118879382.661 6  92633304.28143
     -1092.440        -851.244
  20976241.749    20976240.6964   20976246.2284  110231154.543 8  85894391.96045
      -858.593        -669.035
  20334395.607    20334394.9814   20334397.7814  106858382.822 9  83266177.49047
       426.788         332.561
  24560036.916    24560036.4714   24560041.5224  129063892.112 5 100569282.99841
     -1897.049       -1478.229
  23254142.424    23254140.8294   23254147.9544  122201755.195 6  95222071.67543
     -1748.146       -1362.192
  22884077.496    22884076.919    22884081.696   122328932.014 6  95144860.377 4
     -2107.019       -1638.788
  20153718.230    20153717.885    20153721.701   107544359.504 8  83645726.979 7
       -26.608         -20.694
  22342632.971    22342632.757    22342638.383   119392296.819 5  92860699.330 4
     -1134.560        -882.439
  21485135.830    21485135.981    21485141.612   114769814.875 7  89265453.963 6
      2862.232        2226.179
  23613435.825    23613435.228    23613443.144   126094652.602 5  98073707.700 4
      4814.709        3744.752
  21238344.004    21238342.441    21238345.593   113650718.697 7  88395045.375 5
     -2605.654       -2026.622
  21268455.111    21268454.608    21268459.236   113532473.813 7  88303079.939 6
      1170.764         910.591
 11 10 10 20 52  0.0000000  0 16G04G10G11G13G17G20G23G31G32R01R02R11
                                R12R13R17R18
  22398244.025    22398244.1854   22398249.5544  117703624.361 6  91717117.58043
      3241.339        2525.719
  23987280.079    23987277.4694   23987285.9954  126054005.023 5  98223918.87041
      3321.289        2588.016
  24494701.142    24494699.4824   24494705.6364  128720610.503 5 100301799.72941
     -3159.031       -2461.569
  20751748.713    20751748.2964   20751753.3074  109051608.701 8  84975081.13646
      2223.934        1732.933
  22628262.593    22628262.5654   22628267.9014  118912385.584 6  92659020.82843
     -1107.777        -863.205
  20981166.845    20981165.8194   20981171.4624  110257036.694 8  85914559.86746
      -866.882        -675.492
  20332001.615    20332000.9174   20332003.7424  106845801.796 9  83256374.10147
       411.954         321.002
  24570905.652    24570905.2964   24570909.4704  129121008.579 5 100613789.33341
     -1910.690       -1488.854
  23264129.034    23264128.8064   23264135.0194  122254238.667 6  95262967.86943
     -1750.738       -1364.216
  22895907.879    22895906.292    22895911.427   122392166.780 6  95194042.928 4
     -2108.639       -1640.058
  20153889.157    20153888.551    20153892.162   107545269.344 8  83646434.630 7
       -34.020         -26.461
  22349073.771    22349072.861    22349076.068   119426703.466 6  92887460.024 4
     -1159.230        -901.620
  21469118.421    21469118.567    21469124.151   114684254.949 7  89198907.371 6
      2841.795        2210.285
  23586388.793    23586388.582    23586395.170   125950222.975 5  97961374.027 4
      4814.037        3744.234
  21253000.666    21252999.393    21253002.968   113729151.414 6  88456048.576 5
     -2623.137       -2040.216
  21261948.818    21261948.877    21261953.456   113497746.399 7  88276069.711 6
      1144.331         890.039
 11 10 10 20 52 30.0000000  0 17G04G07G10G11G13G17G20G23G31G32R01R02
                                R11R12R13R17R18
  22379768.897    22379769.2344   22379775.5804  117606540.293 6  91641467.68943
      3230.814        2517.510
  25269874.782                                   132794116.411 4
      4067.917
  23968325.760    23968325.3674   23968332.3054  125954403.379 5  98146307.26541
      3318.717        2585.993
  24512739.254    24512738.8124   24512744.5804  128815410.241 5 100375669.48141
     -3161.071       -2463.158
  20739097.151    20739097.0014   20739101.9074  108985125.139 8  84923275.77946
      2208.168        1720.652
  22634630.601    22634630.8194   22634636.2574  118945852.478 6  92685098.90543
     -1123.490        -875.450
  20986140.269    20986139.2014   20986144.9764  110283172.001 8  85934925.03446
      -875.599        -682.286
  20329692.966    20329692.4174   20329695.2364  106833670.677 9  83246921.28747
       396.689         309.107
  24581852.640    24581853.7394   24581859.0784  129178537.708 5 100658617.23341
     -1924.780       -1499.845
  23274131.422    23274131.1044   23274138.2884  122306803.777 6  95303927.65643
     -1753.709       -1366.521
  22907745.667    22907745.515    22907750.975   122455453.895 6  95243266.196 4
     -2110.602       -1641.587
  20154102.398    20154101.841    20154105.188   107546406.808 8  83647319.332 7
       -41.906         -32.593
  22355650.147    22355650.169    22355653.994   119461855.695 6  92914800.647 4
     -1184.310        -921.129
  21453217.742    21453217.470    21453223.325   114599314.197 7  89132842.350 6
      2820.840        2193.984
  23559347.370    23559346.470    23559353.036   125805818.987 5  97849060.286 4
      4812.738        3743.223
  21267755.298    21267754.542    21267758.781   113808111.340 6  88517461.821 5
     -2640.973       -2054.088
  21255593.312    21255592.732    21255597.941   113463818.424 7  88249681.298 6
      1117.430         869.107
 11 10 10 20 53  0.0000000  0 17G04G07G10G11G13G17G20G23G31G32R01R02
                                R11R12R13R17R18
  22361355.502    22361355.4954   22361360.8924  117509774.938 6  91566066.12543
      3220.188        2509.238
  25246641.907                                   132672034.847 4
      4070.780
  23949388.839    23949387.0434   23949394.0524  125854881.184 5  98068757.52741
      3316.188        2584.047
  24530790.743    24530791.0404   24530794.8544  128910271.261 5 100449586.97641
     -3162.979       -2464.669
  20726535.905    20726535.7814   20726540.6504  108919115.860 8  84871839.98946
      2192.443        1708.396
  22641089.656    22641089.3214   22641094.1944  118979790.418 6  92711544.03543
     -1139.061        -887.580
  20991163.642    20991162.6844   20991168.3774  110309569.937 7  85955494.84445
      -884.274        -689.045
  20327472.079    20327471.3254   20327474.1904  106821998.238 9  83237825.88747
       381.471         297.247
  24592879.438    24592879.3714   24592884.0464  129236487.081 5 100703772.57141
     -1938.720       -1510.702
  23284152.698    23284151.6424   23284158.1554  122359460.209 6  95344958.60943
     -1756.722       -1368.870
  22919596.834    22919596.464    22919601.800   122518803.269 6  95292537.893 4
     -2112.632       -1643.158
  20154359.501    20154359.205    20154362.815   107547781.645 8  83648388.654 7
       -49.750         -38.695
  22362369.911    22362369.694    22362375.069   119497761.133 6  92942727.065 4
     -1209.392        -940.639
  21437435.476    21437435.237    21437441.421   114515006.163 7  89067269.451 6
      2799.763        2177.588
  23532311.103    23532311.306    23532317.324   125661454.612 6  97736777.321 4
      4811.446        3742.218
  21282610.579    21282609.972    21282614.436   113887604.893 6  88579290.106 5
     -2658.623       -2067.815
  21249388.930    21249389.018    21249393.585   113430701.032 7  88223923.307 6
      1090.538         848.195
 11 10 10 20 53 30.0000000  0 17G04G07G10G11G13G17G20G23G31G32R01R02
                                R11R12R13R17R18
  22343002.590    22343001.8774   22343007.9604  117413326.911 6  91490911.83643
      3209.717        2501.077
  25223393.959                                   132549868.600 4
      4073.725
  23930464.362    23930461.1304   23930469.7164  125755435.405 5  97991267.36441
      3313.670        2582.083
  24548854.351    24548853.1604   24548859.1954  129005187.668 5 100523547.64041
     -3164.673       -2465.951
  20714064.476    20714064.1204   20714068.9614  108853577.249 8  84820770.95246
      2176.875        1696.269
  22647636.148    22647635.9534   22647640.8184  119014193.173 6  92738351.35543
     -1154.402        -899.524
  20996236.144    20996235.2044   20996240.9534  110336226.567 8  85976266.22845
      -892.768        -695.664
  20325337.313    20325336.5044   20325339.3424  106810779.461 9  83229083.98847
       366.495         285.580
  24603986.297    24603985.1504   24603991.3054  129294850.842 4 100749250.84341
     -1952.284       -1521.268
  23294189.133    23294188.1184   23294194.9424  122412203.952 6  95386057.59643
     -1759.486       -1371.014
  22931460.005    22931458.420    22931462.996   122582210.945 6  95341854.922 4
     -2114.486       -1644.605
  20154660.798    20154660.417    20154664.296   107549389.730 8  83649639.379 7
       -57.385         -44.633
  22369228.338    22369229.051    22369232.507   119534414.205 6  92971235.018 4
     -1234.156        -959.909
  21421770.694    21421770.399    21421776.819   114431330.695 7  89002188.543 6
      2778.672        2161.190
  23505283.307    23505283.544    23505289.659   125517130.084 5  97624525.317 4
      4810.205        3741.255
  21297564.625    21297563.521    21297567.890   113967623.579 6  88641526.832 5
     -2675.870       -2081.224
  21243336.271    21243335.866    21243341.222   113398390.641 7  88198792.995 6
      1063.653         827.286
 11 10 10 20 54  0.0000000  0 16G04G10G11G13G17G20G23G31G32R01R02R11
                                R12R13R17R18
  22324707.679    22324707.2234   22324712.6584  117317188.241 6  91415998.59543
      3199.330        2492.993
  23911551.892    23911550.6714   23911559.7514  125656056.168 5  97913829.04541
      3311.456        2580.345
  24566924.180    24566926.4074   24566930.1154  129100147.907 5 100597542.44741
     -3166.231       -2467.177
  20701680.471    20701680.2194   20701685.1754  108788499.647 8  84770061.13946
      2161.443        1684.245
  22654269.359    22654268.6884   22654273.7444  119049048.188 6  92765511.08843
     -1169.470        -911.275
  21001356.038    21001355.2014   21001360.8854  110363131.862 8  85997231.38845
      -901.096        -702.153
  20323286.468    20323285.8984   20323288.7784  106800003.630 9  83220687.24247
       351.706         274.057
  24615169.715    24615169.1344   24615173.8144  129353616.233 5 100795042.01341
     -1965.593       -1531.622
  23304240.099    23304239.2784   23304246.6284  122465024.643 6  95427216.54043
     -1762.062       -1373.031
  22943329.438    22943329.104    22943333.718   122645666.629 5  95391209.273 4
     -2116.125       -1645.882
  20155003.979    20155003.497    20155007.077   107551220.186 8  83651063.058 7
       -64.837         -50.424
  22376225.967    22376226.305    22376229.803   119571801.908 6  93000314.318 4
     -1258.581        -978.893
  21406223.796    21406223.617    21406230.012   114348281.271 7  88937594.573 6
      2757.718        2144.886
  23478262.424    23478261.871    23478268.200   125372839.423 6  97512299.626 4
      4808.924        3740.278
  21312612.877    21312612.317    21312616.163   114048152.269 6  88704160.236 5
     -2692.854       -2094.437
  21237432.466    21237432.543    21237437.654   113366877.677 7  88174282.920 6
      1036.985         806.547
 11 10 10 20 54 30.0000000  0 16G04G10G11G13G17G20G23G31G32R01R02R11
                                R12R13R17R18
  22306472.831    22306472.5394   22306478.5264  117221363.132 7  91341329.69543
      3189.033        2484.959
  23892653.896    23892653.1044   23892659.8854  125556745.488 5  97836444.15241
      3309.249        2578.648
  24585003.737    24585002.2394   24585008.0584  129195151.227 5 100671570.79941
     -3167.342       -2468.048
  20689384.672    20689384.3964   20689389.6304  108723885.528 8  84719712.48746
      2146.191        1672.351
  22660986.577    22660986.5304   22660992.7774  119084354.873 6  92793022.77143
     -1184.270        -922.800
  21006523.526    21006522.7504   21006528.1704  110390287.373 8  86018391.52645
      -909.249        -708.507
  20321320.212    20321319.5744   20321322.4624  106789671.381 9  83212636.15447
       337.149         262.711
  24626428.853    24626428.4534   24626433.1104  129412782.845 5 100841145.84641
     -1978.806       -1541.928
  23314307.080    23314305.5654   23314312.5534  122517924.110 6  95468436.88543
     -1764.573       -1374.993
  22955209.550    22955208.650    22955214.156   122709171.720 6  95440602.086 4
     -2117.547       -1646.987
  20155389.445    20155388.889    20155392.356   107553274.613 8  83652660.948 7
       -72.097         -56.077
  22383359.720    22383359.671    22383365.493   119609923.959 6  93029964.806 4
     -1282.831        -997.765
  21390794.681    21390794.968    21390801.095   114265863.071 7  88873491.556 6
      2736.863        2128.668
  23451247.424    23451247.503    23451254.618   125228588.583 6  97400104.891 4
      4807.721        3739.317
  21327756.587    21327755.567    21327759.608   114129188.915 6  88767188.726 5
     -2709.560       -2107.440
  21231679.149    21231678.932    21231683.983   113336163.757 7  88150394.320 6
      1010.604         786.029
 11 10 10 20 55  0.0000000  0 16G04G10G11G13G17G20G23G31G32R01R02R11
                                R12R13R17R18
  22288297.288    22288296.9644   22288303.0634  117125850.882 7  91266904.58743
      3178.468        2476.727
  23873768.742    23873766.3144   23873773.1184  125457500.886 5  97759110.75841
      3307.021        2576.910
  24603088.701    24603086.6724   24603093.2404  129290192.537 5 100745628.73541
     -3168.744       -2469.144
  20677176.698    20677176.3574   20677181.6644  108659732.226 8  84669722.90546
      2130.686        1660.276
  22667790.949    22667790.6664   22667795.8504  119120107.840 6  92820882.21543
     -1199.246        -934.484
  21011737.928    21011737.0554   21011742.6074  110417689.707 7  86039743.99345
      -917.574        -714.995
  20319437.656    20319436.9794   20319439.8664  106779778.573 9  83204927.48147
       322.390         251.214
  24637763.427    24637763.6064   24637769.0734  129472345.314 5 100887558.15341
     -1992.142       -1552.308
  23324388.149    23324386.8494   23324393.7324  122570899.032 6  95509716.02443
     -1767.165       -1377.011
  22967098.932    22967097.620    22967103.512   122772723.316 6  95490031.089 4
     -2119.197       -1648.270
  20155815.937    20155815.281    20155818.772   107555549.653 8  83654430.424 7
       -79.567         -61.886
  22390630.031    22390629.120    22390633.985   119648775.146 6  93060182.380 4
     -1307.188       -1016.694
  21375484.796    21375484.506    21375490.371   114184076.793 7  88809880.031 6
      2715.593        2112.128
  23424241.205    23424241.596    23424247.665   125084378.772 5  97287942.030 4
      4806.205        3738.145
  21342993.795    21342992.904    21342996.647   114210725.635 6  88830606.152 5
     -2726.221       -2120.389
  21226075.564    21226075.077    21226079.880   113306247.238 7  88127125.913 6
       983.839         765.208
 11 10 10 20 55 30.0000000  0 16G04G10G11G13G17G20G23G31G32R01R02R11
                                R12R13R17R18
  22270183.231    22270182.9054   22270188.5914  117030658.842 7  91192728.98643
      3167.700        2468.327
  23854896.751    23854894.8654   23854901.7454  125358327.484 5  97681832.83341
      3304.584        2575.013
  24621181.202    24621182.1794   24621188.4944  129385274.675 4 100819718.46241
     -3170.084       -2470.208
  20665057.629    20665057.3754   20665062.4244  108596044.969 8  84620096.47946
      2115.083        1648.116
  22674680.378    22674679.7154   22674684.9734  119156309.523 6  92849091.29843
     -1214.227        -946.153
  21017000.481    21016999.4944   21017005.0534  110445343.510 7  86061292.41245
      -926.027        -721.583
  20317639.612    20317638.8554   20317641.8924  106770329.381 9  83197564.47647
       307.545         239.644
  24649172.847    24649174.2744   24649175.8974  129532306.278 5 100934281.03341
     -2005.326       -1562.596
  23334484.111    23334483.2834   23334489.5814  122623954.199 6  95551057.69642
     -1769.931       -1379.156
  22978998.011    22978996.681    22979000.598   122836326.305 6  95539500.045 4
     -2121.038       -1649.687
  20156283.494    20156283.324    20156287.097   107558049.796 8  83656374.977 7
       -87.122         -67.762
  22398037.488    22398037.108    22398042.206   119688357.882 6  93090968.951 4
     -1331.646       -1035.724
  21360293.551    21360293.662    21360299.489   114102930.831 7  88746766.536 6
      2694.076        2095.389
  23397244.430    23397244.563    23397250.689   124940219.299 6  97175818.318 4
      4804.386        3736.725
  21358325.114    21358323.873    21358327.840   114292763.009 6  88894412.984 5
     -2742.966       -2133.423
  21220621.010    21220620.812    21220625.577   113277133.125 7  88104481.602 6
       957.070         744.387
 11 10 10 20 56  0.0000000  0 17G04G07G10G11G13G17G20G23G31G32R01R02
                                R11R12R13R17R18
  22252130.133    22252129.7084   22252136.0614  116935791.323 6  91118806.26843
      3156.736        2459.792
  25106898.181                                   131937636.022 4
      4087.753
  23836038.804    23836036.8074   23836043.2474  125259228.202 5  97604612.69241
      3301.786        2572.812
  24639284.195    24639282.5794   24639290.5994  129480397.570 5 100893839.95641
     -3171.539       -2471.312
  20653027.624    20653027.2644   20653032.1214  108532826.432 8  84570835.27846
      2099.402        1635.903
  22681653.978    22681653.6404   22681659.7614  119192958.905 6  92877649.24443
     -1229.155        -957.783
  21022311.021    21022310.0804   21022315.8334  110473250.725 8  86083038.31745
      -934.523        -728.202
  20315926.162    20315925.3884   20315928.3674  106761324.782 9  83190547.90647
       292.709         228.085
  24660657.919    24660658.1864   24660663.9634  129592665.340 4 100981314.05841
     -2018.557       -1572.887
  23344595.616    23344594.6424   23344601.5044  122677091.402 6  95592463.29643
     -1772.663       -1381.301
  22990905.140    22990904.666    22990908.627   122899982.383 6  95589010.298 4
     -2122.799       -1651.068
  20156794.687    20156794.219    20156797.850   107560776.733 8  83658495.924 7
       -94.736         -73.683
  22405582.613    22405581.162    22405586.244   119728671.922 5  93122324.269 4
     -1356.038       -1054.694
  21345223.377    21345223.663    21345229.514   114022430.672 7  88684155.342 6
      2672.513        2078.621
  23370259.036    23370258.583    23370264.200   124796116.129 5  97063738.385 4
      4802.366        3735.165
  21373748.369    21373747.525    21373751.362   114375298.936 6  88958607.554 5
     -2759.552       -2146.314
  21215316.952    21215317.155    21215321.582   113248823.815 7  88082463.249 6
       930.114         723.420
 11 10 10 20 56 30.0000000  0 17G04G07G10G11G13G17G20G23G31G32R01R02
                                R11R12R13R17R18
  22234138.821    22234138.9224   22234144.3954  116841247.302 6  91045135.59843
      3145.988        2451.431
  25083551.568                                   131814964.919 4
      4090.147
  23817192.470    23817191.8724   23817198.6294  125160199.589 5  97527447.54441
      3299.750        2571.230
  24657391.778    24657392.3134   24657396.9504  129575555.770 5 100967988.99941
     -3172.562       -2472.143
  20641086.235    20641085.8394   20641090.4764  108470073.729 8  84521937.06646
      2083.964        1623.872
  22688712.448    22688711.8344   22688718.1624  119230050.501 6  92906551.76643
     -1243.764        -969.157
  21027669.272    21027668.2964   21027673.5974  110501407.708 8  86104978.82745
      -942.744        -734.603
  20314296.300    20314295.5794   20314298.4994  106752759.844 9  83183873.92947
       278.166         216.756
  24672219.036    24672220.7414   24672225.8954  129653416.894 4 101028652.93941
     -2031.565       -1583.060
  23354721.667    23354721.0094   23354728.4244  122730307.154 6  95633930.09143
     -1775.162       -1383.246
  23002822.642    23002821.914    23002826.638   122963688.310 6  95638559.315 4
     -2124.467       -1652.359
  20157347.741    20157347.166    20157350.522   107563726.978 8  83660790.557 7
      -102.060         -79.382
  22413261.922    22413261.962    22413265.623   119769711.590 6  93154243.988 4
     -1380.077       -1073.397
  21330275.059    21330274.745    21330280.425   113942576.582 7  88622046.642 6
      2650.925        2061.832
  23343284.071    23343283.567    23343289.328   124652070.233 6  96951702.994 4
      4800.579        3733.778
  21389264.400    21389263.456    21389266.437   114458325.263 6  89023183.562 5
     -2775.684       -2158.862
  21210163.920    21210163.829    21210168.666   113221316.176 7  88061068.419 6
       903.538         702.753
 11 10 10 20 57  0.0000000  0 17G04G07G10G11G13G17G20G23G31G32R01R02
                                R11R12R13R17R18
  22216209.885    22216209.0964   22216216.0994  116747028.871 6  90971718.65443
      3135.332        2443.120
  25060190.878                                   131692218.462 3
      4092.901
  23798362.405    23798360.3794   23798369.6744  125061241.960 5  97450337.73341
      3297.531        2569.535
  24675506.632    24675507.6114   24675514.1664  129670747.027 5 101042163.72041
     -3173.393       -2472.759
  20629233.157    20629232.8874   20629237.9264  108407786.994 8  84473401.95846
      2068.653        1611.936
  22695854.292    22695854.0674   22695858.7674  119267581.545 6  92935796.70543
     -1258.195        -980.405
  21033074.766    21033073.6384   21033078.9974  110529813.908 8  86127113.52445
      -950.895        -740.959
  20312749.821    20312749.1764   20312751.9934  106744633.331 9  83177541.58747
       263.767         205.532
  24683854.570    24683854.8054   24683859.1314  129714558.152 4 101076295.42141
     -2044.427       -1593.018
  23364863.508    23364862.4144   23364870.2274  122783601.075 6  95675457.78143
     -1777.613       -1385.163
  23014748.449    23014747.993    23014753.324   123027443.652 6  95688146.779 4
     -2125.813       -1653.411
  20157942.628    20157942.168    20157945.615   107566899.588 8  83663258.146 7
      -109.317         -85.025
  22421077.747    22421076.506    22421081.550   119811474.045 5  93186725.909 4
     -1403.871       -1091.899
  21315447.520    21315447.387    21315453.169   113863371.708 7  88560442.886 6
      2629.467        2045.142
  23316320.805    23316320.457    23316325.286   124508085.528 6  96839715.177 4
      4798.652        3732.273
  21404870.496    21404869.491    21404873.024   114541837.461 6  89088137.465 5
     -2791.614       -2171.257
  21205161.266    21205160.721    21205166.036   113194611.009 7  88040297.719 6
       876.995         682.106
 11 10 10 20 57 30.0000000  0 16G04G10G11G13G17G20G23G31G32R01R02R11
                                R12R13R17R18
  22198343.133    22198342.7614   22198348.3564  116653138.463 6  90898557.31943
      3124.198        2434.434
  23779543.447    23779544.1594   23779551.9734  124962355.676 5  97373283.54041
      3295.032        2567.575
  24693627.123    24693624.9994   24693629.5644  129765969.372 5 101116362.70041
     -3174.686       -2473.782
  20617469.496    20617468.8574   20617473.9454  108345966.534 8  84425230.18146
      2052.888        1599.652
  22703078.116    22703078.6634   22703084.3794  119305549.408 6  92965382.05643
     -1272.895        -991.862
  21038527.847    21038526.7204   21038532.1194  110558469.534 8  86149442.58645
      -959.379        -747.571
  20311286.759    20311286.0534   20311288.7744  106736944.342 8  83171550.16947
       248.966         194.000
  24695562.325    24695561.8974   24695566.1864  129776086.351 4 101124239.45841
     -2057.317       -1603.076
  23375019.930    23375018.7364   23375026.9214  122836972.995 6  95717046.26443
     -1780.429       -1387.341
  23026684.488    23026684.514    23026688.355   123091248.237 6  95737772.555 4
     -2127.715       -1654.905
  20158578.659    20158578.183    20158582.074   107570294.483 8  83665898.620 7
      -116.925         -90.938
  22429027.840    22429027.654    22429032.591   119853956.873 6  93219768.068 4
     -1428.122       -1110.757
  21300742.582    21300742.353    21300748.358   113784819.462 7  88499346.715 6
      2607.483        2028.042
  23289368.533    23289368.102    23289373.309   124364166.442 5  96727778.387 4
      4796.176        3730.340
  21420566.393    21420565.578    21420568.985   114625831.281 6  89153465.963 4
     -2807.831       -2183.859
  21200308.935    21200308.981    21200313.600   113168707.095 7  88020150.219 6
       850.063         661.163
 11 10 10 20 58  0.0000000  0 16G04G10G11G13G17G20G23G31G32R01R02R11
                                R12R13R17R18
  22180538.831    22180538.9174   22180545.4374  116559579.303 7  90825654.07343
      3112.958        2425.682
  23760741.371    23760740.2654   23760745.7804  124863542.156 5  97296286.06441
      3292.495        2565.566
  24711753.563    24711754.8364   24711759.4424  129861221.389 5 101190584.78941
     -3175.658       -2474.535
  20605793.956    20605793.7384   20605798.7574  108284613.663 8  84377422.76546
      2037.212        1587.437
  22710386.712    22710387.1294   22710392.2604  119343952.337 6  92995306.39343
     -1287.434       -1003.203
  21044028.195    21044027.2084   21044032.8014  110587374.845 7  86171966.20946
      -967.799        -754.127
  20309906.772    20309906.0674   20309908.9244  106729692.767 9  83165899.59547
       234.327         182.591
  24707343.033    24707343.5894   24707348.2384  129838000.617 4 101172484.34041
     -2070.355       -1613.280
  23385191.284    23385190.1154   23385197.2764  122890423.571 6  95758696.03743
     -1783.048       -1389.387
  23038631.385    23038630.155    23038634.277   123155102.986 6  95787437.344 4
     -2129.409       -1656.207
  20159256.201    20159255.908    20159260.193   107573912.208 8  83668712.400 7
      -124.409         -96.763
  22437112.314    22437112.272    22437116.352   119897158.403 6  93253369.232 4
     -1452.110       -1129.423
  21286160.177    21286160.039    21286166.130   113706924.078 7  88438761.436 6
      2585.433        2010.894
  23262430.092    23262429.738    23262434.914   124220318.135 5  96615896.653 4
      4793.521        3728.284
  21436352.136    21436350.876    21436354.756   114710303.526 6  89219166.582 5
     -2823.765       -2196.266
  21195607.027    21195606.811    21195611.768   113143606.727 7  88000627.702 6
       823.223         640.283
 11 10 10 20 58 30.0000000  0 16G04G10G11G13G17G20G23G31G32R01R02R11
                                R12R13R17R18
  22162798.824    22162798.5914   22162804.7664  116466353.619 6  90753010.70743
      3101.833        2417.015
  23741951.386    23741949.6284   23741955.3874  124764801.924 5  97219345.63241
      3290.081        2563.678
  24729885.074    24729884.3854   24729892.2894  129956501.002 5 101264828.36341
     -3176.543       -2475.204
  20594208.036    20594207.6294   20594212.8904  108223728.652 8  84329979.91246
      2021.624        1575.294
  22717776.931    22717777.2454   22717782.8324  119382788.090 6  93025567.99643
     -1301.753       -1014.347
  21049576.269    21049575.3474   21049580.7164  110616529.877 8  86194684.41545
      -976.044        -760.549
  20308609.901    20308609.1714   20308611.9374  106722877.490 9  83160588.99847
       219.848         171.314
  24719198.923    24719198.3764   24719203.9124  129900298.302 4 101221027.96141
     -2083.100       -1623.212
  23395377.768    23395376.4424   23395383.8614  122943952.907 6  95800407.21143
     -1785.728       -1391.460
  23050584.664    23050583.896    23050590.586   123219007.899 6  95837141.126 4
     -2131.100       -1657.510
  20159976.159    20159975.752    20159979.547   107577752.615 8  83671699.379 7
      -131.786        -102.499
  22445330.440    22445330.234    22445334.206   119941076.192 5  93287527.510 4
     -1475.942       -1147.948
  21271701.793    21271701.282    21271707.050   113629688.953 7  88378689.685 6
      2563.352        1993.719
  23235506.115    23235505.927    23235510.305   124076545.087 6  96504073.427 5
      4791.080        3726.387
  21452226.330    21452225.466    21452228.857   114795249.583 6  89285235.696 5
     -2839.440       -2208.450
  21191054.535    21191054.794    21191059.800   113119309.460 7  87981729.813 6
       796.438         619.456
 11 10 10 20 59  0.0000000  0 17G04G07G10G11G13G17G20G23G31G32R01R02
                                R11R12R13R17R18
  22145121.565    22145121.1134   22145126.8554  116373456.092 6  90680623.02143
      3091.346        2408.844
  24966620.030                                   131200480.109 5
      4102.663
  23723173.137    23723172.5634   23723180.6324  124666127.491 5  97142456.50841
      3288.269        2562.294
  24748019.481    24748018.6914   24748025.5054  130051798.292 5 101339085.67541
     -3176.598       -2475.252
  20582709.779    20582709.2964   20582714.4004  108163304.216 8  84282895.94946
      2006.697        1563.660
  22725248.045    22725247.8584   22725253.3704  119422045.742 6  93056158.35143
     -1315.385       -1024.982
  21055170.205    21055169.0554   21055174.5634  110645926.424 8  86217590.81545
      -983.670        -766.497
  20307394.142    20307393.5494   20307396.2264  106716489.337 9  83155611.22847
       206.059         160.566
  24731125.702    24731126.9384   24731130.5454  129962968.884 5 101269862.16741
     -2094.984       -1632.500
  23405577.402    23405575.9454   23405583.9484  122997552.803 6  95842173.34843
     -1787.632       -1392.957
  23062547.259    23062547.016    23062552.028   123282954.772 5  95886877.543 4
     -2131.978       -1658.207
  20160736.487    20160735.955    20160739.124   107581807.166 8  83674852.922 7
      -138.473        -107.703
  22453681.584    22453681.145    22453685.976   119985699.552 5  93322234.576 4
     -1498.941       -1165.843
  21257365.561    21257365.446    21257371.199   113553109.487 7  88319127.895 6
      2541.913        1977.048
  23208595.358    23208595.326    23208599.964   123932843.136 6  96392305.492 5
      4789.065        3724.823
  21468186.791    21468185.538    21468189.563   114880656.385 6  89351663.189 5
     -2854.264       -2219.984
  21186652.190    21186652.136    21186657.295   113095807.405 7  87963450.421 6
       770.404         599.208
 11 10 10 20 59 30.0000000  0 16G04G10G11G13G17G20G23G31G32R01R02R11
                                R12R13R17R18
  22127505.600    22127505.1174   22127511.4574  116280884.675 6  90608489.47744
      3080.216        2400.170
  23704408.479    23704406.4984   23704414.9854  124567514.760 5  97065615.46741
      3286.010        2560.544
  24766155.784    24766154.7714   24766163.9154  130147106.945 5 101413351.86741
     -3177.254       -2475.765
  20571298.110    20571297.8194   20571302.8554  108103336.192 8  84236167.63146
      1991.310        1551.670
  22732797.047    22732797.4234   22732803.1584  119461718.489 6  93087072.16243
     -1329.341       -1035.849
  21060809.006    21060808.0944   21060813.6874  110675559.941 8  86240681.86745
      -991.757        -772.797
  20306258.683    20306258.0554   20306261.0404  106710522.930 9  83150962.09147
       191.847         149.489
  24743121.478    24743120.5614   24743127.1604  130026005.711 5 101318981.73841
     -2107.283       -1642.052
  23415789.724    23415789.3644   23415796.0174  123051218.662 6  95883990.86243
     -1789.952       -1394.767
  23074517.814    23074516.709    23074521.526   123346939.225 5  95936643.208 4
     -2133.459       -1659.356
  20161535.644    20161534.953    20161538.449   107586071.122 8  83678169.327 7
      -145.665        -113.297
  22462162.161    22462162.726    22462166.641   120031021.531 5  93357484.978 4
     -1522.334       -1184.032
  21243152.482    21243152.352    21243158.095   113477184.535 7  88260075.173 6
      2519.894        1959.914
  23181697.114    23181697.170    23181702.327   123789212.157 6  96280592.737 5
      4786.412        3722.756
  21484231.209    21484230.133    21484234.199   114966514.527 6  89418441.712 5
     -2869.435       -2231.788
  21182397.652    21182397.208    21182402.682   113073096.540 7  87945786.409 6
       743.805         578.514
 11 10 10 21  0  0.0000000  1 17G04G07G10G11G13G17G20G23G31G32R01R02
                                R11R12R13R17R18
  22109953.135    22109952.6974   22109958.2204  116188645.329 7  90536614.65944
      3069.250        2391.631
  24919753.883                                   130954195.458 5
      4107.106
  23685656.046    23685653.8914   23685659.4354  124468968.098 5  96988825.89841
      3284.005        2558.976
  24784294.842    24784293.8154   24784300.3824  130242428.450 5 101487628.03241
     -3177.412       -2475.865
  20559974.224    20559974.0804   20559978.8114  108043828.630 8  84189798.11746
      1976.057        1539.784
  22740425.749    22740425.5404   22740431.2934  119501807.424 6  93118310.27043
     -1343.053       -1046.528
  21066494.113    21066493.1164   21066498.5034  110705433.976 7  86263960.33445
      -999.648        -778.945
  20305204.127    20305203.4734   20305206.5044  106704980.992 8  83146643.70347
       177.835         138.573
  24755185.430    24755185.3974   24755190.3494  130089410.327 5 101368387.91741
     -2119.397       -1651.466
  23426015.207    23426014.5414   23426020.9434  123104954.254 6  95925862.71143
     -1792.187       -1396.518
  23086495.067    23086494.273    23086498.808   123410964.757 5  95986440.793 4
     -2134.759       -1660.359
  20162373.991    20162373.673    20162377.435   107590548.256 8  83681651.534 7
      -152.640        -118.719
  22470773.138    22470774.588    22470779.368   120077043.125 5  93393279.525 4
     -1545.561       -1202.096
  21229063.690    21229063.393    21229068.380   113401921.331 7  88201537.149 6
      2497.911        1942.820
  23154813.879    23154813.595    23154819.136   123645660.553 6  96168941.702 5
      4783.824        3720.744
  21500360.806    21500359.167    21500363.394   115052824.436 6  89485571.619 5
     -2884.281       -2243.332
  21178292.267    21178292.073    21178297.653   113051180.147 7  87928740.318 6
       717.511         558.064
 11 10 10 21  0 30.0000000  0 17G04G07G10G11G13G17G20G23G31G32R01R02
                                R11R12R13R17R18
  22092464.010    22092463.8814   22092470.2864  116096742.297 7  90465001.92444
      3057.748        2382.662
  24896302.261                                   130830948.633 4
      4109.244
  23666916.845    23666915.0134   23666922.3094  124370489.481 5  96912089.33441
      3281.462        2556.966
  24802436.193    24802433.8514   24802445.8404  130337762.830 5 101561914.23541
     -3178.149       -2476.473
  20548738.148    20548738.0044   20548743.0124  107984783.566 8  84143788.97746
      1960.401        1527.586
  22748133.193    22748133.3814   22748138.8044  119542311.797 6  93149872.10943
     -1357.112       -1057.490
  21072225.143    21072224.1154   21072229.5424  110735550.093 8  86287427.43545
     -1007.943        -785.412
  20304230.484    20304229.7434   20304232.7934  106699863.929 9  83142656.38547
       163.451         127.364
  24767321.722    24767321.0414   24767325.7274  130153181.812 4 101418079.95141
     -2131.844       -1661.199
  23436254.596    23436253.3654   23436260.7954  123158761.224 6  95967790.18143
     -1794.806       -1398.560
  23098480.980    23098480.568    23098484.429   123475033.470 5  96036271.960 4
     -2136.381       -1661.626
  20163253.303    20163252.640    20163256.773   107595239.951 8  83685300.622 7
      -160.015        -124.457
  22479518.703    22479518.046    22479521.800   120123763.721 6  93429617.785 4
     -1568.996       -1220.334
  21215098.661    21215098.673    21215104.024   113327324.869 7  88143517.720 6
      2475.336        1925.261
  23127947.822    23127946.980    23127952.912   123502194.349 6  96057357.074 5
      4780.725        3718.327
  21516573.814    21516572.430    21516576.321   115139583.770 6  89553051.073 5
     -2899.413       -2255.104
  21174335.744    21174335.588    21174340.787   113030060.597 7  87912313.998 6
       690.700         537.209
 11 10 10 21  1  0.0000000  0 16G04G10G11G13G17G20G23G31G32R01R02R11
                                R12R13R17R18
  22075040.670    22075040.2684   22075045.8494  116005179.511 7  90393654.30444
      3046.416        2373.821
  23648190.110    23648189.0114   23648195.1904  124272081.280 5  96835407.66141
      3279.136        2555.151
  24820580.961    24820580.7594   24820589.7364  130433109.211 4 101636209.75541
     -3178.398       -2476.671
  20537591.030    20537590.6814   20537595.3814  107926203.156 8  84098141.91346
      1944.944        1515.541
  22755920.234    22755920.3314   22755925.9084  119583230.444 6  93181756.76643
     -1370.813       -1068.171
  21078002.408    21078001.2854   21078006.8924  110765909.836 8  86311084.36045
     -1016.051        -791.727
  20303337.648    20303336.9174   20303339.7634  106695172.246 9  83139000.53247
       149.323         116.359
  24779526.283    24779527.1644   24779532.3224  130217319.685 4 101468057.45841
     -2144.051       -1670.688
  23446507.970    23446506.3164   23446514.1024  123212641.035 6  96009774.39543
     -1797.230       -1400.443
  23110474.741    23110473.184    23110478.223   123539146.562 5  96086137.643 4
     -2137.808       -1662.742
  20164173.057    20164172.915    20164176.253   107600147.842 8  83689117.868 6
      -167.189        -130.034
  22488392.254    22488391.053    22488396.064   120171182.216 5  93466498.813 4
     -1592.158       -1238.334
  21201259.603    21201259.441    21201265.081   113253400.135 7  88086020.717 6
      2452.905        1907.814
  23101098.077    23101097.907    23101103.202   123358819.663 6  95945843.628 5
      4777.594        3715.897
  21532869.625    21532868.850    21532872.852   115226788.539 6  89620876.992 4
     -2914.188       -2266.595
  21170529.093    21170528.956    21170533.776   113009739.191 7  87896508.446 6
       664.086         516.514
 11 10 10 21  1 30.0000000  0 16G04G10G11G13G17G20G23G31G32R01R02R11
                                R12R13R17R18
  22057681.958    22057681.5974   22057688.5694  115913960.493 7  90322574.55744
      3034.975        2364.917
  23629476.716    23629476.5254   23629480.5694  124173744.773 5  96758781.85541
      3276.805        2553.360
  24838727.258    24838726.2484   24838735.4954  130528467.145 5 101710514.25241
     -3178.666       -2476.887
  20526532.128    20526531.7594   20526536.4924  107868088.761 8  84052857.98146
      1929.472        1503.487
  22763785.785    22763785.0734   22763791.3554  119624561.965 6  93213963.12743
     -1384.460       -1078.797
  21083826.022    21083824.9774   21083830.8334  110796514.246 8  86334931.94545
     -1024.117        -798.009
  20302525.879    20302525.2034   20302527.7754  106690906.052 9  83135676.23947
       135.223         105.370
  24791801.018    24791801.6564   24791806.0634  130281822.081 5 101518319.09341
     -2156.018       -1680.010
  23456774.881    23456774.0434   23456780.4234  123266594.875 6  96051816.32742
     -1799.598       -1402.292
  23122476.232    23122475.864    23122480.509   123603305.785 5  96136039.198 4
     -2139.351       -1663.932
  20165133.832    20165133.230    20165136.693   107605272.603 8  83693103.789 7
      -174.355        -135.609
  22497396.327    22497395.154    22497399.667   120219297.188 5  93503921.535 4
     -1615.310       -1256.352
  21187546.940    21187547.037    21187552.975   113180151.345 7  88029049.446 6
      2430.412        1890.323
  23074265.823    23074266.552    23074271.434   123215541.952 6  95834405.597 5
      4774.368        3713.404
  21549248.392    21549247.775    21549252.077   115314435.994 6  89689047.217 5
     -2928.811       -2277.963
  21166871.642    21166871.567    21166876.113   112990217.539 7  87881324.939 6
       637.541         495.864
 11 10 10 21  2  0.0000000  0 17G04G07G10G11G13G17G20G23G31G32R01R02
                                R11R12R13R17R18
  22040390.498    22040390.3614   22040396.5894  115823094.117 7  90251769.60544
      3022.857        2355.468
  24825880.145                                   130460882.854 4
      4114.096
  23610779.312    23610778.1134   23610784.4504  124075487.139 5  96682217.49041
      3273.820        2551.000
  24856876.028    24856874.8234   24856886.7644  130623840.812 4 101784831.00041
     -3179.486       -2477.493
  20515563.126    20515562.9054   20515567.5864  107810447.100 8  84007942.41546
      1913.408        1490.969
  22771729.559    22771729.4944   22771735.4454  119666310.050 6  93246494.08243
     -1398.600       -1089.817
  21089697.747    21089696.6884   21089702.3354  110827369.377 8  86358974.90045
     -1032.786        -804.764
  20301795.868    20301795.3444   20301797.9834  106687070.504 9  83132687.50147
       120.608          93.980
  24804145.721    24804145.0514   24804147.5214  130346693.422 5 101568868.16941
     -2168.529       -1689.778
  23467057.198    23467055.8554   23467063.2484  123320628.964 6  96093920.79642
     -1802.597       -1404.623
  23134489.145    23134488.252    23134492.616   123667517.367 5  96185981.482 4
     -2141.381       -1665.518
  20166135.542    20166135.144    20166138.719   107610620.758 8  83697263.465 7
      -182.092        -141.626
  22506531.061    22506530.743    22506534.776   120268112.252 6  93541888.825 4
     -1638.895       -1274.696
  21173962.727    21173963.032    21173968.827   113107588.296 7  87972611.538 6
      2407.176        1872.248
  23047455.238    23047454.987    23047460.524   123072371.883 5  95723051.306 5
      4770.324        3710.235
  21565711.049    21565709.835    21565714.573   115402528.690 6  89757563.725 5
     -2943.870       -2289.678
  21163365.025    21163365.380    21163369.543   112971501.239 7  87866767.790 6
       610.292         474.676
 11 10 10 21  2 30.0000000  0 16G04G10G11G13G17G20G23G31G32R01R02R11
                                R12R13R17R18
  22023167.378    22023167.2134   22023173.1724  115732585.820 6  90181243.66644
      3010.957        2346.199
  23592096.448    23592095.3154   23592103.1774  123977311.679 5  96605717.20241
      3271.186        2548.958
  24875030.469    24875027.6484   24875036.4204  130719231.305 4 101859160.81141
     -3179.786       -2477.753
  20504684.821    20504684.6564   20504689.6754  107753281.597 8  83963397.87046
      1897.565        1478.624
  22779753.327    22779752.6694   22779758.9124  119708475.158 6  93279349.99443
     -1412.446       -1100.600
  21095617.766    21095616.6344   21095622.1654  110858478.401 8  86383215.68445
     -1041.195        -811.325
  20301148.520    20301147.7314   20301150.6024  106683667.729 9  83130035.98747
       106.231          82.773
  24816559.984    24816560.9444   24816566.3564  130411934.592 5 101619705.45941
     -2180.869       -1699.373
  23477355.175    23477353.5434   23477361.3204  123374746.281 6  96136090.09842
     -1805.297       -1406.730
  23146510.201    23146509.805    23146514.874   123731784.492 5  96235966.979 4
     -2143.171       -1666.910
  20167180.116    20167179.723    20167183.428   107616195.045 8  83701599.022 7
      -189.575        -147.449
  22515797.873    22515796.816    22515801.363   120317628.117 5  93580401.160 4
     -1662.194       -1292.808
  21160509.091    21160508.999    21160514.541   113035717.544 7  87916712.093 6
      2384.189        1854.369
  23020664.406    23020665.083    23020670.426   122929316.959 5  95611786.552 5
      4766.554        3707.311
  21582254.718    21582254.769    21582259.935   115491064.195 6  89826424.634 5
     -2958.556       -2301.095
  21160010.332    21160010.500    21160016.115   112953593.926 7  87852839.862 6
       583.491         453.828
 11 10 10 21  3  0.0000000  0 17G04G07G10G11G13G17G20G23G31G32R01R02
                                R11R12R13R17R18
  22006011.855    22006011.8864   22006017.9834  115642434.731 7  90110996.07944
      2999.084        2336.947
  24778888.428                                   130213943.321 5
      4116.888
  23573429.700    23573428.8344   23573435.3904  123879215.940 5  96529278.99141
      3268.569        2546.965
  24893183.684    24893182.1574   24893193.6704  130814633.529 4 101933499.77641
     -3180.247       -2478.090
  20493896.781    20493896.5174   20493901.4504  107696589.174 8  83919221.96546
      1881.901        1466.413
  22787855.050    22787854.9524   22787861.1854  119751051.498 6  93312526.33043
     -1425.987       -1111.154
  21101584.876    21101583.9364   21101589.8494  110889837.975 7  86407651.70245
     -1049.452        -817.757
  20300582.409    20300581.7124   20300584.6664  106680693.294 9  83127718.24447
        92.063          71.733
  24829045.503    24829046.1064   24829053.1754  130477539.638 4 101670826.22541
     -2192.785       -1708.672
  23487668.502    23487667.1314   23487674.9544  123428943.783 6  96178321.90042
     -1807.855       -1408.714
  23158542.590    23158542.592    23158547.524   123796104.232 5  96285993.393 4
     -2144.816       -1668.177
  20168266.744    20168266.258    20168269.969   107621992.312 8  83706107.997 7
      -196.908        -153.152
  22525194.908    22525193.490    22525198.087   120367838.615 5  93619453.715 4
     -1685.201       -1310.717
  21147183.557    21147183.711    21147189.942   112964538.854 7  87861350.918 6
      2361.096        1836.400
  22993897.163    22993896.714    22993901.994   122786378.696 6  95500612.541 5
      4762.698        3704.317
  21598882.911    21598881.631    21598885.786   115580035.066 6  89895624.173 4
     -2972.853       -2312.224
  21156807.414    21156807.130    21156811.928   112936491.196 7  87839537.731 6
       556.644         432.941
 11 10 10 21  3 30.0000000  0 17G04G07G10G11G13G17G20G23G31G32R01R02
                                R11R12R13R17R18
  21988926.171    21988925.6154   21988930.8504  115552644.415 7  90041029.60144
      2987.060        2327.581
  24755381.261                                   130090409.468 3
      4118.234
  23554777.431    23554777.8934   23554782.8734  123781201.308 5  96452903.98941
      3265.899        2544.846
  24911339.588    24911342.6634   24911350.9684  130910045.931 4 102007846.61441
     -3180.396       -2478.263
  20483198.916    20483198.5264   20483203.5354  107640370.935 8  83875415.55846
      1866.151        1454.145
  22796034.979    22796035.3464   22796040.8744  119794037.340 6  93346021.77443
     -1439.535       -1121.719
  21107600.149    21107599.2784   21107604.9504  110921448.729 8  86432283.44045
     -1057.764        -824.237
  20300097.937    20300097.1654   20300100.1114  106678146.947 9  83125734.08247
        77.880          60.685
  24841599.427    24841598.9784   24841605.6614  130543507.077 5 101722229.39041
     -2204.809       -1718.042
  23497997.138    23497997.0154   23498004.5644  123483222.063 6  96220616.64042
     -1810.500       -1410.774
  23170585.092    23170585.320    23170590.006   123860477.049 5  96336061.089 4
     -2146.641       -1669.610
  20169395.205    20169394.575    20169398.167   107628013.091 8  83710790.821 6
      -204.276        -158.881
  22534719.422    22534719.302    22534723.911   120418741.599 6  93659044.913 4
     -1708.162       -1328.558
  21133989.475    21133989.386    21133995.675   112894056.300 7  87806531.183 6
      2337.882        1818.353
  22967153.988    22967152.250    22967157.033   122643562.278 6  95389533.280 5
      4758.617        3701.142
  21615590.802    21615589.248    21615592.885   115669438.439 6  89965160.097 4
     -2987.150       -2323.341
  21153753.897    21153753.947    21153759.407   112920194.858 7  87826862.784 6
       529.874         412.128
 11 10 10 21  4  0.0000000  0 16G04G10G11G13G17G20G23G31G32R01R02R11
                                R12R13R17R18
  21971908.739    21971908.1174   21971914.7674  115463220.778 7  89971348.86544
      2974.542        2317.824
  23536142.618    23536142.5444   23536148.4534  123683272.178 5  96376595.63041
      3262.741        2542.374
  24929498.821    24929497.3604   24929508.2084  131005470.551 4 102082202.95141
     -3181.223       -2478.863
  20472591.996    20472591.6414   20472596.6134  107584631.453 8  83831982.21046
      1849.900        1441.479
  22804294.203    22804293.5464   22804298.9184  119837433.998 6  93379837.34443
     -1453.436       -1132.549
  21113664.312    21113663.3244   21113668.6564  110953314.358 7  86457113.79845
     -1066.528        -831.057
  20299695.187    20299694.6184   20299697.5374  106676031.589 8  83124085.75847
        63.239          49.280
  24854220.547    24854220.3184   24854226.0604  130609838.513 5 101773916.19241
     -2217.306       -1727.764
  23508342.380    23508340.8504   23508348.6144  123537585.063 6  96262977.38742
     -1813.612       -1413.214
  23182638.686    23182638.218    23182643.524   123924907.185 5  96386173.376 4
     -2148.726       -1671.224
  20170566.040    20170565.479    20170569.060   107634261.266 8  83715650.509 6
      -212.157        -165.008
  22544373.837    22544374.245    22544378.173   120470338.561 5  93699175.887 4
     -1731.532       -1346.735
  21120926.288    21120926.365    21120932.850   112824276.995 7  87752258.419 6
      2314.156        1799.900
  22940431.697    22940431.905    22940436.625   122500876.265 6  95278555.420 5
      4753.858        3697.446
  21632377.726    21632376.911    21632380.233   115759273.452 6  90035031.744 4
     -3001.784       -2334.715
  21150853.556    21150853.218    21150858.645   112904708.370 7  87814817.713 6
       502.564         390.886
 11 10 10 21  4 30.0000000  0 17G04G07G10G11G13G17G20G23G31G32R01R02
                                R11R12R13R17R18
  21954961.828    21954960.9404   21954966.6434  115374161.569 6  89901952.08044
      2962.742        2308.628
  24708350.692                                   129843256.940 4
      4120.617
  23517522.157    23517521.4324   23517530.0194  123585424.531 5  96300350.76041
      3260.473        2540.613
  24947659.964    24947658.2804   24947667.5524  131100901.323 4 102156564.03541
     -3180.860       -2478.561
  20462075.218    20462075.0264   20462079.8614  107529365.832 8  83788918.09746
      1834.481        1429.459
  22812628.867    22812628.8724   22812633.7814  119881234.125 6  93413967.30243
     -1466.504       -1142.730
  21119775.768    21119774.8234   21119780.0534  110985429.957 7  86482138.92945
     -1074.512        -837.283
  20299373.719    20299373.0164   20299375.9624  106674341.407 8  83122768.74047
        49.461          38.539
  24866911.311    24866911.2634   24866915.4834  130676526.315 5 101825880.69441
     -2228.567       -1736.544
  23518701.988    23518701.8204   23518708.3024  123592027.993 6  96305400.41342
     -1815.906       -1414.980
  23194701.382    23194700.959    23194704.598   123989389.700 5  96436326.417 4
     -2150.127       -1672.316
  20171778.440    20171778.050    20171781.663   107640731.962 8  83720683.274 6
      -219.219        -170.507
  22554159.165    22554159.080    22554163.272   120522621.759 5  93739840.609 4
     -1753.981       -1364.212
  21107995.551    21107995.373    21108000.593   112755199.231 8  87698531.291 6
      2291.069        1781.944
  22913735.866    22913735.338    22913739.838   122358320.114 6  95167678.568 5
      4749.873        3694.342
  21649244.596    21649243.090    21649247.644   115849530.685 6  90105231.782 4
     -3015.358       -2345.275
  21148102.960    21148102.763    21148107.370   112890026.506 7  87803398.485 6
       476.207         370.380
 11 10 10 21  5  0.0000000  0 17G04G07G10G11G13G17G20G23G31G32R01R02
                                R11R12R13R17R18
  21938083.903    21938083.3904   21938089.5764  115285466.222 7  89832838.84044
      2950.594        2299.164
  24684824.288                                   129719628.607 5
      4121.572
  23498918.121    23498917.7884   23498924.2974  123487655.513 5  96224167.13441
      3257.801        2538.580
  24965820.360    24965818.4894   24965826.8504  131196332.548 4 102230925.45841
     -3180.837       -2478.572
  20451648.154    20451647.9054   20451652.7364  107474571.337 8  83746221.09346
      1818.788        1417.237
  22821038.846    22821038.8244   22821044.8064  119925431.256 6  93448406.60943
     -1479.682       -1153.001
  21125934.035    21125933.2384   21125938.2034  111017792.619 8  86507356.57445
     -1082.727        -843.682
  20299132.041    20299131.3344   20299134.3064  106673071.651 9  83121779.32547
        35.454          27.626
  24879668.287    24879667.8874   24879672.1474  130743565.219 5 101878118.78841
     -2240.309       -1745.679
  23529077.333    23529076.8544   23529083.2444  123646547.626 6  96347883.22042
     -1818.446       -1416.974
  23206773.881    23206773.406    23206778.824   124053921.750 5  96486517.979 4
     -2151.735       -1673.578
  20173032.343    20173031.809    20173035.307   107647421.575 8  83725886.298 7
      -226.485        -176.148
  22564069.661    22564069.659    22564074.994   120575585.061 5  93781034.230 4
     -1776.589       -1381.773
  21095195.257    21095195.136    21095200.600   112686822.675 8  87645349.557 6
      2267.635        1763.717
  22887065.703    22887064.180    22887068.106   122215895.145 6  95056903.730 5
      4745.453        3690.888
  21666187.991    21666187.711    21666192.020   115940201.997 6  90175753.893 4
     -3029.070       -2355.928
  21145502.301    21145501.782    21145507.615   112876145.392 7  87792602.052 6
       449.434         349.562
 11 10 10 21  5 30.0000000  0 17G04G07G10G11G13G17G20G23G31G32R01R02
                                R11R12R13R17R18
  21921275.435    21921275.2624   21921280.8284  115197140.751 7  89764013.81444
      2938.075        2289.409
  24661292.464                                   129595967.373 5
      4122.334
  23480327.954    23480327.0124   23480333.9244  123389969.490 5  96148048.18741
      3254.863        2536.239
  24983980.667    24983979.4794   24983989.1524  131291766.074 4 102305288.67141
     -3180.958       -2478.655
  20441311.691    20441311.2874   20441316.0254  107420251.891 8  83703894.26346
      1802.793        1404.776
  22829525.522    22829525.0424   22829530.4864  119970026.850 6  93483156.41143
     -1493.071       -1163.436
  21132139.872    21132138.8804   21132144.3704  111050405.744 7  86532769.39145
     -1091.232        -850.310
  20298970.818    20298970.3334   20298973.2034  106672225.179 9  83121119.74147
        21.237          16.551
  24892492.607    24892492.4174   24892495.2844  130810956.622 5 101930631.57341
     -2252.264       -1755.023
  23539467.580    23539466.5404   23539472.8694  123701147.770 6  96390428.75442
     -1821.272       -1419.151
  23218854.955    23218855.262    23218860.041   124118506.937 5  96536750.844 4
     -2153.644       -1675.049
  20174327.606    20174327.065    20174330.793   107654334.176 8  83731262.754 7
      -234.072        -182.056
  22574108.413    22574108.652    22574113.598   120629229.506 5  93822757.684 4
     -1799.352       -1399.496
  21082527.198    21082526.945    21082532.803   112619154.456 7  87592718.748 6
      2243.833        1745.200
  22860418.543    22860418.248    22860422.414   122073609.508 6  94946237.270 5
      4740.559        3687.092
  21683211.306    21683209.362    21683212.993   116031287.561 6  90246598.195 4
     -3042.956       -2366.751
  21143052.463    21143052.207    21143058.100   112863068.543 7  87782431.158 6
       422.576         328.670
 11 10 10 21  6  0.0000000  0 17G04G07G10G11G13G17G20G23G31G32R01R02
                                R11R12R13R17R18
  21904538.050    21904538.1554   21904543.7204  115109183.501 7  89695475.70944
      2925.821        2279.863
  24637753.408                                   129472281.334 4
      4123.618
  23461756.256    23461754.0554   23461759.2784  123292363.013 5  96071991.22841
      3252.286        2534.258
  25002142.441    25002137.8924   25002149.8454  131387195.760 4 102379648.84141
     -3180.783       -2478.494
  20431064.508    20431064.0484   20431068.8434  107366403.518 8  83661934.49946
      1787.164        1392.599
  22838084.967    22838085.5244   22838091.1354  120015014.164 6  93518211.43643
     -1505.965       -1173.473
  21138392.976    21138391.7954   21138397.3824  111083264.934 7  86558373.95445
     -1099.315        -856.609
  20298889.343    20298888.7374   20298891.5334  106671796.530 9  83120785.73247
         7.425           5.789
  24905381.997    24905379.6674   24905385.2814  130878694.025 4 101983413.93741
     -2263.560       -1763.801
  23549872.456    23549870.8854   23549878.1424  123755824.318 6  96433033.84642
     -1823.712       -1421.073
  23230946.849    23230946.634    23230950.839   124183141.430 5  96587022.083 4
     -2155.263       -1676.314
  20175664.068    20175663.610    20175667.291   107661465.298 8  83736809.179 7
      -241.257        -187.642
  22584272.401    22584273.682    22584279.042   120683548.039 5  93865005.428 4
     -1821.707       -1416.881
  21069992.248    21069991.704    21069997.643   112552193.062 7  87540637.677 6
      2220.350        1726.939
  22833797.254    22833798.152    22833803.693   121931463.309 6  94835679.240 5
      4735.907        3683.481
  21700307.876    21700306.795    21700310.660   116122778.187 6  90317757.538 4
     -3056.339       -2377.147
  21140752.780    21140752.347    21140757.658   112850791.354 7  87772882.231 6
       396.000         308.001
 11 10 10 21  6 30.0000000  0 17G04G07G10G11G13G17G20G23G31G32R01R02
                                R11R12R13R17R18
  21887871.071    21887870.3664   21887875.4464  115021595.343 7  89627225.20544
      2913.676        2270.398
  24614209.689                                   129348565.837 5
      4124.503
  23443195.996    23443194.4734   23443200.6974  123194835.441 5  95995995.71941
      3249.832        2532.322
  25020298.831    25020300.3904   25020310.2084  131482618.232 4 102454003.37941
     -3180.369       -2478.206
  20420907.022    20420906.6064   20420911.0774  107313025.140 8  83620340.97046
      1771.710        1380.551
  22846719.672    22846720.1534   22846725.5174  120060389.158 6  93553568.55743
     -1518.658       -1183.372
  21144692.382    21144691.2284   21144696.9964  111116368.754 8  86584169.13845
     -1107.281        -862.815
  20298886.770    20298886.2704   20298888.9834  106671783.163 8  83120775.31647
        -6.202          -4.829
  24918338.114    24918336.6294   24918342.2624  130946773.389 4 102036462.78841
     -2274.779       -1772.541
  23560290.586    23560290.0074   23560297.4444  123810575.562 6  96475697.12542
     -1826.062       -1422.903
  23243046.603    23243046.494    23243052.060   124247823.789 5  96637330.524 4
     -2156.631       -1677.382
  20177041.063    20177040.652    20177044.503   107668813.324 8  83742524.308 7
      -248.284        -193.111
  22594564.081    22594563.726    22594569.528   120738535.990 5  93907773.854 4
     -1843.793       -1434.062
  21057589.538    21057589.098    21057595.155   112485940.254 7  87489107.734 6
      2196.861        1708.672
  22807206.657    22807205.927    22807210.548   121789459.995 6  94725232.342 5
      4731.283        3679.883
  21717479.189    21717478.474    21717482.565   116214668.799 6  90389227.981 4
     -3069.285       -2387.221
  21138602.337    21138602.046    21138607.479   112839312.315 7  87763954.077 6
       369.481         287.379
 11 10 10 21  7  0.0000000  0 17G04G07G10G11G13G17G20G23G31G32R01R02
                                R11R12R13R17R18
  21871273.003    21871272.3984   21871278.3784  114934374.106 7  89559260.61544
      2901.145        2260.637
  24590661.417                                   129224819.479 6
      4125.351
  23424652.826    23424651.9354   23424658.0154  123097382.414 5  95920058.31541
      3247.114        2530.242
  25038455.069    25038455.7374   25038465.4624  131578027.046 4 102528347.24941
     -3180.035       -2477.902
  20410837.894    20410837.6154   20410842.1284  107260112.348 8  83579110.23346
      1755.932        1368.266
  22855426.689    22855427.3004   22855432.6634  120106144.352 6  93589221.95043
     -1531.523       -1193.400
  21151037.720    21151036.6004   21151041.8874  111149712.524 7  86610151.29845
     -1115.530        -869.246
  20298962.299    20298961.6284   20298964.5014  106672179.417 9  83121084.08647
       -20.078         -15.642
  24931356.913    24931355.7394   24931360.8894  131015187.707 4 102089772.57241
     -2286.107       -1781.359
  23570722.982    23570722.5764   23570729.6054  123865397.293 6  96518415.33242
     -1828.624       -1424.903
  23255153.662    23255154.088    23255159.291   124312549.485 5  96687672.718 4
     -2158.287       -1678.676
  20178458.148    20178457.545    20178460.929   107676373.560 8  83748404.483 6
      -255.597        -198.798
  22604978.320    22604977.861    22604982.989   120794186.154 5  93951057.288 4
     -1866.053       -1451.374
  21045319.083    21045318.890    21045325.100   112420394.356 7  87438127.601 6
      2173.025        1690.133
  22780640.599    22780639.584    22780644.005   121647599.584 6  94614896.583 5
      4726.215        3675.940
  21734724.468    21734723.628    21734726.915   116306948.867 6  90461001.320 4
     -3082.497       -2397.492
  21136599.882    21136599.811    21136605.152   112828626.316 7  87755642.738 6
       342.986         266.773
 11 10 10 21  7 30.0000000  0 17G04G07G10G11G13G17G20G23G31G32R01R02
                                R11R12R13R17R18
  21854745.525    21854745.1214   21854750.7524  114847521.649 7  89491583.37844
      2889.043        2251.204
  24567107.018                                   129101043.463 5
      4126.395
  23406120.945    23406121.1914   23406127.8714  123000003.708 5  95844178.84341
      3244.826        2528.430
  25056608.995    25056610.2554   25056615.4374  131673419.832 4 102602678.49741
     -3179.391       -2477.408
  20400857.679    20400857.2804   20400861.8694  107207664.728 8  83538241.97146
      1740.611        1356.317
  22864205.855    22864205.3174   22864211.2974  120152276.139 6  93625168.78743
     -1543.870       -1203.014
  21157428.419    21157427.1914   21157432.7414  111183295.484 8  86636319.82945
     -1123.305        -875.303
  20299115.427    20299114.7214   20299117.4134  106672983.716 9  83121710.81746
       -33.488         -26.098
  24944437.317    24944438.5654   24944442.1274  131083933.839 4 102143341.00441
     -2297.021       -1789.894
  23581168.880    23581167.4674   23581175.0784  123920288.713 5  96561187.86042
     -1830.788       -1426.584
  23267270.673    23267270.618    23267276.181   124377317.975 5  96738048.168 4
     -2159.591       -1679.674
  20179914.457    20179913.965    20179917.409   107684145.220 8  83754449.098 7
      -262.486        -204.158
  22615514.445    22615514.946    22615519.444   120850494.613 5  93994852.737 4
     -1887.705       -1468.225
  21033181.484    21033181.199    21033187.662   112355557.574 8  87387699.017 6
      2149.520        1671.847
  22754101.630    22754101.119    22754105.507   121505885.432 6  94504674.593 5
      4721.401        3672.181
  21752039.883    21752039.325    21752043.305   116399614.077 6  90533074.239 4
     -3095.151       -2407.343
  21134747.231    21134746.968    21134751.279   112818731.402 7  87747946.684 6
       316.716         246.335
 11 10 10 21  8  0.0000000  0 17G04G07G10G11G13G17G20G23G31G32R01R02
                                R11R12R13R17R18
  21838287.981    21838287.5944   21838293.8304  114761038.722 7  89424194.09744
      2876.552        2241.474
  24543547.342    24543547.0174   24543560.1344  128977240.204 4 100501740.85041
      4127.130        3215.910
  23387605.812    23387604.0824   23387609.6704  122902699.046 5  95768357.05841
      3242.213        2526.385
  25074758.564    25074757.7624   25074769.1944  131768792.887 4 102676994.42341
     -3178.680       -2476.873
  20390965.186    20390964.9634   20390969.8324  107155680.750 8  83497734.98746
      1725.067        1344.208
  22873055.291    22873055.0034   22873061.3634  120198780.550 6  93661405.96143
     -1556.321       -1212.724
  21163863.964    21163862.9174   21163868.5924  111217116.036 7  86662673.49545
     -1131.307        -881.533
  20299345.311    20299344.6774   20299347.4024  106674192.829 9  83122652.98246
       -47.033         -36.648
  24957582.935    24957582.6814   24957587.7364  131153007.805 5 102197164.84741
     -2307.906       -1798.385
  23591625.997    23591625.3114   23591634.2874  123975248.198 6  96604013.42442
     -1833.180       -1428.453
  23279394.982    23279394.625    23279400.323   124442127.635 5  96788455.659 4
     -2161.001       -1680.770
  20181409.701    20181409.333    20181413.154   107692126.887 8  83760657.053 6
      -269.523        -209.628
  22626176.582    22626175.341    22626180.159   120907456.806 5  94039156.659 4
     -1909.619       -1485.264
  21021176.480    21021176.253    21021182.223   112291431.289 7  87337823.038 6
      2125.648        1653.277
  22727590.950    22727590.558    22727595.073   121364320.698 6  94394568.798 5
      4716.273        3668.213
  21769428.794    21769426.873    21769431.625   116492657.882 6  90605441.615 4
     -3107.721       -2417.114
  21133041.075    21133040.897    21133045.360   112809625.788 7  87740864.535 6
       290.384         225.855
 11 10 10 21  8 30.0000000  0 17G04G07G10G11G13G17G20G23G31G32R01R02
                                R11R12R13R17R18
  21821902.869    21821902.9784   21821908.8124  114674935.222 7  89357100.47644
      2863.698        2231.454
  24519984.266    24519983.5624   24519996.7454  128853419.274 4 100405258.10941
      4127.551        3216.253
  23369103.693    23369101.9564   23369109.2364  122805476.149 5  95692598.97041
      3239.310        2524.142
  25092904.133    25092905.6974   25092916.2844  131864151.585 4 102751299.10741
     -3178.476       -2476.710
  20381162.644    20381162.3724   20381167.4584  107104168.119 8  83457595.29146
      1709.160        1331.817
  22881976.975    22881976.8724   22881982.7384  120245661.981 6  93697936.91943
     -1569.062       -1222.651
  21170346.527    21170345.6294   21170351.0124  111251181.366 8  86689217.90245
     -1139.667        -888.052
  20299653.785    20299653.0164   20299655.7714  106675813.025 9  83123915.47746
       -60.924         -47.473
  24970790.584    24970791.4124   24970793.8124  131222414.532 4 102251248.01941
     -2319.107       -1807.111
  23602099.564    23602099.6294   23602106.5704  124030283.115 6  96646897.73242
     -1835.805       -1430.505
  23291529.154    23291528.590    23291531.990   124506986.243 5  96838901.184 4
     -2162.822       -1682.181
  20182946.476    20182946.080    20182949.708   107700326.006 8  83767034.138 6
      -277.029        -215.470
  22636959.912    22636958.868    22636962.626   120965077.461 5  94083972.731 4
     -1931.708       -1502.450
  21009307.016    21009307.034    21009312.725   112228025.623 8  87288507.552 6
      2101.414        1634.434
  22701109.903    22701109.929    22701114.910   121222917.375 6  94284588.552 5
      4710.625        3663.816
  21786886.867    21786885.731    21786890.252   116586083.641 6  90678106.063 4
     -3120.569       -2427.109
  21131484.643    21131484.296    21131488.904   112801316.638 7  87734401.850 6
       263.617         205.034
 11 10 10 21  9  0.0000000  0 17G04G07G10G11G13G17G20G23G31G32R01R02
                                R11R12R13R17R18
  21805592.659    21805592.1854   21805597.9264  114589221.190 7  89290310.31844
      2850.690        2221.321
  24496420.126                                   128729590.845 5
      4127.746
  23350620.468    23350619.1074   23350627.1304  122708343.148 5  95616910.94941
      3236.291        2521.787
  25111050.973    25111050.7634   25111061.1124  131959501.434 4 102825596.88441
     -3178.214       -2476.511
  20371450.974    20371450.7834   20371455.8804  107053134.305 8  83417828.70146
      1693.193        1319.374
  22890971.571    22890971.1274   22890976.4394  120292925.965 6  93734765.97043
     -1581.732       -1232.511
  21176877.056    21176876.2214   21176881.3744  111285499.359 8  86715959.18845
     -1148.120        -894.636
  20300041.524    20300040.8634   20300043.5154  106677850.958 9  83125503.48646
       -74.834         -58.310
  24984062.087    24984062.2924   24984066.2274  131292159.423 4 102305594.66241
     -2330.390       -1815.877
  23612589.364    23612587.9564   23612594.5234  124085401.376 6  96689847.00542
     -1838.636       -1432.696
  23303672.431    23303672.326    23303676.530   124571901.689 5  96889390.927 4
     -2164.780       -1683.719
  20184525.277    20184524.899    20184528.455   107708750.328 8  83773586.376 7
      -284.505        -221.278
  22647866.276    22647864.693    22647869.716   121023361.271 5  94129304.572 4
     -1953.722       -1519.558
  20997574.631    20997574.578    20997579.860   112165351.556 8  87239761.079 6
      2076.963        1615.419
  22674663.216    22674661.941    22674667.280   121081687.780 6  94174743.419 5
      4704.729        3659.233
  21804416.404    21804416.336    21804420.847   116679894.821 6  90751070.270 4
     -3133.333       -2437.029
  21130078.325    21130078.403    21130082.721   112793811.196 7  87728564.270 6
       236.858         184.226
 11 10 10 21  9 30.0000000  0 17G04G07G10G11G13G17G20G23G31G32R01R02
                                R11R12R13R17R18
  21789355.142    21789354.4304   21789360.0884  114503890.888 7  89223819.19244
      2837.675        2211.177
  24472853.790    24472851.9044   24472865.6904  128605750.256 5 100212261.75341
      4127.898        3216.500
  23332153.025    23332151.8024   23332157.5784  122611292.771 5  95541287.31541
      3233.337        2519.491
  25129191.435    25129190.9744   25129199.9274  132054832.799 4 102899880.23941
     -3177.731       -2476.130
  20361829.546    20361829.1774   20361834.0064  107002571.587 8  83378429.20046
      1677.281        1306.969
  22900035.676    22900035.3134   22900040.8924  120340560.978 6  93771884.12943
     -1594.273       -1242.292
  21183454.073    21183453.1974   21183458.4974  111320061.501 8  86742890.72945
     -1156.450        -901.131
  20300507.133    20300506.3474   20300509.1814  106680297.295 9  83127409.73146
       -88.619         -69.054
  24997395.925    24997394.8754   24997399.9534  131362230.761 4 102360194.49841
     -2341.551       -1824.604
  23623091.647    23623090.5964   23623097.8544  124140594.627 6  96732854.72542
     -1841.323       -1434.804
  23315825.297    23315824.701    23315830.780   124636865.762 5  96939918.537 4
     -2166.530       -1685.074
  20186144.707    20186144.178    20186147.884   107717391.300 8  83780307.127 6
      -291.940        -227.066
  22658895.588    22658894.031    22658898.908   121082296.842 5  94175143.317 4
     -1975.698       -1536.652
  20985977.473    20985977.313    20985982.825   112103403.526 8  87191579.305 6
      2052.559        1596.436
  22648246.764    22648245.940    22648250.903   120940628.671 6  94065030.883 5
      4698.765        3654.586
  21822018.135    21822017.230    21822020.913   116774078.450 6  90824324.170 4
     -3145.945       -2446.850
  21128821.439    21128820.870    21128826.173   112787099.605 7  87723344.140 6
       210.134         163.434
 11 10 10 21 10  0.0000000  0 17G04G07G10G11G13G17G20G23G31G32R01R02
                                R11R12R13R17R18
  21773192.034    21773191.6554   21773196.8364  114418954.152 7  89157634.72944
      2824.841        2201.179
  24449285.008    24449284.0184   24449296.3864  128481906.735 4 100115761.49941
      4128.342        3216.889
  23313701.673    23313699.6224   23313707.1424  122514333.271 5  95465734.48041
      3230.619        2517.365
  25147331.876    25147333.2874   25147342.7644  132150151.580 4 102974153.72341
     -3176.965       -2475.515
  20352298.797    20352298.5844   20352303.3234  106952487.739 8  83339402.84746
      1661.644        1294.788
  22909171.610    22909171.4904   22909177.1724  120388572.044 6  93809295.33043
     -1606.443       -1251.769
  21190079.213    21190077.9594   21190083.3004  111354875.719 7  86770018.69145
     -1164.523        -907.419
  20301051.391    20301050.8064   20301053.4844  106683158.416 8  83129639.17846
      -102.107         -79.561
  25010794.859    25010794.1204   25010799.7944  131432635.759 4 102415055.51841
     -2352.136       -1832.868
  23633610.352    23633609.3784   23633616.5954  124195870.651 6  96775926.92342
     -1843.730       -1436.677
  23327989.176    23327988.167    23327993.131   124701886.566 5  96990490.232 4
     -2168.154       -1686.349
  20187806.268    20187805.603    20187808.893   107726256.823 8  83787202.523 6
      -299.086        -232.615
  22670046.615    22670046.284    22670050.988   121141888.618 5  94221492.435 4
     -1997.202       -1553.366
  20974518.676    20974518.351    20974523.723   112042191.953 8  87143970.344 6
      2028.255        1577.532
  22621863.852    22621864.352    22621869.346   120799751.688 6  93955459.992 5
      4693.009        3650.121
  21839688.904    21839687.550    21839691.653   116868636.831 6  90897869.538 4
     -3157.961       -2456.193
  21127714.038    21127714.112    21127718.842   112781189.849 7  87718747.658 6
       183.839         142.984
 11 10 10 21 10 30.0000000  0 17G04G07G10G11G13G17G20G23G31G32R01R02
                                R11R12R13R17R18
  21757102.762    21757102.2454   21757107.5934  114334404.804 7  89091752.12844
      2811.895        2191.089
  24425716.699    24425716.4734   24425728.9744  128358054.751 4 100019254.77241
      4128.595        3217.045
  23295266.450    23295263.7424   23295270.8034  122417456.346 5  95390245.97741
      3227.864        2515.205
  25165467.500    25165463.1694   25165476.4924  132245446.534 4 103048408.56941
     -3176.133       -2474.907
  20342857.536    20342857.4424   20342862.2404  106902874.039 8  83300742.83346
      1646.019        1282.613
  22918377.082    22918377.4314   22918383.4864  120436947.812 6  93846990.71843
     -1618.538       -1261.197
  21196750.285    21196749.2154   21196754.4914  111389932.668 7  86797335.77745
     -1172.529        -913.659
  20301672.962    20301672.2324   20301675.0994  106686424.392 8  83132184.10046
      -115.537         -90.027
  25024252.212    25024249.3004   25024257.9204  131503362.205 4 102470167.04441
     -2362.865       -1841.234
  23644142.984    23644141.6114   23644149.5784  124251220.741 6  96819056.84942
     -1846.181       -1438.582
  23340162.101    23340160.932    23340165.988   124766955.325 5  97041099.225 4
     -2169.624       -1687.497
  20189508.057    20189507.467    20189511.111   107735338.067 8  83794265.709 6
      -306.249        -238.193
  22681318.068    22681318.466    22681323.526   121202124.963 5  94268342.914 4
     -2018.477       -1569.924
  20963195.906    20963196.135    20963201.855   111981710.798 8  87096929.473 6
      2003.877        1558.574
  22595516.011    22595516.288    22595521.190   120659053.001 6  93846027.781 5
      4686.997        3645.445
  21857427.045    21857425.934    21857430.196   116963557.864 6  90971696.975 4
     -3170.016       -2465.560
  21126755.412    21126755.197    21126760.503   112776071.802 7  87714766.966 6
       157.451         122.458
 11 10 10 21 11  0.0000000  0 17G04G07G10G11G13G17G20G23G31G32R01R02
                                R11R12R13R17R18
  21741086.696    21741087.0494   21741092.5624  114250245.454 7  89026173.42044
      2798.594        2180.717
  24402145.941    24402145.8884   24402157.0314  128234196.449 5  99922742.82141
      4128.410        3216.876
  23276846.210    23276846.0834   23276853.4774  122320662.757 5  95314822.43641
      3224.836        2512.874
  25183596.528    25183595.3434   25183604.3564  132340716.237 4 103122643.67841
     -3175.529       -2474.432
  20333506.098    20333505.7004   20333510.3294  106853730.832 8  83262449.44246
      1630.033        1270.155
  22927652.174    22927651.9984   22927658.4914  120485685.751 6  93884968.30743
     -1630.870       -1270.810
  21203467.487    21203466.5334   21203471.6284  111425232.643 7  86824842.25545
     -1180.955        -920.224
  20302371.248    20302370.5184   20302373.2384  106690094.146 9  83135043.65146
      -129.264        -100.723
  25037772.221    25037772.7494   25037779.4294  131574406.747 4 102525527.17041
     -2373.792       -1849.685
  23654689.782    23654689.9544   23654696.2694  124306645.287 6  96862244.77642
     -1848.941       -1440.733
  23352343.812    23352342.738    23352346.832   124832072.308 5  97091745.725 4
     -2171.638       -1689.050
  20191250.311    20191249.748    20191253.257   107744635.216 8  83801496.817 6
      -313.737        -244.012
  22692711.194    22692710.482    22692715.877   121263002.802 5  94315692.362 4
     -2040.126       -1586.760
  20952011.642    20952011.336    20952016.614   111921963.001 8  87050458.982 6
      1979.086        1539.288
  22569202.383    22569202.479    22569207.081   120518537.562 6  93736738.088 5
      4680.470        3640.365
  21875233.292    21875231.185    21875235.109   117058836.980 6  91045802.902 4
     -3182.202       -2475.035
  21125945.243    21125945.197    21125949.928   112771745.055 7  87711401.723 6
       130.819         101.753
 11 10 10 21 11 30.0000000  0 17G04G07G10G11G13G17G20G23G31G32R01R02
                                R11R12R13R17R18
  21725148.782    21725148.5434   21725154.2514  114166487.458 7  88960907.45644
      2785.215        2170.297
  24378575.874    24378575.9614   24378587.7174  128110344.526 5  99826236.00441
      4128.228        3216.776
  23258444.435    23258443.9614   23258451.6514  122223962.491 5  95239471.63841
      3221.770        2510.461
  25201723.498    25201724.9914   25201734.4634  132435967.938 4 103196864.75941
     -3174.863       -2473.842
  20324245.510    20324245.1804   20324249.8604  106805067.238 8  83224529.77946
      1614.114        1257.748
  22936996.775    22936995.9564   22937003.4064  120534791.777 6  93923232.71343
     -1642.945       -1280.216
  21210232.935    21210231.8074   21210236.8694  111460784.413 7  86852544.92245
     -1189.269        -926.704
  20303147.741    20303147.0744   20303149.9794  106694175.313 9  83138223.78747
      -142.898        -111.349
  25051354.922    25051352.2654   25051358.5094  131645777.903 4 102581141.04741
     -2384.580       -1858.087
  23665253.377    23665253.1624   23665258.5644  124362153.093 6  96905497.59442
     -1851.631       -1442.812
  23364535.562    23364534.945    23364540.131   124897247.009 5  97142437.104 4
     -2173.455       -1690.459
  20193034.637    20193033.932    20193037.719   107754157.372 8  83808902.933 6
      -321.167        -249.796
  22704225.242    22704223.753    22704229.106   121324528.105 5  94363545.393 4
     -2061.675       -1603.528
  20940965.744    20940965.475    20940971.275   111862960.198 7  87004567.939 6
      1954.293        1520.008
  22542925.461    22542925.032    22542928.771   120378218.751 6  93627601.338 5
      4673.927        3635.272
  21893105.320    21893103.896    21893108.644   117154478.962 6  91120191.072 4
     -3194.085       -2484.287
  21125283.475    21125283.463    21125288.109   112768217.441 7  87708658.016 6
       104.263          81.094
 11 10 10 21 12  0.0000000  0 17G04G07G10G11G13G17G20G23G31G32R01R02
                                R11R12R13R17R18
  21709286.580    21709286.6374   21709292.0444  114083132.161 7  88895955.29144
      2771.587        2159.680
  24355008.536    24355007.7354   24355019.6904  127986499.973 5  99729734.83141
      4127.770        3216.424
  23240060.889    23240059.8474   23240066.9814  122127354.804 5  95164192.90542
      3218.493        2507.920
  25219846.532    25219839.7274   25219853.9964  132531198.146 4 103271069.05041
     -3173.980       -2473.186
  20315076.104    20315075.7124   20315080.6304  106756881.933 8  83186982.79446
      1598.003        1245.198
  22946410.433    22946409.9724   22946416.0164  120584262.131 6  93961781.02243
     -1655.239       -1289.786
  21217045.854    21217044.7054   21217050.1724  111496587.140 7  86880443.14945
     -1197.796        -933.347
  20304002.316    20304001.6734   20304004.5794  106698665.769 8  83141722.84646
      -156.675        -122.085
  25064995.898    25064994.9974   25065000.0294  131717471.724 3 102637006.42441
     -2395.140       -1866.377
  23675831.186    23675829.7934   23675838.0944  124417743.151 6  96948814.49642
     -1854.582       -1445.115
  23376736.915    23376737.564    23376742.197   124962478.389 5  97193172.595 4
     -2175.549       -1692.084
  20194860.965    20194860.615    20194864.205   107763903.381 8  83816483.159 7
      -328.805        -255.739
  22715857.819    22715858.137    22715863.643   121386696.618 5  94411898.656 4
     -2083.221       -1620.281
  20930060.254    20930060.077    20930065.856   111804703.937 8  86959257.522 6
      1929.180        1500.474
  22516686.820    22516685.439    22516688.175   120238099.905 6  93518620.100 5
      4667.029        3629.910
  21911044.236    21911043.776    21911047.983   117250477.183 6  91194856.302 4
     -3206.016       -2493.568
  21124772.575    21124772.344    21124777.551   112765487.857 7  87706535.009 6
        77.551          60.313
 11 10 10 21 12 30.0000000  0 17G04G07G10G11G13G17G20G23G31G32R01R02
                                R11R12R13R17R18
  21693501.520    21693500.9634   21693506.5564  114000176.859 7  88831314.80544
      2758.563        2149.530
  24331442.070    24331441.6144   24331451.8684  127862660.929 5  99633237.86841
      4127.896        3216.521
  23221693.359    23221692.7384   23221700.2754  122030835.526 5  95088983.10141
      3215.937        2505.934
  25237961.654                                   132626400.522 4
     -3172.806
  20305996.892    20305996.5024   20306001.4314  106709170.447 8  83149805.02446
      1582.587        1233.182
  22955892.877    22955892.4904   22955897.7534  120634088.949 6  94000607.10043
     -1666.693       -1298.720
  21223905.633    21223904.5174   21223909.9374  111532635.520 7  86908532.79845
     -1205.613        -939.442
  20304933.506    20304932.9394   20304935.7104  106703559.328 8  83145536.00946
      -169.733        -132.258
  25078700.074                                   131789481.901 3
     -2405.333
  23686424.386    23686422.6634   23686430.8524  124473410.608 6  96992191.73442
     -1856.760       -1446.824
  23388950.058    23388949.961    23388956.499   125027761.393 5  97243948.234 4
     -2176.804       -1693.056
  20196728.340    20196728.023    20196731.743   107773868.352 8  83824233.687 7
      -335.707        -261.105
  22727610.823    22727610.619    22727616.549   121449500.143 5  94460745.827 4
     -2103.952       -1636.413
  20919293.519    20919293.139    20919299.368   111747191.927 7  86914525.985 6
      1904.749        1481.469
  22490483.167    22490482.772    22490485.937   120098180.781 6  93409794.187 5
      4660.737        3625.018
  21929049.652    21929048.276    21929052.659   117346823.177 6  91269792.035 4
     -3217.148       -2502.224
  21124409.618    21124409.242    21124414.683   112763549.374 7  87705027.290 6
        51.525          40.075
 11 10 10 21 13  0.0000000  0 17G04G07G10G11G13G17G20G23G31G32R01R02
                                R11R12R13R17R18
  21677792.195    21677791.8104   21677797.6874  113917627.174 7  88766990.39944
      2744.753        2138.770
  24307878.381    24307879.4384   24307886.8674  127738833.099 5  99536749.60441
      4127.253        3215.981
  23203344.901    23203342.6974   23203350.2074  121934408.504 5  95013845.19741
      3212.538        2503.284
  25256075.671                                   132721576.184 4
     -3172.112
  20297008.511    20297008.3834   20297013.0674  106661935.610 8  83112998.66646
      1566.401        1220.573
  22965441.773    22965441.9894   22965447.7414  120684272.746 5  94039711.33443
     -1678.856       -1308.197
  21230812.446    21230811.5244   21230817.3414  111568932.769 7  86936816.37545
     -1214.218        -946.141
  20305941.843    20305941.2484   20305944.1434  106708857.858 9  83149664.73746
      -183.478        -142.971
  25092460.170                                   131861814.476 3
     -2416.319
  23697033.419    23697032.3644   23697039.3504  124529158.629 6  97035631.72842
     -1859.735       -1449.146
  23401173.965    23401173.385    23401179.342   125093099.498 5  97294766.732 4
     -2178.995       -1694.781
  20198636.836    20198636.766    20198641.021   107784055.714 8  83832157.186 7
      -343.430        -267.110
  22739482.797    22739482.061    22739487.584   121512938.708 5  94510086.910 4
     -2125.295       -1653.004
  20908667.539    20908667.293    20908673.363   111690429.873 7  86870377.741 6
      1879.351        1461.718
  22464318.390    22464318.543    22464322.600   119958469.244 6  93301129.744 5
      4653.430        3619.335
  21947118.358    21947117.696    21947122.544   117443515.491 6  91344997.108 4
     -3228.966       -2511.408
  21124194.257    21124193.909    21124199.509   112762405.084 7  87704137.296 6
        24.787          19.276
 11 10 10 21 13 30.0000000  0 16G04G07G10G11G13G17G20G23G32R01R02R11
                                R12R13R17R18
  21662160.963    21662160.9354   21662167.0064  113835486.078 7  88702984.35944
      2731.363        2128.337
  24284316.982    24284315.9584   24284326.7394  127615020.036 5  99440272.77541
      4126.944        3215.758
  23185012.992    23185011.3304   23185019.7954  121838075.243 5  94938780.34742
      3209.667        2501.036
  25274182.128                                   132816728.196 4
     -3171.103
  20288111.187    20288110.8204   20288115.4034  106615178.596 8  83076564.64846
      1550.767        1208.384
  22975059.275    22975059.5284   22975064.4484  120734811.422 6  94079092.11443
     -1690.308       -1317.123
  21237767.098    21237766.1164   21237772.0344  111605479.526 7  86965294.36445
     -1222.195        -952.359
  20307027.019    20307026.3354   20307029.1804  106714560.754 8  83154108.55746
      -196.670        -153.251
  23707657.165    23707655.9334   23707664.0414  124584988.066 6  97079135.15542
     -1862.237       -1451.087
  23413405.714    23413406.310    23413410.797   125158493.828 5  97345628.944 4
     -2180.595       -1696.028
  20200588.167    20200588.048    20200591.631   107794466.072 8  83840254.121 6
      -350.575        -272.669
  22751474.818    22751472.715    22751477.499   121577009.661 5  94559919.864 4
     -2145.967       -1669.073
  20898182.814    20898182.830    20898188.484   111634420.900 8  86826815.213 6
      1854.528        1442.411
  22438195.271    22438195.130    22438199.278   119818970.684 6  93192630.949 5
      4646.474        3613.918
  21965252.683    21965251.450    21965255.237   117540549.927 6  91420468.302 4
     -3239.991       -2519.990
  21124128.817    21124128.584    21124133.887   112762054.011 7  87703864.236 6
        -1.364          -1.054
 11 10 10 21 14  0.0000000  0 16G04G07G10G11G13G17G20G23G32R01R02R11
                                R12R13R17R18
  21646607.559    21646607.5314   21646613.3904  113753752.622 7  88639295.95844
      2717.621        2117.625
  24260757.281    24260757.5454   24260768.0674  127491220.854 5  99343806.68241
      4126.392        3215.360
  23166699.229    23166697.0764   23166705.1374  121741832.545 5  94863786.05442
      3206.528        2498.583
  25292283.495                                   132911842.656 4
     -3169.883
  20279303.655    20279303.2554   20279307.8204  106568895.257 8  83040499.72346
      1534.865        1195.997
  22984743.149    22984742.6094   22984747.6014  120785698.458 6  94118744.32142
     -1701.982       -1326.216
  21244768.465    21244767.3164   21244773.5244  111642272.021 7  86993963.81545
     -1230.503        -958.830
  20308187.992    20308187.6024   20308190.4714  106720663.369 9  83158863.84346
      -210.048        -163.674
  23718296.180    23718294.2874   23718302.0494  124640895.255 6  97122699.17642
     -1864.866       -1453.135
  23425650.326    23425649.355    23425655.670   125223940.725 5  97396532.053 4
     -2182.354       -1697.390
  20202580.342    20202579.829    20202583.384   107805095.721 8  83848521.627 6
      -357.965        -278.416
  22763580.189    22763580.283    22763583.924   121641706.191 5  94610239.390 4
     -2166.946       -1685.406
  20887838.761    20887838.537    20887844.188   111579163.993 8  86783837.621 6
      1829.356        1422.830
  22412111.547    22412111.275    22412114.844   119679685.816 6  93084298.359 5
      4639.224        3608.285
  21983448.393    21983447.292    21983450.085   117637918.804 6  91496199.617 4
     -3251.210       -2528.723
  21124211.157    21124211.316    21124216.485   112762491.506 7  87704204.504 6
       -27.660         -21.513
 11 10 10 21 14 30.0000000  0 16G04G07G10G11G13G17G20G23G32R01R02R11
                                R12R13R17R18
  21631132.055    21631131.6424   21631137.5834  113672425.274 7  88575924.01944
      2704.008        2107.028
  24237202.399    24237201.8694   24237210.6234  127367434.586 5  99247350.67041
      4125.896        3214.975
  23148400.903    23148400.1244   23148407.1734  121645677.904 6  94788860.36642
      3203.606        2496.329
  25310376.013                                   133006918.270 4
     -3168.423
  20270585.689    20270585.3224   20270590.1984  106523082.451 8  83004801.44546
      1519.166        1183.763
  22994491.361    22994490.5904   22994496.5004  120836927.713 6  94158663.18942
     -1713.422       -1335.128
  21251815.718    21251814.6274   21251820.8264  111679306.732 7  87022822.00745
     -1238.620        -965.157
  20309424.584    20309424.0414   20309427.0124  106727160.715 8  83163926.71046
      -223.245        -173.956
  23728949.643    23728948.0404   23728954.4344  124696876.807 6  97166321.14242
     -1867.309       -1455.046
  23437901.418    23437901.647    23437907.034   125289436.894 5  97447473.486 4
     -2184.084       -1698.725
  20204613.127    20204612.502    20204615.767   107815941.343 8  83856957.108 6
      -365.209        -284.049
  22775803.762    22775802.730    22775808.208   121707021.639 5  94661040.316 4
     -2187.532       -1701.405
  20877635.379    20877635.092    20877640.704   111524658.156 8  86741444.220 6
      1804.210        1403.276
  22386067.172    22386067.782    22386071.408   119540616.435 6  92976133.364 5
      4631.912        3602.597
  22001703.458    22001703.308    22001707.085   117735613.837 6  91572184.605 4
     -3261.974       -2537.084
  21124440.585    21124439.717    21124444.728   112763712.376 7  87705154.076 6
       -53.787         -41.833
 11 10 10 21 15  0.0000000  0 17G04G07G10G11G13G17G20G23G32R01R02R11
                                R12R13R17R18R19
  21615734.498    21615734.3734   21615739.5464  113591510.242 7  88512873.36244
      2690.374        2096.397
  24213649.234    24213648.6574   24213657.2444  127243667.539 5  99150909.53441
      4125.265        3214.496
  23130121.352    23130119.9334   23130127.1504  121549615.382 6  94714006.49142
      3200.633        2494.012
  25328463.231                                   133101956.770 4
     -3167.076
  20261958.029    20261957.6214   20261962.5024  106477743.946 8  82969472.74846
      1503.495        1171.556
  23004304.994    23004304.7274   23004310.5704  120888499.778 6  94198849.19542
     -1724.643       -1343.870
  21258910.026    21258908.9844   21258914.7144  111716587.231 7  87051871.74145
     -1246.656        -971.416
  20310736.776    20310736.1134   20310738.8774  106734055.091 9  83169298.95346
      -236.309        -184.135
  23739616.252    23739615.9104   23739623.1594  124752936.421 5  97210003.93442
     -1869.797       -1456.993
  23450166.849    23450164.747    23450169.273   125354985.992 5  97498456.054 4
     -2185.749       -1700.026
  20206686.650    20206686.218    20206689.506   107827006.713 8  83865563.502 6
      -372.401        -289.646
  22788141.915    22788141.743    22788146.323   121772956.039 5  94712322.618 4
     -2208.020       -1717.345
  20867572.693    20867572.539    20867578.802   111470909.404 8  86699639.671 6
      1779.058        1383.709
  22360066.957    22360066.787    22360070.573   119401770.027 6  92868141.762 5
      4624.547        3596.863
  22020021.640    22020020.351    22020025.250   117833634.111 6  91648422.539 4
     -3272.638       -2545.385
  21124815.890    21124815.792    21124821.041   112765720.884 7  87706716.241 6
       -79.952         -62.182
  23413264.447                                   125245175.085 5
      3326.602
 11 10 10 21 15 30.0000000  0 17G04G07G10G11G13G17G20G23G32R01R02R11
                                R12R13R17R18R19
  21600414.573    21600414.0494   21600420.1734  113511003.557 7  88450140.89744
      2676.702        2085.741
  24190098.332    24190098.6144   24190108.0344  127119916.564 5  99054480.90441
      4124.666        3213.997
  23111858.131    23111857.4914   23111862.9514  121453639.622 6  94639220.21242
      3197.742        2491.745
  25346540.291                                   133196950.110 4
     -3165.684
  20253419.407    20253418.9864   20253423.7314  106432872.807 8  82934508.23146
      1487.884        1159.388
  23014182.647    23014182.1414   23014188.1804  120940405.511 5  94239295.19343
     -1735.766       -1352.534
  21266049.947    21266048.9444   21266054.3684  111754106.837 7  87081107.79645
     -1254.719        -977.702
  20312122.843    20312122.1884   20312124.7744  106741338.888 8  83174974.64546
      -249.308        -194.265
  23750297.809    23750296.4814   23750304.0434  124809067.765 5  97253742.61342
     -1872.250       -1458.897
  23462437.411    23462436.970    23462440.757   125420582.214 5  97549475.322 4
     -2187.280       -1701.222
  20208800.553    20208800.000    20208803.368   107838285.192 8  83874335.645 6
      -379.540        -295.197
  22800596.879    22800594.993    22800598.627   121839499.717 5  94764078.784 4
     -2228.303       -1733.111
  20857652.478    20857652.000    20857657.917   111417913.507 8  86658420.657 6
      1753.886        1364.136
  22334108.034    22334107.221    22334111.362   119263145.109 6  92760322.444 5
      4617.061        3591.044
  22038398.012    22038397.190    22038400.935   117931968.681 6  91724904.913 4
     -3283.021       -2553.465
  21125338.930    21125338.650    21125343.051   112768508.400 7  87708884.306 6
      -105.801         -82.288
  23394658.261    23394658.296    23394662.407   125145655.730 4  97335537.450 4
      3307.965        2572.863
 11 10 10 21 16  0.0000000  0 17G04G07G10G11G13G17G20G23G32R01R02R11
                                R12R13R17R18R19
  21585173.656    21585173.5864   21585179.3944  113430914.518 7  88387733.87044
      2662.876        2074.969
  24166554.264    24166553.7624   24166564.0674  126996191.365 5  98958072.31241
      4123.928        3213.435
  23093611.842    23093610.9774   23093617.1374  121357758.221 6  94564507.45642
      3194.656        2489.317
  25364611.191                                   133291904.034 4
     -3164.204
  20244970.999    20244970.7574   20244975.3254  106388476.207 8  82899913.48246
      1472.195        1147.167
  23024124.084    23024124.2384   23024129.2994  120992649.088 6  94280004.45643
     -1746.856       -1361.187
  21273237.206    21273235.7034   21273240.9584  111791872.931 7  87110535.93145
     -1262.734        -983.953
  20313584.072    20313583.4254   20313586.1324  106749018.207 8  83180958.53546
      -262.355        -204.430
  23760994.229    23760993.9314   23761000.9174  124865278.014 5  97297542.78942
     -1874.764       -1460.859
  23474716.159    23474716.478    23474722.536   125486232.649 5  97600536.731 4
     -2188.995       -1702.546
  20210955.188    20210954.769    20210958.422   107849784.306 8  83883279.406 6
      -386.755        -300.805
  22813162.536    22813161.605    22813166.883   121906656.679 5  94816311.953 4
     -2248.533       -1748.865
  20847873.620    20847873.650    20847880.100   111365680.243 8  86617794.815 6
      1728.579        1344.453
  22308191.156    22308191.111    22308195.277   119124753.589 6  92652684.672 5
      4609.383        3585.082
  22056833.928    22056832.999    22056835.851   118030619.773 6  91801633.484 4
     -3293.415       -2561.546
  21126007.309    21126007.269    21126012.247   112772080.402 7  87711662.518 6
      -131.927        -102.607
  23376162.170    23376160.968    23376165.003   125046707.009 4  97258577.385 4
      3288.976        2558.092
 11 10 10 21 16 30.0000000  0 17G04G07G10G11G13G17G20G23G32R01R02R11
                                R12R13R17R18R19
  21570013.417    21570013.0224   21570019.1324  113351245.411 7  88325654.06644
      2648.821        2064.012
  24143014.773    24143015.5924   24143024.8734  126872494.553 5  98861685.79241
      4122.866        3212.599
  23075385.153    23075383.6864   23075389.9214  121261972.002 5  94489868.87142
      3191.503        2486.875
  25382672.548                                   133386816.087 4
     -3162.826
  20236612.767    20236612.6674   20236617.4414  106344554.133 8  82865688.50446
      1456.362        1134.826
  23034129.746    23034129.3934   23034135.2134  121045227.561 6  94320974.66242
     -1757.938       -1369.823
  21280470.468    21280469.3844   21280474.4244  111829885.008 7  87140155.73745
     -1270.946        -990.347
  20315120.163    20315119.6904   20315122.4204  106757091.437 9  83187249.36246
      -275.450        -214.637
  23771706.092    23771705.1924   23771712.4314  124921567.058 6  97341404.34342
     -1877.379       -1462.874
  23487009.254    23487008.255    23487012.847   125551937.260 5  97651640.236 4
     -2190.820       -1703.965
  20213150.819    20213150.540    20213154.521   107861503.852 8  83892394.608 6
      -394.128        -306.547
  22825843.615    22825842.936    22825848.405   121974422.999 5  94869019.092 4
     -2268.736       -1764.561
  20838239.189    20838238.800    20838244.831   111314211.626 8  86577763.680 6
      1703.036        1324.583
  22282319.115    22282319.032    22282323.370   118986599.866 6  92545231.846 5
      4601.271        3578.770
  22075328.359    22075326.942    22075330.827   118129583.612 6  91878605.305 4
     -3303.738       -2569.569
  21126823.485    21126823.277    21126828.605   112776435.956 7  87715050.171 6
      -158.004        -122.896
  23357771.014    23357770.760    23357775.746   124948332.230 4  97182063.724 4
      3269.683        2543.079
 11 10 10 21 17  0.0000000  0 17G04G07G10G11G13G17G20G23G32R01R02R11
                                R12R13R17R18R19
  21554932.808    21554932.4184   21554937.8724  113271995.432 7  88263900.84544
      2634.526        2052.875
  24119481.837    24119481.7804   24119490.0434  126748825.729 5  98765321.05541
      4121.605        3211.612
  23057173.830    23057173.2124   23057179.9594  121166278.524 6  94415302.53742
      3188.092        2484.246
  25400725.420                                   133481681.388 4
     -3161.603
  20228344.538    20228344.2824   20228348.8684  106301103.197 8  82831830.64246
      1440.352        1122.345
  23044197.816    23044196.9754   23044203.9154  121098135.007 5  94362201.21542
     -1769.172       -1378.569
  21287750.161    21287749.1584   21287754.1744  111868139.993 7  87169964.80245
     -1279.338        -996.885
  20316730.825    20316730.1214   20316732.9164  106765554.129 8  83193843.66646
      -288.727        -224.984
  23782432.807    23782431.5924   23782438.3814  124977931.979 6  97385325.03042
     -1880.209       -1465.099
  23499310.258    23499309.170    23499314.570   125617693.519 5  97702783.993 4
     -2192.874       -1705.571
  20215387.980    20215387.515    20215391.377   107873440.908 8  83901678.983 6
      -401.687        -312.423
  22838638.404    22838638.373    22838642.127   122042792.531 5  94922195.422 4
     -2289.083       -1780.400
  20828746.703    20828746.566    20828752.330   111263506.872 8  86538326.661 6
      1677.223        1304.508
  22256491.795    22256491.364    22256496.437   118848685.645 6  92437965.309 5
      4592.926        3572.267
  22093877.735    22093877.222    22093881.410   118228852.065 6  91955814.034 4
     -3314.111       -2577.635
  21127784.691    21127784.692    21127790.323   112781570.488 7  87719043.687 6
      -184.311        -143.350
  23339487.393    23339487.351    23339491.325   124850531.856 4  97105996.821 4
      3250.257        2527.977
 11 10 10 21 17 30.0000000  0 17G04G07G10G11G13G17G20G23G32R01R02R11
                                R12R13R17R18R19
  21539932.363    21539931.6544   21539937.3104  113193168.809 7  88202477.52244
      2620.619        2042.036
  24095954.728    24095954.4344   24095962.3954  126625189.572 5  98668981.73541
      4120.798        3210.985
  23038983.327    23038982.0454   23038988.1354  121070680.441 6  94340810.54342
      3185.175        2481.955
  25418768.566                                   133576500.046 4
     -3159.795
  20220165.929    20220165.7674   20220170.4834  106258125.567 8  82798341.58846
      1424.870        1110.288
  23054328.006    23054327.1824   23054333.5864  121151370.389 5  94403683.30242
     -1779.763       -1386.834
  21295076.328    21295075.4394   21295080.6564  111906639.827 7  87199964.66945
     -1287.236       -1003.040
  20318415.329    20318414.6764   20318417.5524  106774406.835 8  83200741.87846
      -301.407        -234.865
  23793172.723    23793171.4814   23793178.4534  125034374.595 5  97429306.25942
     -1882.555       -1466.921
  23511622.124    23511621.111    23511625.221   125683503.325 5  97753969.344 4
     -2194.320       -1706.690
  20217666.210    20217665.908    20217669.594   107885597.639 8  83911134.218 6
      -408.750        -317.921
  22851545.055    22851545.219    22851550.278   122111763.849 5  94975839.775 4
     -2308.927       -1795.832
  20819398.541    20819398.161    20819404.151   111213569.977 8  86499486.867 6
      1651.899        1284.811
  22230711.008    22230710.832    22230716.016   118711017.381 6  92330890.048 5
      4584.944        3566.062
  22112485.128    22112484.114    22112488.629   118328422.777 6  92033257.862 4
     -3323.888       -2585.242
  21128892.854    21128892.641    21128898.224   112787484.461 7  87723643.436 6
      -209.934        -163.285
  23321312.895    23321313.271    23321317.587   124753311.530 5  97030381.025 4
      3231.082        2513.061
 11 10 10 21 18  0.0000000  0 17G04G07G10G11G13G17G20G23G32R01R02R11
                                R12R13R17R18R19
  21525011.779    21525011.4324   21525017.2134  113114760.821 7  88141380.39444
      2606.611        2031.125
  24072432.910    24072432.7234   24072439.9304  126501581.881 5  98572664.55841
      4119.781        3210.192
  23020808.253    23020807.1164   23020812.6054  120975171.185 5  94266387.79042
      3182.194        2479.633
  25436801.149                                   133671262.311 4
     -3157.915
  20212076.295    20212076.0604   20212080.7104  106215613.956 8  82765215.66646
      1409.301        1098.162
  23064518.517    23064518.3774   23064524.1074  121204923.630 6  94445413.05442
     -1790.351       -1395.089
  21302447.193    21302446.5454   21302452.2754  111945377.164 7  87230149.59245
     -1295.173       -1009.222
  20320172.598    20320171.9854   20320174.6414  106783641.406 9  83207937.64946
      -314.154        -244.796
  23803926.543    23803925.0934   23803932.7424  125090888.042 5  97473342.68542
     -1884.996       -1468.826
  23523940.146    23523940.623    23523945.419   125749359.845 5  97805191.063 4
     -2195.908       -1707.930
  20219984.619    20219983.893    20219987.891   107897966.669 8  83920754.571 6
      -415.817        -323.415
  22864563.201    22864561.905    22864567.213   122181326.103 5  95029943.740 4
     -2328.666       -1811.174
  20810193.204    20810193.083    20810198.580   111164396.103 8  86461240.546 6
      1626.365        1264.951
  22204975.214    22204975.157    22204980.905   118573592.611 6  92224004.165 5
      4576.716        3559.669
  22131146.117    22131145.412    22131150.140   118428283.547 5  92110927.284 4
     -3333.528       -2592.738
  21130145.385    21130145.374    21130150.917   112794169.266 7  87728842.725 6
      -235.601        -183.242
  23303248.500    23303248.112    23303251.138   124656667.190 5  96955213.250 4
      3211.857        2498.119
 11 10 10 21 18 30.0000000  0 17G04G07G10G11G13G17G20G23G32R01R02R11
                                R12R13R17R18R19
  21510171.716    21510171.4014   21510176.8534  113036776.167 7  88080613.14644
      2592.343        2020.010
  24048916.237    24048917.8984   24048924.9494  126378008.152 5  98476373.77541
      4118.450        3209.181
  23002651.254    23002650.3344   23002656.0744  120879753.979 6  94192036.74342
      3178.925        2477.089
  25454827.108                                   133765969.728 4
     -3155.946
  20204075.512    20204075.3034   20204080.0064  106173570.555 8  82732454.58146
      1393.568        1085.896
  23074769.717    23074770.0184   23074775.3814  121258794.292 6  94487390.15342
     -1801.013       -1403.386
  21309864.175    21309863.2784   21309869.5704  111984354.583 7  87260521.58945
     -1303.363       -1015.607
  20322002.839    20322002.0974   20322004.8834  106793258.808 9  83215431.72946
      -327.038        -254.834
  23814695.064    23814694.3864   23814701.6224  125147474.848 5  97517436.27342
     -1887.565       -1470.826
  23536269.984    23536269.739    23536275.335   125815265.509 5  97856450.971 4
     -2197.745       -1709.350
  20222342.578    20222341.999    20222345.738   107910550.664 8  83930542.109 6
      -423.152        -329.115
  22877691.706    22877690.971    22877695.213   122251478.323 5  95084506.558 4
     -2348.327       -1826.467
  20801131.195    20801131.361    20801136.534   111115989.944 8  86423591.333 6
      1600.640        1244.945
  22179287.178    22179286.943    22179292.350   118436418.559 6  92117313.283 5
      4568.151        3553.008
  22149862.578    22149861.854    22149865.590   118528433.054 6  92188821.283 4
     -3343.149       -2600.229
  21131543.096    21131542.841    21131547.833   112801626.685 7  87734642.937 6
      -261.511        -203.393
  23285290.460    23285288.566    23285293.243   124560604.855 5  96880498.145 4
      3192.291        2482.892
