     2.11           OBSERVATION DATA    M (MIXED)           RINEX VERSION / TYPE
teqc  2012Jun6                          20151118 02:01:20UTCPGM / RUN BY / DATE
OSX ker:10.8.0|Core 2 Duo|gcc 4.2 -m64|OSX ker:10.8.0+|=+   COMMENT
     2              OBSERVATION DATA    M (MIXED)           COMMENT
CCRINEXO V2.3.3 UX  BKG Frankfurt       11-OCT-11 00:16     COMMENT
Concatenated RINEX hourly files (24/24)                     COMMENT
JPS2RIN 1.40 lnx    SAC                 10-OCT-11 01:01     COMMENT
build Feb  6 2004 (c) Javad Navigation Systems              COMMENT
Stazione Astronomica Cagliari                               COMMENT
/home/srv/htdocs/glonass/hdata/CAGZ.tps                     COMMENT
SE TPS 8b1daea3                                             COMMENT
CAGZ                                                        MARKER NAME
12725M004                                                   MARKER NUMBER
SAC                 SAC-DIST                                OBSERVER / AGENCY
AGNV7TGA2O0         TPS E_GGD           3.3 Jul,10,2008 p4  REC # / TYPE / VERS
RRA052              JPSREGANT_DD_E  NONE                    ANT # / TYPE
  4893378.7999   772650.4734  4004179.0402                  APPROX POSITION XYZ
        0.0945        0.0000        0.0000                  ANTENNA: DELTA H/E/N
     1     1                                                WAVELENGTH FACT L1/2
     7    C1    P1    P2    L1    L2    D1    D2            # / TYPES OF OBSERV
    30.0000                                                 INTERVAL
teqc windowed: start @ 2011 Oct 10 08:00:00.000             COMMENT
teqc windowed: delta = 14400.000 sec                        COMMENT
  2011    10    10     8     0    0.0000000     GPS         TIME OF FIRST OBS
    15                                                      LEAP SECONDS
                                                            END OF HEADER
 11 10 10  8  0  0.0000000  1 16G02G04G09G12G14G25G29G30R08R09R10R15
                                R16R18R19R20
  23054601.328    23054600.4824   23054606.9614  121152797.099 7  94404797.80543
      1769.417        1378.767
  23924252.527    23924252.5794   23924262.0944  125722824.027 5  97965856.24241
      -640.054        -498.720
  21530604.382    21530603.5184   21530611.5354  113144064.730 7  88164217.02645
     -2244.262       -1748.770
  20822247.721    20822247.4234   20822253.3214  109421637.515 8  85263634.56746
      -321.285        -250.348
  22223274.941    22223274.3604   22223280.8434  116784092.821 6  91000605.76343
       923.253         719.419
  21042087.791    21042087.0054   21042096.1164  110576903.868 8  86163831.55946
      1562.274        1217.364
  22231710.879    22231710.3394   22231718.9834  116828456.557 7  91035182.74844
      3458.369        2694.834
  24075751.798    24075751.0684   24075758.1094  126518926.902 5  98586201.55441
      3383.814        2636.732
  24280441.233    24280441.941    24280446.911   130020660.840 4 101127210.746 4
     -1065.033        -828.348
  19938887.891    19938888.067    19938893.266   106472544.704 8  82812000.102 7
      2208.061        1717.385
  23375412.271    23375411.194    23375422.271   124604144.187 6  96914344.679 4
      4160.186        3235.692
  24095105.658    24095104.058    24095115.610   128756839.837 5 100144217.699 4
     -2915.808       -2267.833
  20399632.135    20399632.392    20399638.634   108971164.427 8  84755370.114 6
     -1245.520        -968.735
  20792668.259    20792668.199    20792674.739   110992680.770 8  86327659.892 6
     -2421.223       -1883.170
  19519042.701    19519041.962    19519046.209   104413766.245 8  81210743.018 7
      1746.160        1358.126
  22757869.754    22757868.173    22757876.623   121696554.023 5  94652918.206 5
      4731.730        3680.223
 11 10 10  8  0 30.0000000  0 16G02G04G09G12G14G25G29G30R08R09R10R15
                                R16R18R19R20
  23044542.032    23044541.1674   23044547.6964  121099934.129 7  94363605.92643
      1754.802        1367.377
  23927960.827    23927961.3034   23927970.7404  125742306.599 5  97981037.45141
      -658.695        -513.300
  21543453.591    21543452.4184   21543460.4814  113211586.734 7  88216831.52645
     -2257.169       -1758.836
  20824103.446    20824103.3314   20824109.3214  109431390.723 8  85271234.45146
      -328.914        -256.296
  22218061.653    22218060.3884   22218067.1844  116756694.748 6  90979256.57943
       903.312         703.877
  21033191.333    21033190.6524   21033199.6174  110530152.746 8  86127402.10246
      1554.480        1211.286
  22211999.278    22211998.7374   22212006.8454  116724870.112 7  90954466.06744
      3447.404        2686.287
  24056439.529    24056438.3354   24056447.2084  126417446.291 5  98507125.78441
      3381.584        2635.003
  24286462.857    24286462.113    24286467.304   130052896.478 4 101152282.956 4
     -1083.994        -843.109
  19926518.825    19926518.857    19926524.065   106406494.424 8  82760627.665 7
      2195.308        1707.462
  23351995.804    23351995.525    23352006.366   124479323.358 6  96817261.840 4
      4161.183        3236.477
  24111493.924    24111492.760    24111504.844   128844417.844 5 100212333.630 4
     -2922.713       -2273.208
  20406672.328    20406672.843    20406679.214   109008772.974 8  84784621.158 6
     -1261.666        -981.292
  20806324.443    20806324.271    20806330.379   111065576.040 8  86384356.183 6
     -2438.427       -1896.552
  19509321.251    19509320.568    19509324.728   104361762.549 8  81170295.713 7
      1720.778        1338.382
  22731347.934    22731347.033    22731354.654   121554731.778 5  94542612.159 5
      4723.141        3673.549
 11 10 10  8  1  0.0000000  0 16G02G04G09G12G14G25G29G30R08R09R10R15
                                R16R18R19R20
  23034565.415    23034564.9114   23034570.9934  121047508.531 6  94322754.84843
      1740.379        1356.136
  23931774.529    23931774.3144   23931783.8774  125762348.250 5  97996654.25941
      -677.143        -527.638
  21556375.385    21556374.5284   21556382.7784  113279493.447 7  88269745.78945
     -2269.700       -1768.592
  20826002.801    20826002.5394   20826008.2464  109441370.458 8  85279010.84746
      -336.209        -261.981
  22212961.628    22212960.4624   22212966.5534  116729892.413 6  90958371.62443
       883.677         688.574
  21024339.229    21024338.3944   21024347.2864  110483634.488 8  86091154.09546
      1546.942        1205.408
  22192349.630    22192349.4454   22192357.9854  116621612.519 7  90874005.65144
      3436.664        2677.919
  24037141.263    24037140.8564   24037147.4324  126316030.998 5  98428100.94241
      3379.664        2633.533
  24292588.083    24292589.523    24292594.410   130085703.529 4 101177799.515 4
     -1102.786        -857.714
  19914221.164    19914221.323    19914226.850   106340826.974 8  82709552.983 7
      2182.713        1697.665
  23328575.490    23328574.106    23328584.771   124354472.250 6  96720155.433 4
      4162.400        3237.432
  24127922.234    24127921.076    24127932.885   128932200.474 4 100280608.716 4
     -2929.270       -2278.316
  20413803.354    20413803.847    20413810.012   109046863.674 8  84814247.203 6
     -1277.481        -993.598
  20820076.195    20820076.069    20820082.536   111138984.314 8  86441451.477 6
     -2455.274       -1909.652
  19499741.616    19499740.996    19499745.157   104310518.337 8  81130439.116 7
      1695.681        1318.862
  22704874.177    22704873.717    22704881.327   121413168.078 5  94432507.192 5
      4714.643        3666.947
 11 10 10  8  1 30.0000000  0 16G02G04G09G12G14G25G29G30R08R09R10R15
                                R16R18R19R20
  23024671.866    23024671.0514   23024677.5144  120995514.873 6  94282240.35643
      1726.023        1344.953
  23935691.810    23935690.9114   23935704.2174  125782940.347 5  98012700.00141
      -695.361        -541.830
  21569368.967    21569368.4454   21569376.7734  113347775.851 7  88322952.81345
     -2282.186       -1778.323
  20827943.478    20827943.1774   20827948.9434  109451568.411 8  85286957.29046
      -343.439        -267.615
  22207972.766    22207971.9974   22207978.3744  116703678.846 7  90937945.43943
       864.078         673.309
  21015530.006    21015529.2244   21015538.2084  110437341.721 8  86055081.79346
      1539.454        1199.573
  22172761.822    22172761.7924   22172769.8414  116518678.085 7  90793797.04444
      3425.864        2669.502
  24017853.344    24017851.2424   24017862.9714  126214674.037 5  98349121.53241
      3377.729        2631.984
  24298820.203    24298820.350    24298825.671   130119071.496 5 101203752.360 4
     -1121.443        -872.229
  19901994.848    19901994.779    19902000.020   106275537.423 8  82658772.218 7
      2170.100        1687.855
  23305146.414    23305145.547    23305155.924   124229585.227 6  96623021.094 4
      4163.500        3238.274
  24144384.310    24144385.616    24144397.157   129020179.245 5 100349036.294 4
     -2935.908       -2283.478
  20421022.981    20421023.215    20421029.060   109085429.003 8  84844242.410 6
     -1293.313       -1005.909
  20833922.725    20833922.284    20833928.380   111212894.517 8  86498937.156 6
     -2471.829       -1922.533
  19490302.850    19490301.914    19490306.145   104260026.837 8  81091167.967 7
      1670.617        1299.368
  22678449.221    22678448.065    22678456.114   121271858.984 5  94322600.261 5
      4706.236        3660.393
 11 10 10  8  2  0.0000000  0 16G02G04G09G12G14G25G29G30R08R09R10R15
                                R16R18R19R20
  23014860.673    23014859.3054   23014866.2624  120943957.447 6  94242065.76943
      1711.230        1333.425
  23939717.432    23939717.3914   23939725.9494  125804084.935 5  98029176.25641
      -714.060        -556.415
  21582434.751    21582433.6244   21582442.2164  113416435.121 7  88376453.48745
     -2294.940       -1788.261
  20829925.884    20829925.7054   20829931.5844  109461986.598 8  85295075.33946
      -350.951        -273.466
  22203097.090    22203096.0654   22203102.5704  116678056.741 7  90917980.13843
       844.191         657.822
  21006764.085    21006763.3004   21006772.3284  110391277.053 9  86019187.23546
      1531.670        1193.515
  22153236.348    22153236.3024   22153244.3344  116416070.959 7  90713843.49144
      3414.750        2660.840
  23998578.524    23998576.3284   23998584.7544  126113378.435 5  98270189.93141
      3375.507        2630.269
  24305155.791    24305156.280    24305161.617   130152999.914 5 101230141.089 4
     -1140.335        -886.934
  19889839.598    19889839.679    19889845.260   106210630.913 8  82608289.374 7
      2157.121        1677.763
  23281711.645    23281710.817    23281721.936   124104667.145 6  96525862.599 4
      4164.434        3239.020
  24160885.820    24160887.008    24160898.179   129108356.007 4 100417617.844 4
     -2942.584       -2288.656
  20428332.121    20428332.511    20428338.311   109124471.629 8  84874608.856 6
     -1309.382       -1018.405
  20847862.074    20847861.730    20847868.334   111287304.282 8  86556811.362 6
     -2488.674       -1935.630
  19481005.047    19481004.478    19481008.802   104210291.294 8  81052484.779 7
      1645.252        1279.643
  22652072.853    22652071.612    22652079.122   121130809.956 5  94212895.591 5
      4697.239        3653.398
 11 10 10  8  2 30.0000000  0 16G02G04G09G12G14G25G29G30R08R09R10R15
                                R16R18R19R20
  23005132.028    23005131.6074   23005138.1084  120892835.888 6  94202230.81743
      1696.739        1322.127
  23943845.337    23943844.9164   23943853.1594  125825778.567 5  98046080.34741
      -732.293        -570.617
  21595571.090    21595570.2714   21595578.8274  113485467.441 7  88430244.86045
     -2307.304       -1797.898
  20831949.816    20831949.5504   20831955.5234  109472622.543 8  85303363.07446
      -358.156        -279.088
  22198333.620    22198332.2414   22198339.2234  116653023.678 7  90898473.83543
       824.642         642.582
  20998040.956    20998040.3554   20998049.6134  110345438.118 8  85983468.56746
      1524.210        1187.700
  22133773.383    22133772.9584   22133781.2334  116313790.364 7  90634144.36244
      3403.873        2652.365
  23979312.944    23979310.5364   23979319.7854  126012142.169 5  98191304.56241
      3373.484        2628.680
  24311593.215    24311594.908    24311600.553   130187483.231 5 101256961.421 4
     -1158.671        -901.189
  19877756.555    19877756.615    19877761.789   106146107.907 8  82558104.814 6
      2144.317        1667.803
  23258271.874    23258270.844    23258280.487   123979717.248 6  96428679.377 4
      4165.481        3239.812
  24177423.748    24177424.002    24177435.483   129196725.369 4 100486349.157 4
     -2948.961       -2293.625
  20435729.414    20435730.071    20435736.172   109163989.174 8  84905344.690 6
     -1325.146       -1030.668
  20861894.553    20861893.953    20861900.120   111362208.686 8  86615070.291 6
     -2505.021       -1948.351
  19471848.366    19471847.857    19471851.935   104161309.912 8  81014388.166 7
      1620.135        1260.103
  22625743.133    22625743.036    22625751.067   120990022.146 5  94103394.065 5
      4688.549        3646.637
 11 10 10  8  3  0.0000000  0 16G02G04G09G12G14G25G29G30R08R09R10R15
                                R16R18R19R20
  22995488.178    22995487.0244   22995493.7244  120842154.480 7  94162738.84343
      1682.155        1310.781
  23948078.135    23948078.4954   23948087.8544  125848022.736 5  98063413.38041
      -750.484        -584.801
  21608778.632    21608777.7084   21608786.0434  113554873.822 7  88484327.71145
     -2319.612       -1807.490
  20834015.364    20834015.3504   20834021.3164  109483477.854 8  85311821.75146
      -365.377        -284.711
  22193682.973    22193681.2004   22193688.2714  116628582.366 6  90879428.63643
       804.979         627.255
  20989361.769    20989361.0264   20989370.2554  110299827.432 8  85947927.76746
      1516.681        1181.830
  22114373.177    22114372.8104   22114380.8204  116211840.766 7  90554703.13644
      3392.917        2643.832
  23960058.798    23960059.5114   23960068.1664  125910968.103 5  98112467.66541
      3371.557        2627.189
  24318138.920    24318137.990    24318144.396   130222521.052 4 101284213.042 4
     -1177.083        -915.498
  19865746.093    19865746.247    19865751.916   106081973.500 9  82508222.495 7
      2131.449        1657.794
  23234826.644    23234824.971    23234835.404   123854740.211 6  96331475.062 4
      4166.453        3240.568
  24193997.979    24193997.748    24194009.453   129285290.240 4 100555232.514 4
     -2955.327       -2298.573
  20443216.885    20443217.075    20443223.550   109203984.137 8  84936451.851 6
     -1341.010       -1043.003
  20876018.535    20876018.256    20876024.523   111437605.859 8  86673712.486 6
     -2521.239       -1960.964
  19462833.348    19462832.738    19462837.001   104113085.846 8  80976880.581 7
      1594.954        1240.516
  22599466.913    22599464.997    22599473.022   120849501.243 5  93994100.133 5
      4679.682        3639.753
 11 10 10  8  3 30.0000000  0 16G02G04G09G12G14G25G29G30R08R09R10R15
                                R16R18R19R20
  22985927.105    22985926.1854   22985932.3554  120791911.113 7  94123588.21843
      1667.383        1299.253
  23952414.300    23952414.3504   23952424.2664  125870812.604 5  98081171.66141
      -768.802        -599.081
  21622056.246    21622055.6554   21622063.7384  113624649.049 7  88538697.97344
     -2332.128       -1817.242
  20836122.310    20836121.9894   20836128.0774  109494548.564 8  85320448.26646
      -372.740        -290.446
  22189142.411    22189142.5724   22189148.7364  116604729.203 7  90860841.72243
       785.158         611.816
  20980725.105    20980724.2544   20980733.7114  110254441.247 9  85912561.89246
      1509.002        1175.846
  22095035.475    22095035.0034   22095042.5644  116110220.020 7  90475518.16644
      3381.735        2635.113
  23940818.814    23940818.1894   23940826.9084  125809852.904 5  98033676.65941
      3369.454        2625.549
  24324782.047    24324783.216    24324789.150   130258106.391 4 101311890.485 4
     -1195.277        -929.658
  19853808.733    19853808.653    19853814.083   106018226.583 8  82458641.559 7
      2118.252        1647.527
  23211375.201    23211374.402    23211385.955   123729734.246 6  96234248.210 4
      4167.166        3241.121
  24210608.715    24210607.435    24210619.810   129374045.553 4 100624263.975 4
     -2961.817       -2303.622
  20450792.654    20450792.919    20450799.347   109244452.569 8  84967927.263 6
     -1356.990       -1055.431
  20890233.973    20890233.597    20890239.879   111513487.523 8  86732731.485 6
     -2537.551       -1973.649
  19453959.418    19453958.811    19453962.938   104065615.661 8  80939959.340 7
      1569.597        1220.796
  22573235.665    22573236.525    22573244.170   120709246.671 5  93885013.353 5
      4670.502        3632.607
 11 10 10  8  4  0.0000000  0 17G02G04G09G12G14G25G27G29G30R08R09R10
                                R15R16R18R19R20
  22976450.326    22976449.6854   22976456.3414  120742113.637 7  94084785.02743
      1652.518        1287.661
  23956855.191    23956854.3644   23956862.3324  125894153.219 5  98099359.08341
      -787.144        -613.393
  21635405.021    21635404.6534   21635412.5514  113694797.539 7  88593359.08444
     -2344.405       -1826.807
  20838271.087    20838270.7284   20838276.8394  109505839.774 8  85329246.60646
      -380.000        -296.101
  22184717.320    22184716.3224   22184723.1844  116581470.440 7  90842718.00143
       765.422         596.423
  20972132.234    20972131.5094   20972140.7244  110209285.401 8  85877375.50346
      1501.406        1169.928
  22903272.051    22903271.3414   22903280.7064  120357507.081 6  93785086.68043
     -2044.057       -1592.761
  22075761.492    22075761.4084   22075768.7454  116008935.535 7  90396595.21944
      3370.586        2626.423
  23921588.848    23921587.4014   23921597.6524  125708802.807 4  97954936.32141
      3367.263        2623.860
  24331531.949    24331530.987    24331538.277   130294242.154 4 101339996.067 4
     -1213.605        -943.921
  19841944.748    19841944.898    19841950.561   105954875.470 8  82409368.470 7
      2105.131        1637.324
  23187920.020    23187919.751    23187929.798   123604707.259 6  96137005.021 4
      4167.963        3241.739
  24227249.597    24227253.800    24227266.543   129462994.282 4 100693445.821 4
     -2968.057       -2308.474
  20458458.286    20458458.359    20458464.589   109285400.299 8  84999775.456 6
     -1372.882       -1067.797
  20904539.726    20904539.891    20904546.269   111589855.628 8  86792128.844 6
     -2553.618       -1986.144
  19445227.751    19445227.050    19445230.901   104018905.997 8  80903629.618 7
      1544.348        1201.158
  22547060.778    22547059.240    22547067.206   120569266.810 5  93776140.242 5
      4661.458        3625.577
 11 10 10  8  4 30.0000000  0 18G02G04G09G12G14G25G27G29G30G31R08R09
                                R10R15R16R18R19R20
  22967059.233    22967058.8154   22967065.4984  120692765.318 7  94046331.81443
      1637.377        1275.876
  23961402.783    23961403.3774   23961411.1864  125918044.974 5  98117975.93741
      -805.633        -627.763
  21648825.352    21648824.7914   21648832.6854  113765319.514 7  88648311.22744
     -2356.948       -1836.584
  20840461.817    20840461.5234   20840467.5004  109517352.348 8  85338217.43846
      -387.461        -301.917
  22180404.588    22180403.6374   22180410.8974  116558807.473 6  90825058.53044
       745.451         580.867
  20963583.520    20963582.7164   20963592.1024  110164361.511 8  85842369.86346
      1493.563        1163.816
  22914968.016    22914967.3894   22914976.9144  120418969.493 6  93832979.38243
     -2053.409       -1600.046
  22056552.322    22056552.1084   22056559.2054  115907990.540 7  90317936.80544
      3359.137        2617.513
  23902372.901    23902371.0924   23902382.7664  125607819.723 5  97876248.27641
      3364.934        2622.018
  25447682.217                                   133728466.644 4
      3790.131
  24338384.526    24338383.225    24338388.991   130330926.734 4 101368528.492 4
     -1231.912        -958.170
  19830156.326    19830156.354    19830161.764   105891924.570 8  82360406.656 7
      2091.651        1626.839
  23164463.615    23164462.747    23164472.138   123479662.903 6  96039748.331 4
      4168.380        3242.055
  24243934.081    24243935.631    24243947.708   129552138.210 4 100762779.485 4
     -2974.701       -2313.633
  20466213.687    20466214.212    20466220.059   109326829.034 8  85031997.750 6
     -1389.006       -1080.334
  20918937.460    20918937.259    20918943.210   111666707.756 8  86851902.645 6
     -2569.802       -1998.729
  19436638.410    19436637.814    19436641.619   103972958.853 8  80867892.959 7
      1518.838        1181.318
  22520934.037    22520934.317    22520942.917   120429567.050 5  93667484.996 5
      4651.941        3618.173
 11 10 10  8  5  0.0000000  0 18G02G04G09G12G14G25G27G29G30G31R08R09
                                R10R15R16R18R19R20
  22957754.548    22957753.6454   22957760.4954  120643865.327 7  94008227.95443
      1622.346        1264.172
  23966053.125    23966053.3894   23966062.2174  125942484.277 5  98137019.45741
      -823.896        -641.998
  21662315.870    21662314.9854   21662322.8294  113836210.785 7  88703551.12945
     -2369.333       -1846.232
  20842694.052    20842693.8464   20842699.7754  109529083.334 8  85347358.45946
      -394.833        -307.661
  22176204.525    22176204.3314   22176211.3544  116536737.688 6  90807861.28444
       725.613         565.417
  20955078.264    20955077.6184   20955086.9904  110119667.011 8  85807542.97046
      1485.821        1157.783
  22926716.398    22926715.5954   22926724.8364  120480706.689 6  93881086.19043
     -2062.634       -1607.241
  22037407.572    22037407.2204   22037414.5994  115807384.264 7  90239542.33544
      3347.686        2608.584
  23883168.306    23883166.2244   23883175.4284  125506901.492 5  97797610.76241
      3362.708        2620.286
  25426043.641    25426042.4184   25426050.5434  133614750.475 4 104115409.48241
      3790.760        2953.818
  24345335.381    24345334.973    24345340.837   130368154.827 3 101397483.695 4
     -1250.241        -972.391
  19818442.182    19818442.576    19818447.800   105829373.661 8  82311755.947 7
      2078.141        1616.330
  23141002.654    23141001.080    23141010.384   123354600.522 6  95942477.610 4
      4168.877        3242.467
  24260652.602    24260654.826    24260666.315   129641474.182 4 100832262.532 4
     -2981.180       -2318.690
  20474058.601    20474058.864    20474065.333   109368735.854 8  85064591.901 6
     -1405.031       -1092.801
  20933423.787    20933423.454    20933429.992   111744037.896 8  86912048.252 6
     -2585.764       -2011.148
  19428191.183    19428190.448    19428194.592   103927772.009 8  80832747.652 7
      1493.392        1161.527
  22494863.242    22494862.246    22494870.946   120290148.250 5  93559048.282 5
      4642.322        3610.691
 11 10 10  8  5 30.0000000  0 17G02G04G09G12G14G25G27G29G30G31R09R10
                                R15R16R18R19R20
  22948535.052    22948534.0674   22948541.1364  120595417.649 7  93970476.57043
      1607.375        1252.492
  23970808.903    23970808.6954   23970818.9284  125967472.490 5  98156490.65741
      -842.097        -656.185
  21675875.786    21675875.3814   21675883.3704  113907471.981 7  88759079.27744
     -2381.486       -1855.705
  20844968.414    20844968.1474   20844974.0004  109541034.781 8  85356671.26446
      -402.014        -313.259
  22172118.161    22172117.3514   22172124.5444  116515263.431 6  90791128.08043
       705.918         550.066
  20946617.426    20946616.5644   20946625.9464  110075204.319 8  85772896.71146
      1478.272        1151.900
  22938517.348    22938516.4534   22938525.6724  120542720.292 6  93929408.39543
     -2071.668       -1614.291
  22018327.646    22018327.6204   22018335.2344  115707120.659 7  90161414.87944
      3336.421        2599.806
  23863978.667    23863976.0004   23863985.5614  125406050.852 5  97719025.87041
      3360.565        2618.614
  25404400.204    25404401.0664   25404408.3114  133501014.098 4 104026783.69841
      3791.685        2954.571
  19806804.260    19806804.546    19806809.905   105767228.095 8  82263420.499 7
      2064.771        1605.935
  23117537.349    23117535.512    23117545.874   123229524.717 6  95845196.452 4
      4169.438        3242.897
  24277408.488    24277407.817    24277419.951   129731001.139 3 100901894.070 4
     -2987.587       -2323.660
  20481993.847    20481994.342    20482000.235   109411123.107 8  85097559.714 6
     -1420.918       -1105.158
  20947999.116    20947999.058    20948005.497   111821843.409 7  86972563.570 6
     -2601.382       -2023.296
  19419886.571    19419885.916    19419889.986   103883348.293 8  80798195.888 7
      1468.118        1141.865
  22468843.073    22468843.920    22468852.836   120151016.115 5  93450834.533 5
      4632.914        3603.373
 11 10 10  8  6  0.0000000  0 17G02G04G09G12G14G25G27G29G30G31R09R10
                                R15R16R18R19R20
  22939401.086    22939400.7174   22939407.4144  120547419.727 6  93933075.63143
      1592.422        1240.843
  23975666.651    23975667.0764   23975676.6664  125993003.933 5  98176385.19541
      -860.125        -670.213
  21689506.096    21689505.0574   21689513.5634  113979097.023 7  88814890.93644
     -2393.603       -1865.142
  20847283.698    20847283.2934   20847289.2934  109553201.238 8  85366151.60746
      -409.202        -318.861
  22168144.643    22168143.4134   22168150.6744  116494380.334 7  90774855.51843
       686.192         534.692
  20938199.795    20938199.0294   20938208.3144  110030968.898 8  85738427.54046
      1470.670        1145.976
  22950369.726    22950368.5154   22950378.4014  120605004.814 6  93977941.70243
     -2080.698       -1621.315
  21999313.115    21999312.5584   21999320.4944  115607196.644 7  90083552.05144
      3325.071        2590.965
  23844798.272    23844797.5554   23844805.6314  125305263.685 5  97640490.43041
      3358.538        2617.033
  25382750.907    25382751.4724   25382760.1444  133387254.500 4 103938139.88441
      3792.270        2955.031
  19795242.050    19795242.252    19795247.838   105705485.751 8  82215398.666 7
      2051.278        1595.439
  23094070.338    23094069.360    23094080.076   123104433.184 6  95747903.080 4
      4169.899        3243.260
  24294199.828    24294197.721    24294211.191   129820712.248 3 100971669.412 4
     -2993.590       -2328.329
  20490017.907    20490018.257    20490024.329   109453986.111 8  85130897.567 6
     -1436.729       -1117.454
  20962662.306    20962662.155    20962668.615   111900115.681 7  87033441.942 6
     -2616.868       -2035.340
  19411723.665    19411722.994    19411726.882   103839683.203 8  80764234.174 7
      1442.811        1122.186
  22442879.952    22442878.823    22442887.463   120012168.861 5  93342842.360 5
      4623.359        3595.943
 11 10 10  8  6 30.0000000  0 17G02G04G09G12G14G25G27G29G30G31R09R10
                                R15R16R18R19R20
  22930354.057    22930353.8314   22930360.4364  120499878.368 6  93896030.45843
      1577.189        1228.979
  23980630.248    23980630.9824   23980640.2064  126019082.522 5  98196706.03641
      -878.244        -684.329
  21703205.714    21703205.3384   21703213.0844  114051089.650 7  88870989.01944
     -2405.741       -1874.602
  20849640.965    20849640.4264   20849646.4194  109565587.696 8  85375803.38446
      -416.391        -324.461
  22164284.130    22164283.2114   22164290.5644  116474093.325 6  90759047.44843
       666.463         519.319
  20929826.141    20929825.4904   20929834.6474  109986965.956 8  85704139.52946
      1463.037        1140.031
  22962274.061    22962273.9724   22962283.8294  120667564.448 6  94026689.36843
     -2089.750       -1628.380
  21980363.840    21980363.6234   21980371.6684  115507619.444 7  90005959.46144
      3313.601        2582.021
  23825633.456    23825631.6834   23825641.1004  125204545.574 5  97562008.85441
      3356.238        2615.271
  25361101.466    25361101.4714   25361109.8574  133273478.837 4 103849483.51241
      3792.918        2955.521
  19783756.862    19783756.867    19783762.110   105644154.260 9  82167696.395 7
      2037.674        1584.858
  23070601.358    23070601.202    23070610.387   122979332.884 6  95650602.849 4
      4170.311        3243.573
  24311025.047    24311023.821    24311034.445   129910615.579 3 101041593.685 4
     -2999.781       -2333.146
  20498131.825    20498132.451    20498138.358   109497329.943 8  85164609.396 6
     -1452.643       -1129.830
  20977413.238    20977413.026    20977419.784   111978856.679 8  87094684.867 6
     -2632.266       -2047.315
  19403703.828    19403703.336    19403707.178   103796782.606 8  80730867.055 7
      1417.411        1102.431
  22416967.057    22416967.567    22416976.898   119873614.962 5  93235078.363 5
      4613.725        3588.446
 11 10 10  8  7  0.0000000  0 17G02G04G09G12G14G25G27G29G30G31R09R10
                                R15R16R18R19R20
  22921395.614    22921395.1534   22921401.6224  120452797.255 7  93859343.90843
      1561.768        1216.978
  23985695.769    23985696.2214   23985706.7714  126045709.040 5  98217453.89241
      -896.570        -698.636
  21716975.422    21716975.0024   21716983.3834  114123450.364 7  88927373.93444
     -2418.041       -1884.186
  20852039.800    20852039.5584   20852045.6914  109578195.377 8  85385627.53446
      -423.854        -330.272
  22160536.653    22160536.9204   22160543.6194  116454404.632 6  90743705.58443
       646.396         503.681
  20921497.287    20921496.5224   20921505.7084  109943197.488 9  85670034.22446
      1455.125        1133.867
  22974231.800    22974230.7444   22974241.5724  120730400.089 6  94075652.11543
     -2099.035       -1635.609
  21961481.529    21961481.2624   21961489.6224  115408392.335 7  89928639.67345
      3301.777        2572.818
  23806480.456    23806478.7354   23806486.9284  125103898.834 5  97483582.85741
      3353.771        2613.339
  25339447.734    25339448.2564   25339457.0474  133159689.830 4 103760816.75841
      3793.190        2955.753
  19772349.335    19772349.368    19772354.876   105583238.580 8  82120317.524 7
      2023.626        1573.933
  23047133.013    23047131.759    23047141.681   122854228.083 6  95553299.151 4
      4170.285        3243.554
  24327881.081    24327882.297    24327894.460   130000709.709 3 101111666.368 4
     -3006.260       -2338.181
  20506336.500    20506336.956    20506343.166   109541156.232 8  85198696.469 6
     -1468.808       -1142.405
  20992251.168    20992250.976    20992257.425   112058063.414 8  87156290.041 6
     -2647.943       -2059.505
  19395827.603    19395826.850    19395830.962   103754648.580 8  80698096.159 7
      1391.762        1082.482
  22391112.056    22391113.295    22391121.708   119735359.726 5  93127546.629 5
      4603.538        3580.527
 11 10 10  8  7 30.0000000  0 17G02G04G09G12G14G25G27G29G30G31R09R10
                                R15R16R18R19R20
  22912524.410    22912523.7364   22912530.3504  120406179.398 7  93823018.33443
      1546.380        1204.966
  23990869.296    23990867.9764   23990880.3754  126072883.999 5  98238629.06841
      -914.826        -712.814
  21730815.698    21730814.8804   21730822.6434  114196178.804 7  88984045.38644
     -2430.189       -1893.652
  20854481.267    20854480.9064   20854487.1634  109591025.151 8  85395624.74946
      -431.174        -335.980
  22156903.905    22156904.0894   22156911.0824  116435315.332 6  90728830.79043
       626.486         488.165
  20913213.444    20913212.5854   20913221.8274  109899664.915 9  85636112.73946
      1447.335        1127.792
  22986241.545    22986240.5254   22986250.6194  120793512.155 6  94124830.24943
     -2108.147       -1642.702
  21942666.698    21942666.0344   21942674.4594  115309518.261 7  89851594.97444
      3290.100        2563.712
  23787341.298    23787340.2714   23787348.3624  125003325.391 5  97405213.99741
      3351.448        2611.531
  25317792.814    25317791.5124   25317799.8314  133045890.379 4 103672141.90641
      3793.625        2956.061
  19761020.049    19761020.325    19761025.861   105522742.388 8  82073264.927 7
      2009.682        1563.085
  23023662.014    23023660.808    23023672.863   122729122.244 6  95455994.638 4
      4170.361        3243.602
  24344773.072    24344778.282    24344791.344   130090995.912 3 101181888.197 4
     -3012.495       -2343.014
  20514631.291    20514631.723    20514638.203   109585466.286 8  85233159.805 6
     -1484.889       -1154.910
  21007176.297    21007175.991    21007182.821   112137733.861 7  87218255.891 6
     -2663.124       -2071.320
  19388094.501    19388093.796    19388097.638   103713282.941 8  80665922.897 7
      1366.251        1062.640
  22365316.642    22365315.535    22365324.428   119597407.995 5  93020250.966 5
      4593.556        3572.755
 11 10 10  8  8  0.0000000  0 17G02G04G09G12G14G25G27G29G30G31R09R10
                                R15R16R18R19R20
  22903741.515    22903740.8834   22903747.0644  120360025.320 6  93787054.15243
      1530.496        1192.593
  23996142.731    23996142.3084   23996152.7674  126100605.079 5  98260229.82041
      -933.344        -727.270
  21744724.718    21744724.0444   21744731.9454  114269272.441 7  89041001.40544
     -2442.734       -1903.428
  20856964.709    20856964.3744   20856970.4784  109604075.556 8  85405793.87846
      -438.891        -341.997
  22153385.847    22153385.1304   22153392.6504  116416824.427 7  90714422.28143
       606.196         472.358
  20904973.971    20904973.2894   20904982.4984  109856367.260 8  85602374.30346
      1439.112        1121.383
  22998304.723    22998303.2174   22998312.9594  120856898.746 6  94174222.29743
     -2117.639       -1650.094
  21923918.474    21923918.3304   21923926.3854  115210997.834 7  89774825.83545
      3277.893        2554.201
  23768214.695    23768214.4044   23768223.5884  124902824.404 5  97326901.57541
      3348.597        2609.297
  25296136.420    25296134.3764   25296142.7974  132932081.294 4 103583459.53941
      3793.617        2956.085
  19749770.116    19749770.247    19749775.648   105462667.745 8  82026540.208 7
      1995.244        1551.855
  23000193.394    23000192.194    23000202.832   122604016.618 6  95358690.286 4
      4169.974        3243.324
  24361704.555    24361707.806    24361722.581   130181468.598 3 101252254.869 4
     -3019.088       -2348.163
  20523016.312    20523016.942    20523023.284   109630259.067 8  85267998.588 6
     -1501.316       -1167.688
  21022187.201    21022186.825    21022193.457   112217863.264 7  87280578.703 6
     -2678.701       -2083.433
  19380505.132    19380504.588    19380508.378   103672684.490 8  80634346.338 7
      1340.286        1042.441
  22339574.328    22339574.561    22339583.215   119459761.117 5  92913192.412 5
      4582.855        3564.441
 11 10 10  8  8 30.0000000  0 16G02G04G09G12G14G25G27G29G30G31R09R10
                                R16R18R19R20
  22895048.247    22895048.0554   22895053.9284  120314343.828 6  93751458.22343
      1514.803        1180.366
  24001523.791    24001523.4444   24001532.5274  126128878.089 5  98282260.64041
      -951.613        -741.482
  21758704.590    21758703.5824   21758711.8224  114342736.718 7  89098246.24444
     -2454.991       -1912.980
  20859491.367    20859491.0534   20859497.1414  109617353.167 8  85416140.05246
      -446.389        -347.838
  22149982.529    22149982.0844   22149989.2624  116398938.445 7  90700485.14943
       586.089         456.690
  20896781.016    20896780.2074   20896789.3724  109813311.600 8  85568824.43146
      1431.145        1115.179
  23010419.529    23010418.5494   23010428.0444  120920565.983 6  94223833.03443
     -2126.942       -1657.347
  21905239.664    21905239.5204   21905247.4864  115112839.554 7  89698338.90245
      3265.887        2544.835
  23749106.528    23749105.1324   23749114.5594  124802403.607 5  97248651.65741
      3345.936        2607.207
  25274477.633    25274478.0194   25274487.1694  132818271.060 4 103494776.20341
      3793.583        2956.028
  19738600.591    19738600.859    19738606.404   105403024.103 8  81980150.707 7
      1980.893        1540.692
  22976725.797    22976724.837    22976735.587   122478920.505 6  95261393.335 4
      4169.642        3243.054
  20531492.980    20531493.472    20531500.442   109675541.395 8  85303218.121 6
     -1517.558       -1180.320
  21037284.718    21037284.599    21037290.794   112298454.088 7  87343260.402 6
     -2693.991       -2095.330
  19373060.266    19373059.818    19373063.856   103632860.818 8  80603372.378 7
      1314.512        1022.395
  22313893.047    22313892.756    22313901.938   119322429.721 5  92806379.232 5
      4572.430        3556.330
 11 10 10  8  9  0.0000000  0 16G02G04G09G12G14G25G27G29G30G31R09R10
                                R16R18R19R20
  22886444.355    22886443.6484   22886449.6454  120269129.808 6  93716226.54543
      1499.404        1168.369
  24007007.243    24007007.3114   24007017.4064  126157694.984 5  98304715.24441
      -969.533        -755.450
  21772753.224    21772752.6534   21772760.7904  114416563.490 7  89155773.53844
     -2466.813       -1922.189
  20862059.673    20862059.4784   20862065.6544  109630850.779 8  85426657.64746
      -453.492        -353.371
  22146693.203    22146692.2894   22146698.8184  116381650.892 6  90687014.31143
       566.415         441.363
  20888632.350    20888631.6534   20888640.9094  109770491.181 8  85535457.86546
      1423.523        1109.240
  23022586.261    23022586.4104   23022595.5644  120984505.999 6  94273656.33143
     -2135.760       -1664.232
  21886628.522    21886628.5054   21886636.4664  115015038.658 7  89622130.43245
      3254.155        2535.708
  23730011.135    23730010.2444   23730019.8164  124702056.517 5  97170459.15641
      3343.724        2605.462
  25252819.833    25252818.4474   25252825.7964  132704454.535 4 103406087.97341
      3794.093        2956.442
  19727511.324    19727511.477    19727516.839   105343806.987 8  81934092.942 7
      1966.848        1529.771
  22953260.675    22953258.776    22953267.860   122353829.122 6  95164100.076 4
      4169.715        3243.111
  20540060.207    20540060.838    20540067.633   109721305.856 8  85338812.644 6
     -1533.428       -1192.668
  21052466.509    21052466.263    21052472.970   112379495.441 8  87406292.518 6
     -2708.696       -2106.760
  19365759.281    19365758.590    19365762.916   103593804.873 8  80572995.540 7
      1289.160        1002.680
  22288271.112    22288270.200    22288278.581   119185410.189 5  92699808.589 5
      4562.221        3548.396
 11 10 10  8  9 30.0000000  0 16G02G04G09G12G14G25G27G29G30G31R09R10
                                R16R18R19R20
  22877929.337    22877928.3924   22877933.9804  120224380.998 7  93681357.36943
      1483.591        1156.040
  24012592.281    24012592.6604   24012603.4704  126187050.591 5  98327589.65841
      -987.829        -769.728
  21786870.021    21786869.4444   21786877.7464  114490746.955 7  89213578.76544
     -2479.012       -1931.693
  20864669.281    20864669.0704   20864675.1454  109644563.703 8  85437343.02046
      -460.980        -359.201
  22143516.170    22143515.3104   22143522.8764  116364957.463 7  90674006.42743
       546.302         425.697
  20880528.108    20880527.3124   20880536.5574  109727902.142 9  85502271.60346
      1415.490        1102.979
  23034805.277    23034804.4834   23034813.7654  121048713.851 6  94323688.32143
     -2145.004       -1671.422
  21868085.326    21868084.9784   21868092.7974  114917592.596 7  89546198.47445
      3241.999        2526.242
  23710928.547    23710927.9984   23710937.6604  124601779.544 5  97092321.29841
      3341.086        2603.463
  25231158.595    25231158.9454   25231167.2044  132590629.365 4 103317393.01641
      3794.041        2956.397
  19716501.439    19716501.691    19716506.793   105285015.381 9  81888366.126 7
      1952.288        1518.449
  22929792.870    22929791.529    22929802.351   122228740.675 6  95066809.081 4
      4169.288        3242.776
  20548716.982    20548717.560    20548724.520   109767548.407 8  85374779.011 6
     -1549.630       -1205.266
  21067731.101    21067730.957    21067737.731   112460979.792 7  87469669.164 6
     -2723.743       -2118.457
  19358601.280    19358600.634    19358604.626   103555513.185 8  80543213.122 7
      1263.365         982.620
  22262704.986    22262704.747    22262713.057   119048701.895 5  92593480.038 5
      4551.407        3539.984
 11 10 10  8 10  0.0000000  0 16G02G04G09G12G14G25G27G29G30G31R09R10
                                R16R18R19R20
  22869503.630    22869503.1464   22869508.7994  120180105.014 7  93646856.63643
      1468.034        1143.924
  24018283.319    24018283.4474   24018292.7694  126216949.749 5  98350887.66141
     -1005.619        -783.597
  21801055.552    21801054.6794   21801063.1484  114565291.662 7  89271665.48044
     -2490.804       -1940.881
  20867320.980    20867320.7644   20867326.5804  109658497.906 8  85448200.81346
      -468.095        -364.748
  22140454.005    22140452.8374   22140460.3234  116348864.258 6  90661466.23743
       526.525         410.277
  20872468.988    20872468.1584   20872477.3814  109685550.769 8  85469270.52846
      1407.804        1096.991
  23047074.932    23047074.1544   23047085.0014  121113194.541 6  94373932.92643
     -2153.824       -1678.300
  21849610.687    21849610.5474   21849618.3534  114820509.085 7  89470549.02244
      3230.117        2516.972
  23691862.469    23691860.7074   23691870.5014  124501579.478 5  97014243.38141
      3338.800        2601.668
  25209498.527    25209499.8614   25209509.7294  132476802.822 4 103228697.02541
      3794.255        2956.556
  19705573.174    19705573.411    19705578.516   105226657.832 9  81842976.915 7
      1938.006        1507.335
  22906328.961    22906327.514    22906337.607   122103663.711 6  94969527.052 4
      4169.109        3242.632
  20557465.063    20557465.447    20557471.558   109814275.217 8  85411122.034 6
     -1565.557       -1217.654
  21083078.861    21083079.011    21083085.592   112542908.989 7  87533391.835 6
     -2738.217       -2129.721
  19351586.618    19351586.025    19351590.121   103517991.608 8  80514029.681 7
      1237.941         962.842
  22237200.591    22237199.866    22237207.688   118912314.875 5  92487401.356 5
      4540.863        3531.773
 11 10 10  8 10 30.0000000  0 16G02G04G09G12G14G25G27G29G30G31R09R10
                                R16R18R19R20
  22861168.049    22861166.7684   22861172.4434  120136298.139 7  93612721.43943
      1452.463        1131.782
  24024074.563    24024073.6634   24024085.2184  126247386.089 5  98374604.20541
     -1023.479        -797.532
  21815308.166    21815307.5554   21815315.9444  114640191.053 7  89330028.58944
     -2502.508       -1950.009
  20870013.633    20870013.3424   20870019.2454  109672647.577 8  85459226.50946
      -475.182        -370.270
  22137504.238    22137503.6234   22137510.9354  116333365.502 6  90649389.25143
       506.797         394.904
  20864454.378    20864453.3344   20864462.5524  109643431.795 9  85436450.54346
      1400.141        1091.021
  23059395.653    23059395.8584   23059405.7024  121177941.970 6  94424385.38643
     -2162.637       -1685.172
  21831204.993    21831204.4354   21831211.9464  114723784.425 7  89395179.19245
      3218.219        2507.697
  23672808.073    23672808.7154   23672818.1024  124401451.387 5  96936221.58041
      3336.430        2599.806
  25187836.928    25187837.1824   25187844.8684  132362971.475 5 103139997.24941
      3794.441        2956.689
  19694725.862    19694725.775    19694731.053   105168731.857 9  81797923.369 7
      1923.691        1496.206
  22882867.092    22882865.672    22882875.293   121978595.363 6  94872251.693 4
      4168.828        3242.416
  20566302.054    20566302.360    20566308.244   109861480.358 8  85447837.083 6
     -1581.414       -1229.984
  21098508.864    21098509.025    21098515.768   112625273.821 7  87597453.324 6
     -2752.648       -2140.951
  19344715.776    19344714.904    19344719.023   103481234.862 8  80485441.106 7
      1212.542         943.088
  22211753.884    22211753.754    22211761.579   118776245.447 5  92381569.678 5
      4530.350        3523.602
 11 10 10  8 11  0.0000000  0 16G02G04G09G12G14G25G27G29G30G31R09R10
                                R16R18R19R20
  22852920.970    22852920.4984   22852925.9984  120092961.278 6  93578952.48643
      1436.605        1119.431
  24029969.256    24029968.6324   24029976.6674  126278357.303 5  98398737.56041
     -1041.331        -811.446
  21829628.391    21829627.7654   21829635.8034  114715442.396 7  89388665.93544
     -2514.312       -1959.207
  20872746.913    20872746.6744   20872752.6784  109687011.312 8  85470419.00446
      -482.435        -375.922
  22134667.889    22134667.4574   22134674.5244  116318460.324 6  90637774.80843
       486.855         379.365
  20856483.221    20856482.3904   20856491.6514  109601544.381 8  85403810.99346
      1392.328        1084.932
  23071767.221    23071767.6174   23071777.4544  121242954.402 6  94475044.32943
     -2171.562       -1692.127
  21812866.952    21812867.0234   21812874.6124  114627419.103 7  89320089.36145
      3206.096        2498.253
  23653767.695    23653766.6604   23653777.3584  124301394.808 5  96858255.45941
      3334.025        2597.945
  25166175.241    25166174.8534   25166182.5784  132249135.873 4 103051294.18341
      3794.491        2956.743
  19683958.817    19683959.120    19683964.647   105111239.107 9  81753206.777 7
      1909.073        1484.835
  22859405.875    22859404.127    22859414.128   121853536.880 6  94774984.005 4
      4168.354        3242.041
  20575228.028    20575228.650    20575234.447   109909162.776 8  85484923.361 6
     -1597.480       -1242.485
  21114020.267    21114019.827    21114026.181   112708069.654 7  87661850.040 6
     -2767.082       -2152.175
  19337987.176    19337986.478    19337990.416   103445242.411 8  80457446.984 7
      1186.943         923.177
  22186368.848    22186367.796    22186375.169   118640496.341 5  92275987.145 5
      4519.610        3515.245
 11 10 10  8 11 30.0000000  0 16G02G04G09G12G14G25G27G29G30G31R09R10
                                R16R18R19R20
  22844764.548    22844763.7354   22844770.4774  120050100.603 7  93545554.57644
      1420.968        1107.245
  24035965.572    24035964.4734   24035975.1034  126309866.674 5  98423290.27241
     -1059.011        -825.191
  21844015.720    21844014.9084   21844023.4134  114791048.904 7  89447580.02644
     -2525.913       -1968.233
  20875522.050    20875521.6384   20875527.5654  109701593.482 8  85481781.70846
      -489.497        -381.425
  22131946.147    22131945.2824   22131951.7514  116304153.060 7  90626626.26943
       467.129         364.004
  20848556.996    20848556.1834   20848565.4054  109559893.412 8  85371355.68746
      1384.618        1078.926
  23084190.403    23084190.2684   23084200.6464  121308235.350 6  94525912.50642
     -2180.293       -1698.924
  21794598.805    21794598.7704   21794606.4724  114531419.633 7  89245284.61745
      3194.069        2488.889
  23634742.230    23634741.1444   23634748.8444  124201414.994 5  96780349.14841
      3331.551        2596.041
  25144513.005    25144515.1294   25144519.8154  132135302.474 4 102962592.81141
      3794.554        2956.786
  19673275.222    19673275.249    19673280.678   105054186.943 9  81708832.856 7
      1894.529        1473.524
  22835948.066    22835946.751    22835956.983   121728495.084 6  94677729.316 4
      4167.961        3241.753
  20584244.603    20584245.135    20584251.554   109957326.828 8  85522384.242 6
     -1613.255       -1254.753
  21129610.995    21129610.711    21129617.622   112791296.562 7  87726582.033 6
     -2781.200       -2163.149
  19331402.485    19331401.770    19331405.793   103410018.719 8  80430050.782 7
      1161.523         903.409
  22161043.819    22161043.343    22161050.917   118505076.222 5  92170660.475 5
      4508.666        3506.737
 11 10 10  8 12  0.0000000  0 16G02G04G09G12G14G25G27G29G30G31R09R10
                                R16R18R19R20
  22836698.015    22836697.6764   22836704.3584  120007712.074 6  93512524.58243
      1404.909        1094.730
  24042061.977    24042062.7004   24042069.6794  126341907.616 5  98448257.19141
     -1076.941        -839.115
  21858469.436    21858468.6484   21858477.2914  114867003.334 7  89506765.23644
     -2537.700       -1977.425
  20878337.267    20878336.9604   20878342.8214  109716387.813 8  85493309.72746
      -496.790        -387.109
  22129335.999    22129334.8234   22129341.6924  116290437.694 7  90615938.96044
       447.178         348.448
  20840675.048    20840674.3204   20840683.4604  109518473.298 9  85339080.26846
      1376.719        1072.772
  23096663.022    23096662.6984   23096672.3754  121373778.166 6  94576984.72142
     -2189.229       -1705.885
  21776399.387    21776399.2904   21776407.1954  114435781.697 7  89170761.58745
      3181.785        2479.313
  23615730.832    23615729.1024   23615738.2454  124101506.834 5  96702498.71441
      3328.951        2593.978
  25122852.310    25122851.8704   25122858.5174  132021467.393 4 102873890.12941
      3794.477        2956.737
  19662673.062    19662673.205    19662678.275   104997572.255 9  81664799.212 7
      1879.750        1462.026
  22812493.454    22812492.295    22812502.800   121603466.762 6  94580485.084 4
      4167.239        3241.186
  20593350.358    20593350.764    20593356.710   110005966.376 8  85560214.950 6
     -1629.394       -1267.307
  21145280.859    21145280.682    21145287.493   112874945.385 7  87791642.171 6
     -2795.400       -2174.198
  19324960.350    19324959.612    19324963.681   103375557.694 8  80403247.769 7
      1135.913         883.485
  22135780.170    22135779.656    22135787.908   118369981.883 5  92065587.193 5
      4497.473        3498.029
 11 10 10  8 12 30.0000000  0 16G02G04G09G12G14G25G27G29G30G31R09R10
                                R16R18R19R20
  22828721.762    22828721.1754   22828728.0404  119965795.849 6  93479862.60843
      1389.178        1082.473
  24048260.491    24048261.5594   24048269.8524  126374476.960 5  98473635.85341
     -1094.540        -852.895
  21872988.665    21872988.0644   21872996.3214  114943302.537 7  89566219.10344
     -2549.121       -1986.331
  20881192.392    20881192.3724   20881198.1754  109731392.609 8  85505001.74646
      -503.720        -392.510
  22126838.386    22126837.7714   22126844.3134  116277312.691 7  90605711.66243
       427.575         333.179
  20832836.742    20832836.1094   20832845.3504  109477282.712 8  85306983.70246
      1369.127        1066.856
  23109184.331    23109183.7764   23109194.3774  121439580.219 6  94628258.94042
     -2197.767       -1712.540
  21758269.616    21758268.9184   21758276.7894  114340505.464 7  89096520.41245
      3169.751        2469.932
  23596732.436    23596731.4064   23596740.1934  124001669.186 5  96624703.19741
      3326.612        2592.168
  25101189.485    25101188.1014   25101196.2104  131907630.720 4 102785186.23241
      3794.522        2956.746
  19652152.909    19652153.087    19652158.234   104941396.131 9  81621106.669 7
      1865.122        1450.650
  22789039.444    22789038.807    22789049.591   121478452.710 6  94483251.943 4
      4166.786        3240.841
  20602544.341    20602544.726    20602551.185   110055079.940 8  85598414.330 6
     -1645.105       -1279.528
  21161029.436    21161029.052    21161035.654   112959009.566 7  87857025.369 6
     -2809.068       -2184.833
  19318660.527    19318659.989    19318663.810   103341858.093 8  80377036.975 7
      1110.557         863.763
  22110577.490    22110577.485    22110586.121   118235215.056 5  91960768.639 5
      4486.641        3489.602
 11 10 10  8 13  0.0000000  0 16G02G04G09G12G14G25G27G29G30G31R09R10
                                R16R18R19R20
  22820835.622    22820834.8994   22820841.6604  119924354.778 6  93447570.89543
      1373.502        1070.254
  24054558.051    24054558.5604   24054568.2244  126407574.972 5  98499426.47841
     -1111.999        -866.509
  21887573.454    21887572.8934   21887581.0524  115019946.255 7  89625941.41644
     -2560.479       -1995.177
  20884088.019    20884087.7424   20884093.6084  109746608.874 8  85516858.55346
      -510.683        -397.932
  22124453.411    22124452.3274   22124459.2094  116264779.121 7  90595945.21344
       407.998         317.927
  20825042.643    20825041.8724   20825051.0884  109436323.221 8  85275067.21846
      1361.541        1060.936
  23121755.766    23121755.6214   23121765.2604  121505642.037 6  94679735.58842
     -2206.299       -1719.202
  21740208.051    21740207.9374   21740215.7574  114245594.106 7  89022563.54245
      3157.682        2460.529
  23577746.966    23577745.5624   23577755.2434  123901904.140 5  96546964.23041
      3324.356        2590.412
  25079526.150    25079525.5694   25079532.8984  131793795.504 4 102696483.41841
      3794.506        2956.739
  19641715.919    19641716.067    19641721.454   104885662.803 9  81577758.521 7
      1850.433        1439.224
  22765590.661    22765590.121    22765600.241   121353456.738 6  94386032.898 4
      4166.243        3240.410
  20611827.673    20611827.807    20611833.959   110104668.365 8  85636983.049 6
     -1660.802       -1291.738
  21176854.651    21176854.474    21176860.943   113043487.438 7  87922730.327 6
     -2822.708       -2195.438
  19312502.966    19312502.372    19312506.847   103308921.278 8  80351419.456 7
      1085.249         844.082
  22085438.570    22085437.838    22085446.016   118100780.721 5  91856208.668 5
      4475.729        3481.121
 11 10 10  8 13 30.0000000  0 16G02G04G09G12G14G25G27G29G30G31R09R10
                                R16R18R19R20
  22813039.947    22813038.9114   22813045.4254  119883386.222 7  93415647.36243
      1357.794        1058.024
  24060957.025    24060956.8644   24060963.9894  126441196.070 5  98525624.67241
     -1129.350        -880.011
  21902222.672    21902222.4624   21902230.6474  115096928.948 7  89685927.87544
     -2571.681       -2003.907
  20887022.983    20887022.7354   20887028.5944  109762032.101 8  85528876.63446
      -517.506        -403.251
  22122179.584    22122179.3404   22122185.5724  116252832.244 7  90586635.92543
       388.460         302.696
  20817291.270    20817290.5544   20817299.7504  109395590.863 8  85243327.71446
      1353.997        1055.060
  23134375.830    23134375.2444   23134385.0314  121571958.698 6  94731410.81142
     -2214.742       -1725.758
  21722216.233    21722215.7874   21722223.4904  114151044.946 7  88948888.90845
      3145.628        2451.136
  23558774.707    23558772.8114   23558781.3924  123802208.077 5  96469279.00341
      3322.057        2588.628
  25057865.310    25057865.0314   25057873.3874  131679959.421 4 102607779.94441
      3794.593        2956.848
  19631361.176    19631361.301    19631366.827   104830370.613 9  81534753.482 7
      1835.736        1427.792
  22742145.809    22742145.016    22742155.073   121228477.626 6  94288826.978 4
      4165.709        3239.997
  20621198.682    20621199.007    20621205.493   110154727.251 8  85675917.684 6
     -1676.444       -1303.898
  21192755.883    21192755.952    21192762.431   113128370.648 7  87988750.559 6
     -2836.081       -2205.840
  19306487.902    19306487.186    19306491.511   103276742.562 8  80326391.565 7
      1060.041         824.476
  22060359.931    22060359.716    22060368.092   117966677.160 5  91751905.988 5
      4464.562        3472.430
 11 10 10  8 14  0.0000000  0 16G02G04G09G12G14G25G27G29G30G31R09R10
                                R16R18R19R20
  22805335.713    22805335.3474   22805341.9914  119842904.490 7  93384103.18643
      1341.217        1045.099
  24067456.324    24067456.0744   24067465.4444  126475351.511 5  98552239.25141
     -1147.477        -894.170
  21916939.237    21916938.1574   21916946.8184  115174261.441 7  89746186.90044
     -2583.637       -2013.226
  20889999.930    20889999.6214   20890005.2074  109777674.389 8  85541065.40046
      -525.146        -409.202
  22120020.790    22120019.6394   22120026.4724  116241484.526 7  90577793.52143
       368.212         286.914
  20809585.901    20809585.1064   20809594.2924  109355098.173 8  85211774.96046
      1345.694        1048.594
  23147045.432    23147045.6184   23147056.1304  121638541.590 6  94783293.47143
     -2223.933       -1732.931
  21704295.319    21704295.0634   21704302.9764  114056871.674 7  88875507.16745
      3132.763        2441.114
  23539819.664    23539817.9464   23539827.1244  123702593.917 5  96391657.61841
      3319.062        2586.259
  25036204.229    25036205.1214   25036214.6714  131566136.569 4 102519086.80741
      3793.854        2956.278
  19621092.412    19621092.401    19621098.055   104775534.958 9  81492103.518 7
      1820.095        1415.629
  22718707.035    22718705.653    22718714.398   121103529.820 6  94191645.369 4
      4164.308        3238.908
  20630659.716    20630660.256    20630666.550   110205268.908 8  85715227.798 6
     -1692.840       -1316.650
  21208735.170    21208735.022    21208741.971   113213668.095 7  88055092.959 6
     -2850.151       -2216.782
  19300616.312    19300615.708    19300619.729   103245334.543 8  80301963.103 7
      1034.033         804.246
  22035346.457    22035346.131    22035354.304   117832920.602 5  91647873.189 5
      4452.679        3463.192
 11 10 10  8 14 30.0000000  0 16G02G04G09G12G14G25G27G29G30G31R09R10
                                R16R18R19R20
  22797725.754    22797724.5624   22797731.9794  119802910.771 6  93352939.29043
      1324.968        1032.430
  24074056.382    24074057.7514   24074066.8974  126510039.755 5  98579269.00641
     -1165.032        -907.797
  21931721.424    21931720.1654   21931728.8214  115251941.855 7  89806717.02044
     -2595.123       -2022.172
  20893018.077    20893017.7174   20893023.5904  109793535.244 8  85553424.47546
      -532.301        -414.779
  22117975.351    22117974.3344   22117980.7554  116230735.494 6  90569417.63543
       348.342         271.432
  20801925.962    20801925.1664   20801934.3564  109314845.302 8  85180409.08446
      1337.795        1042.437
  23159766.793    23159766.1744   23159776.4514  121705389.722 6  94835382.81942
     -2232.677       -1739.741
  21686446.744    21686446.2334   21686454.2504  113963076.098 7  88802419.74345
      3120.202        2431.322
  23520879.815    23520878.1824   23520887.1704  123603062.334 5  96314100.55941
      3316.387        2584.191
  25014548.074    25014546.7154   25014556.8074  131452328.422 4 102430405.08841
      3793.335        2955.835
  19610909.372    19610909.500    19610914.939   104721158.254 9  81449810.527 7
      1804.874        1403.790
  22695273.474    22695272.407    22695280.822   120978615.924 6  94094490.138 4
      4163.216        3238.059
  20640211.757    20640212.188    20640218.443   110256292.983 8  85754913.124 6
     -1708.801       -1329.068
  21224791.454    21224791.260    21224798.343   113299375.639 7  88121754.316 6
     -2863.697       -2227.320
  19294889.219    19294888.496    19294892.323   103214697.009 8  80278133.908 7
      1008.450         784.352
  22010398.460    22010398.481    22010406.804   117699514.164 5  91544112.712 5
      4441.006        3454.110
 11 10 10  8 15  0.0000000  0 16G02G04G09G12G14G25G27G29G30G31R09R10
                                R16R18R19R20
  22790206.342    22790205.9224   22790211.8874  119763398.672 6  93322150.66443
      1309.334        1020.252
  24080757.796    24080757.6874   24080767.3854  126545251.560 5  98606706.78041
     -1182.123        -921.151
  21946567.525    21946566.6894   21946575.5304  115329960.869 7  89867510.99744
     -2605.926       -2030.581
  20896076.137    20896075.9694   20896081.9324  109809606.585 8  85565947.56346
      -538.886        -419.913
  22116041.945    22116041.0834   22116047.1004  116220576.705 7  90561501.67243
       329.108         256.450
  20794310.112    20794309.5044   20794318.7474  109274824.621 8  85149224.12846
      1330.472        1036.733
  23172536.540    23172536.2174   23172545.7224  121772494.147 6  94887671.85642
     -2240.773       -1746.051
  21668668.482    21668668.1614   21668676.0734  113869651.944 7  88729621.72745
      3108.257        2422.018
  23501952.777    23501952.6684   23501961.2444  123503606.037 5  96236602.18141
      3314.221        2582.513
  24992891.312    24992891.6354   24992901.2564  131338528.969 4 102341730.16341
      3793.389        2955.911
  19600811.017    19600811.328    19600816.777   104667235.402 9  81407870.529 7
      1790.144        1392.335
  22671843.807    22671842.449    22671852.679   120853730.301 6  93997356.907 4
      4162.687        3237.649
  20649852.341    20649852.861    20649859.217   110307790.858 8  85794966.964 6
     -1724.116       -1340.977
  21240921.478    21240921.255    21240928.780   113385481.269 7  88188725.286 6
     -2876.502       -2237.274
  19289304.195    19289303.574    19289307.261   103184821.662 8  80254897.529 7
       983.483         764.932
  21985515.088    21985515.540    21985523.686   117566453.336 5  91440621.030 5
      4429.879        3445.460
 11 10 10  8 15 30.0000000  0 16G02G04G09G12G14G25G27G29G30G31R09R10
                                R16R18R19R20
  22782779.450    22782778.4694   22782785.5934  119724367.938 6  93291737.13343
      1292.594        1007.214
  24087557.056    24087556.1164   24087567.0424  126580983.699 5  98634550.00141
     -1200.053        -935.077
  21961477.923    21961477.1694   21961485.9274  115408315.036 7  89928566.12444
     -2617.664       -2039.738
  20899174.050    20899173.9454   20899180.0154  109825886.148 8  85578632.90146
      -546.417        -425.777
  22114220.729    22114219.8984   22114226.4364  116211006.058 7  90554044.00043
       308.977         240.761
  20786738.337    20786737.6394   20786747.1324  109235034.404 9  85118218.76346
      1322.197        1030.286
  23185354.261    23185353.7114   23185363.5884  121839851.788 6  94940158.22242
     -2249.739       -1753.038
  21650961.096    21650960.9304   21650968.8054  113776598.725 7  88657112.75645
      3095.266        2411.895
  23483040.533    23483040.1074   23483049.4704  123404223.624 5  96159161.44141
      3311.118        2580.052
  24971238.587    24971237.4754   24971246.0854  131224738.200 4 102253062.01741
      3792.571        2955.265
  19590798.511    19590798.717    19590804.054   104613767.067 9  81366284.043 7
      1774.363        1380.060
  22648421.114    22648419.921    22648431.349   120728873.714 6  93900246.276 4
      4161.109        3236.417
  20659581.564    20659581.737    20659588.031   110359760.525 8  85835387.753 6
     -1740.512       -1353.727
  21257126.166    21257125.923    21257132.558   113471979.602 7  88256001.701 6
     -2890.084       -2247.837
  19283861.432    19283860.830    19283864.824   103155706.431 8  80232252.355 7
       957.556         744.765
  21960699.772    21960698.264    21960705.068   117433739.351 5  91337399.112 5
      4417.599        3435.913
 11 10 10  8 16  0.0000000  0 16G02G04G09G12G14G25G27G29G30G31R09R10
                                R16R18R19R20
  22775444.758    22775443.9334   22775451.2674  119685825.747 7  93261704.26943
      1276.530         994.700
  24094456.862    24094456.6604   24094464.1714  126617240.460 5  98662801.97041
     -1217.292        -948.539
  21976453.156    21976452.2414   21976460.7504  115487008.457 7  89989885.60244
     -2628.806       -2048.415
  20902312.835    20902312.4504   20902318.6154  109842379.501 8  85591484.83746
      -553.392        -431.216
  22112512.554    22112511.7444   22112518.4544  116202028.918 6  90547048.79943
       289.357         225.482
  20779211.594    20779210.7964   20779220.2664  109195480.597 9  85087397.60346
      1314.444        1024.246
  23198221.769    23198221.1644   23198230.3124  121907467.742 6  94992845.86642
     -2258.248       -1759.674
  21633325.730    21633325.5504   21633333.4104  113683923.854 7  88584898.60345
      3082.791        2402.170
  23464145.571    23464144.4464   23464154.9554  123304921.348 5  96081783.06841
      3308.662        2578.150
  24949588.509    24949587.3004   24949596.3324  131110963.800 4 102164406.64241
      3792.192        2954.935
  19580872.392    19580872.444    19580878.076   104560761.656 9  81325057.605 7
      1759.001        1368.112
  22625006.201    22625004.521    22625014.673   120604054.509 6  93803164.713 4
      4159.957        3235.520
  20669400.021    20669399.941    20669406.324   110412207.270 8  85876179.598 6
     -1756.333       -1366.038
  21273403.953    21273403.834    21273410.604   113558872.325 7  88323584.871 5
     -2903.011       -2257.897
  19278561.849    19278561.116    19278565.039   103127356.744 8  80210202.604 7
       932.180         725.028
  21935947.016    21935946.092    21935953.599   117301380.887 5  91234453.720 5
      4405.928        3426.825
 11 10 10  8 16 30.0000000  0 16G02G04G09G12G14G25G27G29G30G31R09R10
                                R16R18R19R20
  22768203.619    22768203.6194   22768210.6674  119647775.001 6  93232054.35543
      1260.106         981.902
  24101456.112    24101454.9304   24101466.4694  126654021.963 5  98691462.87441
     -1234.875        -962.216
  21991492.263    21991491.5894   21991500.3974  115566041.113 7  90051469.41744
     -2640.092       -2057.210
  20905492.251    20905491.8134   20905498.1124  109859087.623 8  85604504.13546
      -560.549        -436.792
  22110916.840    22110916.1704   22110922.6924  116193646.355 7  90540516.89543
       269.488         209.982
  20771730.178    20771729.3634   20771738.6954  109156164.910 8  85056762.00046
      1306.522        1018.062
  23211137.681    23211137.7714   23211147.5374  121975342.304 6  95045735.04442
     -2266.831       -1766.376
  21615762.636    21615762.3324   21615770.3294  113591630.080 7  88512981.41145
      3070.042        2392.244
  23445264.247    23445263.6304   23445272.0364  123205701.494 5  96004468.93841
      3305.896        2576.016
  24927941.160    24927938.1534   24927949.8554  130997208.729 5 102075766.27841
      3791.383        2954.368
  19571033.590    19571033.572    19571039.000   104508223.527 9  81284194.616 7
      1743.411        1355.987
  22601597.563    22601596.396    22601606.578   120479276.521 6  93706115.197 4
      4158.530        3234.411
  20679307.066    20679307.617    20679314.013   110465132.181 8  85917343.361 6
     -1772.143       -1378.333
  21289755.363    21289755.236    21289762.201   113646156.684 7  88391472.632 6
     -2915.976       -2267.973
  19273405.351    19273404.741    19273408.580   103099773.766 8  80188749.178 7
       906.632         705.161
  21911260.370    21911261.608    21911269.432   117169382.473 5  91131788.340 5
      4393.875        3417.462
 11 10 10  8 17  0.0000000  0 16G02G04G09G12G14G25G27G29G30G31R09R10
                                R16R18R19R20
  22761056.579    22761056.2064   22761063.1214  119610214.580 7  93202786.52343
      1243.553         968.994
  24108554.014    24108554.8494   24108565.5364  126691323.713 5  98720529.09441
     -1252.327        -975.827
  22006595.406    22006594.9114   22006603.6484  115645408.328 7  90113313.92944
     -2651.388       -2066.015
  20908711.844    20908711.7544   20908717.7144  109876007.320 8  85617688.29546
      -567.768        -442.421
  22109434.102    22109433.5884   22109440.3084  116185854.793 7  90534445.52843
       249.611         194.503
  20764293.203    20764292.5664   20764302.0314  109117084.587 9  85026309.78746
      1298.496        1011.817
  23224102.036    23224101.7374   23224112.0704  122043471.261 6  95098822.44542
     -2275.399       -1773.043
  21598271.924    21598271.7764   21598279.3854  113499716.237 7  88441360.26545
      3057.195        2382.221
  23426399.071    23426397.0414   23426405.3904  123106561.630 5  95927217.17141
      3303.055        2573.812
  24906298.093    24906296.8114   24906305.8704  130883471.730 4 101987140.00841
      3790.663        2953.750
  19561282.388    19561282.426    19561287.648   104456152.333 9  81243694.791 7
      1727.646        1343.724
  22578198.221    22578196.933    22578206.800   120354539.932 6  93609097.884 4
      4156.921        3233.153
  20689303.806    20689304.362    20689310.537   110518531.923 8  85958876.449 6
     -1788.202       -1390.825
  21306179.054    21306178.848    21306185.540   113733826.032 7  88459659.841 6
     -2929.043       -2278.142
  19268391.905    19268391.320    19268395.395   103072954.257 8  80167889.564 7
       880.988         685.213
  21886644.598    21886644.483    21886652.417   117037744.936 5  91029403.640 5
      4381.591        3407.901
 11 10 10  8 17 30.0000000  0 16G02G04G09G12G14G25G27G29G30G31R09R10
                                R16R18R19R20
  22754004.243    22754003.4044   22754009.4834  119573151.720 7  93173906.38843
      1227.110         956.194
  24115753.134    24115752.1204   24115763.5204  126729150.312 5  98750004.33841
     -1269.627        -989.317
  22021763.616    22021762.7404   22021771.0094  115725114.574 7  90175422.62344
     -2662.508       -2074.676
  20911973.028    20911972.7474   20911978.6794  109893144.329 8  85631041.78546
      -574.865        -447.945
  22108064.925    22108064.8374   22108071.1414  116178659.887 6  90528839.06643
       229.864         179.109
  20756902.517    20756901.8064   20756911.2694  109078245.924 9  84996045.87946
      1290.584        1005.648
  23237115.371    23237115.3744   23237126.5044  122111859.845 6  95152112.13742
     -2283.901       -1779.661
  21580855.006    21580854.8504   21580862.3984  113408189.922 7  88370041.08345
      3044.395        2372.255
  23407548.359    23407549.3984   23407558.7084  123007508.345 5  95850032.81141
      3300.354        2571.728
  24884659.607    24884661.0044   24884666.7854  130769761.044 4 101898534.26141
      3789.915        2953.194
  19551620.222    19551620.464    19551625.325   104404556.710 9  81203564.857 7
      1711.945        1331.514
  22554807.905    22554804.978    22554815.028   120229852.952 6  93512119.132 4
      4155.374        3231.957
  20699390.391    20699390.710    20699397.734   110572412.251 8  86000783.310 6
     -1804.004       -1403.112
  21322674.474    21322674.611    21322681.766   113821882.579 7  88528148.192 6
     -2941.658       -2287.955
  19263521.892    19263521.372    19263525.480   103046903.639 8  80147627.973 7
       855.533         665.414
  21862095.912    21862096.934    21862104.342   116906476.866 5  90927306.286 5
      4369.349        3398.376
 11 10 10  8 18  0.0000000  0 16G02G04G09G12G14G25G27G29G30G31R09R10
                                R16R18R19R20
  22747045.864    22747045.8514   22747052.6984  119536589.734 7  93145416.56144
      1210.478         943.235
  24123050.714    24123049.5014   24123059.5394  126767502.296 5  98779888.99141
     -1287.017       -1002.872
  22036995.400    22036995.0244   22037003.2614  115805160.095 7  90237795.68844
     -2673.680       -2083.389
  20915275.701    20915275.5434   20915281.4824  109910500.262 8  85644565.86546
      -582.065        -453.557
  22106811.185    22106809.5334   22106815.7854  116172063.053 6  90523698.65143
       210.098         163.724
  20749558.203    20749557.4714   20749566.6064  109039650.997 9  84965971.90146
      1282.545         999.390
  23250180.346    23250178.4714   23250189.8374  122180508.815 6  95205604.72542
     -2292.517       -1786.358
  21563512.327    21563512.1794   21563519.9154  113317054.175 7  88299026.24645
      3031.436        2362.157
  23388717.097    23388716.4294   23388726.0654  122908544.196 5  95772917.95941
      3297.503        2569.484
  24863027.344    24863026.9204   24863035.7494  130656080.199 4 101809951.76541
      3788.959        2952.441
  19542047.665    19542047.807    19542053.425   104353441.300 9  81163808.429 7
      1695.968        1319.087
  22531424.961    22531424.216    22531434.738   120105220.401 6  93415182.770 4
      4153.604        3230.579
  20709566.999    20709567.399    20709574.260   110626774.508 7  86043065.007 6
     -1819.980       -1415.535
  21339242.694    21339242.864    21339250.012   113910324.142 7  88596935.982 6
     -2954.308       -2297.791
  19258795.953    19258795.557    19258799.692   103021623.609 8  80127965.728 7
       829.956         645.523
  21837619.879    21837619.758    21837626.654   116775583.318 5  90825500.233 5
      4356.931        3388.726
 11 10 10  8 18 30.0000000  0 16G02G04G09G12G14G25G27G29G30G31R09R10
                                R16R18R19R20
  22740182.102    22740181.5764   22740188.3844  119500517.649 7  93117308.45944
      1194.281         930.607
  24130445.552    24130444.6494   24130457.2004  126806365.870 5  98810172.25141
     -1303.960       -1016.098
  22052289.632    22052288.8814   22052297.1414  115885530.763 7  90300422.11944
     -2684.382       -2091.730
  20918617.891    20918617.6934   20918623.5314  109928062.542 8  85658250.73646
      -588.785        -458.797
  22105666.422    22105665.5874   22105671.7524  116166051.304 7  90519014.13643
       190.717         148.609
  20742258.183    20742257.2914   20742266.3254  109001287.694 9  84936078.41046
      1274.967         993.478
  23263290.931    23263289.5864   23263300.3484  122249404.859 6  95259289.83442
     -2300.601       -1792.674
  21546241.988    21546242.0584   21546249.5954  113226298.353 7  88228307.45745
      3018.883        2352.369
  23369899.993    23369898.1324   23369906.9104  122809657.592 5  95695863.51241
      3295.000        2567.514
  24841396.801    24841397.4174   24841405.9754  130542418.685 4 101721384.35141
      3788.477        2952.050
  19532563.619    19532563.835    19532569.567   104302796.186 9  81124417.778 7
      1680.370        1306.951
  22508053.066    22508051.556    22508061.926   119980632.159 6  93318280.864 4
      4152.194        3229.484
  20719831.546    20719832.065    20719838.533   110681605.727 7  86085711.453 6
     -1835.431       -1427.555
  21355880.066    21355879.791    21355886.744   113999134.274 7  88666010.458 5
     -2966.345       -2307.153
  19254212.015    19254211.216    19254215.303   102997100.771 8  80108892.413 7
       804.840         625.985
  21813210.286    21813209.849    21813217.810   116645055.433 5  90723978.602 5
      4344.866        3379.337
 11 10 10  8 19  0.0000000  0 16G02G04G09G12G14G25G27G29G30G31R09R10
                                R16R18R19R20
  22733410.613    22733410.2974   22733417.0754  119464935.843 6  93089582.39944
      1177.749         917.722
  24137936.842    24137938.2494   24137947.8754  126845738.633 4  98840852.29841
     -1321.113       -1029.477
  22067645.027    22067644.4234   22067652.6994  115966224.308 7  90363300.13444
     -2695.288       -2100.225
  20921998.933    20921998.7624   20922004.5944  109945830.008 8  85672095.49346
      -595.816        -464.274
  22104632.848    22104632.6204   22104638.3474  116160623.371 6  90514784.56043
       171.033         133.269
  20735001.710    20735000.9734   20735010.0864  108963155.511 8  84906365.01446
      1267.086         987.336
  23276446.804    23276446.9184   23276457.0444  122318546.078 6  95313166.00542
     -2308.955       -1799.185
  21529044.307    21529044.1654   21529051.9474  113135923.236 7  88157885.32045
      3006.010        2342.342
  23351095.964    23351096.5994   23351103.6014  122710848.269 5  95618869.28641
      3292.254        2565.395
  24819772.326    24819773.1804   24819781.5174  130428777.646 4 101632832.85641
      3787.592        2951.379
  19523167.916    19523167.954    19523173.391   104252623.337 9  81085394.442 7
      1664.385        1294.525
  22484689.240    22484687.898    22484698.215   119856090.405 6  93221415.089 4
      4150.471        3228.142
  20730183.625    20730183.979    20730190.714   110736904.676 7  86128721.681 6
     -1851.229       -1439.843
  21372585.288    21372585.092    21372592.345   114088308.908 7  88735368.439 5
     -2978.591       -2316.683
  19249768.526    19249768.084    19249771.950   102973334.195 8  80090407.301 7
       779.481         606.262
  21788868.291    21788868.487    21788877.467   116514895.567 5  90622743.236 5
      4332.415        3369.647
 11 10 10  8 19 30.0000000  0 16G02G04G09G12G14G25G27G29G30G31R09R10
                                R16R18R19R20
  22726735.066    22726734.3184   22726741.4164  119429852.021 6  93062244.37144
      1161.199         904.829
  24145528.455    24145524.7124   24145539.7624  126885625.140 5  98871932.62441
     -1338.082       -1042.645
  22083062.922    22083062.5494   22083070.6334  116047245.303 7  90426433.30844
     -2706.077       -2108.627
  20925420.213    20925419.9404   20925425.7044  109963808.486 8  85686104.67446
      -602.753        -469.675
  22103712.278    22103711.6504   22103718.5254  116155784.677 7  90511014.11143
       151.543         118.096
  20727790.465    20727789.7924   20727799.2694  108925260.662 9  84876836.54846
      1259.275         981.252
  23289651.755    23289652.5514   23289662.2314  122387937.397 6  95367237.05142
     -2317.177       -1805.588
  21511920.223    21511919.8854   21511927.9644  113045936.175 7  88087765.56145
      2993.123        2332.305
  23332310.703    23332308.8794   23332316.5454  122612122.882 5  95541940.46641
      3289.399        2563.165
  24798152.333    24798152.4884   24798162.2574  130315164.926 4 101544303.48241
      3786.665        2950.652
  19513862.301    19513862.396    19513867.432   104202931.289 9  81046745.059 7
      1648.390        1282.082
  22461335.163    22461334.259    22461343.745   119731603.431 6  93124591.939 4
      4148.662        3226.742
  20740624.553    20740625.042    20740631.868   110792676.959 8  86172100.060 6
     -1866.891       -1452.023
  21389359.316    21389359.432    21389366.521   114177849.783 7  88805011.257 5
     -2990.767       -2326.147
  19245468.184    19245467.630    19245471.730   102950329.307 8  80072514.607 7
       754.203         586.607
  21764599.522    21764598.582    21764606.573   116385112.192 5  90521800.699 6
      4319.830        3359.868
 11 10 10  8 20  0.0000000  0 16G02G04G09G12G14G25G27G29G30G31R09R10
                                R16R18R19R20
  22720151.964    22720151.4994   22720157.9644  119395259.754 6  93035289.36444
      1144.860         892.102
  24153215.587    24153214.2764   24153223.8164  126926015.418 5  98903405.57141
     -1354.824       -1055.713
  22098541.201    22098540.7174   22098549.0584  116128584.094 7  90489814.12444
     -2716.669       -2116.887
  20928880.019    20928879.6544   20928885.6434  109981989.748 8  85700271.86546
      -609.505        -474.937
  22102902.099    22102901.3584   22102908.0864  116151526.506 7  90507696.02743
       132.163         102.989
  20720623.063    20720622.3084   20720631.7804  108887595.417 9  84847486.99946
      1251.590         975.263
  23302902.765    23302902.9374   23302912.9514  122457569.909 6  95421496.05242
     -2325.174       -1811.812
  21494868.683    21494868.8254   21494876.3624  112956330.676 7  88017943.12745
      2980.388        2322.381
  23313536.846    23313536.9934   23313545.5914  122513474.046 5  95465071.29041
      3286.886        2561.184
  24776535.804    24776537.7164   24776544.7444  130201574.320 4 101455791.35441
      3785.931        2950.092
  19504645.539    19504645.569    19504650.698   104153714.798 9  81008465.554 7
      1632.559        1269.770
  22437992.730    22437990.963    22438000.721   119607166.083 6  93027807.358 4
      4146.953        3225.415
  20751152.522    20751152.851    20751159.302   110848913.776 7  86215839.738 6
     -1882.410       -1464.090
  21406200.456    21406200.116    21406206.970   114267744.761 7  88874929.488 6
     -3002.495       -2335.268
  19241308.752    19241307.922    19241311.802   102928077.308 8  80055207.496 7
       729.102         567.080
  21740397.306    21740398.297    21740406.226   116255700.996 5  90421147.617 5
      4307.409        3350.206
 11 10 10  8 20 30.0000000  0 16G02G04G09G12G14G25G27G29G30G31R09R10
                                R16R18R19R20
  22713662.659    22713662.3274   22713668.5844  119361158.016 7  93008716.59744
      1128.501         879.351
  24160996.231    24160996.5354   24161007.4414  126966906.584 5  98935268.79141
     -1371.368       -1068.608
  22114079.253    22114078.6844   22114087.0694  116210236.567 7  90553439.36444
     -2726.966       -2124.914
  20932377.950    20932377.5894   20932383.5854  110000371.456 8  85714595.26246
      -616.097        -480.077
  22102202.272    22102200.8194   22102207.5454  116147846.650 6  90504828.57543
       113.036          88.077
  20713499.237    20713498.3174   20713507.6694  108850158.064 9  84818315.02646
      1244.091         969.417
  23316199.533    23316197.9404   23316209.1604  122527440.415 6  95475940.50242
     -2332.969       -1817.871
  21477890.443    21477890.0794   21477897.6054  112867106.353 7  87948417.71645
      2967.769        2312.545
  23294781.522    23294780.0874   23294786.9614  122414900.547 5  95388260.80841
      3284.499        2559.332
  24754925.992    24754925.0234   24754933.5784  130088005.848 4 101367296.40941
      3785.163        2949.471
  19495517.761    19495518.031    19495523.587   104104974.295 9  80970556.269 7
      1616.713        1257.441
  22414656.833    22414655.658    22414665.441   119482779.007 6  92931061.908 4
      4145.342        3224.151
  20761766.090    20761766.748    20761773.527   110905612.791 7  86259938.906 6
     -1897.665       -1475.959
  21423106.379    21423105.960    21423112.576   114357988.577 7  88945119.049 5
     -3013.906       -2344.148
  19237288.890    19237288.352    19237292.402   102906575.669 8  80038484.011 7
       704.233         547.736
  21716267.352    21716267.043    21716275.017   116126662.327 5  90320784.292 5
      4295.022        3340.568
 11 10 10  8 21  0.0000000  0 16G02G04G09G12G14G25G27G29G30G31R09R10
                                R16R18R19R20
  22707267.838    22707267.2024   22707273.0124  119327552.020 7  92982530.11344
      1112.002         866.494
  24168872.806    24168870.8154   24168883.2394  127008300.484 4  98967523.75041
     -1388.043       -1081.656
  22129677.379    22129676.5344   22129685.1684  116292205.186 7  90617310.94644
     -2737.427       -2133.051
  20935914.753    20935914.4844   20935920.3364  110018957.411 8  85729077.80746
      -622.863        -485.348
  22101612.286    22101611.4404   22101617.7924  116144747.893 7  90502413.90743
        93.666          72.993
  20706419.089    20706418.3464   20706427.7364  108812952.691 8  84789323.81646
      1236.371         963.405
  23329541.324    23329540.6254   23329550.9784  122597551.776 6  95530572.60842
     -2340.947       -1824.119
  21460984.965    21460984.6344   21460992.3084  112778268.290 7  87879193.28345
      2954.904        2302.523
  23276036.616    23276036.8994   23276044.4414  122316406.756 5  95311512.43541
      3281.913        2557.348
  24733319.737    24733320.4214   24733326.9314  129974465.014 4 101278823.03041
      3784.272        2948.788
  19486480.638    19486480.839    19486486.332   104056716.287 9  80933022.256 7
      1600.592        1244.905
  22391333.146    22391331.775    22391341.583   119358448.459 6  92834360.410 4
      4143.419        3222.642
  20772467.910    20772468.109    20772474.831   110962777.155 8  86304400.012 6
     -1913.131       -1487.986
  21440077.084    21440076.427    21440083.663   114448580.618 7  89015579.447 5
     -3025.486       -2353.153
  19233410.553    19233409.789    19233413.628   102885827.633 8  80022346.653 7
       679.121         528.203
  21692207.159    21692207.326    21692215.662   115998003.492 6  90220716.395 5
      4282.295        3330.674
 11 10 10  8 21 30.0000000  0 16G02G04G09G12G14G25G27G29G30G31R09R10
                                R16R18R19R20
  22700966.985    22700965.9394   22700972.3674  119294439.717 7  92956728.31444
      1095.420         853.572
  24176843.903    24176847.6254   24176853.2104  127050192.090 5  99000166.46241
     -1404.753       -1094.620
  22145334.698    22145334.0004   22145342.6114  116374484.841 7  90681424.88544
     -2747.875       -2141.207
  20939489.690    20939489.3964   20939495.1424  110037743.451 8  85743716.25846
      -629.601        -490.599
  22101132.215    22101131.5564   22101138.4934  116142225.956 6  90500448.72343
        74.372          57.948
  20699382.685    20699381.8504   20699391.2314  108775975.917 9  84760510.73446
      1228.674         957.414
  23342927.944    23342927.6334   23342937.7924  122667899.280 6  95585388.73342
     -2348.869       -1830.296
  21444152.510    21444152.4474   21444160.0634  112689814.456 7  87810268.24645
      2941.968        2292.442
  23257308.883    23257307.6944   23257316.0884  122217989.785 5  95234823.88041
      3279.112        2555.163
  24711718.409    24711718.4754   24711724.9334  129860950.170 4 101190369.89441
      3783.219        2947.946
  19477533.823    19477534.029    19477539.237   104008939.770 9  80895862.731 7
      1584.451        1232.347
  22368020.029    22368018.012    22368027.903   119234174.259 6  92737702.753 4
      4141.425        3221.109
  20783255.915    20783255.887    20783262.538   111020402.806 7  86349219.895 6
     -1928.631       -1500.042
  21457112.146    21457111.826    21457118.448   114539513.342 7  89086304.826 5
     -3036.756       -2361.921
  19229671.801    19229671.249    19229675.305   102865828.810 8  80006792.018 7
       654.080         508.727
  21668219.147    21668218.533    21668226.327   115869724.521 5  90120943.961 6
      4269.558        3320.762
 11 10 10  8 22  0.0000000  0 16G02G04G09G12G14G25G27G29G30G31R09R10
                                R16R18R19R20
  22694759.938    22694759.7444   22694765.2344  119261823.678 7  92931313.21044
      1078.898         840.712
  24184912.289    24184909.9184   24184919.1484  127092581.465 5  99033197.11141
     -1421.314       -1107.485
  22161051.328    22161050.4534   22161059.5334  116457075.163 7  90745780.91344
     -2758.188       -2149.246
  20943102.864    20943102.5144   20943108.3084  110056731.224 8  85758511.90546
      -636.269        -495.793
  22100763.006    22100761.6954   22100768.1964  116140282.143 7  90498934.02443
        55.177          42.995
  20692389.988    20692389.2484   20692398.7574  108739229.653 9  84731877.27246
      1221.018         951.445
  23356358.637    23356359.1764   23356369.9914  122738483.486 6  95640389.29542
     -2356.747       -1836.427
  21427394.252    21427393.9194   21427401.7974  112601747.842 7  87741644.95045
      2929.105        2282.420
  23238596.278    23238593.3564   23238603.8044  122119651.970 5  95158197.07841
      3276.621        2553.198
  24690124.200    24690123.0024   24690130.6944  129747464.903 4 101101939.81741
      3782.374        2947.315
  19468677.829    19468677.828    19468683.095   103961648.849 9  80859080.895 7
      1568.284        1219.775
  22344717.502    22344715.666    22344725.463   119109960.342 6  92641091.969 4
      4139.411        3219.540
  20794130.009    20794130.292    20794136.833   111078490.852 8  86394399.421 6
     -1943.959       -1511.967
  21474209.656    21474209.805    21474216.841   114630785.064 7  89157293.871 5
     -3047.920       -2370.598
  19226073.382    19226072.750    19226076.820   102846579.726 8  79991820.501 7
       629.161         489.346
  21644301.857    21644301.955    21644309.037   115741829.704 5  90021470.321 5
      4256.705        3310.766
 11 10 10  8 22 30.0000000  0 16G02G04G09G12G14G25G27G29G30G31R09R10
                                R16R18R19R20
  22688649.410    22688648.7724   22688654.4154  119229712.129 7  92906291.22344
      1061.896         827.447
  24193073.713    24193075.1324   24193084.1064  127135473.573 5  99066619.47241
     -1438.212       -1120.654
  22176828.019    22176827.2524   22176835.7634  116539981.401 7  90810383.09544
     -2768.869       -2157.565
  20946755.659    20946755.3814   20946761.3624  110075927.421 8  85773469.95646
      -643.421        -501.368
  22100503.641    22100503.1154   22100509.3274  116138922.422 6  90497874.47043
        35.529          27.677
  20685442.794    20685442.0234   20685451.3364  108702721.046 9  84703428.99246
      1212.893         945.115
  23369838.755    23369836.6264   23369847.2714  122809310.302 6  95695578.89542
     -2365.019       -1842.863
  21410710.862    21410710.7304   21410718.4724  112514076.475 7  87673329.65145
      2915.698        2271.967
  23219899.255    23219897.6784   23219906.3154  122021400.846 5  95081637.77741
      3273.459        2550.727
  24668536.123    24668532.7244   24668542.8554  129634017.988 4 101013539.58441
      3780.838        2946.114
  19459914.228    19459914.405    19459919.811   103914853.410 9  80822684.435 7
      1551.431        1206.665
  22321428.863    22321427.497    22321437.264   118985816.493 6  92544535.720 4
      4136.806        3217.512
  20805092.036    20805092.369    20805099.107   111137047.409 7  86439943.339 6
     -1959.810       -1524.300
  21491372.988    21491372.236    21491378.990   114722398.630 7  89228548.780 5
     -3059.484       -2379.597
  19222616.384    19222615.698    19222619.654   102828087.035 8  79977437.301 7
       603.727         469.563
  21620458.664    21620458.330    21620465.873   115614328.957 6  89922303.183 6
      4243.377        3300.398
 11 10 10  8 23  0.0000000  0 16G02G04G09G12G14G25G27G29G30G31R09R10
                                R16R18R19R20
  22682634.932    22682634.6144   22682641.0214  119198106.789 7  92881663.67544
      1045.030         814.319
  24201331.136    24201332.0664   24201342.8754  127178867.560 5  99100432.92341
     -1454.834       -1133.649
  22192664.001    22192663.2524   22192672.3784  116623202.451 7  90875230.60144
     -2779.337       -2165.718
  20950448.460    20950448.1574   20950453.8864  110095331.936 8  85788590.33746
      -650.321        -506.737
  22100356.783    22100355.3734   22100362.1044  116138146.401 6  90497269.74743
        16.102          12.551
  20678540.703    20678540.1714   20678549.1234  108666450.898 8  84675166.53346
      1204.977         938.948
  23383361.851    23383360.7424   23383371.0734  122880378.972 6  95750956.95642
     -2373.014       -1849.100
  21394103.004    21394102.9434   21394110.2344  112426802.191 7  87605323.75045
      2902.454        2261.659
  23201218.275    23201217.7114   23201226.8804  121923237.625 5  95005146.98841
      3270.546        2548.487
  24646954.433    24646952.6894   24646961.8084  129520611.944 4 100925171.19941
      3779.448        2945.045
  19451244.284    19451244.498    19451250.065   103868556.335 9  80786675.592 7
      1534.878        1193.798
  22298152.522    22298151.234    22298161.006   118861746.468 6  92448036.824 4
      4134.362        3215.612
  20816141.395    20816141.726    20816149.021   111196072.638 7  86485851.792 6
     -1975.345       -1536.377
  21508598.995    21508598.243    21508605.522   114814350.970 7  89300067.198 5
     -3070.761       -2388.366
  19219300.685    19219300.147    19219304.193   102810350.304 8  79963642.064 7
       578.584         450.010
  21596689.346    21596689.202    21596696.745   115487225.606 6  89823445.127 6
      4230.059        3290.044
 11 10 10  8 23 30.0000000  0 16G02G04G09G12G14G25G27G29G30G31R09R10
                                R16R18R19R20
  22676716.590    22676716.0704   22676722.2744  119167004.403 7  92857428.03444
      1028.387         801.336
  24209682.985    24209682.3394   24209693.6904  127222756.674 5  99134632.16141
     -1471.166       -1146.344
  22208559.153    22208558.3524   22208567.5214  116706731.766 6  90940318.30644
     -2789.453       -2173.596
  20954179.712    20954179.3354   20954185.2754  110114939.773 8  85803869.14946
      -656.946        -511.906
  22100318.169    22100317.9464   22100324.2654  116137948.180 6  90497115.23743
        -2.982          -2.318
  20671683.247    20671682.4474   20671691.7014  108630414.441 9  84647086.16046
      1197.342         932.994
  23396929.582    23396929.4464   23396940.2104  122951683.285 5  95806518.64542
     -2380.673       -1855.058
  21377570.199    21377570.0804   21377577.3514  112339921.833 7  87537624.79845
      2889.464        2251.529
  23182554.209    23182553.1924   23182563.6444  121825157.931 5  94928721.27841
      3267.888        2546.410
  24625381.744    24625381.6054   24625389.0754  129407243.687 4 100836832.32841
      3778.354        2944.162
  19442667.455    19442667.654    19442672.999   103822755.164 9  80751052.449 7
      1518.431        1181.002
  22274890.117    22274888.830    22274899.289   118737747.509 6  92351593.255 4
      4132.129        3213.875
  20827277.692    20827277.856    20827285.414   111255560.672 7  86532120.199 6
     -1990.617       -1548.258
  21525885.777    21525885.995    21525893.140   114906633.045 7  89371842.057 5
     -3081.597       -2396.798
  19216125.341    19216124.566    19216128.476   102793363.473 8  79950430.083 7
       553.740         430.685
  21572994.832    21572994.418    21573001.284   115360518.635 6  89724895.352 5
      4217.024        3279.907
 11 10 10  8 24  0.0000000  0 16G02G04G09G12G14G25G27G29G30G31R09R10
                                R16R18R19R20
  22670895.474    22670894.9824   22670900.8564  119136414.169 7  92833591.47944
      1011.151         787.911
  24218130.458    24218128.6204   24218140.2184  127267147.650 5  99169222.45641
     -1487.986       -1159.474
  22224513.807    22224513.3434   22224522.7094  116790575.852 6  91005651.27543
     -2800.022       -2181.833
  20957951.045    20957950.9104   20957956.8874  110134759.029 8  85819312.70246
      -664.127        -517.500
  22100391.676    22100391.0124   22100398.0584  116138335.783 7  90497417.22843
       -22.615         -17.625
  20664871.766    20664870.9494   20664880.4884  108594620.411 9  84619194.69846
      1189.126         926.596
  23410545.173    23410544.6164   23410555.8994  123023230.611 5  95862269.68642
     -2388.916       -1861.492
  21361114.109    21361113.8844   21361121.4224  112253445.040 7  87470240.31245
      2875.842        2240.918
  23163908.277    23163907.0214   23163916.3574  121727170.934 5  94852367.78141
      3264.696        2543.925
  24603816.564    24603817.1914   24603825.6644  129293923.632 4 100748530.99641
      3776.533        2942.749
  19434185.228    19434185.664    19434190.659   103777460.979 9  80715823.636 7
      1501.368        1167.730
  22251645.889    22251644.330    22251653.504   118613830.889 7  92255213.697 4
      4129.210        3211.604
  20838502.192    20838502.295    20838508.951   111315519.491 7  86578754.771 6
     -2006.442       -1560.563
  21543236.136    21543236.267    21543242.878   114999249.065 7  89443876.668 5
     -3092.679       -2405.413
  19213091.248    19213090.688    19213094.525   102777134.464 8  79937807.518 7
       528.392         410.974
  21549375.679    21549375.305    21549382.729   115234218.650 6  89626662.118 5
      4203.167        3269.129
 11 10 10  8 24 30.0000000  0 16G02G04G09G12G14G25G27G29G30G31R09R10
                                R16R18R19R20
  22665172.358    22665171.8874   22665178.2264  119106339.224 7  92810156.43644
       993.911         774.479
  24226672.826    24226674.1934   24226682.9964  127312041.094 5  99204204.36741
     -1504.847       -1172.613
  22240528.998    22240528.7714   22240537.9964  116874735.338 6  91071230.02243
     -2810.507       -2190.007
  20961763.384    20961763.0654   20961769.0064  110154791.932 8  85834922.73746
      -671.290        -523.080
  22100577.336    22100576.7424   22100583.7514  116139310.244 6  90498176.51543
       -42.241         -32.919
  20658107.169    20658106.3644   20658115.6904  108559071.325 9  84591494.10046
      1180.912         920.189
  23424207.411    23424206.0944   23424216.9644  123095022.136 5  95918211.01242
     -2397.044       -1867.812
  21344735.525    21344735.3364   21344743.0294  112167375.404 8  87403173.09645
      2862.223        2230.305
  23145281.476    23145279.9754   23145288.7324  121629279.520 5  94776088.77741
      3261.482        2541.400
  24582263.335    24582262.4484   24582271.5804  129180655.842 4 100660270.36941
      3774.706        2941.327
  19425799.112    19425799.259    19425804.405   103732678.667 9  80680992.951 7
      1484.229        1154.396
  22228414.979    22228413.318    22228423.201   118490001.733 7  92158902.168 4
      4126.175        3209.245
  20849815.202    20849815.723    20849821.944   111375950.557 7  86625756.644 6
     -2022.162       -1572.791
  21560648.863    21560648.238    21560655.237   115092198.531 7  89516170.627 5
     -3103.789       -2414.057
  19210199.570    19210198.780    19210202.574   102761664.408 8  79925775.251 7
       503.065         391.275
  21525834.982    21525833.609    21525841.055   115108331.086 6  89528749.642 6
      4189.367        3258.392
 11 10 10  8 25  0.0000000  0 16G02G04G09G12G14G25G27G29G30G31R09R10
                                R16R18R19R20
  22659548.631    22659547.7814   22659554.4624  119076786.535 7  92787128.36144
       976.463         760.879
  24235311.729    24235313.7424   24235321.4404  127357440.657 5  99239580.57741
     -1521.688       -1185.749
  22256605.204    22256604.7544   22256613.6864  116959214.090 7  91137057.55843
     -2821.218       -2198.345
  20965616.733    20965616.6664   20965622.9074  110175043.784 8  85850703.37446
      -678.624        -528.799
  22100875.613    22100875.2324   22100881.6014  116140876.497 7  90499396.95043
       -61.944         -48.263
  20651390.207    20651389.3894   20651398.6824  108523772.978 9  84563988.88246
      1172.518         913.644
  23437914.555    23437915.0114   23437925.4624  123167062.107 5  95974345.94442
     -2405.377       -1874.323
  21328435.773    21328435.6244   21328442.9674  112081719.512 8  87336428.29145
      2848.373        2219.507
  23126672.332    23126670.6194   23126680.7224  121531489.963 5  94699889.11542
      3258.038        2538.704
  24560720.392    24560720.2434   24560728.2224  129067447.943 4 100572056.44141
      3772.689        2939.757
  19417510.031    19417510.166    19417515.353   103688416.386 9  80646566.724 7
      1466.809        1140.850
  22205201.485    22205200.529    22205210.843   118366269.208 6  92062665.791 4
      4122.876        3206.668
  20861217.213    20861217.922    20861223.979   111436859.058 7  86673129.853 6
     -2038.159       -1585.232
  21578124.338    21578123.718    21578130.620   115185482.179 7  89588724.499 5
     -3114.866       -2422.670
  19207450.348    19207449.716    19207453.768   102746958.151 8  79914337.045 7
       477.578         371.446
  21502370.303    21502370.724    21502378.485   114982864.095 6  89431164.280 6
      4175.285        3247.438
 11 10 10  8 25 30.0000000  0 16G02G04G09G12G14G25G27G29G30G31R09R10
                                R16R18R19R20
  22654023.558    22654023.0364   22654028.5264  119047751.897 7  92764503.96544
       959.263         747.477
  24244046.524    24244048.8024   24244056.1964  127403339.277 5  99275345.66741
     -1538.154       -1198.576
  22272739.800    22272739.4794   22272748.9744  117044004.762 6  91203128.12843
     -2831.395       -2206.270
  20969511.440    20969511.0054   20969517.3554  110195508.785 8  85866650.10146
      -685.644        -534.270
  22101284.958    22101284.5734   22101291.2184  116143028.239 7  90501073.59943
       -81.406         -63.434
  20644719.863    20644718.9934   20644728.3144  108488720.134 9  84536674.96946
      1164.417         907.336
  23451670.498    23451670.4414   23451680.5804  123239343.700 5  96030669.14942
     -2413.320       -1880.531
  21312214.008    21312213.6314   21312220.8844  111996473.047 7  87270002.50245
      2834.770        2208.913
  23108081.164    23108080.2844   23108090.3684  121433797.407 5  94623765.04242
      3254.914        2536.297
  24539188.063    24539186.5674   24539197.4094  128954296.175 5 100483886.24441
      3770.764        2938.268
  19409317.971    19409318.106    19409323.592   103644670.995 9  80612542.519 7
      1449.599        1127.467
  22182009.395    22182007.276    22182015.651   118242630.007 7  91966502.041 4
      4119.785        3204.273
  20872707.782    20872708.112    20872714.890   111498238.512 7  86720869.359 6
     -2053.753       -1597.360
  21595659.214    21595659.772    21595667.000   115279091.382 7  89661531.575 5
     -3125.669       -2431.070
  19204842.678    19204842.154    19204845.833   102733008.878 8  79903487.602 7
       452.482         351.931
  21478987.248    21478986.026    21478993.351   114857815.905 6  89333904.656 6
      4161.361        3236.611
 11 10 10  8 26  0.0000000  0 16G02G04G09G12G14G25G27G29G30G31R09R10
                                R16R18R19R20
  22648595.796    22648595.4654   22648601.2034  119019228.060 7  92742277.60344
       942.442         734.372
  24252874.355    24252872.9464   24252883.8274  127449726.924 4  99311491.94141
     -1554.202       -1211.088
  22288932.797    22288932.4454   22288941.5434  117129097.494 7  91269434.08243
     -2841.241       -2213.953
  20973444.705    20973444.4594   20973450.7624  110216178.720 8  85882756.50746
      -692.232        -539.401
  22101804.396    22101803.7584   22101810.4794  116145756.313 7  90503199.34643
      -100.349         -78.201
  20638094.581    20638093.9674   20638103.1664  108453905.017 8  84509546.29446
      1156.726         901.348
  23465469.903    23465469.1284   23465479.3654  123311857.701 6  96087173.46242
     -2420.792       -1886.358
  21296068.475    21296068.3864   21296076.0054  111911629.976 7  87203891.05845
      2821.568        2198.621
  23089507.073    23089507.3064   23089516.5924  121336194.540 5  94547710.87342
      3252.141        2534.146
  24517665.564    24517664.6774   24517672.8424  128841194.595 5 100395755.15441
      3769.350        2937.178
  19401222.000    19401222.107    19401227.365   103601436.918 9  80578915.999 7
      1432.806        1114.406
  22158830.065    22158828.994    22158838.610   118119078.770 7  91870406.642 4
      4117.081        3202.169
  20884285.036    20884285.372    20884291.492   111560079.836 7  86768968.094 6
     -2068.927       -1609.163
  21613254.443    21613254.593    21613261.691   115373014.210 7  89734582.594 5
     -3135.723       -2438.892
  19202374.952    19202374.171    19202377.747   102719807.425 8  79893219.797 7
       427.776         332.714
  21455677.966    21455678.506    21455685.593   114733181.055 6  89236966.523 6
      4147.712        3225.993
 11 10 10  8 26 30.0000000  0 16G02G04G09G12G14G25G27G29G30G31R09R10
                                R16R18R19R20
  22643263.489    22643263.1024   22643269.1734  118991206.185 7  92720442.36144
       925.741         721.357
  24261792.516    24261792.5674   24261803.1574  127496591.949 4  99348010.00441
     -1570.094       -1223.433
  22305181.088    22305180.4164   22305189.0134  117214480.399 6  91335966.13743
     -2850.853       -2221.442
  20977415.186    20977414.8824   20977420.9694  110237043.233 8  85899014.53346
      -698.671        -544.417
  22102430.723    22102430.7574   22102437.1924  116149049.576 7  90505765.47643
      -119.145         -92.833
  20631512.788    20631512.1684   20631521.4974  108419317.803 9  84482595.21046
      1149.145         895.444
  23479310.536    23479310.4794   23479320.3874  123384592.910 6  96143850.12342
     -2428.100       -1892.022
  21279998.740    21279998.3514   21280005.8954  111827181.002 8  87138086.69845
      2808.453        2188.406
  23070949.956    23070949.6944   23070958.3454  121238671.951 6  94471719.25742
      3249.478        2532.060
  24496150.590    24496149.1104   24496160.0154  128728135.169 4 100307656.92541
      3767.948        2936.075
  19393219.430    19393219.786    19393225.314   103558706.332 9  80545681.088 7
      1415.977        1101.320
  22135666.875    22135665.764    22135674.901   117995608.280 7  91774374.086 4
      4114.396        3200.083
  20895945.678    20895946.247    20895952.263   111622372.031 7  86817417.512 6
     -2083.871       -1620.783
  21630906.169    21630905.856    21630912.846   115467236.003 7  89807866.148 5
     -3145.667       -2446.625
  19200044.706    19200044.064    19200047.616   102707342.457 8  79883524.816 7
       403.280         313.663
  21432446.820    21432447.636    21432454.131   114608952.727 6  89140344.566 6
      4134.201        3215.480
 11 10 10  8 27  0.0000000  0 16G02G04G09G12G14G25G27G29G30G31R09R10
                                R16R18R19R20
  22638026.641    22638026.1314   22638032.5084  118963688.163 7  92698999.72744
       908.704         708.080
  24270802.017    24270799.1624   24270812.6324  127543933.085 4  99384899.15841
     -1586.061       -1235.878
  22321484.062    22321483.3534   22321492.0324  117300152.605 6  91402723.62643
     -2860.717       -2229.137
  20981422.959    20981422.4784   20981428.5834  110258102.698 8  85915424.47946
      -705.417        -549.679
  22103165.228    22103164.2504   22103171.7584  116152907.951 6  90508771.95643
      -138.171        -107.664
  20624974.678    20624974.0264   20624983.4544  108384959.566 9  84455822.54546
      1141.293         889.318
  23493194.089    23493193.1724   23493203.7004  123457548.960 5  96200698.85542
     -2435.741       -1897.971
  21264003.633    21264003.7074   21264011.2154  111743128.154 7  87072591.01945
      2794.973        2177.900
  23052408.349    23052406.8424   23052415.4684  121141231.111 5  94395791.35642
      3246.472        2529.720
  24474644.996    24474644.1784   24474653.2744  128615120.615 5 100219593.64141
      3766.185        2934.683
  19385312.257    19385312.538    19385317.907   103516482.465 9  80512840.292 7
      1398.794        1087.948
  22112521.688    22112519.430    22112529.515   117872222.277 7  91678407.243 4
      4111.226        3197.613
  20907691.543    20907691.777    20907698.197   111685115.070 7  86866217.584 6
     -2099.131       -1632.656
  21648612.596    21648612.349    21648619.802   115561754.218 7  89881380.243 5
     -3155.708       -2454.440
  19197852.378    19197851.613    19197855.334   102695613.607 8  79874402.370 7
       378.529         294.410
  21409291.974    21409292.255    21409299.793   114485133.513 6  89044040.814 6
      4120.211        3204.603
 11 10 10  8 27 30.0000000  0 16G02G04G09G12G14G25G27G29G30G31R09R10
                                R16R18R19R20
  22632886.732    22632885.6974   22632891.7604  118936674.026 7  92677949.74744
       892.027         695.081
  24279901.049    24279897.6124   24279908.9974  127591747.956 4  99422157.45141
     -1601.712       -1248.096
  22337841.581    22337841.0424   22337849.3514  117386111.508 6  91469704.50843
     -2870.101       -2236.431
  20985466.917    20985466.8184   20985473.0394  110279356.297 8  85931985.68846
      -711.735        -554.599
  22104006.204    22104005.8494   22104013.1374  116157329.590 7  90512217.34443
      -156.784        -122.176
  20618480.263    20618479.4914   20618488.7864  108350829.758 9  84429227.87746
      1133.826         883.503
  23507118.034    23507118.2034   23507129.0664  123530723.941 5  96257718.20142
     -2442.903       -1903.565
  21248084.239    21248084.3004   21248091.9134  111659472.003 8  87007404.43845
      2781.882        2167.703
  23033882.216    23033881.0084   23033887.6124  121043871.893 6  94319927.06042
      3243.917        2527.733
  24453148.684    24453148.4564   24453156.4664  128502151.792 5 100131566.01141
      3764.793        2933.594
  19377500.153    19377500.587    19377505.929   103474766.836 9  80480394.789 7
      1381.981        1074.875
  22089389.593    22089388.459    22089398.364   117748922.528 7  91582507.485 4
      4108.467        3195.467
  20919521.457    20919522.219    20919528.920   111748307.700 7  86915367.335 6
     -2113.863       -1644.116
  21666374.248    21666373.711    21666380.993   115656564.094 7  89955121.167 5
     -3165.131       -2461.769
  19195796.712    19195796.103    19195800.094   102684618.954 8  79865850.967 7
       354.196         275.487
  21386214.749    21386214.237    21386221.467   114361726.709 6  88948057.816 6
      4106.621        3194.034
 11 10 10  8 28  0.0000000  0 16G02G04G09G12G14G25G27G29G30G31R09R10
                                R16R18R19R20
  22627841.541    22627840.5834   22627846.4624  118910163.041 7  92657291.83344
       875.268         682.021
  24289089.454    24289088.0364   24289098.4904  127640032.557 5  99459781.79341
     -1617.345       -1260.241
  22354252.727    22354252.1184   22354260.2104  117472353.328 6  91536905.85543
     -2879.496       -2243.767
  20989548.245    20989547.9434   20989554.0074  110300801.904 8  85948696.51946
      -718.105        -559.560
  22104955.388    22104953.8994   22104961.3634  116162311.545 7  90516099.33343
      -175.425        -136.688
  20612029.053    20612028.0654   20612037.1214  108316926.861 9  84402810.03146
      1126.251         877.599
  23521085.335    23521084.5234   23521094.7354  123604114.430 5  96314905.47342
     -2449.953       -1909.038
  21232240.669    21232240.4984   21232247.8814  111576211.595 8  86942526.22145
      2768.674        2157.405
  23015369.619    23015369.1484   23015376.8884  120946593.139 6  94244125.43342
      3241.165        2525.581
  24431658.816    24431660.0844   24431666.3264  128389229.113 5 100043574.34841
      3763.259        2932.415
  19369783.723    19369783.833    19369789.254   103433560.153 9  80448345.136 7
      1364.960        1061.636
  22066275.717    22066273.923    22066284.199   117625710.285 7  91486675.757 4
      4105.506        3193.173
  20931434.645    20931435.171    20931442.184   111811946.830 7  86964864.361 6
     -2128.797       -1655.731
  21684188.489    21684188.294    21684195.315   115751659.165 7  90029083.909 5
     -3174.574       -2469.106
  19193877.882    19193877.217    19193880.973   102674355.150 8  79857868.003 7
       329.898         256.590
  21363215.032    21363213.922    21363221.204   114238732.239 6  88852395.506 6
      4092.867        3183.339
 11 10 10  8 28 30.0000000  0 16G02G04G09G12G14G25G27G29G30G31R09R10
                                R16R18R19R20
  22622893.448    22622892.6274   22622898.5204  118884160.604 7  92637030.19944
       858.206         668.723
  24298366.459    24298365.2194   24298377.4964  127688789.578 4  99497774.15241
     -1633.171       -1272.601
  22370718.616    22370717.8214   22370726.7784  117558880.796 6  91604329.77943
     -2889.042       -2251.208
  20993666.276    20993666.0114   20993672.4514  110322443.534 8  85965560.09646
      -724.698        -564.702
  22106009.637    22106008.6794   22106016.7434  116167857.025 6  90520420.44743
      -194.280        -151.390
  20605621.280    20605620.5014   20605629.5484  108283255.275 9  84376572.42146
      1118.457         871.524
  23535092.201    23535090.3564   23535102.7514  123677723.818 5  96372263.31241
     -2457.323       -1914.781
  21216473.317    21216473.1404   21216480.6634  111493352.808 7  86877960.95245
      2755.208        2146.917
  22996875.692    22996873.9654   22996882.2794  120849399.842 6  94168390.43542
      3238.270        2523.327
  24410181.526    24410182.3754   24410188.9434  128276358.706 5  99955623.41541
      3761.410        2930.958
  19362163.809    19362163.838    19362169.524   103392869.356 9  80416696.728 7
      1347.654        1048.174
  22043178.937    22043177.549    22043187.731   117502593.111 7  91390918.004 4
      4102.193        3190.591
  20943432.673    20943432.854    20943439.625   111876036.149 7  87014711.539 6
     -2143.913       -1667.488
  21702056.276    21702056.382    21702063.476   115847041.123 7  90103269.807 5
     -3184.223       -2476.616
  19192096.446    19192095.784    19192099.712   102664825.564 8  79850456.109 7
       305.369         237.508
  21340290.949    21340291.400    21340299.675   114116157.504 6  88757059.665 6
      4078.713        3172.333
 11 10 10  8 29  0.0000000  0 16G02G04G09G12G14G25G27G29G30G31R09R10
                                R16R18R19R20
  22618042.950    22618042.9814   22618048.2164  118858672.618 7  92617169.43344
       841.102         655.404
  24307735.489    24307736.2654   24307743.7064  127738021.927 5  99536136.93541
     -1648.887       -1284.843
  22387238.679    22387237.9764   22387247.0544  117645697.108 7  91671978.75843
     -2898.574       -2258.640
  20997822.820    20997822.5864   20997828.7124  110344286.108 8  85982580.25346
      -731.347        -569.875
  22107174.340    22107172.9774   22107179.8384  116173970.310 7  90525184.02743
      -213.133        -166.064
  20599258.673    20599257.9224   20599267.4184  108249820.476 9  84350519.32247
      1110.634         865.430
  23549141.593    23549140.1874   23549151.8584  123751555.793 5  96429794.59741
     -2464.618       -1920.496
  21200783.388    21200783.1394   21200790.5434  111410901.666 8  86813713.32745
      2741.656        2136.354
  22978396.541    22978396.2504   22978403.8394  120752297.888 6  94092726.59842
      3235.272        2520.990
  24388714.590    24388713.5064   24388720.4344  128163548.023 5  99867719.01641
      3759.360        2929.364
  19354641.639    19354641.841    19354647.257   103352701.692 9  80385455.193 7
      1330.270        1034.654
  22020102.329    22020100.931    22020110.471   117379578.897 7  91295240.326 4
      4098.859        3187.998
  20955515.254    20955515.582    20955522.871   111940579.676 7  87064911.975 6
     -2158.905       -1679.142
  21719978.403    21719978.242    21719985.387   115942711.201 7  90177679.787 5
     -3193.673       -2483.969
  19190453.067    19190452.433    19190456.318   102656034.121 8  79843618.312 7
       280.841         218.435
  21317450.831    21317449.810    21317457.660   113994011.512 6  88662057.286 6
      4064.424        3161.218
 11 10 10  8 29 30.0000000  0 16G02G04G09G12G14G25G27G29G30G31R09R10
                                R16R18R19R20
  22613291.352    22613290.8164   22613296.0734  118833700.383 6  92597710.55744
       823.691         641.832
  24317193.926    24317191.8794   24317202.8794  127787728.528 4  99574869.28341
     -1664.845       -1297.317
  22403814.358    22403813.7024   22403822.1374  117732800.831 6  91739851.71843
     -2908.368       -2266.258
  21002017.588    21002017.4964   21002023.6994  110366329.803 8  85999757.13146
      -738.280        -575.284
  22108444.583    22108443.8244   22108450.8174  116180650.514 6  90530389.35243
      -232.248        -180.976
  20592941.719    20592940.8624   20592950.2894  108216623.165 9  84324651.28746
      1102.486         859.079
  23563233.723    23563233.2764   23563243.6944  123825609.628 5  96487498.76341
     -2472.314       -1926.480
  21185171.447    21185171.0414   21185178.4104  111328859.979 8  86749784.75745
      2727.729        2125.502
  22959937.559    22959935.6704   22959944.1554  120655288.269 6  94017134.72842
      3231.987        2518.419
  24367257.826    24367258.4514   24367265.3764  128050798.857 5  99779862.54841
      3757.149        2927.641
  19347218.189    19347218.362    19347223.757   103313060.318 9  80354623.003 7
      1312.446        1020.790
  21997045.300    21997043.042    21997052.996   117256670.782 7  91199645.168 4
      4094.982        3184.987
  20967682.480    20967682.862    20967690.020   112005577.259 7  87115465.582 6
     -2174.304       -1691.123
  21737954.248    21737953.520    21737960.971   116038665.393 7  90252310.727 5
     -3203.282       -2491.443
  19188947.243    19188946.677    19188950.583   102647979.947 8  79837353.960 7
       256.064         199.160
  21294689.291    21294688.382    21294695.867   113872295.995 6  88567389.726 6
      4049.786        3149.833
 11 10 10  8 30  0.0000000  0 16G02G04G09G12G14G25G27G29G30G31R09R10
                                R16R18R19R20
  22608636.111    22608635.5874   22608641.8374  118809238.972 6  92578649.71844
       806.675         628.579
  24326741.883    24326741.7464   24326750.7504  127837901.450 4  99613965.01241
     -1680.392       -1309.410
  22420443.804    22420442.7024   22420451.5834  117820184.516 6  91807942.81343
     -2917.576       -2273.422
  21006249.824    21006249.5744   21006255.5784  110388568.905 8  86017086.27146
      -744.763        -580.333
  22109822.937    22109821.7344   22109828.7954  116187890.795 6  90536031.11043
      -250.865        -195.482
  20586668.672    20586667.8144   20586677.0584  108183657.825 8  84298964.00446
      1094.771         853.069
  23577367.159    23577366.0164   23577376.1544  123899878.219 5  96545370.26141
     -2479.371       -1931.982
  21169636.412    21169636.0254   21169643.4404  111247223.174 8  86686171.67745
      2714.249        2115.000
  22941491.414    22941491.6484   22941499.6934  120558366.092 5  93941610.98842
      3229.105        2516.183
  24345812.915    24345812.9724   24345821.4524  127938107.973 5  99692051.49541
      3755.205        2926.140
  19339892.258    19339892.574    19339897.988   103273941.566 9  80324197.294 7
      1295.012        1007.233
  21974006.162    21974005.252    21974015.069   117133866.287 7  91104130.603 4
      4091.528        3182.296
  20979933.988    20979934.479    20979941.456   112071022.082 7  87166367.023 6
     -2189.131       -1702.656
  21755981.504    21755981.230    21755988.389   116134894.650 7  90327155.613 5
     -3212.321       -2498.467
  19187577.927    19187577.407    19187581.534   102640655.581 8  79831657.228 7
       231.802         180.291
  21272006.514    21272007.206    21272014.078   113751008.841 6  88473055.326 6
      4035.498        3138.719
 11 10 10  8 30 30.0000000  0 16G02G04G09G12G14G25G27G29G30G31R09R10
                                R16R18R19R20
  22604080.306    22604079.2214   22604085.5494  118785296.581 7  92559993.31544
       789.531         615.222
  24336379.969    24336380.5794   24336389.0484  127888545.984 5  99653428.18541
     -1695.821       -1321.421
  22437126.204    22437125.4504   22437134.1384  117907853.096 6  91876255.91543
     -2926.901       -2280.708
  21010519.996    21010519.9154   21010526.2434  110411010.198 8  86034572.96246
      -751.316        -585.439
  22111307.615    22111307.1834   22111314.1334  116195697.231 6  90542114.01943
      -269.531        -210.019
  20580440.550    20580440.0264   20580449.3394  108150931.907 8  84273463.28546
      1086.975         846.987
  23591541.865    23591541.4314   23591552.2044  123974367.318 5  96603413.56741
     -2486.547       -1937.571
  21154179.983    21154179.5364   21154187.0804  111165999.339 8  86622880.39445
      2700.676        2104.420
  22923067.289    22923065.7154   22923074.5004  120461539.099 5  93866161.41342
      3226.091        2513.846
  24324382.925    24324382.6844   24324388.7574  127825484.371 5  99604292.88741
      3753.074        2924.446
  19332666.457    19332666.572    19332671.937   103235355.090 9  80294185.568 7
      1277.399         993.535
  21950990.578    21950988.985    21950998.674   117011175.496 7  91008704.462 4
      4087.859        3179.440
  20992270.624    20992270.945    20992278.048   112136920.174 7  87217621.013 6
     -2204.083       -1714.286
  21774060.666    21774060.657    21774067.359   116231402.218 7  90402216.968 5
     -3221.420       -2505.547
  19186346.645    19186345.913    19186349.727   102634067.068 8  79826532.834 7
       207.464         161.361
  21249408.313    21249407.400    21249414.745   113630160.457 6  88379062.190 6
      4021.016        3127.451
 11 10 10  8 31  0.0000000  0 16G02G04G09G12G14G25G27G29G30G31R09R10
                                R16R18R19R20
  22599622.811    22599622.3274   22599628.4524  118761874.407 7  92541742.28444
       772.285         601.773
  24346104.871    24346107.0904   24346116.1204  127939660.389 4  99693257.48441
     -1711.398       -1333.517
  22453863.348    22453862.0824   22453870.8324  117995805.257 6  91944789.97343
     -2936.250       -2287.985
  21014828.872    21014828.8814   21014834.9164  110433653.584 8  86052217.13246
      -757.921        -590.591
  22112901.810    22112900.6034   22112907.5154  116204068.722 6  90548637.23643
      -288.237        -224.593
  20574259.044    20574258.2764   20574267.5904  108118445.919 9  84248149.52847
      1079.095         840.847
  23605758.474    23605757.7644   23605768.5754  124049075.946 5  96661627.94141
     -2493.700       -1943.136
  21138802.171    21138801.8334   21138809.4414  111085189.751 8  86559911.89745
      2686.955        2093.730
  22904659.668    22904658.7844   22904667.5144  120364808.224 5  93790786.74542
      3222.951        2511.382
  24302963.089    24302963.9684   24302971.7664  127712930.492 5  99516588.59641
      3750.896        2922.791
  19325540.667    19325540.861    19325545.912   103197303.583 9  80264589.934 7
      1259.667         979.742
  21927994.631    21927993.810    21928003.671   116888601.295 7  90913369.022 4
      4084.068        3176.493
  21004692.427    21004692.426    21004699.092   112203271.035 7  87269227.177 6
     -2219.043       -1725.921
  21792191.973    21792191.668    21792198.162   116328184.761 7  90477492.192 5
     -3230.402       -2512.535
  19185252.391    19185251.606    19185255.452   102628212.994 8  79821979.668 7
       183.153         142.452
  21226890.525    21226890.852    21226897.951   113509753.788 6  88285412.607 6
      4006.415        3116.091
 11 10 10  8 31 30.0000000  0 16G02G04G09G12G14G25G27G29G30G31R09R10
                                R16R18R19R20
  22595264.657    22595264.4084   22595270.8194  118738972.535 6  92523896.66644
       754.768         588.133
  24355920.946    24355921.3804   24355932.0904  127991241.769 5  99733450.70041
     -1727.049       -1345.766
  22470653.551    22470652.2374   22470660.9884  118084038.180 6  92013542.81943
     -2945.692       -2295.341
  21019176.144    21019175.9034   21019182.2934  110456497.817 8  86070017.79646
      -764.776        -595.929
  22114601.330    22114600.9234   22114607.1944  116213003.063 6  90555599.02643
      -307.139        -239.330
  20568123.023    20568122.0914   20568131.2524  108086199.337 9  84223022.32246
      1070.941         834.492
  23620016.922    23620017.0634   23620026.6434  124124001.984 5  96720011.71641
     -2501.077       -1948.866
  21123503.410    21123503.2994   21123511.0374  111004795.101 7  86497266.72545
      2672.953        2082.815
  22886270.414    22886270.1324   22886278.8064  120268173.499 6  93715486.98942
      3219.577        2508.760
  24281559.057    24281559.5784   24281567.7264  127600447.304 5  99428939.39241
      3748.302        2920.749
  19318515.030    19318515.131    19318520.556   103159788.300 9  80235411.363 7
      1241.612         965.696
  21905023.586    21905022.098    21905031.661   116766146.482 7  90818126.452 4
      4079.867        3173.221
  21017197.286    21017197.613    21017204.645   112270073.027 7  87321184.206 6
     -2234.195       -1737.705
  21810373.043    21810372.986    21810379.363   116425237.499 7  90552977.566 5
     -3239.483       -2519.593
  19184294.728    19184294.032    19184298.045   102623091.506 8  79817996.283 7
       158.583         123.343
  21204456.529    21204456.865    21204464.549   113389789.853 6  88192107.384 6
      3991.465        3104.467
 11 10 10  8 32  0.0000000  0 16G02G04G09G12G14G25G27G29G30G31R09R10
                                R16R18R19R20
  22591006.155    22591005.6644   22591012.0064  118716592.313 7  92506457.54644
       737.016         574.292
  24365826.200    24365825.5684   24365836.1814  128043289.077 5  99774006.92241
     -1743.047       -1358.175
  22487495.942    22487495.6104   22487504.6314  118172550.985 6  92082513.74643
     -2955.369       -2302.887
  21023561.688    21023561.4074   21023567.5824  110479543.704 8  86087975.58546
      -771.875        -601.456
  22116408.992    22116407.9184   22116414.9874  116222499.685 7  90562998.95443
      -326.228        -254.196
  20562032.385    20562031.5094   20562040.7344  108054193.054 9  84198082.35346
      1062.569         827.983
  23634317.226    23634315.6794   23634325.5144  124199144.877 5  96778564.50141
     -2508.700       -1954.822
  21108284.377    21108284.1344   21108291.8094  110924816.814 8  86434945.99645
      2658.680        2071.700
  22867900.357    22867899.2244   22867907.9914  120171636.122 6  93640263.07542
      3215.945        2505.927
  24260167.481    24260167.7734   24260175.9004  127488037.510 5  99341347.40041
      3745.377        2918.482
  19311591.064    19311590.989    19311596.652   103122812.568 9  80206652.447 7
      1223.211         951.386
  21882072.689    21882072.072    21882081.674   116643814.272 7  90722979.220 4
      4075.354        3169.720
  21029787.128    21029787.535    21029794.429   112337325.614 7  87373491.701 6
     -2249.563       -1749.653
  21828604.154    21828604.007    21828611.099   116522557.715 7  90628670.976 5
     -3248.691       -2526.759
  19183474.040    19183473.419    19183477.401   102618701.352 8  79814581.716 7
       133.861         104.116
  21182106.698    21182106.379    21182114.170   113270272.463 6  88099149.479 6
      3976.145        3092.555
 11 10 10  8 32 30.0000000  0 16G02G04G09G12G14G25G27G29G30G31R09R10
                                R16R18R19R20
  22586847.909    22586846.9004   22586853.1604  118694739.309 7  92489429.23844
       719.769         560.857
  24375820.066    24375819.8274   24375831.6284  128095804.895 5  99814928.25741
     -1758.111       -1369.943
  22504394.256    22504393.0274   22504402.2394  118261346.211 6  92151704.74643
     -2964.408       -2309.930
  21027986.406    21027986.2004   21027992.5244  110502796.188 7  86106094.36146
      -778.381        -606.533
  22118323.874    22118322.8804   22118329.5774  116232562.490 6  90570840.05543
      -344.742        -268.635
  20555988.424    20555987.5234   20555996.7244  108022432.277 9  84173333.70046
      1054.729         821.866
  23648657.653    23648655.9544   23648668.1934  124274507.953 5  96837288.82041
     -2515.530       -1960.141
  21093145.830    21093145.1994   21093152.8264  110845261.082 8  86372954.52745
      2644.945        2060.995
  22849549.071    22849548.2904   22849557.4584  120075201.783 6  93565119.46942
      3212.785        2503.465
  24238790.964    24238791.2664   24238800.7534  127375707.973 5  99253817.95041
      3743.161        2916.741
  19304769.151    19304769.080    19304774.383   103086383.677 9  80178318.854 7
      1205.275         937.434
  21859148.868    21859148.232    21859157.260   116521612.908 7  90627933.764 4
      4071.278        3166.553
  21042462.522    21042462.715    21042469.163   112405032.672 7  87426152.676 6
     -2264.307       -1761.128
  21846885.737    21846885.764    21846892.869   116620146.358 7  90704573.154 5
     -3257.297       -2533.454
  19182790.707    19182790.071    19182794.077   102615046.314 8  79811738.905 7
       109.743          85.354
  21159842.548    21159841.601    21159848.878   113151209.708 6  88006545.182 6
      3961.292        3080.997
 11 10 10  8 33  0.0000000  0 16G02G04G09G12G14G25G27G29G30G31R09R10
                                R16R18R19R20
  22582788.631    22582787.8194   22582794.6084  118673410.952 7  92472809.75444
       702.369         547.301
  24385901.341    24385901.0274   24385911.8414  128148784.067 5  99856210.71841
     -1773.448       -1381.918
  22521343.486    22521343.1604   22521351.6384  118350418.856 6  92221111.91343
     -2973.489       -2317.000
  21032449.743    21032449.4924   21032456.0074  110526251.460 8  86124371.15546
      -785.059        -611.737
  22120345.288    22120344.7494   22120351.1894  116243186.625 7  90579118.56543
      -363.321        -283.110
  20549990.441    20549989.7254   20549998.9574  107990913.926 9  84148773.94146
      1046.727         815.636
  23663039.844    23663038.2204   23663050.1414  124350086.678 5  96896181.21841
     -2522.698       -1965.724
  21078086.212    21078085.9704   21078093.4194  110766125.229 8  86311290.24345
      2631.016        2050.140
  22831217.450    22831216.2334   22831224.3624  119978867.920 6  93490054.16442
      3209.639        2501.023
  24217431.359    24217431.2614   24217439.7874  127263457.608 5  99166350.17541
      3740.490        2914.651
  19298049.231    19298049.453    19298054.791   103050500.231 9  80150409.498 7
      1187.177         923.358
  21836248.771    21836247.317    21836257.074   116399542.144 7  90532989.858 4
      4066.979        3163.203
  21055221.851    21055222.550    21055228.884   112473189.988 7  87479163.826 6
     -2279.208       -1772.712
  21865216.877    21865216.496    21865223.682   116717995.491 7  90780677.945 5
     -3265.702       -2539.986
  19182243.922    19182243.290    19182247.278   102612121.196 8  79809463.796 7
        85.502          66.505
  21137661.918    21137661.121    21137668.133   113032601.001 6  87914294.014 6
      3946.179        3069.246
 11 10 10  8 33 30.0000000  0 16G02G04G09G12G14G25G27G29G30G31R09R10
                                R16R18R19R20
  22578830.361    22578829.2024   22578836.4614  118652609.453 7  92456600.82044
       684.696         533.530
  24396072.157    24396071.0334   24396080.6204  128202225.870 5  99897853.56441
     -1788.922       -1394.028
  22538346.158    22538345.5414   22538354.4104  118439768.353 6  92290734.81943
     -2982.815       -2324.271
  21036952.112    21036952.0074   21036958.2804  110549910.646 8  86142806.84646
      -791.936        -617.091
  22122474.107    22122473.2654   22122480.8754  116254372.153 7  90587834.51643
      -382.132        -297.753
  20544039.093    20544038.4434   20544047.6414  107959639.833 9  84124404.51946
      1038.489         809.212
  23677462.511    23677461.7864   23677473.0374  124425881.183 5  96955241.69241
     -2529.990       -1971.405
  21063107.861    21063107.4824   21063114.8784  110687412.309 8  86249955.52145
      2616.802        2039.065
  22812904.631    22812904.4624   22812912.0934  119882636.694 6  93415068.82042
      3206.054        2498.224
  24196087.581    24196086.7604   24196093.8674  127151289.977 5  99078946.87941
      3737.602        2912.407
  19291431.961    19291432.213    19291438.020   103015166.110 9  80122927.394 7
      1168.707         908.996
  21813373.452    21813372.427    21813382.149   116277606.124 7  90438150.771 4
      4062.366        3159.615
  21068065.666    21068065.817    21068072.334   112541797.734 7  87532525.330 6
     -2294.326       -1784.471
  21883595.792    21883595.512    21883602.657   116816104.384 7  90856984.782 5
     -3274.411       -2546.760
  19181833.494    19181832.824    19181836.617   102609925.922 8  79807756.356 7
        61.140          47.553
  21115566.594    21115565.513    21115573.062   112914450.546 6  87822399.274 6
      3930.807        3057.296
 11 10 10  8 34  0.0000000  0 16G02G04G09G12G14G25G27G29G30G31R09R10
                                R16R18R19R20
  22574970.395    22574969.5644   22574976.6104  118632328.296 6  92440797.33644
       667.378         520.036
  24406327.489    24406326.9524   24406334.5224  128256120.946 5  99939849.67541
     -1804.022       -1405.720
  22555399.479    22555398.6974   22555408.2924  118529385.538 6  92360566.29343
     -2991.662       -2331.166
  21041491.589    21041491.3244   21041497.6494  110573766.162 8  86161395.51846
      -798.455        -622.171
  22124708.211    22124706.9594   22124713.9784  116266110.500 6  90596981.24143
      -400.481        -312.064
  20538133.023    20538132.2084   20538141.3774  107928602.715 9  84100219.74646
      1030.630         803.089
  23691924.688    23691925.2814   23691936.7184  124501882.521 5  97014463.37541
     -2536.822       -1976.756
  21048208.558    21048208.0334   21048215.4404  110609115.720 8  86188945.20845
      2602.958        2028.277
  22794611.111    22794610.2364   22794618.9844  119786501.345 6  93340158.17042
      3202.912        2495.773
  24174756.612    24174756.3744   24174764.4624  127039199.314 5  98991603.54041
      3735.104        2910.461
  19284917.025    19284917.203    19284922.659   102980376.108 9  80095868.494 7
      1150.600         894.914
  21790524.150    21790522.566    21790531.544   116155800.621 7  90343413.184 4
      4058.000        3156.223
  21080991.298    21080992.114    21080998.526   112610847.520 7  87586230.642 6
     -2308.998       -1795.887
  21902020.904    21902020.820    21902028.353   116914461.257 7  90933484.488 5
     -3282.604       -2553.135
  19181557.875    19181557.264    19181561.345   102608451.294 8  79806609.409 7
        37.203          28.936
  21093556.010    21093555.347    21093563.120   112796752.638 6  87730856.509 6
      3915.645        3045.500
 11 10 10  8 34 30.0000000  0 16G02G04G09G12G14G25G27G29G30G31R09R10
                                R16R18R19R20
  22571212.443    22571211.3414   22571217.4034  118612573.895 7  92425404.30544
       649.691         506.251
  24416668.798    24416669.8944   24416679.9784  128310472.941 5  99982201.80441
     -1819.281       -1417.635
  22572505.193    22572504.4194   22572513.7904  118619274.246 6  92430609.36443
     -3000.794       -2338.279
  21046069.824    21046069.4214   21046075.7354  110597823.685 8  86180141.60246
      -805.275        -627.481
  22127047.762    22127046.6384   22127053.6724  116278406.148 7  90606562.23643
      -419.133        -326.605
  20532273.124    20532272.3834   20532281.5014  107897808.680 9  84076224.39347
      1022.410         796.683
  23706427.902    23706427.1804   23706438.7384  124578095.241 5  97073849.74941
     -2543.951       -1982.307
  21033389.436    21033389.1794   21033396.6874  110531242.075 7  86128264.46746
      2588.736        2017.195
  22776336.493    22776335.8504   22776343.5794  119690468.402 6  93265327.32342
      3199.416        2493.038
  24153443.506    24153442.9434   24153451.1054  126927193.766 5  98904326.49941
      3732.051        2908.142
  19278505.362    19278505.528    19278510.867   102946138.157 9  80069238.964 7
      1132.030         880.467
  21767698.975    21767697.140    21767706.994   116034134.669 7  90248784.123 4
      4053.189        3152.488
  21094001.966    21094001.877    21094008.468   112680343.845 7  87640283.260 6
     -2324.029       -1807.579
  21920493.406    21920492.957    21920500.895   117013068.282 6  91010178.751 5
     -3290.992       -2559.654
  19181418.132    19181417.305    19181421.098   102607701.513 8  79806026.235 7
        12.941          10.065
  21071632.050    21071632.110    21071639.490   112679517.023 6  87639673.306 6
      3900.146        3033.446
 11 10 10  8 35  0.0000000  0 16G02G04G09G12G14G25G27G29G30G31R09R10
                                R16R18R19R20
  22567551.992    22567551.7234   22567557.5834  118593343.966 6  92410419.95044
       632.626         492.962
  24427099.540    24427096.8764   24427110.1014  128365276.664 5 100024905.94341
     -1834.029       -1429.178
  22589660.938    22589660.5154   22589669.9434  118709429.501 6  92500860.12443
     -3009.240       -2344.861
  21050685.555    21050685.2924   21050691.3254  110622079.881 8  86199042.50046
      -811.475        -632.317
  22129491.729    22129491.6024   22129499.0184  116291254.311 6  90616573.74243
      -437.124        -340.618
  20526459.114    20526458.3274   20526467.4354  107867255.045 9  84052416.36047
      1014.819         790.771
  23720969.574    23720969.6114   23720980.3514  124654514.730 5  97133397.26841
     -2550.451       -1987.342
  21018650.903    21018650.4114   21018657.8714  110453789.300 8  86067911.66345
      2575.110        2006.581
  22758081.361    22758080.0794   22758088.7134  119594535.649 5  93190574.54342
      3196.507        2490.776
  24132144.275    24132144.0154   24132152.6044  126815272.408 5  98817115.12741
      3729.693        2906.252
  19272196.991    19272197.195    19272202.523   102912451.533 9  80043038.241 7
      1114.006         866.451
  21744901.695    21744899.754    21744908.846   115912608.100 7  90154263.495 4
      4048.896        3149.141
  21107093.247    21107094.034    21107101.297   112750282.647 7  87694680.015 6
     -2338.235       -1818.628
  21939011.508    21939010.980    21939018.579   117111918.401 6  91087062.069 5
     -3298.710       -2565.661
  19181412.402    19181411.667    19181415.450   102607671.749 8  79806003.075 7
       -10.649          -8.281
  21049794.903    21049794.509    21049802.197   112562742.480 6  87548848.702 6
      3885.191        3021.816
 11 10 10  8 35 30.0000000  0 16G02G04G09G12G14G25G27G29G30G31R09R10
                                R16R18R19R20
  22563992.383    22563991.6374   22563997.4024  118574635.132 7  92395841.63743
       614.819         479.085
  24437613.174    24437612.4754   24437622.5244  128420526.228 5 100067957.49341
     -1849.125       -1440.853
  22606866.702    22606865.8424   22606875.3444  118799845.348 6  92571313.94243
     -3018.277       -2351.896
  21055338.297    21055338.2024   21055344.2994  110646530.794 8  86218095.12846
      -818.380        -637.695
  22132041.956    22132040.6044   22132048.3874  116304650.091 7  90627011.97943
      -455.752        -355.128
  20520690.136    20520689.2454   20520698.5074  107836938.105 9  84028792.76346
      1006.494         784.283
  23735552.359    23735551.6334   23735561.5564  124731135.770 5  97193101.80041
     -2557.481       -1992.813
  21003991.458    21003991.1734   21003998.7624  110376754.571 7  86007884.61946
      2560.729        1995.373
  22739844.909    22739843.3694   22739852.1054  119498699.877 6  93115897.36042
      3192.884        2487.966
  24110862.971    24110861.6214   24110872.0364  126703432.982 5  98729967.55741
      3726.545        2903.820
  19265991.627    19265991.741    19265997.167   102879314.355 9  80017264.872 7
      1095.230         851.844
  21722129.950    21722128.206    21722137.266   115791220.215 7  90059850.718 4
      4043.795        3145.182
  21120268.856    21120269.368    21120275.745   112820659.037 7  87749417.115 6
     -2353.273       -1830.318
  21957574.443    21957573.217    21957580.688   117211004.099 6  91164128.607 5
     -3306.802       -2571.956
  19181540.279    19181539.664    19181543.271   102608356.324 8  79806535.508 7
       -34.826         -27.087
  21028043.767    21028043.454    21028050.174   112446428.011 6  87458381.936 6
      3869.321        3009.470
 11 10 10  8 36  0.0000000  0 16G02G04G09G12G14G25G27G29G30G31R09R10
                                R16R18R19R20
  22560530.315    22560529.4794   22560536.1834  118556442.780 6  92381665.77943
       597.824         465.833
  24448209.619    24448209.7994   24448220.6344  128476214.167 5 100111350.64141
     -1863.526       -1452.139
  22624120.661    22624120.0544   22624129.1984  118890514.691 6  92641965.28843
     -3026.412       -2358.240
  21060027.074    21060027.0334   21060033.4604  110671170.763 8  86237295.05546
      -824.424        -642.406
  22134693.713    22134692.8204   22134699.8384  116318586.470 6  90637871.47343
      -473.480        -368.948
  20514964.791    20514964.0474   20514973.4654  107806853.010 9  84005349.82546
       999.026         778.457
  23750168.610    23750168.6594   23750179.0314  124807951.812 5  97252958.29141
     -2563.673       -1997.662
  20989411.024    20989410.7804   20989418.4694  110300133.864 8  85948180.18346
      2547.189        1984.821
  22721625.616    22721623.9624   22721633.1394  119402956.731 6  93041292.33442
      3189.952        2485.681
  24089596.168    24089594.5554   24089602.9154  126591672.767 5  98642881.72341
      3724.030        2901.862
  19259888.310    19259888.522    19259894.060   102846723.739 9  79991916.611 7
      1077.286         837.886
  21699383.087    21699381.218    21699391.097   115669968.585 7  89965543.937 4
      4039.434        3141.779
  21133523.804    21133524.068    21133531.384   112891466.292 7  87804489.340 6
     -2367.347       -1841.267
  21976178.770    21976177.935    21976185.012   117310315.839 6  91241370.966 5
     -3314.097       -2577.629
  19181800.522    19181799.911    19181803.418   102609748.027 8  79807617.932 7
       -58.092         -45.187
  21006378.075    21006377.484    21006384.644   112330569.867 6  87368270.078 6
      3854.335        2997.815
 11 10 10  8 36 30.0000000  0 16G02G04G09G12G14G25G27G29G30G31R09R10
                                R16R18R19R20
  22557166.542    22557165.6934   22557172.6654  118538767.701 7  92367892.99643
       580.477         452.313
  24458889.975    24458889.6294   24458900.4044  128532338.794 5 100155084.06041
     -1878.172       -1463.550
  22641422.961    22641421.8034   22641431.6424  118981435.969 6  92712812.95043
     -3034.920       -2364.872
  21064752.039    21064751.9584   21064758.2454  110696000.152 8  86256642.58446
      -830.879        -647.436
  22137448.197    22137447.1404   22137454.6734  116333061.852 6  90649150.94643
      -491.538        -383.007
  20509283.748    20509283.1264   20509292.6324  107777000.199 9  83982087.88746
       991.152         772.330
  23764822.618    23764823.4454   23764833.0764  124884961.528 5  97312965.70541
     -2570.230       -2002.754
  20974909.718    20974909.3044   20974917.0144  110223928.143 8  85888799.12245
      2533.211        1973.930
  22703423.733    22703421.9044   22703431.6094  119307307.009 6  92966760.10142
      3186.705        2483.136
  24068342.215    24068342.6784   24068350.8444  126479994.044 5  98555859.36141
      3721.162        2899.614
  19253887.560    19253887.881    19253893.536   102814681.591 9  79966994.929 7
      1058.863         823.562
  21676662.286    21676661.285    21676670.795   115548856.839 7  89871345.935 4
      4034.654        3138.062
  21146859.864    21146860.346    21146867.256   112962703.493 7  87859895.967 6
     -2381.817       -1852.517
  21994824.783    21994824.540    21994831.713   117409851.025 6  91318787.126 5
     -3321.626       -2583.484
  19182192.400    19182191.759    19182196.105   102611845.500 8  79809249.286 7
       -81.704         -63.544
  20984796.095    20984797.195    20984804.604   112215172.183 6  87278516.376 6
      3838.794        2985.728
 11 10 10  8 37  0.0000000  0 16G02G04G09G12G14G25G27G29G30G31R09R10
                                R16R18R19R20
  22553902.501    22553901.7854   22553908.5114  118521613.930 6  92354526.43544
       563.159         438.826
  24469652.004    24469650.9244   24469663.6314  128588900.994 4 100199158.42441
     -1892.615       -1474.761
  22658772.078    22658771.4834   22658781.7034  119072610.636 6  92783858.05543
     -3043.292       -2371.388
  21069513.666    21069513.4644   21069519.7144  110721021.798 8  86276139.92846
      -837.170        -652.340
  22140305.972    22140304.7454   22140312.3204  116348078.854 7  90660852.45943
      -509.465        -396.977
  20503647.957    20503647.2624   20503656.6844  107747383.255 9  83959009.73947
       983.390         766.278
  23779515.982    23779515.1604   23779526.0704  124962166.941 5  97373125.61841
     -2576.651       -2007.795
  20960487.439    20960487.3084   20960495.2434  110148141.533 8  85829744.63346
      2519.347        1963.126
  22685241.331    22685239.3214   22685248.1574  119211754.783 6  92892303.83942
      3183.578        2480.720
  24047107.709    24047107.8594   24047116.1314  126368402.035 5  98468904.58941
      3718.343        2897.425
  19247991.377    19247991.354    19247996.748   102783193.831 9  79942504.443 7
      1040.418         809.215
  21653969.127    21653968.184    21653978.063   115427891.389 7  89777261.732 4
      4029.841        3134.321
  21160277.571    21160277.479    21160284.315   113034372.719 7  87915638.621 6
     -2396.034       -1863.579
  22013513.596    22013512.921    22013519.617   117509609.054 6  91396376.617 5
     -3328.859       -2589.113
  19182716.510    19182716.163    19182720.228   102614650.009 8  79811430.559 7
      -105.155         -81.788
  20963304.377    20963304.425    20963311.751   112100240.637 6  87189125.227 6
      3823.419        2973.765
 11 10 10  8 37 30.0000000  0 16G02G04G09G12G14G25G27G29G30G31R09R10
                                R16R18R19R20
  22550739.113    22550738.5954   22550744.6724  118504988.597 7  92341571.64644
       545.412         424.995
  24480500.055    24480501.4464   24480510.6414  128645905.308 4 100243577.29341
     -1907.345       -1486.239
  22676171.714    22676170.6644   22676180.2004  119164043.264 6  92855104.16043
     -3051.974       -2378.160
  21074313.045    21074312.7974   21074319.1134  110746242.640 8  86295792.49246
      -843.931        -657.605
  22143267.178    22143266.6974   22143273.9944  116363642.259 6  90672979.75943
      -527.749        -411.231
  20498058.433    20498057.7274   20498067.0364  107718009.217 9  83936120.87047
       975.152         759.857
  23794245.783    23794244.8164   23794255.8054  125039573.226 5  97433442.00141
     -2583.471       -2013.060
  20946147.505    20946147.1794   20946154.6644  110072781.767 8  85771022.75046
      2504.923        1951.887
  22667077.968    22667076.7254   22667085.6124  119116307.485 6  92817929.33442
      3179.890        2477.837
  24025891.383    24025891.0274   24025900.2834  126256905.510 5  98382024.21041
      3715.039        2894.833
  19242200.145    19242200.307    19242205.624   102752269.353 9  79918452.064 7
      1021.474         794.480
  21631305.819    21631305.240    21631314.404   115307082.235 7  89683299.083 4
      4024.392        3130.086
  21173775.503    21173775.967    21173783.289   113106479.596 7  87971721.673 6
     -2410.749       -1875.025
  22032243.692    22032243.146    22032250.179   117609592.790 6  91474141.657 5
     -3336.407       -2594.978
  19183374.081    19183373.509    19183377.265   102618166.649 8  79814165.718 7
      -129.007        -100.338
  20941900.259    20941900.540    20941907.475   111985784.365 6  87100103.732 6
      3807.351        2961.271
 11 10 10  8 38  0.0000000  0 16G02G04G09G12G14G25G27G29G30G31R09R10
                                R16R18R19R20
  22547675.798    22547675.5284   22547681.1854  118488889.149 7  92329026.63044
       527.924         411.371
  24491431.201    24491429.7454   24491441.4164  128703346.587 4 100288336.62941
     -1921.916       -1497.620
  22693617.962    22693617.8474   22693627.3484  119255728.567 6  92926547.17243
     -3060.306       -2384.660
  21079149.810    21079149.4304   21079155.8704  110771658.787 8  86315597.25246
      -850.417        -662.663
  22146331.872    22146331.6504   22146338.6764  116379747.170 6  90685529.01943
      -545.794        -425.301
  20492514.431    20492513.7074   20492522.9894  107688875.109 9  83913418.96146
       967.176         753.641
  23809012.874    23809013.2814   23809025.2614  125117175.809 5  97493911.37941
     -2589.979       -2018.157
  20931887.785    20931887.5874   20931894.9334  109997846.427 7  85712631.58446
      2490.792        1940.874
  22648934.213    22648933.9584   22648941.3334  119020962.713 6  92743634.72642
      3176.515        2475.200
  24004692.303    24004692.1404   24004699.0004  126145503.417 5  98295217.40441
      3711.827        2892.320
  19236514.246    19236514.437    19236519.781   102721906.745 9  79894836.698 7
      1002.735         779.905
  21608672.124    21608670.894    21608680.079   115186429.515 7  89589458.081 4
      4019.181        3126.031
  21187354.975    21187355.565    21187362.784   113179019.587 7  88028141.587 6
     -2425.110       -1886.196
  22051014.505    22051014.543    22051021.872   117709795.897 6  91552077.294 5
     -3343.650       -2600.623
  19184163.663    19184163.063    19184166.931   102622390.159 8  79817450.664 7
      -152.500        -118.614
  20920585.419    20920585.120    20920592.551   111871802.590 6  87011451.301 6
      3791.493        2948.934
 11 10 10  8 38 30.0000000  0 16G02G04G09G12G14G25G27G29G30G31R09R10
                                R16R18R19R20
  22544712.065    22544711.3234   22544717.5144  118473316.777 7  92316892.32744
       510.256         397.599
  24502444.880    24502444.4204   24502455.6494  128761223.279 4 100333435.36041
     -1936.385       -1508.872
  22711114.034    22711113.1114   22711122.7314  119347665.545 6  92998186.26343
     -3068.708       -2391.196
  21084023.707    21084023.4294   21084029.7994  110797270.933 8  86335554.73346
      -857.014        -667.801
  22149499.536    22149498.7024   22149506.9014  116396392.866 6  90698499.64443
      -563.870        -439.379
  20487016.151    20487015.4324   20487025.2464  107659982.129 9  83890904.94046
       959.070         747.333
  23823817.977    23823817.4584   23823829.0584  125194974.222 5  97554533.34141
     -2596.546       -2023.275
  20917709.108    20917708.9034   20917716.1354  109923337.365 8  85654572.58346
      2476.519        1929.755
  22630810.321    22630809.8104   22630818.0224  118925722.126 6  92669421.30142
      3172.960        2472.439
  23983511.962    23983511.2164   23983518.7954  126034199.009 5  98208486.73041
      3708.430        2889.701
  19230933.923    19230934.168    19230939.527   102692109.261 9  79871660.876 7
       983.800         765.177
  21586067.751    21586066.884    21586076.157   115065936.625 7  89495741.439 4
      4013.740        3121.796
  21201016.228    21201016.100    21201022.946   113251992.483 7  88084898.194 6
     -2439.635       -1897.492
  22069826.762    22069826.466    22069833.810   117810214.929 6  91630180.877 5
     -3350.860       -2606.222
  19185085.174    19185084.626    19185088.449   102627319.557 8  79821284.638 7
      -176.067        -136.943
  20899359.895    20899359.597    20899366.565   111758298.822 6  86923170.646 6
      3775.467        2936.470
 11 10 10  8 39  0.0000000  0 16G02G04G09G12G14G25G27G29G30G31R09R10
                                R16R18R19R20
  22541849.349    22541848.6554   22541854.6824  118458272.679 7  92305169.63644
       492.600         383.841
  24513542.098    24513541.1304   24513552.2474  128819533.619 4 100378871.89241
     -1950.895       -1520.195
  22728657.376    22728656.6504   22728666.0264  119439852.654 6  93070020.27643
     -3077.071       -2397.722
  21088935.009    21088934.6714   21088941.1334  110823079.766 8  86355665.47746
      -863.630        -672.960
  22152770.210    22152769.0644   22152776.9974  116413578.172 6  90711890.74743
      -581.900        -453.427
  20481563.992    20481563.3114   20481573.0044  107631331.025 9  83868579.40046
       950.933         740.986
  23838658.286    23838658.0304   23838671.3014  125272967.234 5  97615306.95041
     -2602.971       -2028.285
  20903611.690    20903611.5234   20903619.0284  109849255.932 8  85596846.79546
      2462.169        1918.573
  22612706.985    22612705.6214   22612713.6664  118830586.940 6  92595290.00442
      3169.285        2469.582
  23962350.782    23962351.0114   23962356.9394  125922994.498 5  98121833.90642
      3705.096        2887.090
  19225460.257    19225460.362    19225465.565   102662879.331 9  79848926.480 7
       964.820         750.418
  21563494.375    21563492.940    21563502.268   114945607.654 7  89402152.254 4
      4008.155        3117.456
  21214756.598    21214757.374    21214764.988   113325397.574 7  88141990.941 6
     -2454.060       -1908.711
  22088678.687    22088678.313    22088685.893   117910847.484 6  91708450.538 5
     -3358.001       -2611.776
  19186138.488    19186137.626    19186141.676   102632953.152 8  79825666.321 7
      -199.571        -155.225
  20878224.062    20878223.425    20878230.508   111645275.479 6  86835263.654 6
      3759.305        2923.902
 11 10 10  8 39 30.0000000  0 16G02G04G09G12G14G25G27G29G30G31R09R10
                                R16R18R19R20
  22539087.048    22539086.2754   22539093.2434  118443757.943 7  92293859.45144
       474.784         369.965
  24524719.943    24524716.7754   24524729.1654  128878276.487 4 100424645.47141
     -1965.472       -1531.532
  22746247.623    22746246.5414   22746255.5654  119532288.757 6  93142048.29443
     -3085.501       -2404.289
  21093883.709    21093883.3484   21093889.9504  110849085.554 7  86375929.69345
      -870.372        -678.209
  22156142.975    22156142.0744   22156149.4654  116431302.620 6  90725701.94743
      -599.991        -467.530
  20476158.134    20476157.4954   20476167.0794  107602922.972 8  83846443.24147
       942.672         734.551
  23853537.129    23853537.5604   23853549.9514  125351154.339 5  97676231.76041
     -2609.641       -2033.514
  20889596.044    20889595.9674   20889603.3754  109775603.855 8  85539455.57346
      2447.694        1907.297
  22594623.224    22594622.3424   22594631.0514  118735558.720 6  92521242.05242
      3165.603        2466.709
  23941208.062    23941207.8924   23941215.5834  125811892.907 5  98035261.29941
      3701.406        2884.229
  19220093.159    19220093.309    19220098.773   102634219.800 9  79826635.719 7
       945.602         735.470
  21540951.793    21540950.566    21540960.697   114825446.447 7  89308693.555 4
      4002.321        3112.912
  21228580.031    21228580.083    21228587.021   113399234.199 7  88199419.325 6
     -2468.606       -1920.027
  22107569.929    22107569.370    22107577.653   118011690.310 6  91786883.741 5
     -3365.125       -2617.313
  19187322.847    19187322.251    19187326.367   102639290.040 8  79830595.013 7
      -223.137        -173.553
  20857177.770    20857177.932    20857184.733   111532736.438 6  86747733.350 6
      3743.026        2911.237
 11 10 10  8 40  0.0000000  0 16G02G04G09G12G14G25G27G29G30G31R09R10
                                R16R18R19R20
  22536426.662    22536426.1804   22536432.3044  118429775.209 6  92282963.81544
       457.094         356.175
  24535980.556    24535982.0034   24535991.3384  128937451.530 4 100470755.78141
     -1979.843       -1542.737
  22763884.657    22763883.9794   22763893.9624  119624974.237 6  93214270.65243
     -3093.771       -2410.733
  21098870.161    21098869.8904   21098876.3294  110875290.563 8  86396349.14645
      -876.923        -683.316
  22159617.977    22159617.6384   22159625.1454  116449566.564 6  90739933.54143
      -617.877        -481.464
  20470799.119    20470798.3994   20470807.7484  107574760.459 9  83824498.41346
       934.534         728.203
  23868452.515    23868453.1574   23868466.1734  125429536.291 5  97737308.42641
     -2616.043       -2038.499
  20875663.202    20875662.6304   20875670.1494  109702384.195 8  85482401.30846
      2433.345        1896.113
  22576560.820    22576559.9724   22576568.1324  118640640.609 6  92447279.90642
      3161.996        2463.882
  23920086.338    23920086.7384   23920094.1224  125700898.750 5  97948772.37141
      3697.870        2881.462
  19214833.825    19214833.979    19214839.515   102606135.098 9  79804792.050 7
       926.439         720.564
  21518443.343    21518441.933    21518451.847   114705458.789 7  89215369.861 4
      3996.544        3108.424
  21242482.929    21242483.489    21242490.833   113473503.195 7  88257184.002 6
     -2482.961       -1931.190
  22126499.946    22126499.946    22126507.757   118112742.087 6  91865479.465 5
     -3371.873       -2622.564
  19188639.152    19188638.561    19188642.433   102646330.430 8  79836070.868 7
      -246.482        -191.708
  20836224.506    20836224.081    20836230.963   111420686.622 6  86660583.546 6
      3726.674        2898.523
 11 10 10  8 40 30.0000000  0 16G02G04G09G12G14G25G27G29G30G31R09R10
                                R16R18R19R20
  22533867.895    22533867.1984   22533873.9914  118416329.727 7  92272486.81144
       439.277         342.294
  24547323.373    24547321.6244   24547334.8884  128997061.482 4 100517205.06741
     -1994.242       -1553.966
  22781570.064    22781569.1664   22781578.7394  119717911.730 6  93286689.40343
     -3102.070       -2417.195
  21103895.851    21103895.5644   21103901.6894  110901699.300 8  86416927.36245
      -883.677        -688.578
  22163196.755    22163196.6124   22163204.2534  116468373.091 6  90754587.93643
      -635.875        -495.492
  20465487.759    20465487.0254   20465496.1244  107546848.582 9  83802748.88946
       926.214         721.725
  23883406.896    23883406.4444   23883418.8754  125508116.449 5  97798539.49641
     -2622.646       -2043.631
  20861813.054    20861812.8274   20861820.0914  109629602.340 8  85425688.20046
      2418.747        1884.734
  22558521.283    22558520.0574   22558527.7054  118545838.028 6  92373407.76742
      3158.140        2460.878
  23898986.919    23898987.2264   23898994.2244  125590018.702 5  97862372.36542
      3694.073        2878.490
  19209683.420    19209683.448    19209689.003   102578632.067 9  79783400.792 7
       907.042         705.475
  21495967.634    21495966.308    21495975.557   114585652.950 7  89122187.565 4
      3990.481        3103.710
  21256468.825    21256468.665    21256475.782   113548208.395 7  88315287.953 6
     -2497.405       -1942.427
  22145470.196    22145470.018    22145477.860   118214004.388 7  91944238.937 5
     -3378.856       -2627.998
  19190087.409    19190086.800    19190090.552   102654077.030 8  79842096.000 7
      -269.976        -209.982
  20815364.305    20815363.262    20815369.924   111309133.827 6  86573820.319 6
      3710.116        2885.638
 11 10 10  8 41  0.0000000  0 16G02G04G09G12G14G25G27G29G30G31R09R10
                                R16R18R19R20
  22531412.939    22531411.7944   22531418.1644  118403426.272 7  92262432.16244
       421.101         328.138
  24558749.211    24558751.8464   24558757.6494  129057108.283 4 100563994.71541
     -2008.792       -1565.299
  22799303.611    22799302.9724   22799313.5994  119811103.601 6  93359306.34443
     -3110.617       -2423.853
  21108960.931    21108960.6074   21108966.5794  110928315.993 8  86437667.62145
      -890.693        -694.048
  22166879.650    22166878.7104   22166886.0584  116487724.776 6  90769667.11943
      -654.148        -509.709
  20460224.888    20460224.1244   20460233.3614  107519191.885 9  83781198.21146
       917.627         715.031
  23898398.600    23898398.3824   23898409.8944  125586897.412 5  97859927.06241
     -2629.456       -2048.916
  20848047.146    20848047.1514   20848054.5614  109557263.555 8  85369320.33346
      2403.890        1873.160
  22540503.297    22540501.5834   22540510.7814  118451156.003 6  92299629.58442
      3154.008        2457.660
  23877909.285    23877909.7544   23877916.7754  125479259.067 5  97776066.17442
      3689.936        2875.280
  19204643.010    19204643.225    19204648.704   102551716.746 9  79762466.634 7
       887.340         690.155
  21473528.159    21473526.761    21473536.455   114466035.958 7  89029152.138 4
      3984.043        3098.700
  21270535.039    21270535.574    21270543.154   113623352.599 7  88373733.352 6
     -2512.129       -1953.879
  22164480.269    22164479.673    22164487.087   118315477.780 6  92023162.587 5
     -3385.959       -2633.525
  19191667.926    19191667.118    19191670.893   102662531.967 8  79848672.056 7
      -293.639        -228.387
  20794596.528    20794595.952    20794603.123   111198083.419 6  86487447.839 6
      3693.287        2872.552
 11 10 10  8 41 30.0000000  0 16G02G04G09G12G14G25G27G29G30G31R09R10
                                R16R18R19R20
  22529058.489    22529058.1334   22529064.2624  118391057.754 7  92252794.34344
       403.423         314.363
  24570258.365    24570257.7694   24570268.8404  129117582.388 4 100611117.37541
     -2022.884       -1576.255
  22817084.324    22817083.1084   22817093.5484  119904540.282 6  93432114.04943
     -3118.540       -2430.033
  21114063.826    21114063.6584   21114069.8554  110955133.191 8  86458564.11145
      -897.189        -699.106
  22170664.325    22170663.4504   22170671.1294  116507612.539 6  90785164.05143
      -671.771        -523.455
  20455009.288    20455008.4724   20455017.6714  107491783.361 9  83759840.91747
       909.539         708.733
  23913427.975    23913426.7934   23913438.8644  125665870.462 5  97921464.29341
     -2635.620       -2053.745
  20834364.926    20834364.6684   20834372.0804  109485361.069 8  85313292.43846
      2389.523        1861.964
  22522507.924    22522507.1124   22522514.9954  118356588.106 6  92225940.32042
      3150.397        2454.857
  23856854.581    23856855.2664   23856862.3534  125368614.946 5  97689850.00642
      3686.258        2872.411
  19199711.676    19199712.112    19199717.371   102525383.885 9  79741985.506 7
       868.089         675.182
  21451123.137    21451121.643    21451131.548   114346603.823 7  88936260.506 4
      3978.012        3094.012
  21284683.147    21284683.487    21284690.901   113698926.856 7  88432513.237 6
     -2526.252       -1964.859
  22183526.722    22183526.427    22183533.770   118417150.761 6  92102241.468 5
     -3392.341       -2638.481
  19193378.917    19193378.388    19193382.296   102671685.841 8  79855791.728 7
      -316.688        -246.311
  20773921.925    20773922.222    20773929.208   111087531.303 6  86401462.911 6
      3676.789        2859.721
 11 10 10  8 42  0.0000000  0 16G02G04G09G12G14G25G27G29G30G31R09R10
                                R16R18R19R20
  22526807.014    22526806.2634   22526812.2444  118379223.218 7  92243572.61344
       385.579         300.459
  24581846.343    24581846.7364   24581855.3474  129178480.201 4 100658570.14141
     -2036.962       -1587.218
  22834910.302    22834910.1914   22834920.6084  119998218.881 6  93505110.24343
     -3126.608       -2436.315
  21119204.940    21119204.8244   21119211.1364  110982149.499 8  86479615.75545
      -903.857        -704.303
  22174550.264    22174549.5874   22174557.5234  116528033.473 6  90801076.43943
      -689.574        -537.317
  20449840.687    20449839.8334   20449849.0214  107464622.124 9  83738676.31346
       901.253         702.275
  23928491.692    23928492.2854   23928501.7854  125745032.828 5  97983149.02341
     -2641.802       -2058.529
  20820765.401    20820765.1754   20820772.3764  109413894.610 8  85257604.31646
      2374.955        1850.617
  22504533.059    22504532.6204   22504540.4474  118262133.812 6  92152339.60042
      3146.648        2451.932
  23835822.036    23835821.3564   23835829.4634  125258087.381 5  97603724.68842
      3682.311        2869.320
  19194889.649    19194890.011    19194895.148   102499634.217 9  79721957.972 7
       848.601         660.024
  21428753.015    21428751.711    21428760.527   114227358.707 7  88843514.343 4
      3971.720        3089.109
  21298910.969    21298911.380    21298918.907   113774928.763 7  88491625.726 6
     -2540.525       -1975.955
  22202610.451    22202609.998    22202617.338   118519019.454 6  92181472.564 5
     -3398.851       -2643.543
  19195220.265    19195219.586    19195223.950   102681535.096 8  79863452.244 7
      -339.851        -264.328
  20753342.352    20753341.726    20753349.215   110977478.106 6  86315866.031 6
      3660.118        2846.757
 11 10 10  8 42 30.0000000  0 16G02G04G09G12G14G25G27G29G30G31R09R10
                                R16R18R19R20
  22524656.138    22524655.4664   22524661.9504  118367920.107 7  92234764.97944
       367.997         286.758
  24593514.870    24593510.0114   24593523.8514  129239796.072 4 100706348.67241
     -2050.734       -1597.969
  22852781.837    22852782.2154   22852791.7884  120092134.066 6  93578290.80643
     -3134.348       -2442.332
  21124383.246    21124382.9284   21124389.0934  111009361.409 7  86500819.81745
      -910.264        -709.297
  22178537.348    22178536.2734   22178543.3134  116548982.719 6  90817400.48743
      -707.033        -550.929
  20444718.282    20444717.6544   20444726.9934  107437705.191 9  83717702.07046
       893.202         696.006
  23943589.915    23943590.4654   23943602.5584  125824379.797 4  98044977.59041
     -2648.105       -2063.436
  20807248.410    20807247.9244   20807255.3124  109342861.794 8  85202254.08646
      2360.589        1839.421
  22486580.314    22486579.4884   22486587.8284  118167790.827 6  92078825.60442
      3142.954        2449.048
  23814811.246    23814810.8244   23814819.0294  125147675.041 5  97517689.15642
      3678.521        2866.376
  19190176.608    19190176.788    19190182.259   102474466.485 9  79702383.055 7
       829.298         645.013
  21406417.445    21406415.922    21406425.693   114108300.418 7  88750913.466 4
      3965.566        3084.334
  21313217.577    21313218.518    21313225.755   113851353.614 7  88551067.191 5
     -2554.477       -1986.812
  22221728.072    22221728.111    22221736.490   118621076.316 6  92260850.004 5
     -3404.859       -2648.215
  19197190.611    19197189.797    19197194.030   102692074.252 8  79871649.345 7
      -362.718        -282.112
  20732854.093    20732854.286    20732862.113   110867923.429 6  86230656.889 6
      3643.560        2833.876
 11 10 10  8 43  0.0000000  0 16G02G04G09G12G14G25G27G29G30G31R09R10
                                R16R18R19R20
  22522605.594    22522604.9104   22522611.3674  118357143.575 7  92226367.66144
       350.234         272.908
  24605261.991    24605260.8204   24605270.2934  129301523.030 4 100754447.53441
     -2064.645       -1608.780
  22870697.617    22870697.0994   22870706.5324  120186278.683 6  93651650.14442
     -3142.108       -2448.381
  21129597.464    21129597.2914   21129603.5404  111036763.690 8  86522172.22045
      -916.758        -714.355
  22182622.453    22182621.8704   22182629.2794  116570453.104 6  90834130.60943
      -724.500        -564.535
  20439642.011    20439641.2044   20439650.4424  107411027.890 9  83696914.56046
       885.078         689.669
  23958723.651    23958723.1874   23958734.6314  125903904.663 5  98106944.77941
     -2653.927       -2067.988
  20793812.780    20793812.4784   20793819.8904  109272258.252 8  85147238.35746
      2346.130        1828.154
  22468648.103    22468647.0454   22468655.5854  118073554.782 6  92005394.93242
      3139.240        2446.163
  23793820.764    23793821.9184   23793829.9714  125037375.124 5  97431741.19742
      3674.544        2863.281
  19185571.808    19185571.954    19185577.603   102449877.420 9  79683258.208 7
       809.791         629.840
  21384117.528    21384116.063    21384125.204   113989427.238 7  88658456.593 4
      3959.151        3079.335
  21327603.111    21327603.721    21327610.556   113928194.998 7  88610832.611 5
     -2568.454       -1997.680
  22240881.035    22240880.701    22240889.293   118723313.123 6  92340367.402 5
     -3411.030       -2653.018
  19199288.618    19199287.909    19199291.684   102703296.294 8  79880377.584 7
      -385.584        -299.896
  20712459.536    20712459.900    20712467.133   110758864.118 6  86145833.028 6
      3626.820        2820.857
 11 10 10  8 43 30.0000000  0 16G02G04G09G12G14G25G27G29G30G31R09R10
                                R16R18R19R20
  22520655.585    22520655.1824   22520662.3274  118346900.540 6  92218386.06444
       332.317         258.952
  24617086.338    24617086.5564   24617097.4554  129363665.460 4 100802870.11341
     -2078.374       -1619.497
  22888657.375    22888656.7084   22888665.8994  120280657.417 6  93725191.90542
     -3150.056       -2454.582
  21134849.698    21134849.4194   21134855.7814  111064363.145 7  86543678.26745
      -923.454        -719.576
  22186808.318    22186808.2994   22186815.1644  116592449.965 6  90851270.98643
      -742.209        -578.337
  20434612.652    20434611.7654   20434620.9354  107384597.498 9  83676319.44547
       876.690         683.136
  23973891.660    23973891.3514   23973902.2604  125983613.145 4  98169055.06641
     -2660.317       -2072.977
  20780460.543    20780460.2184   20780467.5634  109202091.508 8  85092562.99546
      2331.400        1816.677
  22450738.182    22450736.8164   22450745.1954  117979433.510 6  91932053.68242
      3135.235        2443.042
  23772855.329    23772855.6944   23772862.6444  124927196.486 5  97345887.75642
      3670.377        2860.039
  19181077.168    19181077.294    19181082.903   102425875.827 9  79664590.282 7
       790.041         614.477
  21361853.615    21361852.227    21361861.877   113870749.723 7  88566151.872 4
      3952.413        3074.101
  21342066.801    21342067.290    21342074.705   114005458.421 7  88670926.291 5
     -2582.632       -2008.714
  22260067.755    22260067.806    22260076.401   118825733.032 6  92420027.214 5
     -3417.152       -2657.784
  19201514.538    19201514.063    19201518.086   102715205.698 8  79889640.434 7
      -408.619        -317.814
  20692159.900    20692159.560    20692166.273   110650309.388 6  86061401.611 6
      3609.840        2807.650
 11 10 10  8 44  0.0000000  0 16G02G04G09G12G14G25G27G29G30G31R09R10
                                R16R18R19R20
  22518808.235    22518807.6444   22518814.2504  118337190.014 6  92210819.40844
       314.873         245.356
  24628989.086    24628989.3914   24629005.1854  129426219.536 4 100851613.51041
     -2091.809       -1629.987
  22906660.855    22906660.3304   22906669.3154  120375266.887 6  93798913.48742
     -3157.416       -2460.331
  21140138.934    21140138.6644   21140145.4034  111092158.370 8  86565336.86545
      -929.652        -724.399
  22191093.386    22191093.4044   22191100.7124  116614969.986 6  90868819.00743
      -759.303        -591.674
  20429629.805    20429628.9634   20429638.1864  107358412.760 9  83655915.75046
       868.821         677.008
  23989095.855    23989091.8864   23989106.0714  126063502.001 4  98231305.85341
     -2666.026       -2077.426
  20767190.935    20767190.8884   20767198.2154  109132361.135 8  85038227.66146
      2317.180        1805.598
  22432848.375    22432847.6714   22432856.9584  117885426.291 6  91858801.30842
      3131.754        2440.323
  23751913.073    23751912.7454   23751920.3014  124817140.052 5  97260129.54142
      3666.594        2857.094
  19176692.718    19176692.942    19176698.235   102402462.383 9  79646379.810 7
       770.734         599.465
  21339626.986    21339625.575    21339635.121   113752269.438 7  88474000.579 5
      3946.120        3069.203
  21356609.556    21356609.813    21356617.086   114083140.800 7  88731345.825 5
     -2596.303       -2019.340
  22279287.028    22279287.870    22279296.366   118928331.068 6  92499825.569 5
     -3422.796       -2662.171
  19203868.683    19203868.215    19203872.158   102727798.892 8  79899435.123 7
      -431.011        -335.230
  20671954.874    20671954.257    20671960.424   110542260.257 6  85977363.443 6
      3593.315        2794.803
 11 10 10  8 44 30.0000000  0 16G02G04G09G12G14G25G27G29G30G31R09R10
                                R16R18R19R20
  22517060.008    22517059.5254   22517065.8764  118328003.465 7  92203661.04444
       297.483         231.807
  24640969.910    24640968.8884   24640980.0474  129489174.261 4 100900669.10641
     -2105.220       -1640.400
  22924707.126    22924706.1154   22924715.2804  120470096.502 6  93872806.57342
     -3164.667       -2465.950
  21145463.579    21145463.4434   21145470.0684  111120139.794 8  86587140.55245
      -935.839        -729.221
  22195477.520    22195476.1254   22195483.5704  116638002.391 6  90886766.28343
      -776.300        -604.904
  20424692.051    20424691.2804   20424700.5964  107332465.242 8  83635696.89946
       860.917         670.849
  24004329.330    24004329.2944   24004342.2974  126143560.870 4  98293689.10041
     -2671.406       -2081.586
  20754003.297    20754002.9044   20754010.3654  109063058.600 8  84984225.70146
      2302.908        1794.474
  22414979.357    22414978.7824   22414987.8164  117791525.083 6  91785631.51842
      3128.243        2437.589
  23730990.866    23730990.6824   23730999.0544  124707199.468 5  97174461.60342
      3662.683        2854.040
  19172416.738    19172416.890    19172422.610   102379629.620 9  79628620.972 7
       751.339         584.375
  21317436.339    21317434.596    21317443.927   113633980.622 7  88381998.177 4
      3939.700        3064.212
  21371227.534    21371228.461    21371236.159   114161231.802 7  88792083.168 5
     -2609.891       -2029.911
  22298538.917    22298539.047    22298547.200   119031094.882 6  92579752.867 5
     -3428.222       -2666.397
  19206348.896    19206348.177    19206352.172   102741064.245 8  79909752.601 7
      -453.380        -352.629
  20651841.937    20651841.421    20651848.169   110434709.591 6  85893712.972 6
      3576.594        2781.794
 11 10 10  8 45  0.0000000  0 16G02G04G09G12G14G25G27G29G30G31R09R10
                                R16R18R19R20
  22515411.341    22515410.9264   22515417.0004  118319339.254 7  92196909.69644
       280.118         218.270
  24653026.109    24653024.9084   24653036.2944  129552525.106 4 100950033.25141
     -2118.267       -1650.525
  22942792.809    22942792.0574   22942801.8774  120565141.932 6  93946867.82642
     -3171.772       -2471.505
  21150823.368    21150823.0894   21150829.6154  111148305.676 8  86609087.97445
      -941.963        -733.996
  22199957.361    22199956.2914   22199963.2884  116661543.380 6  90905109.86643
      -793.155        -618.032
  20419799.189    20419798.4694   20419807.8144  107306753.364 9  83615661.66646
       853.123         664.768
  24019596.412    24019594.9434   24019608.0744  126223786.504 4  98356202.29341
     -2676.936       -2085.896
  20740896.599    20740896.3394   20740903.7364  108994182.878 8  84930556.32946
      2288.741        1783.431
  22397131.610    22397129.8434   22397138.9924  117697728.866 6  91712543.57042
      3124.776        2434.891
  23710092.835    23710091.5484   23710100.5644  124597374.722 5  97088883.92142
      3658.904        2851.093
  19168249.561    19168249.691    19168255.505   102357377.604 9  79611313.828 7
       732.008         569.341
  21295281.328    21295280.219    21295290.239   113515885.175 7  88290146.172 5
      3933.241        3059.184
  21385922.850    21385923.495    21385930.827   114239727.752 7  88853135.464 5
     -2623.247       -2040.302
  22317820.606    22317820.142    22317828.475   119134019.656 6  92659805.348 5
     -3433.398       -2670.416
  19208953.502    19208952.837    19208956.610   102754997.996 8  79920589.948 7
      -475.577        -369.893
  20631822.089    20631822.169    20631829.031   110327658.822 6  85810451.303 6
      3559.933        2768.836
 11 10 10  8 45 30.0000000  0 16G02G04G09G12G14G25G27G29G30G31R09R10
                                R16R18R19R20
  22513861.594    22513860.7374   22513867.5204  118311198.175 7  92190565.97943
       262.521         204.568
  24665155.202                                   129616264.908 4
     -2131.483
  22960920.036    22960919.4084   22960929.5304  120660402.513 6  94021096.74942
     -3179.037       -2477.164
  21156218.854    21156218.4784   21156224.5214  111176657.267 8  86631180.10745
      -948.252        -738.896
  22204533.305    22204532.4504   22204540.1204  116685592.298 6  90923849.24443
      -810.180        -631.285
  20414951.464    20414950.6164   20414959.8754  107281278.377 9  83595811.02446
       845.115         658.538
  24034894.079    24034894.4844   24034906.6934  126304177.988 4  98418844.75341
     -2682.622       -2090.352
  20727871.294    20727871.2694   20727878.8054  108925735.313 8  84877220.57346
      2274.328        1772.203
  22379302.446    22379301.2594   22379310.4004  117604039.457 6  91639538.84642
      3121.093        2432.018
  23689216.037    23689215.4804   23689223.9214  124487668.884 5  97003398.92242
      3654.793        2847.894
  19164191.901    19164191.975    19164197.695   102335709.207 9  79594460.617 7
       712.429         554.113
  21273164.052    21273162.801    21273172.686   113397986.867 7  88198447.537 5
      3926.528        3053.967
  21400694.325    21400693.712    21400701.020   114318628.503 7  88914502.615 5
     -2636.862       -2050.887
  22337131.018    22337130.977    22337139.254   119237101.747 6  92739980.211 5
     -3438.830       -2674.643
  19211682.692    19211682.215    19211686.071   102769598.530 8  79931945.910 7
      -497.886        -387.244
  20611897.770    20611897.324    20611904.071   110221110.363 6  85727580.322 6
      3543.095        2755.744
 11 10 10  8 46  0.0000000  0 16G02G04G09G12G14G25G27G29G30G31R09R10
                                R16R18R19R20
  22512413.261    22512412.3964   22512419.1854  118303586.506 6  92184634.79643
       244.846         190.803
  24677361.800                                   129680441.993 3
     -2154.493
  22979089.777    22979089.3774   22979099.6284  120755881.911 6  94095496.17042
     -3186.305       -2482.836
  21161650.044    21161649.9574   21161655.9834  111205199.783 8  86653421.01345
      -954.633        -743.867
  22209207.259    22209205.5744   22209212.8254  116710152.854 6  90942987.28543
      -827.220        -644.574
  20410150.026    20410149.2034   20410158.4314  107256046.407 9  83576149.75247
       836.994         652.202
  24050224.502    24050224.2244   24050238.2084  126384739.740 4  98481619.81141
     -2688.198       -2094.672
  20714929.045    20714928.8754   20714936.3244  108857722.673 8  84824223.72246
      2259.801        1760.884
  22361495.111    22361493.4774   22361503.2314  117510463.520 6  91566622.53842
      3117.260        2429.024
  23668364.157    23668363.6754   23668371.7394  124378090.276 5  96918013.02842
      3650.435        2844.503
  19160244.779    19160244.951    19160250.589   102314631.841 9  79578067.096 7
       692.690         538.760
  21251085.977    21251084.858    21251094.482   113280295.559 7  88106909.871 5
      3919.537        3048.525
  21415540.366    21415540.349    21415547.504   114397938.270 7  88976187.890 5
     -2650.558       -2061.536
  22356472.312    22356472.389    22356479.699   119340344.222 6  92820279.800 5
     -3444.040       -2678.698
  19214537.685    19214537.083    19214540.731   102784869.334 8  79943823.190 7
      -520.180        -404.585
  20592067.527    20592067.237    20592074.069   110115072.506 6  85645106.474 6
      3526.037        2742.471
 11 10 10  8 46 30.0000000  0 15G02G09G12G14G25G27G29G30G31R09R10R16
                                R18R19R20
  22511066.442    22511066.1054   22511072.7304  118296508.172 6  92179119.19744
       226.858         176.778
  22997300.920    22997300.7294   22997310.8064  120851581.636 6  94170067.26642
     -3193.764       -2488.640
  21167118.583    21167118.3974   21167124.7934  111233937.130 8  86675813.74345
      -961.312        -749.073
  22213977.409    22213977.5734   22213984.8484  116735226.873 6  90962525.45343
      -844.510        -658.063
  20405395.444    20405394.6834   20405404.2234  107231061.618 9  83556681.08746
       828.532         645.609
  24065588.546    24065587.4484   24065599.2204  126465473.766 5  98544529.17641
     -2694.184       -2099.361
  20702070.339    20702070.0264   20702077.5554  108790149.396 8  84771569.24246
      2244.945        1749.305
  22343710.954    22343709.5664   22343718.4844  117417005.568 6  91493798.18742
      3113.127        2425.828
  23647536.683    23647537.6464   23647543.7164  124268644.630 5  96832730.75542
      3645.806        2840.885
  19156409.642    19156409.656    19156415.316   102294151.389 9  79562137.843 7
       672.557         523.100
  21229047.240    21229046.081    21229056.191   113162818.148 7  88015538.591 5
      3912.154        3042.786
  21430464.317    21430464.974    21430471.872   114477659.510 7  89038193.204 5
     -2664.415       -2072.315
  22375844.355    22375843.451    22375851.303   119443747.377 6  92900704.368 4
     -3449.556       -2682.981
  19217517.973    19217517.233    19217521.244   102800811.873 8  79956222.931 7
      -542.750        -422.141
  20572333.583    20572334.257    20572341.427   110009551.564 6  85563034.677 6
      3508.542        2728.866
 11 10 10  8 47  0.0000000  0 15G02G09G12G14G25G27G29G30G31R09R10R16
                                R18R19R20
  22509822.286    22509821.5474   22509827.1394  118289964.899 6  92174020.53344
       209.162         162.975
  23015554.508    23015553.6034   23015563.4434  120947501.506 6  94244809.90542
     -3200.978       -2494.274
  21172624.576    21172624.3724   21172631.0034  111262870.746 7  86698359.39845
      -967.772        -754.107
  22218846.543    22218846.1904   22218853.6224  116760814.086 6  90982463.50243
      -861.488        -671.281
  20400688.668    20400687.7194   20400697.1014  107206326.036 9  83537406.60147
       820.305         639.201
  24080986.008    24080984.2824   24080996.2734  126546380.471 5  98607573.06341
     -2699.821       -2103.760
  20689295.538    20689295.1724   20689302.7634  108723017.424 8  84719258.62146
      2230.328        1737.916
  22325949.223    22325948.7874   22325957.5624  117323668.320 6  91421067.88743
      3109.167        2422.731
  23626735.700    23626735.5724   23626744.4294  124159335.624 5  96747554.95542
      3641.287        2837.362
  19152686.598    19152686.697    19152692.410   102274271.237 9  79546675.489 7
       652.579         507.565
  21207049.835    21207048.692    21207057.850   113045559.952 7  87924337.803 5
      3904.840        3037.094
  21445464.784    21445465.862    21445473.893   114557792.119 7  89100518.450 5
     -2678.002       -2082.881
  22395244.216    22395244.105    22395251.759   119547309.625 6  92981252.650 4
     -3454.737       -2687.010
  19220623.866    19220623.154    19220626.964   102817425.456 8  79969144.597 7
      -565.024        -439.462
  20552698.570    20552699.063    20552705.751   109904550.722 6  85481367.391 6
      3491.246        2715.412
 11 10 10  8 47 30.0000000  0 15G02G09G12G14G25G27G29G30G31R09R10R16
                                R18R19R20
  22508678.231    22508677.2884   22508683.9514  118283955.407 7  92169337.78644
       191.610         149.308
  23033848.275    23033847.8994   23033858.3634  121043638.263 6  94319721.52942
     -3207.945       -2499.668
  21178167.362    21178167.3884   21178173.9244  111291999.031 8  86721056.74045
      -974.028        -758.980
  22223813.864    22223812.3464   22223820.3124  116786911.385 6  91002799.02443
      -878.207        -684.310
  20396028.885    20396028.0874   20396037.2024  107181838.719 9  83518325.57847
       812.271         632.942
  24096413.751    24096413.8654   24096425.5624  126627456.902 5  98670749.18941
     -2705.162       -2107.900
  20676604.435    20676604.3724   20676611.7624  108656326.354 7  84667291.56946
      2215.846        1726.632
  22308211.307    22308209.4544   22308218.3374  117230451.209 6  91348431.20543
      3105.367        2419.768
  23605960.378    23605961.3404   23605969.5554  124050164.474 5  96662486.57042
      3636.934        2833.975
  19149075.905    19149076.047    19149082.115   102254991.883 9  79531680.424 7
       632.774         492.157
  21185093.361    21185092.267    21185101.993   112928522.841 7  87833308.975 5
      3897.703        3031.553
  21460542.156    21460542.960    21460550.853   114638333.281 7  89163161.456 5
     -2691.315       -2093.231
  22414673.603    22414673.480    22414681.163   119651026.324 6  93061921.078 4
     -3459.537       -2690.748
  19223854.035    19223853.502    19223857.478   102834706.425 8  79982585.352 7
      -586.951        -456.516
  20533160.325    20533160.562    20533167.563   109800071.443 6  85400105.781 6
      3474.069        2702.052
 11 10 10  8 48  0.0000000  0 15G02G09G12G14G25G27G29G30G31R09R10R16
                                R18R19R20
  22507635.413    22507635.0454   22507641.7934  118278478.467 7  92165070.02344
       173.500         135.198
  23052183.289    23052182.8124   23052192.7904  121139988.114 6  94394799.23042
     -3215.348       -2505.483
  21183747.256    21183746.9754   21183753.5974  111321320.483 8  86743904.60345
      -980.792        -764.253
  22228875.386    22228874.7574   22228882.2084  116813515.117 6  91023529.16143
      -895.386        -697.710
  20391416.009    20391415.2334   20391424.5404  107157598.523 9  83499437.11347
       803.696         626.255
  24111873.144    24111873.0794   24111884.2364  126708699.996 5  98734055.18141
     -2711.053       -2112.506
  20663997.038    20663997.2144   20664004.6584  108590075.367 8  84615667.43746
      2200.846        1714.946
  22290495.951    22290494.4724   22290502.2824  117137353.704 6  91275887.71943
      3101.110        2416.442
  23585213.117    23585213.4734   23585220.7244  123941131.931 5  96577526.18842
      3631.868        2830.031
  19145578.252    19145578.465    19145584.138   102236313.437 9  79517152.726 7
       612.399         476.314
  21163179.284    21163178.187    21163187.978   112811708.744 7  87742453.597 5
      3889.862        3025.450
  21475696.448    21475697.005    21475704.380   114719280.306 7  89226120.145 5
     -2705.154       -2104.004
  22434130.459    22434131.216    22434138.305   119754892.367 6  93142705.648 4
     -3464.871       -2694.898
  19227208.808    19227208.135    19227211.984   102852650.737 8  79996542.029 7
      -609.372        -473.956
  20513720.884    20513720.063    20513727.023   109696114.484 6  85319250.399 6
      3456.318        2688.246
 11 10 10  8 48 30.0000000  0 15G02G09G12G14G25G27G29G30G31R09R10R16
                                R18R19R20
  22506696.006    22506695.4114   22506702.0054  118273540.305 6  92161222.10044
       155.626         121.259
  23070560.380    23070559.9264   23070568.8654  121236555.065 6  94470046.06642
     -3222.463       -2511.017
  21189364.956    21189364.6844   21189371.0974  111350841.094 8  86766907.64745
      -987.345        -769.360
  22234035.452    22234034.8454   22234042.5964  116840629.143 6  91044656.93343
      -912.270        -710.857
  20386851.331    20386850.6424   20386860.0214  107133611.882 9  83480746.22047
       795.339         619.743
  24127366.124    24127365.5474   24127379.3214  126790114.193 5  98797494.49241
     -2716.595       -2116.802
  20651475.148    20651474.9234   20651482.6424  108524270.907 8  84564391.25046
      2186.040        1703.406
  22272803.388    22272802.0674   22272811.1564  117044382.746 6  91203442.82643
      3096.912        2413.183
  23564492.758    23564492.8124   23564500.0004  123832246.516 5  96492680.44742
      3627.041        2826.280
  19142194.490    19142194.658    19142200.216   102218243.853 9  79503098.589 7
       592.147         460.561
  21141309.297    21141308.165    21141317.370   112695127.357 7  87651779.224 5
      3882.142        3019.445
  21490926.442    21490927.181    21490934.637   114800637.576 7  89289397.913 5
     -2718.691       -2114.532
  22453617.935    22453618.101    22453624.531   119858910.100 6  93223608.198 4
     -3469.740       -2698.675
  19230687.878    19230687.175    19230691.033   102871262.209 8  80011017.619 7
      -631.467        -491.140
  20494379.064    20494378.850    20494385.925   109592687.917 6  85238807.554 6
      3438.710        2674.548
 11 10 10  8 49  0.0000000  0 15G02G09G12G14G25G27G29G30G31R09R10R16
                                R18R19R20
  22505858.681    22505857.8504   22505864.8384  118269140.269 6  92157793.47144
       137.857         107.426
  23088976.142    23088976.3814   23088985.8034  121333336.518 6  94545460.06242
     -3229.506       -2516.483
  21195019.679    21195019.8084   21195026.3164  111380560.325 8  86790065.45145
      -993.796        -774.385
  22239291.508    22239291.1454   22239298.8114  116868251.033 6  91066180.44143
      -929.013        -723.900
  20382335.013    20382334.2274   20382343.5534  107109878.535 9  83462252.69746
       787.061         613.294
  24142891.862    24142891.9714   24142903.0224  126871697.296 5  98861065.39041
     -2722.067       -2121.068
  20639037.661    20639037.6164   20639045.3534  108458912.855 8  84513462.91346
      2171.290        1691.912
  22255134.834    22255134.0394   22255142.2274  116951538.531 6  91131096.69642
      3092.840        2410.002
  23543801.022    23543801.1794   23543807.6744  123723509.563 5  96407950.40042
      3622.207        2822.496
  19138924.588    19138924.761    19138930.521   102200784.035 9  79489518.717 7
       571.982         444.874
  21119483.762    21119482.121    21119491.524   112578781.154 7  87561287.766 5
      3874.417        3013.434
  21506233.656    21506233.722    21506241.425   114882402.660 7  89352992.869 5
     -2732.232       -2125.061
  22473132.348    22473132.244    22473138.992   119963076.503 6  93304626.381 4
     -3474.561       -2702.437
  19234291.156    19234290.472    19234294.529   102890537.591 8  80026009.573 7
      -653.408        -508.205
  20475136.779    20475136.849    20475143.487   109489793.012 6  85158778.226 6
      3421.080        2660.838
 11 10 10  8 49 30.0000000  0 15G02G09G12G14G25G27G29G30G31R09R10R16
                                R18R19R20
  22505124.104    22505123.3804   22505129.6374  118265278.206 7  92154784.05244
       119.736          93.301
  23107433.110    23107433.5304   23107443.2814  121430330.327 6  94621039.52842
     -3236.652       -2522.076
  21200713.698    21200713.2404   21200719.6834  111410477.565 8  86813377.55145
     -1000.585        -779.676
  22244644.576    22244643.7514   22244651.3064  116896378.880 6  91088098.19043
      -946.012        -737.156
  20377867.039    20377866.3024   20377875.7104  107086398.688 9  83443956.70647
       778.426         606.561
  24158448.684    24158446.1274   24158460.7574  126953447.419 5  98924766.47641
     -2727.790       -2125.540
  20626685.922    20626685.5704   20626693.2474  108394002.108 8  84462883.11646
      2156.178        1680.138
  22237492.467    22237491.6514   22237498.7174  116858821.862 6  91058849.94943
      3088.383        2406.541
  23523137.311    23523137.5604   23523145.0904  123614923.500 5  96323337.91242
      3617.024        2818.472
  19135769.618    19135769.728    19135775.315   102183935.805 9  79476414.519 7
       551.399         428.869
  21097701.987    21097700.450    21097710.376   112462673.841 7  87470982.095 5
      3866.190        3007.038
  21521616.201    21521616.251    21521624.095   114964573.824 7  89416903.670 5
     -2745.802       -2135.623
  22492672.945    22492673.086    22492680.382   120067387.748 6  93385757.208 4
     -3479.461       -2706.250
  19238018.265    19238017.493    19238021.529   102910474.157 8  80041515.785 7
      -675.586        -525.454
  20455994.531    20455994.756    20456001.522   109387431.639 6  85079163.867 6
      3403.103        2646.855
 11 10 10  8 50  0.0000000  0 15G02G09G12G14G25G27G29G30G31R09R10R16
                                R18R19R20
  22504491.388    22504490.5064   22504496.8594  118261953.029 7  92152192.97444
       101.913          79.422
  23125931.662    23125930.5564   23125940.0084  121527533.219 6  94696781.89642
     -3243.578       -2527.444
  21206443.990    21206443.5774   21206450.3434  111440591.862 8  86836843.20145
     -1007.088        -784.743
  22250093.089    22250091.6924   22250099.6124  116925009.034 6  91110407.34843
      -962.680        -750.136
  20373446.931    20373446.3584   20373455.8874  107063171.508 9  83425857.59747
       770.031         600.023
  24174036.212    24174036.1884   24174048.0064  127035361.819 5  98988595.50941
     -2733.198       -2129.724
  20614418.516    20614418.4304   20614426.0234  108329538.038 8  84412651.39146
      2141.365        1668.598
  22219872.959    22219871.9204   22219879.9674  116766232.382 6  90986702.33143
      3084.148        2403.213
  23502503.511    23502503.2944   23502510.8864  123506489.054 6  96238843.58742
      3611.904        2814.469
  19132729.126    19132729.172    19132734.611   102167699.208 9  79463786.033 7
       531.023         413.018
  21075965.946    21075964.693    21075973.647   112346807.921 7  87380864.203 5
      3858.149        3000.788
  21537074.037    21537074.454    21537082.876   115047148.266 7  89481128.136 5
     -2759.187       -2146.031
  22512240.507    22512240.012    22512247.764   120171838.861 6  93466996.843 4
     -3483.992       -2709.772
  19241867.787    19241867.111    19241871.317   102931068.154 8  80057533.327 7
      -697.377        -542.401
  20436952.338    20436952.399    20436959.713   109285605.109 6  84999965.489 6
      3385.283        2632.999
 11 10 10  8 50 30.0000000  0 15G02G09G12G14G25G27G29G30G31R09R10R16
                                R18R19R20
  22503960.553    22503960.1864   22503966.2734  118259163.896 7  92150019.58744
        84.068          65.512
  23144468.258    23144466.2674   23144477.1024  121624942.314 6  94772684.95642
     -3250.387       -2532.761
  21212211.953    21212211.6294   21212217.9304  111470902.440 8  86860461.79845
     -1013.593        -789.809
  22255635.131    22255635.5974   22255642.6264  116954138.836 6  91133105.84643
      -979.278        -763.070
  20369075.049    20369074.3714   20369083.6574  107040196.705 9  83407955.14447
       761.628         593.477
  24189656.656    24189654.6074   24189668.4104  127117438.104 5  99052550.68641
     -2738.472       -2133.870
  20602236.567    20602236.3474   20602243.6114  108265519.966 8  84362767.20146
      2126.515        1657.026
  22202277.674    22202276.2084   22202285.4064  116673770.405 6  90914654.07843
      3079.922        2399.930
  23481898.266    23481898.2404   23481905.3984  123398208.056 5  96154468.81442
      3606.823        2810.518
  19129803.428    19129803.545    19129808.852   102152075.241 9  79451634.037 7
       510.574         397.114
  21054275.061    21054273.808    21054282.832   112231185.672 7  87290935.819 5
      3849.980        2994.437
  21552607.035    21552607.593    21552615.942   115130123.864 7  89545664.613 5
     -2772.564       -2156.434
  22531832.236    22531832.566    22531840.675   120276426.079 6  93548342.313 5
     -3488.475       -2713.253
  19245839.999    19245839.416    19245843.521   102952316.265 8  80074059.634 7
      -719.144        -559.339
  20418010.748    20418010.990    20418017.702   109184314.826 6  84921184.202 6
      3367.403        2619.095
 11 10 10  8 51  0.0000000  0 15G02G09G12G14G25G27G29G30G31R09R10R16
                                R18R19R20
  22503532.166    22503531.3674   22503537.4114  118256910.334 7  92148263.53643
        66.213          51.600
  23163043.497    23163042.2194   23163052.5494  121722555.177 6  94848746.78542
     -3257.209       -2538.077
  21218017.037    21218016.7984   21218023.1004  111501408.666 7  86884232.84545
     -1020.130        -794.902
  22261274.256    22261273.1394   22261280.5374  116983765.715 6  91156191.68543
      -995.823        -775.976
  20364750.922    20364750.3364   20364759.8424  107017474.142 9  83390249.25047
       753.240         586.944
  24205304.805    24205303.9404   24205318.3364  127199674.358 5  99116630.51941
     -2743.898       -2138.117
  20590139.330    20590139.0954   20590146.2814  108201948.120 8  84313230.71246
      2111.627        1645.426
  22184707.661    22184706.4564   22184714.4124  116581436.392 6  90842705.50443
      3075.637        2396.610
  23461322.604    23461322.8484   23461330.3164  123290082.166 5  96070214.90442
      3601.624        2806.454
  19126992.357    19126992.546    19126997.811   102137065.092 9  79439959.447 7
       490.105         381.197
  21032630.736    21032629.763    21032639.324   112115810.556 7  87201199.651 5
      3841.671        2987.966
  21568216.547    21568216.369    21568224.016   115213498.343 7  89610511.322 5
     -2785.754       -2166.698
  22551450.551    22551450.256    22551458.512   120381145.650 6  93629790.719 4
     -3492.814       -2716.627
  19249933.713    19249933.207    19249937.364   102974215.508 8  80091092.365 7
      -740.767        -576.148
  20399169.681    20399169.300    20399176.175   109083562.668 6  84842821.461 6
      3349.472        2605.146
 11 10 10  8 51 30.0000000  0 15G02G09G12G14G25G27G29G30G31R09R10R16
                                R18R19R20
  22503203.822    22503202.6624   22503208.8914  118255184.104 6  92146918.39043
        48.803          38.031
  23181654.651    23181654.2064   23181663.7644  121820361.510 6  94924959.35142
     -3263.364       -2542.873
  21223858.115    21223857.6444   21223863.9014  111532102.107 8  86908149.76945
     -1026.219        -799.652
  22267005.127    22267003.5504   22267011.1954  117013879.554 6  91179656.94343
     -1011.856        -788.457
  20360473.759    20360472.8964   20360482.4194  106994996.069 9  83372733.86047
       745.216         580.686
  24220982.063    24220982.1504   24220993.0884  127282060.606 5  99180827.18441
     -2748.737       -2141.827
  20578125.610    20578125.2874   20578132.5064  108138814.933 8  84264036.04746
      2097.138        1634.130
  22167159.658    22167158.2254   22167166.6774  116489222.933 6  90770850.87742
      3071.814        2393.626
  23440774.808    23440775.5174   23440782.1944  123182105.621 6  95986077.37942
      3596.723        2802.657
  19124295.154    19124295.269    19124300.454   102122662.032 9  79428757.049 7
       469.980         365.541
  21011031.951    21011030.746    21011039.917   112000677.623 7  87111651.848 5
      3833.689        2981.761
  21583895.982    21583896.631    21583904.293   115297261.808 7  89675660.569 5
     -2798.476       -2176.593
  22571090.682    22571089.684    22571098.741   120485985.845 6  93711332.966 5
     -3496.577       -2719.552
  19254147.747    19254146.961    19254150.863   102996754.841 8  80108622.950 7
      -761.926        -592.606
  20380428.021    20380427.790    20380434.920   108983341.780 6  84764871.926 6
      3331.827        2591.416
 11 10 10  8 52  0.0000000  0 15G02G09G12G14G25G27G29G30G31R09R10R16
                                R18R19R20
  22502974.151    22502973.2254   22502979.4554  118253981.163 7  92145981.01343
        31.532          24.570
  23200302.810    23200301.2514   23200311.9814  121918355.263 6  95001317.96942
     -3269.421       -2547.601
  21229733.734    21229733.2584   21229739.4754  111562978.808 8  86932209.49645
     -1032.132        -804.256
  22272826.740    22272826.1974   22272833.1204  117044474.103 6  91203496.80443
     -1027.679        -800.778
  20356242.123    20356241.3374   20356250.6254  106972758.775 9  83355406.09546
       737.355         574.562
  24236688.001    24236689.3424   24236699.5094  127364591.405 4  99245136.48541
     -2753.306       -2145.435
  20566194.514    20566194.2624   20566201.4474  108076116.976 8  84215180.51046
      2082.794        1622.955
  22149634.652    22149633.3544   22149641.5034  116397127.059 6  90699087.89543
      3068.047        2390.676
  23420256.464    23420256.0874   23420263.2344  123074276.810 6  95902054.97542
      3591.960        2798.912
  19121711.136    19121711.339    19121716.676   102108863.457 9  79418024.801 7
       449.974         349.978
  20989479.326    20989477.794    20989487.052   111885786.399 7  87022292.035 5
      3825.783        2975.604
  21599648.902    21599648.875    21599656.940   115381408.187 6  89741107.644 5
     -2811.162       -2186.457
  22590752.362    22590751.225    22590759.783   120590939.542 6  93792963.492 5
     -3500.227       -2722.394
  19258479.761    19258478.971    19258482.753   103019927.704 8  80126646.278 7
      -782.829        -608.869
  20361785.127    20361784.783    20361791.792   108883650.118 6  84687334.015 6
      3314.353        2577.829
 11 10 10  8 52 30.0000000  0 15G02G09G12G14G25G27G29G30G31R09R10R16
                                R18R19R20
  22502845.186    22502844.7264   22502850.5464  118253302.858 6  92145452.44043
        13.749          10.710
  23218985.722    23218985.2824   23218994.3564  122016535.840 6  95077822.15742
     -3275.901       -2552.636
  21235644.382    21235644.0794   21235650.6714  111594040.097 8  86956413.05645
     -1038.577        -809.279
  22278740.161    22278739.2064   22278746.8324  117075548.628 6  91227710.66543
     -1043.932        -813.462
  20352056.773    20352056.0314   20352065.0324  106950764.292 9  83338267.52646
       728.981         568.036
  24252422.193    24252419.4354   24252433.5364  127447266.544 4  99309558.24041
     -2758.359       -2149.328
  20554346.268    20554346.1604   20554353.5834  108013855.916 8  84166665.40946
      2067.962        1611.402
  22132132.549    22132131.1074   22132139.1254  116305151.248 6  90627418.44343
      3063.718        2387.317
  23399766.219    23399765.3634   23399773.0834  122966599.521 6  95818150.63542
      3586.559        2794.728
  19119241.064    19119241.131    19119246.625   102095672.660 9  79407765.266 7
       429.441         334.013
  20967971.598    20967970.593    20967980.150   111771141.703 7  86933123.973 5
      3817.214        2968.944
  21615472.789    21615473.177    21615480.777   115465937.776 6  89806852.769 5
     -2824.104       -2196.526
  22610433.966    22610433.787    22610442.511   120696004.294 6  93874680.381 5
     -3504.022       -2725.347
  19262929.874    19262929.007    19262932.682   103043732.782 8  80145161.337 7
      -804.137        -625.439
  20343240.833    20343241.366    20343248.110   108784490.398 6  84610209.842 6
      3296.314        2563.802
 11 10 10  8 53  0.0000000  0 15G02G09G12G14G25G27G29G30G31R09R10R16
                                R18R19R20
  22502817.039    22502816.8614   22502822.9314  118253155.616 6  92145337.68743
        -4.154          -3.233
  23237705.146    23237704.8524   23237714.5404  122114907.687 5  95154475.39342
     -3282.407       -2557.711
  21241591.381    21241591.1984   21241597.9194  111625292.365 8  86980765.43245
     -1045.131        -814.388
  22284744.873    22284744.7464   22284751.5654  117107107.434 6  91252301.89243
     -1060.226        -826.153
  20347918.793    20347918.0814   20347927.1744  106929019.385 9  83321323.43347
       720.448         561.389
  24268182.088    24268181.8764   24268194.9004  127530090.844 4  99374096.25541
     -2763.530       -2153.392
  20542583.109    20542582.6494   20542590.0764  107952038.684 8  84118496.15246
      2052.964        1599.709
  22114654.595    22114653.3434   22114661.1084  116213302.793 6  90555848.24243
      3059.247        2383.828
  23379305.676    23379306.3524   23379313.3534  122859082.223 6  95734370.96242
      3581.012        2790.393
  19116885.902    19116886.386    19116891.825   102083097.366 9  79397984.463 7
       408.671         317.855
  20946514.014    20946512.350    20946520.953   111656754.059 7  86844155.828 5
      3808.390        2962.082
  21631369.986    21631370.390    21631378.122   115550855.037 7  89872899.405 5
     -2837.217       -2206.723
  22630138.079    22630138.451    22630146.537   120801184.256 6  93956486.874 5
     -3508.115       -2728.528
  19267498.742    19267497.913    19267501.759   103068174.060 8  80164171.215 7
      -825.483        -642.042
  20324797.935    20324799.272    20324806.037   108685872.296 6  84533506.940 6
      3278.020        2549.570
 11 10 10  8 53 30.0000000  0 15G02G09G12G14G25G27G29G30G31R09R10R16
                                R18R19R20
  22502890.829    22502890.3534   22502896.3134  118253541.458 7  92145638.31143
       -21.459         -16.721
  23256460.870    23256461.3494   23256470.5954  122213470.903 5  95231277.73842
     -3288.362       -2562.339
  21247575.174    21247575.0794   21247581.7194  111656737.683 7  87005268.23645
     -1051.112        -819.045
  22290842.114    22290842.1314   22290849.1704  117139150.483 6  91277270.40943
     -1075.874        -838.329
  20343828.914    20343828.1394   20343837.3454  106907526.547 8  83304575.75847
       712.504         555.203
  24283972.298    24283969.6734   24283982.3334  127613064.680 4  99438750.75541
     -2768.048       -2156.910
  20530904.557    20530904.3034   20530911.5094  107890667.835 8  84070674.71546
      2038.529        1588.465
  22097200.664    22097199.6284   22097208.3874  116121584.790 6  90484379.68643
      3055.376        2380.812
  23358876.294    23358877.0414   23358884.9714  122751729.487 6  95650719.51942
      3575.893        2786.404
  19114646.843    19114647.116    19114652.729   102071141.496 9  79388685.439 7
       388.490         302.162
  20925103.731    20925102.415    20925111.584   111542629.062 7  86755391.981 5
      3800.049        2955.598
  21647339.175    21647339.937    21647347.352   115636160.529 7  89939248.008 5
     -2849.677       -2216.401
  22649863.276    22649863.357    22649872.212   120906477.674 6  94038381.622 5
     -3511.407       -2731.088
  19272186.530    19272185.735    19272189.512   103093250.949 8  80183675.449 7
      -846.176        -658.132
  20306458.623    20306458.915    20306465.780   108587799.629 6  84457228.251 6
      3260.301        2535.789
 11 10 10  8 54  0.0000000  0 14G02G09G12G14G25G29G30G31R09R10R16R18
                                R19R20
  22802857.767    22802856.7444   22802863.3094  119829877.321 6  93373951.95143
       -39.391         -30.684
  23575045.076    23575043.9254   23575054.8934  123887637.018 5  96535822.60142
     -3294.867       -2567.428
  21553387.825    21553387.6064   21553394.2164  113263792.052 8  88257518.34645
     -1057.747        -824.218
  22596824.184    22596822.9954   22596830.4304  118747091.472 6  92530211.38743
     -1092.076        -850.962
  20639579.152    20639578.3614   20639587.6744  108461704.099 9  84515623.19646
       703.882         548.472
  20819103.318    20819103.1174   20819110.3984  109405163.223 8  85250801.01146
      2023.434        1576.702
  22379565.217    22379563.5954   22379571.5894  117605418.467 6  91640613.73043
      3050.796        2377.250
  23638271.813    23638272.7364   23638279.7754  124219964.197 6  96794798.55242
      3570.219        2781.987
  19412316.363    19412316.458    19412322.016   103660678.732 9  80624992.162 7
       367.553         285.877
  21203536.301    21203534.978    21203544.335   113026833.545 7  87909773.276 5
      3790.890        2948.469
  21963172.925    21963173.024    21963180.957   117323284.339 7  91251455.305 5
     -2862.744       -2226.579
  22969399.714    22969400.319    22969409.637   122612188.147 6  95365045.183 5
     -3515.155       -2734.005
  19576784.360    19576783.889    19576787.685   104722644.582 8  81450981.601 7
      -867.423        -674.660
  20588014.537    20588013.882    20588020.540   110093399.152 6  85628250.148 6
      3241.817        2521.410
 11 10 10  8 54 30.0000000  0 14G02G09G12G14G25G29G30G31R09R10R16R18
                                R19R20
  22803133.048    22803132.2664   22803139.3364  119831326.660 6  93375081.29543
       -57.210         -44.580
  23593871.542    23593871.1674   23593881.4174  123986574.196 5  96612916.35042
     -3301.036       -2572.232
  21559444.588    21559444.4014   21559451.2904  113295621.055 8  88282320.12445
     -1064.210        -829.257
  22603104.834    22603103.6364   22603110.8374  118780094.045 6  92555927.61043
     -1108.072        -863.425
  20635584.943    20635584.1524   20635593.3664  108440714.442 9  84499267.61646
       695.396         541.866
  20807594.715    20807594.4114   20807601.5634  109344684.478 8  85203674.73546
      2008.464        1565.039
  22362161.474    22362161.3584   22362167.7254  117513962.109 6  91569349.05143
      3046.265        2373.717
  23617907.437    23617907.2754   23617914.7214  124112944.823 5  96711406.87542
      3564.391        2777.440
  19410309.814    19410309.993    19410315.550   103649963.537 9  80616658.105 7
       346.721         269.669
  21182227.019    21182225.556    21182235.263   112913241.892 7  87821424.248 5
      3781.793        2941.379
  21979285.416    21979286.199    21979294.032   117409358.802 7  91318401.998 5
     -2875.521       -2236.515
  22989165.443    22989166.241    22989174.882   122717698.027 6  95447108.264 5
     -3518.812       -2736.848
  19581707.955    19581707.424    19581711.179   104748982.211 8  81471466.410 7
      -888.445        -691.013
  20569878.412    20569878.415    20569885.219   109996420.512 6  85552822.351 6
      3223.424        2507.103
 11 10 10  8 55  0.0000000  0 14G02G09G12G14G25G29G30G31R09R10R16R18
                                R19R20
  22803511.530    22803511.0644   22803518.6664  119833316.908 6  93376632.11243
       -75.179         -58.581
  23612736.903    23612735.5994   23612745.8594  124085705.258 5  96690161.15742
     -3307.424       -2577.208
  21565539.676    21565539.3494   21565546.2064  113327651.602 8  88307278.95345
     -1070.873        -834.446
  22609476.817    22609475.7514   22609483.9544  118813582.638 6  92582022.54243
     -1124.176        -875.983
  20631640.468    20631639.6934   20631649.0134  108419986.794 9  84483116.19747
       686.717         535.096
  20796173.008    20796172.6134   20796179.7114  109284662.068 8  85156904.04346
      1993.320        1553.232
  22344784.952    22344783.7784   22344791.6974  117422647.795 6  91498195.04643
      3041.582        2370.061
  23597576.024    23597576.4564   23597584.3604  124006105.640 6  96628155.61842
      3558.403        2772.776
  19408421.562    19408421.492    19408427.170   103639880.814 9  80608815.971 7
       325.733         253.346
  21160969.909    21160968.850    21160978.018   112799932.656 7  87733294.856 5
      3772.384        2934.079
  21995472.670    21995472.898    21995480.726   117495825.050 7  91385653.417 5
     -2888.505       -2246.612
  23008953.054    23008952.884    23008960.969   122823321.195 6  95529259.457 5
     -3522.492       -2739.715
  19586750.533    19586749.952    19586753.657   104775956.141 8  81492446.118 7
      -909.539        -707.420
  20551847.635    20551847.424    20551854.346   109900002.031 6  85477830.229 6
      3204.791        2492.610
 11 10 10  8 55 30.0000000  0 14G02G09G12G14G25G29G30G31R09R10R16R18
                                R19R20
  22803992.135    22803991.1644   22803998.7414  119835839.648 6  93378597.87243
       -93.022         -72.482
  23631634.817    23631634.5664   23631644.2694  124185019.394 5  96767548.63441
     -3313.438       -2581.893
  21571671.728    21571671.3754   21571678.1714  113359875.216 8  88332388.21845
     -1077.335        -839.482
  22615940.017    22615939.3664   22615947.3984  118847546.711 6  92608487.98343
     -1140.070        -888.360
  20627744.211    20627743.5194   20627752.8224  108399512.985 9  84467162.57147
       678.218         528.481
  20784836.275    20784836.0344   20784843.2324  109225087.957 8  85110482.67946
      1978.304        1541.537
  22327434.000    22327432.8264   22327441.3534  117331467.961 6  91427145.84643
      3037.058        2366.532
  23577278.616    23577279.3014   23577286.7354  123899441.207 6  96545040.51542
      3552.531        2768.219
  19406650.310    19406650.501    19406656.237   103630423.107 9  80601459.964 7
       304.789         237.062
  21139765.937    21139764.454    21139773.336   112686900.553 7  87645381.031 5
      3763.051        2926.813
  22011729.449    22011730.749    22011739.074   117582672.797 6  91453201.561 5
     -2901.269       -2256.536
  23028759.282    23028758.576    23028766.826   122929045.326 6  95611489.183 4
     -3525.854       -2742.321
  19591909.772    19591909.090    19591912.928   104803554.922 8  81513911.822 7
      -930.356        -723.607
  20533920.426    20533920.121    20533926.807   109804135.826 6  85403267.649 6
      3186.319        2478.249
 11 10 10  8 56  0.0000000  0 14G02G09G12G14G25G29G30G31R09R10R16R18
                                R19R20
  22804574.575    22804573.8634   22804580.6254  119838899.281 7  93380981.99843
      -110.659         -86.231
  23650570.470    23650568.3944   23650579.7054  124284519.020 5  96845080.63141
     -3319.441       -2586.555
  21577841.109    21577841.1924   21577847.6324  113392296.476 7  88357651.49045
     -1083.734        -844.466
  22622494.358    22622493.4414   22622501.3394  118881988.552 6  92635325.69243
     -1155.721        -900.554
  20623897.771    20623896.9864   20623906.1484  108379298.126 9  84451410.72147
       669.788         521.912
  20773585.993    20773585.6604   20773593.0584  109165967.197 8  85064414.58646
      1963.415        1529.928
  22310109.257    22310107.9544   22310116.9954  117240428.336 6  91356205.90243
      3032.581        2363.045
  23557014.985    23557016.1114   23557023.8714  123792957.783 6  96462066.46742
      3546.696        2763.646
  19404997.555    19404997.762    19405003.384   103621596.761 9  80594595.013 7
       283.970         220.869
  21118614.908    21118613.765    21118622.712   112574153.705 8  87557689.072 5
      3753.689        2919.528
  22028060.396    22028060.783    22028068.696   117669904.595 6  91521048.404 5
     -2913.790       -2266.277
  23048583.554    23048583.993    23048591.916   123034872.893 6  95693799.341 5
     -3529.048       -2744.813
  19597186.216    19597185.545    19597189.728   104831780.352 8  81535864.915 7
      -950.969        -739.642
  20516097.635    20516097.522    20516104.278   109708829.632 7  85329140.653 6
      3167.779        2463.829
 11 10 10  8 56 30.0000000  0 14G02G09G12G14G25G29G30G31R09R10R16R18
                                R19R20
  22805257.239    22805256.3684   22805262.8804  119842486.232 7  93383777.01943
      -128.343        -100.015
  23669536.457    23669536.4634   23669547.6934  124384192.900 5  96922748.41142
     -3325.359       -2591.169
  21584046.597    21584046.5534   21584053.3744  113424906.128 8  88383061.57145
     -1090.109        -849.438
  22629136.348    22629136.1824   22629144.4734  118916896.761 6  92662526.82143
     -1171.333        -912.710
  20620098.680    20620097.8324   20620107.2014  108359333.394 9  84435853.77547
       661.317         515.317
  20762420.065    20762419.7774   20762427.1844  109107290.919 8  85018692.82546
      1948.481        1518.298
  22292809.971    22292808.8454   22292817.8004  117149520.589 6  91285368.69543
      3028.072        2359.534
  23536785.583    23536785.2054   23536793.8104  123686648.619 6  96379228.21042
      3540.726        2759.011
  19403461.486    19403461.610    19403467.270   103613393.529 9  80588214.713 7
       263.034         204.583
  21097516.397    21097515.064    21097524.022   112461686.483 8  87470214.593 5
      3744.227        2912.176
  22044460.701    22044461.126    22044469.151   117757509.705 6  91589185.597 5
     -2926.308       -2276.014
  23068426.294    23068426.362    23068434.245   123140790.421 6  95776179.476 5
     -3532.030       -2747.123
  19602577.771    19602577.008    19602581.035   104860620.203 8  81558295.888 7
      -971.531        -755.633
  20498378.334    20498377.883    20498384.544   109614075.776 7  85255443.240 6
      3149.305        2449.459
 11 10 10  8 57  0.0000000  0 14G02G09G12G14G25G29G30G31R09R10R16R18
                                R19R20
  22806042.062    22806040.8034   22806047.1244  119846611.637 6  93386991.59643
      -146.515        -114.178
  23688539.493    23688539.7524   23688549.3364  124484050.448 5  97000559.30641
     -3331.738       -2596.168
  21590290.366    21590290.0714   21590296.6364  113457715.199 7  88408627.04245
     -1096.949        -854.766
  22635870.114    22635869.3724   22635878.1714  118952280.284 6  92690098.32743
     -1187.332        -925.205
  20616349.185    20616348.4674   20616358.0374  108339630.639 9  84420500.96946
       652.395         508.361
  20751341.161    20751340.9164   20751348.2364  109049070.939 8  84973326.61846
      1933.045        1506.267
  22275538.853    22275537.5244   22275545.2004  117058757.187 6  91214643.98743
      3023.056        2355.635
  23516592.150    23516591.8374   23516598.9664  123580527.379 6  96296536.37242
      3534.220        2753.938
  19402044.631    19402044.636    19402050.174   103605826.455 9  80582329.199 7
       241.593         187.903
  21076473.080    21076471.886    21076481.268   112349514.351 8  87382969.625 5
      3734.112        2904.311
  22060932.071    22060932.742    22060941.605   117845497.708 6  91657620.589 5
     -2939.279       -2286.104
  23088287.599    23088287.013    23088295.168   123246806.534 6  95858636.317 4
     -3535.482       -2749.815
  19608085.677    19608084.797    19608088.756   104890083.432 8  81581211.707 7
      -992.476        -771.930
  20480764.959    20480764.424    20480770.606   109519886.689 6  85182185.087 6
      3130.215        2434.610
 11 10 10  8 57 30.0000000  0 14G02G09G12G14G25G29G30G31R09R10R16R18
                                R19R20
  22806928.776    22806927.8284   22806934.5424  119851274.178 6  93390624.72643
      -164.342        -128.063
  23707576.478    23707576.0604   23707586.0954  124584088.439 5  97078510.81342
     -3337.512       -2600.650
  21596571.656    21596571.2954   21596577.7694  113490722.905 7  88434347.28645
     -1103.512        -859.880
  22642693.959    22642692.3984   22642700.6694  118988135.927 6  92718037.72443
     -1202.966        -937.380
  20612649.647    20612648.9004   20612658.2124  108320189.167 9  84405351.75447
       643.747         501.625
  20740348.966    20740348.6194   20740356.1094  108991306.194 8  84928315.14846
      1917.958        1494.512
  22258294.042    22258293.2004   22258301.8954  116968138.061 6  91144031.70243
      3018.292        2351.922
  23496433.722    23496433.7584   23496440.3464  123474595.280 6  96213991.92542
      3527.949        2749.032
  19400746.606    19400746.710    19400752.159   103598895.704 9  80576938.601 7
       220.494         171.494
  21055485.505    21055484.390    21055493.283   112237639.545 8  87295955.910 5
      3724.220        2896.618
  22077475.329    22077475.559    22077484.159   117933865.629 6  91726351.069 5
     -2951.867       -2295.894
  23108164.621    23108165.357    23108173.484   123352916.852 6  95941166.450 4
     -3538.447       -2752.121
  19613709.129    19613708.466    19613712.559   104920165.980 8  81604609.221 7
     -1012.989        -787.880
  20463256.666    20463256.194    20463262.575   109426263.596 7  85109367.159 6
      3111.392        2419.970
 11 10 10  8 58  0.0000000  0 14G02G09G12G14G25G29G30G31R09R10R16R18
                                R19R20
  22807917.548    22807916.9164   22807923.7224  119856470.998 6  93394674.16743
      -182.163        -141.948
  23726645.864    23726645.4624   23726656.8744  124684302.229 5  97156599.29042
     -3343.438       -2605.268
  21602890.184    21602889.6834   21602896.3564  113523926.651 8  88460220.27945
     -1110.107        -865.018
  22649605.368    22649605.0364   22649612.6434  119024458.883 5  92746341.27143
     -1218.556        -949.528
  20608999.407    20608998.6694   20609007.9904  108301006.902 9  84390404.52246
       635.037         494.833
  20729442.786    20729442.5744   20729449.9614  108933994.699 8  84883656.86246
      1902.792        1482.693
  22241077.241    22241075.9874   22241084.1554  116877661.628 6  91073530.60043
      3013.425        2348.121
  23476311.491    23476311.2464   23476319.1504  123368852.472 6  96131594.97042
      3521.535        2744.052
  19399567.218    19399567.538    19399573.283   103592599.976 9  80572041.909 7
       199.168         154.908
  21034554.070    21034552.530    21034562.009   112126063.618 8  87209174.669 5
      3714.140        2888.771
  22094088.310    22094088.674    22094097.253   118022609.030 6  91795373.595 5
     -2964.390       -2305.641
  23128059.646    23128059.881    23128068.885   123459116.820 5  96023766.276 5
     -3541.610       -2754.583
  19619446.990    19619446.627    19619450.693   104950862.515 8  81628484.278 7
     -1033.464        -803.805
  20445855.199    20445853.918    20445860.274   109333205.819 7  85036988.915 6
      3092.403        2405.203
 11 10 10  8 58 30.0000000  0 14G02G09G12G14G25G29G30G31R09R10R16R18
                                R19R20
  22809008.012    22809007.3004   22809013.2304  119862197.697 6  93399136.51443
      -199.603        -155.536
  23745749.014    23745747.3334   23745758.1834  124784685.735 5  97234820.02741
     -3348.821       -2609.470
  21609245.210    21609244.7404   21609251.2274  113557322.560 8  88486243.00845
     -1116.237        -869.789
  22656605.384    22656604.3304   22656612.6404  119061242.710 6  92775003.93042
     -1233.614        -961.251
  20605397.905    20605397.0164   20605406.3634  108282080.380 9  84375656.57047
       626.777         488.398
  20718622.607    20718622.1604   20718629.3634  108877132.815 8  84839348.91946
      1888.047        1471.204
  22223886.136    22223885.8404   22223893.8434  116787325.057 6  91003138.47843
      3009.043        2344.698
  23456224.650    23456225.0884   23456232.0374  123263296.873 6  96049343.89543
      3515.486        2739.350
  19398506.766    19398507.034    19398512.744   103586936.482 9  80567636.957 7
       178.407         138.763
  21013678.655    21013677.536    21013686.673   112014786.067 8  87122625.491 5
      3704.388        2881.182
  22110769.822    22110770.361    22110778.564   118111722.207 6  91864683.707 5
     -2976.479       -2315.038
  23147969.349    23147969.747    23147979.430   123565398.995 5  96106430.024 5
     -3543.882       -2756.343
  19625299.352    19625298.643    19625302.563   104982166.125 8  81652831.503 7
     -1053.381        -819.297
  20428556.273    20428556.397    20428563.291   109240710.759 6  84965048.350 6
      3073.885        2390.800
 11 10 10  8 59  0.0000000  0 15G02G09G12G14G25G27G29G30G31R09R10R16
                                R18R19R20
  22810199.069    22810198.0354   22810204.4524  119868453.677 6  93404011.26944
      -217.306        -169.331
  23764883.072    23764882.9954   23764893.4694  124885236.615 5  97313171.18341
     -3354.420       -2613.832
  21615636.462    21615636.0484   21615642.9564  113590909.861 7  88512414.87545
     -1122.709        -874.834
  22663691.766    22663691.6684   22663699.9224  119098484.425 6  92804023.37342
     -1249.006        -973.244
  20601844.744    20601844.0084   20601853.4654  108263409.548 9  84361107.85746
       618.140         481.674
  24759265.025    24759263.5084                  130110816.703 4
     -2819.896
  20707887.540    20707887.2624   20707894.3834  108820720.254 8  84795391.09546
      1872.948        1459.439
  22206722.672    22206721.7894   22206730.5754  116697128.905 6  90932855.76643
      3004.208        2340.935
  23436174.101    23436174.8894   23436181.5424  123157930.884 6  95967240.55143
      3509.003        2734.283
  19397564.848    19397564.987    19397570.506   103581905.920 9  80563724.277 7
       157.122         122.210
  20992859.458    20992858.521    20992868.018   111903810.074 8  87036310.853 5
      3694.175        2873.244
  22127521.845    22127521.987    22127529.140   118201202.582 6  91934279.426 5
     -2988.832       -2324.646
  23167894.768    23167894.465    23167903.530   123671758.944 6  96189154.286 4
     -3546.685       -2758.532
  19631264.143    19631263.443    19631267.063   105014073.386 8  81677648.232 7
     -1073.576        -835.001
  20411366.100    20411365.000    20411371.985   109148780.365 6  84893546.950 6
      3054.967        2376.086
 11 10 10  8 59 30.0000000  0 15G02G09G12G14G25G27G29G30G31R09R10R16
                                R18R19R20
  22811489.451    22811488.7424   22811494.5914  119875235.274 6  93409295.60143
      -234.917        -183.050
  23784047.979    23784047.9554   23784058.9584  124985949.577 5  97391648.59341
     -3359.866       -2618.079
  21622063.969    21622063.5674   21622070.3284  113624685.658 7  88538733.62945
     -1129.142        -879.852
  22670865.371    22670864.8574   22670872.9844  119136178.904 6  92833395.64042
     -1264.122        -985.028
  20598339.962    20598339.2174   20598348.6854  108244991.770 9  84346756.33247
       609.609         475.018
  24775375.891                                   130195474.991 4
     -2824.080
  20697237.574    20697237.2484   20697244.5354  108764754.541 8  84751781.47046
      1857.964        1447.760
  22189585.157    22189584.0284   22189592.8554  116607071.153 6  90862680.91543
      2999.478        2337.257
  23416159.683    23416159.2404   23416166.7054  123052753.747 5  95885284.37942
      3502.645        2729.327
  19396741.109    19396741.187    19396746.718   103577506.512 9  80560302.499 7
       136.002         105.777
  20972097.639    20972096.538    20972106.119   111793136.013 8  86950231.070 5
      3683.907        2865.250
  22144341.068    22144340.768    22144347.924   118291045.335 7  92004157.001 5
     -3000.902       -2334.040
  23187832.909    23187833.320    23187841.911   123778191.312 6  96271934.891 4
     -3549.052       -2760.371
  19637340.504    19637339.791    19637343.782   105046578.336 8  81702929.834 7
     -1093.538        -850.535
  20394279.171    20394278.712    20394285.835   109057412.240 7  84822482.876 6
      3036.093        2361.401
 11 10 10  9  0  0.0000000  1 15G02G09G12G14G25G27G29G30G31R09R10R16
                                R18R19R20
  22812879.881    22812879.4434   22812884.8274  119882542.443 7  93414989.45143
      -252.162        -196.486
  23803244.642    23803243.1294   23803254.7754  125086822.926 5  97470251.01641
     -3364.939       -2622.035
  21628527.258    21628527.0364   21628533.5524  113658650.190 8  88565199.45045
     -1135.124        -884.508
  22678123.803    22678123.5834   22678131.2814  119174323.632 6  92863118.75242
     -1278.811        -996.490
  20594883.504    20594882.8744   20594892.2894  108226827.735 9  84332602.51547
       601.405         468.626
  24791510.464                                   130280257.405 4
     -2827.936
  20686672.713    20686672.4794   20686679.6784  108709236.159 8  84708520.40546
      1843.316        1436.351
  22172474.611    22172473.2914   22172481.4454  116517153.121 6  90792614.92543
      2995.064        2333.827
  23396181.887    23396181.1334   23396189.4394  122947768.035 6  95803477.35543
      3496.479        2724.516
  19396035.514    19396035.645    19396041.370   103573739.795 9  80557372.806 7
       115.187          89.589
  20951393.088    20951391.629    20951400.948   111682768.240 8  86864389.493 5
      3673.961        2857.530
  22161225.023    22161227.162    22161235.627   118381248.934 6  92074315.212 5
     -3012.598       -2343.127
  23207785.809    23207785.524    23207793.056   123884692.897 6  96354769.309 4
     -3551.033       -2761.909
  19643528.291    19643527.631    19643531.783   105079678.071 8  81728674.043 7
     -1113.057        -865.713
  20377298.083    20377298.025    20377304.860   108966608.951 7  84751858.112 6
      3017.516        2346.952
 11 10 10  9  0 30.0000000  0 15G02G09G12G14G25G27G29G30G31R09R10R16
                                R18R19R20
  22814369.057    22814368.6414   22814375.1594  119890371.951 7  93421090.33343
      -269.576        -210.053
  23822468.887    23822470.0914   23822479.7804  125187851.474 5  97548974.31142
     -3370.137       -2626.055
  21635025.795    21635025.5194   21635032.1844  113692800.384 7  88591809.94645
     -1141.326        -889.341
  22685466.825    22685466.5334   22685475.1864  119212913.659 6  92893188.82442
     -1293.677       -1008.055
  20591474.951    20591474.2554   20591483.6744  108208915.041 9  84318644.55347
       592.989         462.072
  24807666.728                                   130365159.441 4
     -2831.911
  20676192.361    20676192.1464   20676199.4164  108654162.189 8  84665605.64746
      1828.487        1424.797
  22155390.469    22155389.1144   22155397.3054  116427372.880 6  90722656.31943
      2990.454        2330.228
  23376240.419    23376239.7524   23376247.7174  122842973.632 6  95721819.40843
      3490.016        2719.493
  19395448.245    19395448.519    19395453.974   103570603.518 9  80554933.462 7
        94.120          73.208
  20930745.715    20930744.269    20930753.758   111572707.082 8  86778786.402 5
      3663.656        2849.511
  22178179.454    22178180.221    22178189.212   118471808.298 6  92144750.132 5
     -3024.472       -2352.369
  23227749.375    23227749.238    23227756.348   123991258.632 6  96437653.613 4
     -3553.063       -2763.482
  19649826.248    19649825.571    19649829.747   105113367.061 8  81754876.557 7
     -1132.629        -880.929
  20360422.525    20360422.727    20360429.324   108876369.149 6  84681671.616 6
      2998.678        2332.307
 11 10 10  9  1  0.0000000  0 15G02G09G12G14G25G27G29G30G31R09R10R16
                                R18R19R20
  22815958.246    22815957.4344   22815963.4984  119898721.091 6  93427596.11643
      -287.007        -223.635
  23841723.714    23841722.8674   23841733.4084  125289031.013 5  97627815.29642
     -3375.269       -2630.054
  21641559.140    21641558.9844   21641565.8494  113727134.246 7  88618563.54645
     -1147.572        -894.211
  22692894.903    22692894.3394   22692901.9494  119251944.195 6  92923602.15442
     -1308.383       -1019.519
  20588113.816    20588113.1554   20588122.6274  108191251.959 9  84304881.09246
       584.528         455.477
  24823846.348                                   130450177.232 4
     -2835.858
  20665796.302    20665796.1334   20665803.4844  108599530.796 8  84623035.73846
      1813.604        1413.202
  22138331.398    22138330.2284   22138338.8294  116337729.418 6  90652804.28343
      2985.772        2326.577
  23356334.637    23356334.5854   23356342.1114  122738370.519 6  95640310.51443
      3483.538        2714.437
  19394978.879    19394979.174    19394984.438   103568097.050 9  80552983.966 7
        72.982          56.766
  20910156.345    20910155.033    20910163.995   111462954.694 8  86693423.456 5
      3653.162        2841.344
  22195199.270    22195199.045    22195208.393   118562719.551 6  92215458.758 5
     -3036.287       -2361.557
  23247723.278    23247723.357    23247731.306   124097882.752 6  96520583.347 4
     -3555.178       -2765.129
  19656233.088    19656232.403    19656236.486   105147639.934 8  81781533.210 7
     -1152.181        -896.143
  20343652.867    20343652.548    20343659.057   108786691.590 6  84611922.430 6
      2979.821        2317.637
 11 10 10  9  1 30.0000000  0 15G02G09G12G14G25G27G29G30G31R09R10R16
                                R18R19R20
  22817646.830    22817646.2154   22817652.3234  119907593.857 6  93434509.90843
      -304.345        -237.151
  23861007.008    23861006.1304   23861016.4084  125390363.892 6  97706775.75842
     -3380.224       -2633.936
  21648128.598    21648128.2084   21648134.9924  113761656.114 7  88645463.65445
     -1153.709        -898.988
  22700406.445    22700406.1794   22700413.4334  119291417.341 6  92954360.36842
     -1322.907       -1030.842
  20584801.060    20584800.3044   20584809.7934  108173843.377 9  84291315.94347
       576.185         448.972
  24840047.192                                   130535313.388 4
     -2839.623
  20655485.481    20655485.1774   20655492.7034  108545346.406 8  84580814.14546
      1798.848        1401.698
  22121299.751    22121298.3114   22121306.9794  116248228.148 6  90583063.04843
      2981.156        2322.977
  23336466.966    23336466.6634   23336474.6014  122633965.584 6  95558956.03843
      3476.989        2709.334
  19394628.568    19394628.729    19394634.033   103566225.583 9  80551528.362 7
        51.949          40.402
  20889626.564    20889625.382    20889634.226   111353518.837 8  86608306.706 5
      3642.702        2833.210
  22212282.300    22212283.890    22212293.144   118653985.063 6  92286442.924 5
     -3047.891       -2370.584
  23267708.645    23267708.416    23267716.652   124204566.431 6  96603559.410 4
     -3556.861       -2766.445
  19662749.227    19662748.571    19662752.751   105182498.024 8  81808645.031 7
     -1171.534        -911.191
  20326989.346    20326988.882    20326995.647   108697583.119 6  84542615.864 6
      2960.950        2302.962
 11 10 10  9  2  0.0000000  0 15G02G09G12G14G25G27G29G30G31R09R10R16
                                R18R19R20
  22819434.082    22819433.5654   22819440.0464  119916986.434 7  93441828.75743
      -321.983        -250.899
  23880317.441    23880316.9094   23880327.7434  125491844.625 5  97785851.41042
     -3385.358       -2637.934
  21654733.011    21654732.7134   21654739.2324  113796362.652 7  88672507.67045
     -1160.241        -904.079
  22708001.254    22708000.6274   22708008.8694  119331327.015 6  92985458.74642
     -1337.853       -1042.471
  20581536.260    20581535.5294   20581544.8674  108156686.342 9  84277946.80247
       567.439         442.166
  24856270.302    24856268.7504   24856284.9704  130620562.994 4 101782279.19341
     -2843.771       -2215.915
  20645259.092    20645258.7624   20645266.2424  108491606.115 8  84538938.59646
      1783.657        1389.861
  22104295.016    22104293.9764   22104301.8304  116158866.882 7  90513430.91043
      2976.109        2319.035
  23316636.545    23316636.4214   23316644.7734  122529757.636 6  95477755.07143
      3470.042        2703.917
  19394396.474    19394396.651    19394402.125   103564987.210 9  80550565.159 7
        30.471          23.698
  20869156.363    20869154.915    20869163.943   111244399.848 8  86523436.403 5
      3631.717        2824.668
  22229433.745    22229434.322    22229443.040   118745599.252 6  92357698.282 5
     -3059.810       -2379.845
  23287704.680    23287703.979    23287712.932   124311303.511 6  96686577.007 4
     -3559.085       -2768.179
  19669373.698    19669373.203    19669377.528   105217935.280 8  81836207.319 7
     -1191.139        -926.438
  20310430.953    20310431.281    20310437.923   108609041.454 7  84473750.148 6
      2941.658        2287.953
 11 10 10  9  2 30.0000000  0 15G02G09G12G14G25G27G29G30G31R09R10R16
                                R18R19R20
  22821320.856    22821320.2384   22821326.9244  119926899.341 7  93449553.05144
      -339.220        -264.331
  23899657.687    23899656.4254   23899667.9084  125593472.375 5  97865041.61041
     -3390.101       -2641.621
  21661372.590    21661372.6054   21661378.6754  113831255.012 8  88699696.48145
     -1166.303        -908.801
  22715677.570    22715676.9764   22715686.3904  119371672.092 6  93016896.41142
     -1352.195       -1053.671
  20578319.581    20578318.7884   20578328.0514  108139782.513 9  84264774.97846
       559.112         435.676
  24872513.471    24872510.9604   24872531.6224  130705925.498 4 101848794.91741
     -2847.401       -2218.747
  20635117.213    20635117.1234   20635124.4084  108438311.142 8  84497410.05146
      1768.940        1378.396
  22087317.494    22087316.1994   22087324.0324  116069647.776 7  90443909.53243
      2971.470        2315.432
  23296844.597    23296844.1334   23296852.0414  122425750.383 6  95396710.48243
      3463.447        2698.790
  19394283.522    19394283.808    19394289.400   103564383.695 9  80550095.728 7
         9.415           7.326
  20848745.402    20848744.484    20848753.904   111135603.084 8  86438816.719 5
      3621.000        2816.327
  22246650.127    22246650.576    22246658.352   118837561.994 6  92429224.726 5
     -3071.313       -2388.783
  23307708.060    23307709.433    23307718.522   124418092.556 5  96769635.004 4
     -3560.545       -2769.309
  19676106.719    19676105.985    19676109.827   105253949.966 8  81864218.720 7
     -1210.175        -941.243
  20293979.952    20293979.999    20293986.414   108521069.454 7  84405327.510 6
      2922.778        2273.271
 11 10 10  9  3  0.0000000  0 15G02G09G12G14G25G27G29G30G31R09R10R16
                                R18R19R20
  22823308.102    22823306.9254   22823313.7834  119937340.788 7  93457689.19744
      -356.562        -277.838
  23919025.645    23919025.3314   23919035.8804  125695253.579 5  97944351.38441
     -3394.957       -2645.405
  21668049.644    21668049.4574   21668055.7444  113866341.490 7  88727036.55745
     -1172.520        -913.650
  22723440.718    22723439.4274   22723446.5404  119412458.776 6  93048678.16242
     -1366.614       -1064.873
  20575152.560    20575152.0044   20575161.2454  108123140.923 9  84251807.49247
       550.616         429.051
  24888782.248    24888782.0684   24888796.7884  130791407.586 4 101915403.80641
     -2851.074       -2221.645
  20625061.914    20625061.6704   20625069.1244  108385470.424 8  84456235.46946
      1754.050        1366.792
  22070368.136    22070367.2274   22070375.4744  115980580.493 7  90374506.46343
      2966.631        2311.665
  23277093.166    23277093.0924   23277100.3834  122321954.930 6  95315830.95543
      3456.535        2693.406
  19394291.269    19394291.599    19394297.442   103564425.155 9  80550127.940 7
       -11.913          -9.267
  20828398.807    20828397.553    20828406.390   111027140.560 8  86354456.997 5
      3610.068        2807.831
  22263932.381    22263932.218    22263940.026   118929879.363 6  92501026.983 5
     -3082.917       -2397.831
  23327726.312    23327725.755    23327734.077   124524939.198 6  96852737.812 4
     -3562.277       -2770.657
  19682948.245    19682947.466    19682951.692   105290547.342 8  81892683.322 7
     -1229.303        -956.122
  20277637.906    20277637.380    20277643.656   108433677.100 7  84337355.701 6
      2903.673        2258.413
 11 10 10  9  3 30.0000000  0 15G02G09G12G14G25G27G29G30G31R09R10R16
                                R18R19R20
  22825391.018    22825390.2884   22825396.5594  119948286.915 7  93466218.59544
      -373.336        -290.912
  23938417.963    23938416.2284   23938429.8934  125797162.427 5  98023760.61741
     -3399.138       -2648.664
  21674758.664    21674758.4664   21674765.7204  113901598.865 7  88754509.78845
     -1178.176        -918.057
  22731279.815    22731280.1934   22731287.5604  119453661.001 6  93080783.72642
     -1380.428       -1075.658
  20572031.471    20572030.7134   20572040.2914  108106738.516 9  84239026.38147
       542.667         422.865
  24905068.392    24905067.0744   24905082.8154  130876984.322 4 101982086.47641
     -2854.275       -2224.113
  20615088.736    20615088.4824   20615095.8164  108333060.487 8  84415396.55746
      1739.724        1355.630
  22053443.993    22053442.8164   22053451.0714  115891642.683 7  90305204.27843
      2962.354        2308.328
  23257377.893    23257377.7184   23257385.3664  122218350.285 6  95235100.09443
      3450.219        2688.482
  19394415.592    19394415.636    19394421.434   103565088.630 9  80550643.946 7
       -32.571         -25.328
  20808110.554    20808109.472    20808118.200   110918992.330 8  86270341.738 5
      3599.574        2799.675
  22281276.582    22281276.489    22281284.058   119022526.156 6  92573085.443 5
     -3093.835       -2406.316
  23347747.029    23347747.835    23347755.936   124631816.386 6  96935864.392 4
     -3563.161       -2771.347
  19689893.572    19689892.717    19689896.945   105327700.749 8  81921580.395 7
     -1247.767        -970.483
  20261398.639    20261398.507    20261404.986   108346842.635 7  84269817.809 6
      2885.095        2243.961
 11 10 10  9  4  0.0000000  0 15G02G09G12G14G25G27G29G30G31R09R10R16
                                R18R19R20
  22827571.255    22827570.9864   22827577.3754  119959747.733 6  93475149.06643
      -390.900        -304.596
  23957835.757    23957836.4254   23957848.1354  125899208.050 5  98103276.42841
     -3404.156       -2652.570
  21681502.343    21681502.1324   21681509.7634  113937038.051 7  88782124.69845
     -1184.610        -923.071
  22739201.299    22739200.7764   22739209.2644  119495287.142 6  93113219.62842
     -1394.791       -1086.847
  20568958.062    20568957.2924   20568966.7134  108090586.727 9  84226440.56047
       533.921         416.043
  24921370.365    24921373.5044   24921383.2274  130962664.662 4 102048849.83341
     -2857.919       -2226.923
  20605199.650    20605199.3314   20605206.5644  108281092.556 8  84374902.07046
      1724.642        1343.879
  22036546.392    22036545.1154   22036553.5774  115802846.362 6  90236012.34243
      2957.256        2304.363
  23237701.400    23237701.3584   23237708.9154  122114949.517 6  95154528.10343
      3442.953        2682.818
  19394658.640    19394658.751    19394664.745   103566385.918 9  80551652.920 7
       -54.082         -42.063
  20787883.729    20787882.296    20787891.793   110811173.115 8  86186482.368 5
      3588.159        2790.786
  22298683.149    22298683.256    22298691.845   119115511.059 6  92645406.889 5
     -3105.392       -2415.301
  23367776.653    23367777.243    23367785.643   124738732.498 6  97019021.250 4
     -3564.730       -2772.557
  19696944.231    19696943.564    19696947.729   105365418.156 8  81950916.135 7
     -1266.903        -985.369
  20245267.125    20245266.568    20245273.307   108260577.965 7  84202723.091 6
      2865.707        2228.882
 11 10 10  9  4 30.0000000  0 15G02G09G12G14G25G27G29G30G31R09R10R16
                                R18R19R20
  22829853.216    22829852.6734   22829859.0804  119971738.595 6  93484492.56443
      -408.422        -318.241
  23977283.764    23977283.2004   23977294.1774  126001403.834 5  98182909.21141
     -3408.926       -2656.296
  21688284.255    21688283.8774   21688291.1084  113972674.946 7  88809893.66545
     -1191.053        -928.094
  22747205.887    22747205.6654   22747213.8944  119537350.515 6  93145996.20942
     -1409.289       -1098.155
  20565935.423    20565934.6114   20565943.8364  108074701.883 9  84214062.74847
       525.160         409.213
  24937698.561    24937692.4104   24937715.8014  131048462.957 4 102115705.14741
     -2861.792       -2229.893
  20595397.510    20595397.4324   20595404.6234  108229582.551 8  84334764.40846
      1709.464        1332.047
  22019679.524    22019678.1724   22019686.8294  115714208.534 6  90166943.92343
      2952.035        2300.286
  23218068.009    23218067.2484   23218074.1384  122011771.264 6  95074129.50043
      3435.644        2677.131
  19395023.817    19395023.750    19395029.060   103568334.464 9  80553168.423 7
       -75.678         -58.860
  20767722.286    20767721.110    20767730.885   110703702.960 8  86102894.496 5
      3576.580        2781.783
  22316155.501    22316156.316    22316165.463   119208848.188 6  92718002.296 5
     -3116.941       -2424.285
  23387815.897    23387815.563    23387824.697   124845700.872 5  97102218.736 4
     -3566.363       -2773.838
  19704102.763    19704102.265    19704106.592   105403712.595 8  81980700.681 7
     -1285.935       -1000.169
  20229244.740    20229244.805    20229250.947   108174900.646 7  84136085.192 6
      2846.232        2213.737
 11 10 10  9  5  0.0000000  0 15G02G09G12G14G25G27G29G30G31R09R10R16
                                R18R19R20
  22832234.912    22832233.6084   22832240.7044  119984253.459 6  93494244.37543
      -425.849        -331.828
  23996759.822    23996757.7304   23996770.2594  126103742.214 5  98262653.13741
     -3413.641       -2659.974
  21695102.625    21695102.1524   21695109.0304  114008503.783 7  88837812.19645
     -1197.463        -933.086
  22755292.806    22755291.3354   22755299.6404  119579843.000 6  93179107.16942
     -1423.546       -1109.259
  20562962.243    20562961.5794   20562970.7634  108059078.770 9  84201888.87847
       516.428         402.411
  24954045.364    24954044.1604   24954063.2934  131134371.513 4 102182646.37441
     -2865.391       -2232.753
  20585681.888    20585681.6434   20585688.7324  108178525.110 8  84294979.39046
      1694.407        1320.317
  22002840.549    22002840.0784   22002848.1984  115625724.567 6  90097995.38043
      2946.911        2296.293
  23198474.726    23198475.0884   23198481.6274  121908812.153 6  94993901.65743
      3428.336        2671.428
  19395509.542    19395509.728    19395515.114   103570929.074 9  80555186.419 7
       -97.225         -75.618
  20747626.599    20747625.187    20747635.084   110596580.072 8  86019576.727 5
      3564.983        2772.760
  22333694.121    22333694.380    22333703.623   119302530.057 6  92790865.831 5
     -3128.385       -2433.180
  23407862.094    23407861.341    23407871.381   124952712.546 5  97185449.873 4
     -3567.761       -2774.922
  19711367.823    19711367.437    19711371.719   105442575.414 8  82010927.294 7
     -1304.816       -1014.859
  20213331.310    20213331.395    20213338.262   108089806.115 7  84069900.580 6
      2826.767        2198.597
 11 10 10  9  5 30.0000000  0 15G02G09G12G14G25G27G29G30G31R09R10R16
                                R18R19R20
  22834714.565    22834713.9424   22834721.0684  119997286.581 6  93504400.02343
      -443.103        -345.278
  24016259.133    24016259.1864   24016270.0034  126206215.766 5  98342502.37541
     -3418.031       -2663.387
  21701955.764    21701955.7704   21701962.6404  114044519.536 7  88865876.37745
     -1203.648        -937.906
  22763458.930    22763457.9334   22763464.9564  119622756.994 6  93212546.55742
     -1437.516       -1120.125
  20560038.214    20560037.4344   20560046.7514  108043712.768 9  84189915.36347
       507.895         395.766
  24970413.292    24970415.2704   24970427.6834  131220383.565 4 102249668.24841
     -2868.786       -2235.411
  20576051.104    20576050.8424   20576057.9194  108127914.942 8  84255542.89846
      1679.522        1308.719
  21986031.609    21986030.4744   21986038.2124  115537390.514 6  90029163.67843
      2941.932        2292.430
  23178923.782    23178923.0934   23178930.5174  121806069.458 6  94913842.43943
      3421.099        2665.794
  19396115.346    19396115.684    19396121.677   103574165.627 9  80557703.706 7
      -118.597         -92.239
  20727595.552    20727594.174    20727603.948   110489802.875 8  85936527.809 5
      3553.407        2763.758
  22351294.154    22351294.395    22351303.301   119396549.158 6  92863991.654 5
     -3139.539       -2441.848
  23427914.573    23427915.252    23427925.414   125059760.004 5  97268708.859 4
     -3568.858       -2775.768
  19718738.069    19718737.249    19718741.216   105481998.207 8  82041589.453 7
     -1323.421       -1029.325
  20197527.042    20197526.610    20197533.278   108005291.352 7  84004166.914 6
      2807.482        2183.595
 11 10 10  9  6  0.0000000  0 15G02G09G12G14G25G27G29G30G31R09R10R16
                                R18R19R20
  22837292.481    22837291.7144   22837298.6284  120010833.257 6  93514955.86643
      -460.238        -358.632
  24035784.283    24035782.9074   24035795.2794  126308818.746 5  98422452.47641
     -3422.352       -2666.774
  21708844.213    21708844.0624   21708850.9004  114080718.092 7  88894082.99545
     -1209.805        -942.704
  22771704.447    22771702.4174   22771711.7284  119666085.758 6  93246309.16442
     -1451.344       -1130.928
  20557162.300    20557161.6304   20557170.9854  108028600.394 9  84178139.48147
       499.391         389.134
  24986801.914    24986800.4894   24986818.7624  131306493.415 4 102316766.30841
     -2872.210       -2238.065
  20566504.612    20566504.1904   20566511.6974  108077748.240 8  84216451.96146
      1664.705        1297.171
  21969250.119    21969249.2464   21969257.1074  115449203.601 6  89960446.62643
      2936.955        2288.546
  23159413.553    23159413.1344   23159420.3114  121703541.763 6  94833950.75643
      3413.828        2660.119
  19396841.341    19396841.379    19396847.134   103578040.782 9  80560717.688 7
      -139.955        -108.854
  20707629.274    20707627.950    20707637.521   110383371.450 8  85853747.838 5
      3541.766        2754.708
  22368956.442    22368957.402    22368965.278   119490899.595 6  92937375.196 5
     -3150.624       -2450.482
  23447974.829    23447973.802    23447984.591   125166835.873 5  97351989.973 4
     -3569.945       -2776.625
  19726211.096    19726210.352    19726214.491   105521973.933 8  82072681.663 7
     -1341.848       -1043.660
  20181829.961    20181829.635    20181836.628   107921352.917 7  83938881.491 7
      2788.183        2168.581
 11 10 10  9  6 30.0000000  0 15G02G09G12G14G25G27G29G30G31R09R10R16
                                R18R19R20
  22839969.094    22839968.4554   22839974.8814  120024896.865 6  93525914.50843
      -477.469        -372.060
  24055335.457    24055334.4304   24055346.1034  126411553.108 5  98502504.94841
     -3426.736       -2670.172
  21715768.296    21715767.9944   21715775.0834  114117103.885 7  88922435.51845
     -1216.048        -947.574
  22780028.662    22780028.1114   22780034.8344  119709830.915 6  93280396.25442
     -1465.167       -1141.676
  20554335.807    20554334.9794   20554344.5774  108013746.417 9  84166564.94847
       490.738         382.392
  25003205.894    25003205.9034   25003223.7614  131392703.539 3 102383942.54241
     -2875.258       -2240.501
  20557043.160    20557042.9144   20557050.4074  108028029.205 8  84177709.85946
      1649.778        1285.539
  21952497.958    21952496.6464   21952504.9074  115361169.153 7  89891848.37443
      2931.877        2284.581
  23139944.364    23139944.2064   23139952.1474  121601235.975 6  94754231.98643
      3406.406        2654.344
  19397687.394    19397687.727    19397693.315   103582559.881 9  80564232.518 7
      -161.420        -125.550
  20687729.136    20687727.931    20687736.941   110277293.532 8  85771242.807 5
      3529.917        2745.493
  22386682.841    22386683.101    22386690.132   119585583.657 6  93011018.206 5
     -3161.711       -2459.103
  23468040.165    23468039.401    23468048.731   125273942.825 5  97435295.250 4
     -3570.805       -2777.286
  19733787.983    19733787.087    19733790.938   105562503.576 8  82104204.697 7
     -1360.246       -1057.970
  20166242.549    20166241.633    20166248.654   107837997.459 7  83874049.494 6
      2768.702        2153.436
 11 10 10  9  7  0.0000000  0 15G02G09G12G14G25G27G29G30G31R09R10R16
                                R18R19R20
  22842742.367    22842742.1904   22842748.9414  120039475.010 6  93537274.06443
      -494.347        -385.214
  24074908.183    24074907.4224   24074918.6694  126514414.613 5  98582656.47341
     -3430.531       -2673.119
  21722728.009    21722727.5984   21722734.1724  114153674.986 7  88950932.44345
     -1221.925        -952.151
  22788431.447    22788430.9834   22788437.6724  119753988.036 6  93314804.32642
     -1478.583       -1152.142
  20551557.962    20551557.2974   20551566.8684  107999149.227 9  84155190.50447
       482.477         375.949
  25019629.499                                   131479010.431 3
     -2878.354
  20547666.678    20547666.5274   20547674.0504  107978755.782 8  84139314.99246
      1635.194        1274.172
  21935774.559    21935773.7534   21935781.5004  115273286.306 6  89823368.24543
      2927.083        2280.845
  23120519.604    23120518.9234   23120526.9434  121499152.281 6  94674686.29743
      3399.225        2648.745
  19398654.415    19398654.502    19398659.986   103587721.581 9  80568247.144 7
      -182.614        -142.038
  20667895.519    20667894.125    20667903.500   110171570.683 8  85689013.952 5
      3518.333        2736.476
  22404469.015    22404469.490    22404477.138   119680597.062 6  93084917.380 5
     -3172.329       -2467.368
  23488108.100    23488108.794    23488118.620   125381074.491 5  97518619.720 4
     -3571.164       -2777.577
  19741466.819    19741466.163    19741469.965   105603582.245 8  82136154.753 7
     -1378.185       -1071.925
  20150762.566    20150762.582    20150769.197   107755223.177 7  83809669.515 6
      2749.622        2138.589
 11 10 10  9  7 30.0000000  0 15G02G09G12G14G25G27G29G30G31R09R10R16
                                R18R19R20
  22845614.963    22845614.4664   22845621.3324  120054570.149 6  93549036.52543
      -511.992        -398.965
  24094506.803    24094507.5494   24094518.5064  126617404.593 5  98662908.11041
     -3435.257       -2676.820
  21729722.665    21729722.5284   21729729.4854  114190434.502 7  88979576.18145
     -1228.626        -957.371
  22796911.671    22796911.9804   22796920.0634  119798557.847 6  93349533.97842
     -1492.652       -1163.105
  20548829.819    20548829.1604   20548838.7014  107984812.632 9  84144019.12046
       473.391         368.875
  25036072.821                                   131565415.404 3
     -2881.832
  20538375.652    20538375.6504   20538383.0274  107929931.809 8  84101270.34146
      1619.821        1262.202
  21919080.494    21919079.6694   21919087.5634  115185559.481 7  89755009.69343
      2921.436        2276.450
  23101136.784    23101136.5244   23101143.8924  121397296.512 6  94595318.20643
      3391.212        2642.510
  19399742.171    19399742.087    19399747.726   103593529.922 9  80572764.708 7
      -204.519        -159.068
  20648129.988    20648128.936    20648138.151   110066210.482 8  85607067.153 5
      3505.753        2726.699
  22422317.387    22422317.520    22422326.317   119775941.041 6  93159073.666 5
     -3183.881       -2476.344
  23508184.774    23508183.769    23508191.888   125488232.113 5  97601964.362 4
     -3572.448       -2778.565
  19749248.715    19749247.932    19749252.121   105645209.945 8  82168531.836 7
     -1396.854       -1086.443
  20135393.178    20135392.925    20135399.725   107673034.742 7  83745745.192 6
      2729.702        2123.100
 11 10 10  9  8  0.0000000  0 15G02G09G12G14G25G27G29G30G31R09R10R16
                                R18R19R20
  22848585.615    22848585.2364   22848592.1094  120070180.859 6  93561200.70743
      -528.910        -412.138
  24114128.251    24114128.6764   24114140.1964  126720520.313 5  98743257.72941
     -3439.308       -2679.983
  21736753.253    21736753.0644   21736760.3714  114227382.005 7  89008366.39545
     -1234.755        -962.143
  22805472.049    22805470.6024   22805478.1804  119843537.056 6  93384582.63742
     -1506.130       -1173.632
  20546151.252    20546150.4914   20546159.9234  107970736.562 9  84133050.74147
       464.855         362.224
  25052534.609                                   131651916.149 3
     -2884.937
  20529170.495    20529170.1774   20529177.3914  107881556.510 8  84063575.31546
      1605.020        1250.662
  21902416.509    21902415.4434   21902423.4614  115097989.355 7  89686773.25743
      2916.382        2272.502
  23081797.515    23081797.8014   23081804.4894  121295670.607 6  94516129.21643
      3383.677        2636.631
  19400950.861    19400951.018    19400956.889   103599985.410 9  80577785.609 7
      -225.966        -175.749
  20628433.836    20628432.496    20628441.766   109961216.175 8  85525404.940 5
      3493.697        2717.312
  22440227.424    22440227.894    22440236.958   119871613.026 6  93233485.075 5
     -3194.598       -2484.688
  23528262.891    23528261.905    23528270.520   125595412.421 5  97685326.666 4
     -3573.081       -2779.059
  19757132.432    19757131.879    19757136.054   105687383.097 8  82201333.151 7
     -1414.820       -1100.416
  20120133.462    20120133.302    20120140.103   107591433.830 7  83682277.830 7
      2710.241        2107.968
 11 10 10  9  8 30.0000000  0 15G02G09G12G14G25G27G29G30G31R09R10R16
                                R18R19R20
  22851652.989    22851652.9674   22851660.1494  120086299.820 6  93573760.93143
      -546.058        -425.504
  24133774.593    24133774.0354   24133784.4084  126823752.800 5  98823698.29541
     -3443.392       -2683.137
  21743818.708    21743818.3674   21743825.5634  114264510.789 7  89037297.87445
     -1240.945        -966.967
  22814107.065    22814107.2624   22814114.8904  119888916.215 6  93419942.94442
     -1519.565       -1184.085
  20543520.918    20543520.2924   20543529.8204  107956914.657 9  84122280.41947
       456.191         355.474
  25069012.976                                   131738504.114 3
     -2888.058
  20520049.016    20520048.6994   20520056.0354  107833622.988 8  84026224.52546
      1590.126        1239.059
  21885781.246    21885779.6914   21885787.9124  115010570.084 7  89618654.36743
      2911.144        2268.427
  23062501.934    23062501.7324   23062508.9664  121194270.084 6  94437115.85143
      3375.940        2630.599
  19402279.763    19402279.819    19402285.605   103607081.273 9  80583304.583 7
      -247.525        -192.517
  20608805.538    20608803.847    20608813.255   109856584.221 8  85444024.554 5
      3481.333        2707.703
  22458198.003    22458197.977    22458207.401   119967604.081 6  93308144.631 5
     -3205.296       -2493.000
  23548343.495    23548343.050    23548352.228   125702605.847 5  97768699.159 4
     -3573.556       -2779.425
  19765116.351    19765115.758    19765119.814   105730091.343 8  82234550.653 7
     -1432.814       -1114.412
  20104981.569    20104981.963    20104988.489   107510413.596 7  83619262.116 7
      2690.691        2092.761
 11 10 10  9  9  0.0000000  0 15G02G09G12G14G25G27G29G30G31R09R10R16
                                R18R19R20
  22854818.218    22854817.2064   22854824.0894  120102931.164 7  93586720.42743
      -562.832        -438.573
  24153442.054    24153441.5184   24153453.4454  126927104.888 5  98904232.06941
     -3446.948       -2685.916
  21750919.729    21750919.6054   21750926.1874  114301825.397 7  89066374.14445
     -1246.858        -971.578
  22822819.864    22822818.9644   22822825.5974  119934697.666 6  93455616.71842
     -1532.586       -1194.223
  20540940.062    20540939.4474   20540949.1084  107943352.334 8  84111712.36947
       447.797         348.932
  25085508.432                                   131825182.500 3
     -2890.769
  20511012.326    20511012.1264   20511019.6234  107786136.237 8  83989221.86746
      1575.487        1227.655
  21869175.835    21869174.2124   21869182.8384  114923307.989 6  89550657.94543
      2906.187        2264.571
  23043251.111    23043250.7434   23043257.3394  121093102.608 6  94358284.07643
      3368.430        2624.753
  19403729.990    19403729.986    19403735.694   103614823.404 9  80589326.201 7
      -268.812        -209.076
  20589246.258    20589244.858    20589254.047   109752324.043 8  85362933.326 5
      3469.172        2698.246
  22476227.619    22476227.705    22476237.819   120063917.041 6  93383054.568 5
     -3215.790       -2501.167
  23568426.505    23568426.590    23568436.137   125809814.209 5  97852083.246 4
     -3573.800       -2779.613
  19773200.939    19773200.062    19773203.993   105773336.803 8  82268185.993 7
     -1450.341       -1128.043
  20089941.225    20089940.709    20089947.130   107429980.993 7  83556703.440 7
      2671.350        2077.719
 11 10 10  9  9 30.0000000  0 15G02G09G12G14G25G27G29G30G31R09R10R16
                                R18R19R20
  22858080.706    22858079.5984   22858086.4284  120120071.730 6  93600076.71443
      -579.894        -451.867
  24173130.701    24173130.8674   24173141.4964  127030572.090 5  98984855.58541
     -3450.893       -2688.991
  21758055.369    21758055.4224   21758062.0324  114339323.514 7  89095593.40145
     -1253.077        -976.422
  22831606.656    22831606.3184   22831614.9754  119980876.180 6  93491599.87842
     -1545.981       -1204.667
  20538408.363    20538407.7154   20538417.3324  107930047.586 8  84101345.02647
       439.113         342.169
  25102015.752                                   131911946.821 3
     -2893.535
  20502060.575    20502060.2384   20502067.7034  107739093.904 8  83952565.51546
      1560.617        1216.068
  21852599.683    21852599.1004   21852607.1024  114836201.580 7  89482782.83443
      2900.818        2260.375
  23024042.548    23024042.5574   23024049.0704  120992167.376 6  94279633.27943
      3360.555        2618.620
  19405300.268    19405300.384    19405306.117   103623210.189 9  80595849.217 7
      -290.401        -225.866
  20569757.155    20569756.177    20569764.917   109648436.735 8  85282132.118 5
      3456.593        2688.461
  22494316.561    22494316.662    22494327.123   120160546.933 6  93458211.042 5
     -3226.320       -2509.353
  23588513.125    23588512.919    23588521.430   125917032.752 5  97935475.290 4
     -3574.146       -2779.887
  19781384.493    19781383.786    19781387.439   105817113.937 8  82302234.853 7
     -1468.106       -1141.861
  20075009.449    20075009.003    20075015.356   107350134.337 7  83494600.503 7
      2651.700        2062.432
 11 10 10  9 10  0.0000000  0 15G02G09G12G14G25G27G29G30G31R09R10R16
                                R18R19R20
  22861438.774    22861438.4754   22861443.7644  120137720.172 6  93613828.71543
      -596.881        -465.095
  24192840.719    24192841.2454   24192853.2264  127134151.744 5  99065566.67841
     -3454.650       -2691.920
  21765226.047    21765226.1134   21765232.8514  114377005.080 7  89124955.60445
     -1259.195        -981.187
  22840469.796    22840468.3634   22840477.1714  120027448.673 6  93527890.04142
     -1559.032       -1214.818
  20535925.773    20535925.0654   20535934.5744  107917000.667 9  84091178.58947
       430.500         335.456
  25118548.306                                   131998795.248 3
     -2896.432
  20493193.179    20493192.8904   20493200.4094  107692495.465 8  83916255.05146
      1545.785        1204.506
  21836053.856    21836053.2324   21836061.3194  114749251.757 6  89415029.74543
      2895.613        2256.313
  23004880.468    23004880.4534   23004886.5004  120891467.616 6  94201165.94143
      3352.625        2612.438
  19406991.539    19406991.774    19406997.359   103632241.486 9  80602873.524 7
      -311.909        -242.597
  20550339.012    20550337.600    20550346.886   109544925.635 8  85201623.507 5
      3443.955        2678.629
  22512466.014    22512466.144    22512474.677   120257491.739 6  93533612.426 5
     -3236.869       -2517.559
  23608600.944    23608599.808    23608608.758   126024258.386 5  98018872.839 4
     -3574.316       -2780.013
  19789666.742    19789666.039    19789669.862   105861418.747 8  82336694.130 7
     -1485.684       -1155.529
  20060187.394    20060187.114    20060193.377   107270874.414 7  83432953.920 7
      2632.114        2047.200
 11 10 10  9 10 30.0000000  0 16G02G09G12G14G25G27G29G30G31R09R10R16
                                R18R19R20R21
  22864893.504    22864892.3514   22864899.2144  120155876.697 6  93627976.62643
      -613.752        -478.247
  24212574.171    24212572.0034   24212584.8564  127237843.128 5  99146364.85641
     -3458.153       -2694.645
  21772431.984    21772431.7514   21772438.5874  114414871.068 8  89154461.51245
     -1265.347        -985.984
  22849406.561    22849405.5744   22849414.6454  120074413.844 6  93564486.19442
     -1572.148       -1225.042
  20533492.498    20533491.7704   20533501.0864  107904213.238 9  84081214.34847
       421.868         328.721
  25135086.454                                   132085726.619 3
     -2899.166
  20484410.465    20484410.1504   20484417.5874  107646341.907 8  83880291.25246
      1530.964        1192.957
  21819538.099    21819537.3704   21819545.2614  114662460.956 6  89347400.56743
      2890.283        2252.165
  22985763.388    22985763.3784   22985770.4174  120791006.816 6  94122884.84043
      3344.623        2606.195
  19408803.906    19408804.197    19408809.938   103641919.522 9  80610400.847 7
      -333.436        -259.341
  20530991.965    20530990.638    20530999.960   109441796.122 8  85121411.674 5
      3431.201        2668.710
  22530672.121    22530673.161    22530681.486   120354750.374 6  93609257.878 5
     -3247.222       -2525.608
  23628689.165    23628688.408    23628696.603   126131489.072 6  98102274.330 4
     -3574.477       -2780.144
  19798047.174    19798046.676    19798050.506   105906249.487 8  82371562.463 7
     -1503.131       -1169.104
  20045475.620    20045475.272    20045481.766   107192204.367 7  83371766.132 7
      2612.462        2031.915
  24170521.616    24170520.965    24170529.333   129341333.077 5 100598856.312 4
      4454.815        3464.841
 11 10 10  9 11  0.0000000  0 16G02G09G12G14G25G27G29G30G31R09R10R16
                                R18R19R20R21
  22868445.766    22868445.8154   22868452.3134  120174545.759 6  93642523.91343
      -630.707        -491.456
  24232327.869    24232326.4314   24232338.2964  127341648.855 5  99227252.11841
     -3461.937       -2697.603
  21779673.574    21779673.3704   21779680.2494  114452926.494 7  89184115.03445
     -1271.546        -990.813
  22858417.617    22858418.5654   22858426.0964  120121773.717 5  93601389.91842
     -1585.007       -1235.058
  20531109.285    20531108.5974   20531118.2534  107891690.572 9  84071456.41447
       413.164         321.946
  25151647.491                                   132172743.508 2
     -2901.687
  20475713.299    20475713.2684   20475720.4534  107600638.409 8  83844678.15446
      1516.105        1181.379
  21803053.800    21803052.7584   21803060.5874  114575835.188 6  89279899.98344
      2884.913        2247.992
  22966693.455    22966693.3384   22966700.5484  120690791.997 6  94044795.40843
      3336.506        2599.875
  19410738.701    19410738.883    19410744.491   103652249.700 9  80618435.392 7
      -355.070        -276.163
  20511718.482    20511717.054    20511726.552   109339056.810 8  85041503.342 5
      3418.269        2658.655
  22548938.720    22548939.587    22548947.570   120452325.683 6  93685149.609 5
     -3257.631       -2533.697
  23648777.776    23648777.765    23648785.564   126238727.385 6  98185681.714 4
     -3574.544       -2780.202
  19806526.524    19806526.039    19806530.020   105951607.946 8  82406841.242 7
     -1520.556       -1182.658
  20030874.893    20030875.084    20030881.463   107114129.749 7  83311041.447 7
      2592.740        2016.575
  24145560.318    24145559.918    24145570.184   129207769.508 5 100494973.740 4
      4449.438        3460.655
 11 10 10  9 11 30.0000000  0 15G02G09G12G14G25G29G30G31R09R10R16R18
                                R19R20R21
  22872095.847    22872095.4264   22872102.9414  120193727.213 6  93657470.47143
      -647.970        -504.907
  24252103.566    24252101.8384   24252113.9294  127445567.963 5  99308227.71541
     -3465.892       -2700.697
  21786951.851    21786951.3024   21786958.5374  114491172.252 7  89213916.86845
     -1278.136        -995.945
  22867506.177    22867505.6144   22867513.3934  120169526.641 6  93638599.89442
     -1598.353       -1245.470
  20528777.216    20528776.3374   20528785.7924  107879434.120 9  84061905.92147
       404.026         314.827
  20467102.006    20467101.8204   20467109.0364  107555385.785 8  83809416.38446
      1500.821        1169.470
  21786600.704    21786600.4264   21786608.3624  114489376.502 7  89212529.58844
      2879.062        2243.429
  22947670.071    22947670.5004   22947676.8324  120590826.382 6  93966900.14543
      3327.921        2593.194
  19412795.425    19412795.464    19412801.304   103663233.416 9  80626978.247 7
      -377.112        -293.308
  20492518.579    20492517.275    20492526.543   109236712.388 8  84961902.138 5
      3404.770        2648.157
  22567264.513    22567265.022    22567273.785   120550216.396 6  93761286.649 5
     -3268.405       -2542.083
  23668867.654    23668868.277    23668876.881   126345971.825 5  98269093.858 4
     -3574.883       -2780.456
  19815104.228    19815103.493    19815107.632   105997491.782 8  82442528.647 7
     -1538.255       -1196.422
  20016386.435    20016385.964    20016392.609   107036651.959 7  83250780.964 7
      2572.564        2000.884
  24120632.223    24120631.982    24120642.317   129074374.715 4 100391222.455 4
      4443.585        3456.113
 11 10 10  9 12  0.0000000  0 15G02G09G12G14G25G29G30G31R09R10R16R18
                                R19R20R21
  22875843.637    22875842.7574   22875849.8544  120213419.652 6  93672815.17943
      -664.899        -518.093
  24271900.049    24271898.4334   24271911.6154  127549597.842 5  99389289.64841
     -3469.510       -2703.529
  21794265.614    21794265.2704   21794272.4444  114529607.899 7  89243866.66045
     -1284.349       -1000.792
  22876667.494    22876666.7634   22876675.0654  120217669.443 6  93676113.67642
     -1611.250       -1255.517
  20526495.496    20526494.6834   20526504.2054  107867443.950 9  84052562.91246
       395.219         307.963
  20458576.274    20458576.2084   20458583.2444  107510583.035 8  83774505.16546
      1485.924        1157.864
  21770180.464    21770179.8144   21770187.3864  114403085.763 7  89145290.05344
      2873.562        2239.136
  22928695.466    22928695.5984   22928702.2124  120491112.455 6  93889201.01643
      3319.552        2586.662
  19414974.394    19414974.803    19414980.686   103674870.720 9  80636029.453 7
      -398.789        -310.171
  20473393.272    20473392.120    20473401.386   109134766.204 8  84882610.686 5
      3391.511        2637.845
  22585648.796    22585649.466    22585658.949   120648419.847 6  93837666.928 5
     -3278.642       -2550.057
  23688959.268    23688958.549    23688968.735   126453219.195 5  98352508.260 4
     -3574.931       -2780.498
  19823778.912    19823778.512    19823782.372   106043897.326 8  82478621.825 7
     -1555.502       -1209.840
  20002009.217    20002009.212    20002016.033   106959772.152 7  83190985.574 7
      2552.689        1985.421
  24095735.838    24095735.218    24095747.207   128941150.490 4 100287603.784 4
      4437.942        3451.725
 11 10 10  9 12 30.0000000  0 16G02G09G12G14G21G25G29G30G31R09R10R16
                                R18R19R20R21
  22879687.734    22879686.8374   22879694.1214  120233619.880 6  93688555.57943
      -681.943        -531.390
  24291716.782    24291714.8264   24291727.4034  127653733.635 5  99470434.11041
     -3473.038       -2706.233
  21801615.569    21801615.1084   21801622.0744  114568231.214 7  89273962.69245
     -1290.651       -1005.705
  22885901.957    22885900.6904   22885909.6124  120266196.890 6  93713927.20142
     -1624.046       -1265.491
  25069963.923                                   131743575.667 4
      3733.780
  20524264.235    20524263.3604   20524272.7794  107855718.208 9  84043425.95247
       386.347         301.049
  20450135.954    20450135.7564   20450142.8534  107466228.045 8  83739942.84946
      1470.949        1146.199
  21753791.923    21753790.4974   21753799.1024  114316961.744 7  89078180.42444
      2867.907        2234.730
  22909768.475    22909768.6734   22909775.0694  120391650.210 6  93811698.00143
      3311.113        2580.082
  19417276.163    19417276.256    19417281.997   103687159.705 9  80645587.516 7
      -420.587        -327.121
  20454343.164    20454342.466    20454351.782   109033219.970 8  84803630.290 5
      3378.069        2627.388
  22604090.790    22604090.700    22604101.039   120746931.350 6  93914286.793 5
     -3288.853       -2557.995
  23709050.039    23709048.759    23709059.659   126560464.324 5  98435920.929 4
     -3574.854       -2780.439
  19832550.868    19832550.202    19832553.722   106090819.018 8  82515116.448 7
     -1572.706       -1223.213
  19987744.359    19987743.784    19987750.516   106883489.024 7  83131654.281 7
      2532.720        1969.894
  24070869.190    24070870.821    24070882.377   128808096.859 4 100184117.852 4
      4432.158        3447.226
 11 10 10  9 13  0.0000000  0 16G02G09G12G14G21G25G29G30G31R09R10R16
                                R18R19R20R21
  22883629.728    22883629.1524   22883635.3464  120254334.426 6  93704696.74543
      -698.828        -544.543
  24311553.642    24311551.9064   24311564.3014  127757980.784 5  99551665.35041
     -3476.486       -2708.926
  21809002.443    21809002.1584   21809008.7784  114607049.553 7  89304210.69245
     -1296.992       -1010.648
  22895210.037    22895209.6214   22895219.4024  120315113.681 6  93752044.07642
     -1636.852       -1275.488
  25048645.584                                   131631542.327 4
      3735.322
  20522084.658    20522083.8334   20522093.1134  107844264.743 9  84034501.16247
       377.434         294.099
  20441782.072    20441781.7574   20441789.1294  107422328.015 8  83705735.05546
      1455.968        1134.518
  21737435.921    21737435.0694   21737443.6964  114231012.988 7  89011207.36044
      2862.213        2230.292
  22890890.789    22890890.6774   22890897.7244  120292449.551 6  93734398.80943
      3302.523        2573.389
  19419701.104    19419701.280    19419706.735   103700108.107 9  80655658.458 7
      -442.380        -344.078
  20435371.338    20435370.089    20435378.922   108932084.937 8  84724969.728 5
      3364.510        2616.836
  22622590.036    22622590.926    22622601.036   120845756.304 6  93991150.486 5
     -3299.159       -2566.013
  23729141.305    23729140.741    23729150.066   126667712.545 5  98519336.001 4
     -3574.793       -2780.397
  19841419.738    19841418.984    19841422.811   106138261.007 8  82552015.750 7
     -1589.821       -1236.531
  19973592.093    19973591.714    19973598.071   106807810.580 7  83072793.305 7
      2512.744        1954.349
  24046041.527    24046040.980    24046052.152   128675223.538 5 100080772.213 4
      4426.353        3442.704
 11 10 10  9 13 30.0000000  0 16G02G09G12G14G21G25G29G30G31R09R10R16
                                R18R19R20R21
  22887667.623    22887666.8604   22887673.7784  120275551.594 6  93721229.55043
      -715.829        -557.783
  24331410.596    24331410.8774   24331423.3854  127862326.612 5  99632973.47341
     -3480.104       -2711.753
  21816424.197    21816424.1334   21816431.2604  114646052.480 7  89334602.51945
     -1303.391       -1015.629
  22904590.909    22904589.6314   22904598.2674  120364406.484 6  93790453.94542
     -1649.565       -1285.375
  25027315.939                                   131519456.209 4
      3736.752
  20519954.950    20519954.2374   20519963.7104  107833073.573 9  84025780.75347
       368.456         287.109
  20433512.862    20433512.4804   20433519.8014  107378872.448 8  83671873.59046
      1440.895        1122.775
  21721112.527    21721111.4174   21721119.6364  114145230.300 7  88944363.70544
      2856.426        2225.789
  22872061.946    22872061.5374   22872069.0514  120193502.148 6  93657296.95443
      3293.804        2566.598
  19422247.198    19422247.401    19422253.314   103713705.865 9  80666234.456 7
      -464.288        -361.111
  20416474.470    20416473.055    20416482.377   108831353.955 8  84646623.429 5
      3350.724        2606.117
  22641147.276    22641147.602    22641157.223   120944881.833 6  94068247.936 5
     -3309.349       -2573.933
  23749231.673    23749231.151    23749240.709   126774950.442 5  98602743.054 4
     -3574.668       -2780.290
  19850382.885    19850382.437    19850386.369   106186209.176 8  82589308.744 7
     -1606.875       -1249.792
  19959550.712    19959550.492    19959557.204   106732727.092 7  83014395.064 6
      2492.659        1938.735
  24021244.409    24021243.999    24021252.944   128542522.057 5  99977560.172 4
      4420.276        3437.979
 11 10 10  9 14  0.0000000  0 16G02G09G12G14G21G25G29G30G31R09R10R16
                                R18R19R20R21
  22891801.545    22891801.2584   22891808.2114  120297278.271 6  93738159.36643
      -732.683        -570.917
  24351286.241    24351286.9814   24351298.2174  127966776.508 4  99714362.64741
     -3483.365       -2714.291
  21823883.105    21823882.7554   21823889.9734  114685247.587 7  89365144.10145
     -1309.641       -1020.500
  22914042.954    22914042.2364   22914050.8094  120414079.990 5  93829160.47342
     -1661.988       -1295.041
  25005976.694                                   131407327.759 4
      3738.305
  20517876.814    20517876.0474   20517885.5284  107822152.695 9  84017270.96647
       359.577         280.187
  20425329.563    20425329.1034   20425336.3084  107335868.404 8  83638363.96346
      1426.002        1111.172
  21704821.473    21704820.7334   21704829.3614  114059622.398 7  88877656.25744
      2850.722        2221.342
  22853282.544    22853282.5354   22853289.9234  120094818.089 6  93580400.32643
      3285.130        2559.832
  19424916.948    19424917.036    19424922.822   103727961.000 9  80677321.752 7
      -486.079        -378.059
  20397655.573    20397654.402    20397663.452   108731038.899 8  84568600.630 5
      3336.934        2595.384
  22659760.221    22659761.196    22659770.428   121044313.263 6  94145583.304 5
     -3319.308       -2581.670
  23769319.258    23769319.793    23769329.188   126882182.780 5  98686145.791 4
     -3574.262       -2779.977
  19859441.840    19859441.220    19859445.237   106234668.154 8  82626999.039 7
     -1623.701       -1262.881
  19945622.782    19945622.380    19945629.132   106658247.585 7  82956466.592 7
      2472.646        1923.165
  23996479.848    23996478.303    23996488.674   128410002.290 5  99874489.524 4
      4414.238        3433.283
 11 10 10  9 14 30.0000000  0 16G02G09G12G14G21G25G29G30G31R09R10R16
                                R18R19R20R21
  22896032.177    22896031.8704   22896038.3294  120319509.426 6  93755482.27843
      -749.470        -583.999
  24371181.838    24371181.3254   24371196.8384  128071324.284 4  99795828.10941
     -3486.604       -2716.838
  21831377.805    21831377.5184   21831384.1634  114724630.464 7  89395831.97945
     -1315.946       -1025.408
  22923567.408    22923565.9464   22923575.3144  120464127.490 6  93868158.44442
     -1674.451       -1304.758
  24984632.013                                   131295154.684 4
      3739.754
  20515849.204    20515848.5194   20515858.1604  107811498.468 8  84008968.95347
       350.648         273.233
  20417231.071    20417230.8404   20417238.1214  107293311.782 8  83605202.97046
      1411.049        1099.515
  21688563.955    21688562.8054   21688570.7384  113974186.398 7  88811082.75344
      2844.919        2216.820
  22834553.705    22834553.5154   22834560.8634  119996396.017 6  93503707.81843
      3276.282        2552.948
  19427708.974    19427709.082    19427715.008   103742869.821 9  80688917.464 7
      -507.948        -395.069
  20378914.891    20378913.577    20378922.742   108631139.620 8  84490901.224 5
      3322.969        2584.535
  22678430.026    22678432.058    22678440.691   121144044.310 6  94223151.684 5
     -3329.354       -2589.485
  23789407.406    23789406.047    23789414.798   126989402.944 6  98769539.050 4
     -3573.939       -2779.720
  19868594.807    19868594.195    19868598.348   106283630.397 8  82665080.753 7
     -1640.486       -1275.929
  19931806.896    19931806.621    19931813.299   106584368.511 7  82899005.125 7
      2452.588        1907.570
  23971747.119    23971746.290    23971756.855   128277662.388 4  99771558.767 4
      4408.226        3428.615
 11 10 10  9 15  0.0000000  0 16G02G09G12G14G21G25G29G30G31R09R10R16
                                R18R19R20R21
  22900358.425    22900358.1624   22900364.8174  120342245.778 6  93773198.84043
      -766.116        -596.982
  24391096.384    24391095.0714   24391109.9894  128175969.654 4  99877369.58241
     -3489.573       -2719.125
  21838908.130    21838908.0104   21838914.7964  114764203.558 7  89426668.09145
     -1322.054       -1030.176
  22933162.069    22933160.6544   22933169.0644  120514548.070 6  93907447.10742
     -1686.638       -1314.252
  24963279.777                                   131182941.524 4
      3741.234
  20513873.325    20513872.4364   20513881.8454  107801113.480 9  84000876.74147
       341.891         266.406
  20409218.381    20409218.1444   20409225.1904  107251204.314 8  83572391.97346
      1396.311        1088.025
  21672339.194    21672338.2354   21672346.2114  113888925.535 7  88744645.72044
      2839.301        2212.436
  22815875.224    22815875.0324   22815882.3814  119898240.568 6  93427223.06343
      3267.583        2546.167
  19430623.743    19430623.902    19430629.853   103758434.756 9  80701023.491 7
      -529.523        -411.851
  20360253.205    20360251.817    20360261.389   108531661.663 8  84413529.505 5
      3309.086        2573.736
  22697157.036    22697157.827    22697166.554   121244074.599 6  94300952.826 5
     -3339.043       -2597.015
  23809489.303    23809489.375    23809498.823   127096610.376 6  98852922.408 4
     -3573.085       -2779.061
  19877841.311    19877840.947    19877845.048   106333094.788 8  82703553.029 7
     -1656.897       -1288.699
  19918104.373    19918103.674    19918110.370   106511093.051 7  82842013.125 7
      2432.675        1892.076
  23947050.290    23947049.865    23947058.890   128145506.535 5  99668771.180 4
      4402.276        3423.982
 11 10 10  9 15 30.0000000  0 16G02G09G12G14G21G25G29G30G31R09R10R16
                                R18R19R20R21
  22904780.161    22904779.1074   22904785.9774  120365479.084 7  93791302.66743
      -782.887        -610.048
  24411025.666    24411025.4844   24411037.9194  128280703.432 5  99958979.93941
     -3492.740       -2721.605
  21846473.217    21846473.0874   21846480.3764  114803959.105 7  89457646.36345
     -1328.434       -1035.145
  22942826.074    22942825.1774   22942833.3324  120565331.673 6  93947018.65742
     -1699.065       -1323.946
  24941916.586                                   131070683.247 4
      3742.490
  20511946.780    20511946.2104   20511955.6764  107790990.829 9  83992988.95646
       332.841         259.359
  20401289.703    20401289.3584   20401296.4734  107209538.666 8  83539925.24246
      1381.290        1076.333
  21656146.685    21656145.8174   21656154.0124  113803833.710 7  88678340.40844
      2833.338        2207.796
  22797246.319    22797246.6384   22797254.0274  119800346.661 6  93350942.13743
      3258.547        2539.130
  19433659.937    19433660.137    19433666.120   103774648.232 9  80713633.935 7
      -551.484        -428.931
  20341669.118    20341668.081    20341677.257   108432601.481 8  84336482.722 5
      3294.800        2562.620
  22715938.590    22715938.186    22715947.260   121344394.639 6  94378979.310 5
     -3349.020       -2604.789
  23829570.796    23829569.103    23829578.774   127203795.416 6  98936288.366 4
     -3572.656       -2778.724
  19887180.280    19887179.664    19887183.800   106383050.218 8  82742407.215 7
     -1673.550       -1301.648
  19904512.532    19904512.640    19904518.913   106438414.441 7  82785485.336 7
      2412.481        1876.375
  23922387.247    23922386.425    23922396.256   128013529.323 5  99566122.530 4
      4396.045        3419.142
 11 10 10  9 16  0.0000000  0 16G02G09G12G14G21G25G29G30G31R09R10R16
                                R18R19R20R21
  22909296.795    22909296.5574   22909303.0924  120389216.869 6  93809799.57843
      -799.448        -622.934
  24430974.369    24430973.5004   24430987.1974  128385531.953 4 100040664.14341
     -3495.649       -2723.879
  21854075.341    21854074.8654   21854081.7414  114843906.072 7  89488773.80545
     -1334.614       -1039.962
  22952560.524    22952559.6224   22952566.5294  120616484.281 6  93986877.72942
     -1711.039       -1333.267
  24920547.331                                   130958390.721 4
      3743.630
  20510072.386    20510071.5824   20510080.9854  107781139.772 9  83985312.80247
       324.000         252.464
  20393446.412    20393446.1954   20393453.2184  107168323.227 8  83507809.33046
      1366.506        1064.808
  21639988.370    21639987.1274   21639995.4664  113718920.888 7  88612174.58044
      2827.603        2203.323
  22778670.151    22778670.4554   22778676.8004  119702725.565 6  93274873.75243
      3249.636        2532.180
  19436819.487    19436819.785    19436825.352   103791519.395 9  80726755.915 7
      -573.153        -445.783
  20323166.597    20323165.150    20323174.565   108333971.827 8  84259770.784 5
      3280.632        2551.604
  22734773.297    22734773.680    22734783.378   121445010.677 6  94457235.996 5
     -3358.601       -2612.236
  23849645.223    23849644.620    23849655.423   127310963.853 5  99019641.426 4
     -3571.844       -2778.099
  19896612.078    19896611.370    19896615.528   106433502.763 8  82781648.044 7
     -1689.818       -1314.302
  19891034.859    19891034.795    19891040.770   106366342.120 7  82729429.104 7
      2392.501        1860.834
  23897758.948    23897758.563    23897768.994   127881742.068 5  99463621.592 4
      4389.883        3414.346
 11 10 10  9 16 30.0000000  0 16G02G09G12G14G21G25G29G30G31R09R10R16
                                R18R19R20R21
  22913907.793    22913907.1884   22913913.7084  120413445.960 6  93828679.36043
      -815.873        -635.743
  24450938.824    24450937.8984   24450951.3784  128490440.853 5 100122410.97941
     -3498.336       -2725.936
  21861711.426    21861710.8994   21861717.4404  114884032.451 7  89520041.05645
     -1340.607       -1044.626
  22962361.242    22962360.6354   22962368.6154  120667990.571 6  94027012.40442
     -1722.819       -1342.470
  24899169.833                                   130846054.150 4
      3745.215
  20508247.139    20508246.4314   20508255.7614  107771548.517 9  83977839.08346
       315.310         245.696
  20385686.793    20385686.5294   20385693.4334  107127545.462 8  83476034.45946
      1351.902        1053.436
  21623861.919    21623860.9104   21623869.1214  113634176.103 7  88546139.68844
      2821.930        2198.899
  22760143.711    22760143.1954   22760150.3914  119605367.479 6  93199010.35443
      3240.802        2525.300
  19440099.914    19440100.204    19440105.704   103809036.486 9  80740380.289 7
      -594.778        -462.606
  20304742.989    20304741.822    20304750.863   108235764.114 8  84183387.021 5
      3266.445        2540.563
  22753661.863    22753662.357    22753672.603   121545908.213 6  94535711.641 5
     -3367.960       -2619.520
  23869715.487    23869715.785    23869726.335   127418101.277 5  99102970.354 4
     -3570.819       -2777.299
  19906133.469    19906132.747    19906136.847   106484436.213 8  82821262.914 7
     -1705.817       -1326.745
  19877668.543    19877668.094    19877673.993   106294864.396 7  82673835.337 7
      2372.582        1845.341
  23873163.870    23873163.002    23873174.203   127750134.108 5  99361260.127 4
      4383.864        3409.658
 11 10 10  9 17  0.0000000  0 16G02G09G12G14G21G25G29G30G31R09R10R16
                                R18R19R20R21
  22918611.853    22918611.0034   22918617.8744  120438165.205 6  93847941.07543
      -832.084        -648.376
  24470915.379    24470916.5504   24470928.7454  128595428.057 5 100204218.82341
     -3500.823       -2727.917
  21869380.522    21869380.4504   21869387.5964  114924337.799 7  89551447.74445
     -1346.434       -1049.166
  22972228.875    22972229.1334   22972236.6504  120719847.583 5  94067420.36142
     -1734.408       -1351.482
  24877785.601                                   130733675.582 4
      3746.727
  20506471.516    20506470.8494   20506479.9644  107762217.430 9  83970568.09047
       306.746         239.021
  20378010.200    20378009.9474   20378017.0974  107087205.078 8  83444600.40946
      1337.454        1042.170
  21607768.146    21607766.9474   21607775.0264  113549600.390 7  88480236.54244
      2816.440        2194.625
  22741667.325    22741667.3914   22741674.0774  119508274.812 6  93123353.74743
      3232.010        2518.442
  19443501.220    19443501.365    19443507.226   103827199.069 9  80754506.709 7
      -616.119        -479.203
  20286399.563    20286398.378    20286407.361   108137982.064 8  84107334.333 5
      3252.327        2529.583
  22772602.123    22772603.187    22772613.109   121647084.810 6  94614404.330 5
     -3377.110       -2626.627
  23889780.075    23889779.380    23889791.149   127525205.093 5  99186273.181 4
     -3569.515       -2776.289
  19915744.197    19915743.522    19915747.930   106535847.344 8  82861249.294 7
     -1721.544       -1338.977
  19864413.235    19864412.998    19864419.023   106223982.899 7  82618705.305 7
      2352.837        1829.981
  23848604.529    23848603.148    23848612.945   127618707.802 5  99259039.892 4
      4377.841        3404.971
 11 10 10  9 17 30.0000000  0 16G02G09G12G14G21G25G29G30G31R09R10R16
                                R18R19R20R21
  22923408.695    22923407.5564   22923415.1024  120463372.664 6  93867583.21443
      -848.399        -661.089
  24490909.323    24490910.6424   24490922.6024  128700490.303 5 100286085.13441
     -3503.291       -2729.820
  21877083.829    21877083.8434   21877091.2814  114964821.153 7  89582993.12944
     -1352.454       -1053.854
  22982163.926    22982163.7424   22982171.0014  120772051.503 5  94108098.65342
     -1745.976       -1360.498
  24856392.399                                   130621256.646 4
      3748.067
  20504745.361    20504744.7014   20504753.8004  107753146.059 9  83963499.47447
       298.000         232.210
  20370416.803    20370416.5114   20370423.6994  107047300.858 8  83413506.21446
      1322.832        1030.779
  21591705.522    21591704.7594   21591713.0034  113465194.104 7  88414465.41644
      2810.676        2190.130
  22723241.978    22723241.8964   22723249.1824  119411449.010 6  93047905.09443
      3222.996        2511.430
  19447023.295    19447023.413    19447029.411   103846006.685 9  80769134.814 7
      -637.714        -495.995
  20268136.399    20268135.094    20268144.392   108040628.696 8  84031615.059 5
      3237.895        2518.365
  22791594.642    22791595.370    22791605.028   121748537.102 6  94693311.426 5
     -3386.354       -2633.810
  23909835.451    23909836.529    23909847.841   127632270.909 5  99269546.454 4
     -3568.159       -2775.222
  19925443.331    19925442.842    19925446.990   106587731.768 8  82901603.806 6
     -1737.345       -1351.262
  19851268.517    19851268.860    19851275.100   106153696.552 7  82564038.157 7
      2332.873        1814.459
  23824078.853    23824077.369    23824086.872   127487464.523 5  99156961.961 4
      4371.646        3400.168
 11 10 10  9 18  0.0000000  0 16G02G09G12G14G21G25G29G30G31R09R10R16
                                R18R19R20R21
  22928298.813    22928298.6594   22928304.6154  120489070.608 6  93887607.52743
      -864.749        -673.831
  24510916.334    24510916.2444   24510928.7314  128805629.552 5 100368011.46141
     -3505.915       -2731.874
  21884822.658    21884822.3634   21884829.9854  115005486.449 7  89614680.29244
     -1358.533       -1058.598
  22992164.329    22992162.9414   22992172.0954  120824603.564 5  94149048.22442
     -1757.501       -1369.476
  24834992.408                                   130508803.304 4
      3748.988
  20503069.380    20503068.6444   20503077.9474  107744338.640 9  83956636.53347
       289.178         225.332
  20362906.696    20362906.5714   20362913.8814  107007836.163 8  83382754.51746
      1308.190        1019.365
  21575676.583    21575675.7564   21575684.0634  113380962.179 7  88348830.14744
      2804.835        2185.592
  22704868.879    22704868.5324   22704875.2604  119314896.039 6  92972669.03943
      3213.889        2504.333
  19450666.697    19450666.964    19450673.239   103865463.165 9  80784267.597 7
      -659.388        -512.857
  20249955.230    20249953.653    20249962.953   107943711.695 8  83956235.197 5
      3223.273        2506.982
  22810638.951    22810639.302    22810648.331   121850266.670 6  94772434.187 4
     -3395.617       -2641.034
  23929887.727    23929886.511    23929897.747   127739301.027 5  99352791.980 4
     -3566.981       -2774.317
  19935231.408    19935230.738    19935234.785   106640089.966 8  82942326.802 6
     -1753.086       -1363.508
  19838237.570    19838236.865    19838243.540   106084009.533 7  82509837.154 7
      2312.909        1798.928
  23799588.064    23799586.546    23799596.884   127356409.832 5  99055030.693 4
      4365.373        3395.282
 11 10 10  9 18 30.0000000  0 16G02G09G12G14G21G25G29G30G31R09R10R16
                                R18R19R20R21
  22933283.033    22933281.9984   22933289.8464  120515263.246 5  93908017.33743
      -881.265        -686.686
  24530940.964    24530940.1554   24530951.0494  128910848.353 5 100449999.79241
     -3508.496       -2733.877
  21892597.074    21892596.7694   21892603.9574  115046338.748 7  89646513.17445
     -1364.806       -1063.484
  23002230.545    23002229.7724   23002238.9314  120877505.611 5  94190270.48042
     -1769.073       -1378.500
  24813587.846                                   130396322.900 4
      3749.951
  20501444.864    20501443.9954   20501453.4574  107735800.868 9  83949983.70846
       280.159         218.306
  20355481.458    20355481.2284   20355488.5224  106968815.909 8  83352349.13346
      1293.380        1007.829
  21559682.098    21559681.7494   21559689.6804  113296911.152 7  88283335.85144
      2798.755        2180.854
  22686548.586    22686548.4644   22686555.0454  119218623.871 6  92897651.77843
      3204.450        2496.977
  19454432.974    19454433.096    19454438.911   103885573.745 9  80799909.118 7
      -681.220        -529.838
  20231857.295    20231855.914    20231864.833   107847239.678 8  83881201.435 5
      3208.360        2495.392
  22829734.067    22829735.604    22829744.403   121952276.191 6  94851774.661 4
     -3404.850       -2648.211
  23949931.315    23949930.905    23949941.820   127846298.276 5  99436011.952 4
     -3565.853       -2773.438
  19945107.943    19945107.346    19945111.498   106692923.924 8  82983419.833 7
     -1768.948       -1375.848
  19825318.364    19825318.226    19825324.970   106014928.285 7  82456107.313 7
      2292.670        1783.186
  23775133.146    23775131.529    23775142.230   127225551.455 5  98953252.100 4
      4358.700        3390.099
 11 10 10  9 19  0.0000000  0 16G02G09G12G14G21G25G29G30G31R09R10R16
                                R18R19R20R21
  22938360.173    22938359.6244   22938365.9294  120541944.036 6  93928807.52943
      -897.580        -699.414
  24550977.726    24550977.0044   24550989.1754  129016139.359 5 100532044.35141
     -3511.030       -2735.872
  21900405.668    21900405.2144   21900412.2264  115087372.823 7  89678487.70245
     -1370.948       -1068.265
  23012363.109    23012362.3754   23012371.4214  120930749.635 5  94231759.24542
     -1780.599       -1387.478
  24792178.171                                   130283812.184 4
      3750.732
  20499870.369    20499869.7054   20499879.0924  107727527.866 9  83943537.19547
       271.220         211.339
  20348139.598    20348139.3234   20348146.5614  106930234.618 8  83322285.79746
      1278.653         996.350
  21543721.978    21543721.2354   21543728.7814  113213036.911 7  88217979.31844
      2792.720        2176.143
  22668281.232    22668281.4974   22668288.7374  119122630.041 6  92822851.41444
      3195.025        2489.620
  19458320.435    19458320.759    19458326.574   103906333.182 9  80816055.306 7
      -702.849        -546.661
  20213842.255    20213840.673    20213850.291   107751211.402 8  83806512.789 5
      3193.389        2483.752
  22848883.718    22848883.285    22848893.006   122054558.165 6  94931327.019 4
     -3414.008       -2655.318
  23969967.730    23969967.197    23969977.912   127953254.429 5  99519199.949 4
     -3564.598       -2772.463
  19955072.294    19955071.469    19955075.685   106746224.959 8  83024876.145 6
     -1784.573       -1388.000
  19812512.031    19812512.147    19812518.699   105946448.157 7  82402845.007 7
      2272.534        1767.526
  23750714.228    23750714.534    23750723.192   127094886.053 5  98851623.614 4
      4352.152        3384.999
