     2              OBSERVATION DATA    M (MIXED)           RINEX VERSION / TYPE
CCRINEXO V2.3.3 UX  BKG Frankfurt       15-OCT-11 00:16     PGM / RUN BY / DATE
Concatenated RINEX hourly files (15/24)                     COMMENT
JPS2RIN 1.40 lnx    SAC                 14-OCT-11 01:01     COMMENT
build Feb  6 2004 (c) Javad Navigation Systems              COMMENT
Stazione Astronomica Cagliari                               COMMENT
/home/srv/htdocs/glonass/hdata/CAGZ.tps                     COMMENT
SE TPS 8b1daea7                                             COMMENT
CAGZ                                                        MARKER NAME
12725M004                                                   MARKER NUMBER
SAC                 SAC-DIST                                OBSERVER / AGENCY
AGNV7TGA2O0         TPS E_GGD           3.3 Jul,10,2008 p4  REC # / TYPE / VERS
RRA052              JPSREGANT_DD_E  NONE                    ANT # / TYPE
  4893377.4584   772650.1268  4004180.2165                  APPROX POSITION XYZ
        0.0945        0.0000        0.0000                  ANTENNA: DELTA H/E/N
     1     1                                                WAVELENGTH FACT L1/2
     7    C1    P1    P2    L1    L2    D1    D2            # / TYPES OF OBSERV
    30.000                                                  INTERVAL
    15                                                      LEAP SECONDS
  2011    10    14     0     0    0.000000      GPS         TIME OF FIRST OBS
                                                            END OF HEADER
 11 10 14  0  0  0.0000000  1 15G02G04G05G07G10G13G23G26G28R06R07R08
                                R09R10R16
  22052655.981    22052655.6364   22052659.3104  115887497.176 7  90301970.70844
      -630.581        -491.366
  23425160.259    23425159.2214   23425165.7384  123100099.189 6  95922175.94442
     -2720.333       -2119.741
  22502469.451    22502469.4364   22502474.7934  118251292.359 6  92143877.70044
      3246.746        2529.929
  20679641.823    20679641.6214   20679646.4854  108672592.131 8  84679956.61646
      -509.135        -396.735
  20395918.310    20395917.0434   20395923.5814  107181311.991 8  83517921.75846
      -235.033        -183.143
  22661134.110    22661133.8254   22661139.6624  119085512.578 6  92793735.46243
     -1911.095       -1489.158
  24708251.992    24708250.1774   24708257.0264  129843231.955 5 101176370.10841
     -2250.177       -1753.427
  24002961.553    24002962.4314   24002967.4894  126136418.881 4  98288141.86441
      3511.623        2736.349
  24587821.213                                   129209950.529 4
      3630.777
  20685890.826    20685890.741    20685894.784   110383935.363 8  85854221.058 6
     -1676.303       -1303.790
  19862056.216    19862055.074    19862054.860   106323154.580 8  82695832.116 6
      2347.246        1825.632
  23023698.199    23023697.165    23023699.130   123290848.540 5  95892908.552 5
      4172.575        3245.333
  19271345.369    19271345.533    19271349.481   102908086.053 9  80039699.162 7
       981.114         763.086
  21796577.399    21796575.763    21796584.085   116188093.718 7  90368570.374 5
      4233.442        3292.675
  21270554.314    21270554.958    21270559.598   113623842.227 7  88374227.784 6
     -2787.961       -2168.414
 11 10 14  0  0 30.0000000  0 15G02G04G05G07G10G13G23G26G28R06R07R08
                                R09R10R16
  22056308.949    22056307.8434   22056311.6724  115906690.623 6  90316926.62744
      -648.844        -505.589
  23440703.850    23440704.1994   23440710.1874  123181783.920 6  95985826.32542
     -2725.171       -2123.506
  22483958.476    22483958.1064   22483963.0444  118154014.473 7  92068076.75944
      3238.553        2523.548
  20682594.565    20682594.3044   20682599.2144  108688109.045 8  84692047.72146
      -525.193        -409.239
  20397306.901    20397305.6094   20397312.3424  107188609.931 8  83523608.45446
      -251.364        -195.864
  22672055.638    22672055.1794   22672061.7964  119142905.696 6  92838457.32543
     -1914.932       -1492.169
  24721103.735    24721103.6794   24721108.0634  129910762.088 5 101228990.94941
     -2251.835       -1754.661
  23982924.425    23982925.5064   23982932.4434  126031127.168 4  98206096.43041
      3507.849        2733.398
  24567092.586    24567091.5714   24567101.6824  129101022.203 4 100598150.32941
      3631.255        2829.562
  20695360.469    20695360.398    20695364.520   110434466.957 8  85893523.391 6
     -1692.304       -1316.230
  19848944.823    19848943.675    19848943.474   106252968.913 8  82641243.252 6
      2331.917        1813.715
  23000323.236    23000322.908    23000325.140   123165685.395 5  95795559.469 5
      4171.726        3244.677
  19265906.790    19265907.126    19265911.204   102879046.008 9  80017112.469 7
       955.054         742.821
  21772789.780    21772788.476    21772795.458   116061290.837 7  90269945.929 4
      4220.204        3282.383
  21286251.760    21286252.255    21286256.840   113707693.401 7  88439445.340 6
     -2801.944       -2179.288
 11 10 14  0  1  0.0000000  0 15G02G04G05G07G10G13G23G26G28R06R07R08
                                R09R10R16
  22060064.131    22060063.1184   22060067.1254  115926426.529 6  90332305.23444
      -666.879        -519.653
  23456274.025    23456274.2164   23456280.9114  123263606.800 5  96049584.38042
     -2729.731       -2127.071
  22465492.889    22465492.6004   22465498.0924  118056979.146 7  91992464.82044
      3230.438        2517.223
  20685637.753    20685637.5774   20685642.5054  108704101.722 8  84704509.54846
      -541.021        -421.578
  20398787.925    20398786.8974   20398793.5824  107196392.901 8  83529673.09746
      -267.524        -208.458
  22682998.169    22682997.7494   22683003.1724  119200408.645 6  92883264.78243
     -1918.611       -1495.030
  24733962.096    24733961.5004   24733965.2184  129978337.037 5 101281646.74941
     -2253.319       -1755.837
  23962910.389    23962910.6054   23962917.4554  125925945.556 5  98124136.73441
      3504.227        2730.550
  24546359.444    24546360.7974   24546369.6704  128992080.003 4 100513260.61241
      3631.572        2829.787
  20704919.537    20704919.058    20704923.458   110485473.974 8  85933195.518 6
     -1708.175       -1328.582
  19835918.587    19835917.691    19835917.385   106183239.054 8  82587008.912 6
      2316.682        1801.861
  22976953.182    22976952.796    22976956.912   123040543.044 5  95698226.577 5
      4171.016        3244.115
  19260614.273    19260614.516    19260618.827   102850784.373 9  79995131.212 7
       929.073         722.608
  21749076.509    21749074.159    21749081.718   115934882.597 7  90171628.429 4
      4206.985        3272.100
  21302026.283    21302026.657    21302031.132   113791957.859 7  88504984.356 6
     -2815.712       -2190.000
 11 10 14  0  1 30.0000000  0 15G02G04G05G07G10G13G23G26G28R06R07R08
                                R09R10R16
  22063923.280    22063922.4364   22063926.3134  115946706.100 7  90348107.47944
      -684.961        -533.732
  23471870.909    23471870.9784   23471877.1604  123345567.618 6  96113449.91442
     -2734.240       -2130.597
  22447075.088    22447075.0384   22447079.5134  117960191.112 7  91917045.57844
      3222.164        2510.781
  20688772.144    20688771.8464   20688776.7244  108720571.389 8  84717343.04946
      -556.888        -433.936
  20400361.969    20400360.7444   20400367.5374  107204663.893 8  83536118.01746
      -283.802        -221.143
  22693961.863    22693961.6274   22693966.8464  119258023.453 6  92928159.40043
     -1922.343       -1497.921
  24746830.053    24746829.1964   24746834.0854  130045959.181 5 101334339.32741
     -2254.744       -1756.961
  23942918.332    23942917.4274   23942923.4914  125820876.893 5  98042265.07241
      3500.619        2727.784
  24525626.532    24525627.6954   24525635.7884  128883129.205 4 100428364.25941
      3631.815        2829.976
  20714567.675    20714567.490    20714571.339   110536958.777 8  85973239.238 6
     -1724.088       -1340.956
  19822978.992    19822977.782    19822977.510   106113971.073 8  82533133.815 6
      2301.246        1789.860
  22953588.565    22953587.807    22953591.370   122915426.325 5  95600913.586 5
      4170.241        3243.519
  19255468.150    19255468.281    19255472.377   102823303.478 9  79973757.193 7
       903.070         702.389
  21725435.866    21725434.944    21725443.049   115808875.119 7  90073622.647 4
      4193.558        3261.656
  21317878.034    21317878.076    21317882.836   113876634.454 7  88570843.908 6
     -2829.314       -2200.576
 11 10 14  0  2  0.0000000  0 15G02G04G05G07G10G13G23G26G28R06R07R08
                                R09R10R16
  22067883.409    22067883.0154   22067886.8584  115967519.241 6  90364325.50144
      -702.868        -547.688
  23487492.594    23487492.3604   23487498.0694  123427655.308 5  96177414.32642
     -2738.545       -2133.929
  22428702.600    22428702.3954   22428708.0824  117863644.950 7  91841814.80644
      3213.930        2504.355
  20691995.001    20691994.7994   20691999.6214  108737508.256 8  84730540.61146
      -572.555        -446.149
  20402027.462    20402026.0804   20402032.9294  107213415.359 8  83542937.33046
      -299.960        -233.734
  22704944.609    22704944.9034   22704951.4444  119315741.671 6  92973134.58542
     -1925.903       -1500.713
  24759706.183    24759705.4974   24759708.7454  130113620.834 5 101387062.65641
     -2256.297       -1758.089
  23922942.941    23922942.4824   23922949.6124  125715913.956 5  97960475.80441
      3496.809        2724.785
  24504891.780    24504894.0394   24504898.7034  128774164.688 4 100343457.09941
      3632.167        2830.271
  20724303.438    20724303.252    20724307.633   110588912.387 8  86013647.578 6
     -1739.856       -1353.221
  19810124.231    19810122.810    19810122.630   106045157.912 8  82479612.469 6
      2285.918        1777.935
  22930229.024    22930227.171    22930231.287   122790329.364 5  95503615.973 5
      4169.356        3242.825
  19250466.520    19250466.743    19250470.888   102796594.572 9  79952983.608 7
       877.209         682.271
  21701872.869    21701871.125    21701878.608   115683263.012 7  89975924.372 5
      4180.196        3251.265
  21333804.535    21333804.747    21333809.000   113961710.830 7  88637014.409 6
     -2842.727       -2211.007
 11 10 14  0  2 30.0000000  0 15G02G04G05G07G10G13G23G26G28R06R07R08
                                R09R10R16
  22071946.419    22071945.3774   22071949.6324  115988868.142 7  90380960.98744
      -720.264        -561.244
  23503137.247    23503136.7734   23503144.1404  123509870.737 6  96241478.25242
     -2742.332       -2136.895
  22410377.786    22410377.8984   22410382.6074  117767346.173 7  91766776.80244
      3206.099        2498.261
  20695307.287    20695307.0824   20695311.8904  108754914.394 8  84744103.83846
      -587.718        -457.964
  20403785.136    20403783.6084   20403790.1914  107222650.671 8  83550133.67246
      -315.620        -245.940
  22715948.146    22715948.4004   22715953.7374  119373566.853 6  93018193.14042
     -1928.985       -1503.107
  24772589.751    24772589.0564   24772591.5734  130181325.318 5 101439819.39841
     -2257.309       -1758.973
  23902989.060    23902989.6734   23902996.5294  125611060.879 5  97878772.13641
      3493.491        2722.208
  24484156.459    24484152.9754   24484165.1234  128665192.687 4 100258544.12241
      3632.869        2830.806
  20734127.934    20734127.978    20734132.227   110641338.564 8  86054423.458 6
     -1755.123       -1365.094
  19797355.922    19797354.631    19797354.333   105976808.017 8  82426451.434 6
      2270.940        1766.286
  22906871.213    22906870.717    22906874.285   122665258.434 5  95406338.630 5
      4168.906        3242.494
  19245609.859    19245610.083    19245614.433   102770661.013 9  79932813.074 7
       851.820         662.525
  21678383.133    21678382.310    21678390.178   115558052.824 7  89878538.703 5
      4167.235        3241.178
  21349805.435    21349805.898    21349810.689   114047187.125 7  88703495.950 6
     -2855.537       -2220.975
 11 10 14  0  3  0.0000000  0 15G02G04G05G07G10G13G23G26G28R06R07R08
                                R09R10R16
  22076109.588    22076109.2484   22076113.0044  116010747.576 6  90398009.87644
      -738.081        -575.123
  23518805.498    23518805.3874   23518812.1814  123592207.868 6  96305637.01242
     -2746.453       -2140.112
  22392099.405    22392099.1124   22392105.0064  117671294.146 7  91691931.07144
      3197.652        2491.676
  20698708.001    20698707.7614   20698712.6434  108772785.179 8  84758029.12546
      -603.365        -470.150
  20405633.911    20405632.5544   20405639.2314  107232366.713 8  83557704.60646
      -331.822        -258.561
  22726972.505    22726972.4834   22726977.6884  119431495.053 6  93063331.95442
     -1932.588       -1505.925
  24785480.386    24785478.7134   24785483.8624  130249069.194 4 101492606.80241
     -2258.718       -1760.036
  23883058.427    23883057.9304   23883064.8314  125506315.109 5  97797152.11141
      3489.786        2719.326
  24463418.223    24463416.3364   24463424.9574  128556213.005 4 100173625.12241
      3632.766        2830.684
  20744040.457    20744040.487    20744044.639   110694233.362 8  86095563.823 6
     -1770.915       -1377.375
  19784673.859    19784672.528    19784672.107   105908919.840 8  82373649.516 6
      2255.151        1754.009
  22883520.692    22883519.667    22883523.134   122540212.266 5  95309080.505 5
      4167.837        3241.655
  19240897.892    19240898.128    19240902.395   102745499.062 9  79913242.676 7
       825.899         642.365
  21654969.470    21654968.290    21654975.460   115433244.164 7  89781465.329 5
      4153.595        3230.578
  21365880.573    21365881.011    21365885.878   114133056.250 7  88770283.024 6
     -2868.744       -2231.242
 11 10 14  0  3 30.0000000  0 15G02G04G05G07G10G13G23G26G28R06R07R08
                                R09R10R16
  22080373.895    22080373.3144   22080377.5454  116033156.414 7  90415471.30244
      -755.723        -588.872
  23534497.418    23534496.4764   23534502.4004  123674664.486 5  96369888.87442
     -2750.464       -2143.226
  22373869.007    22373868.7514   22373873.9454  117575491.787 7  91617279.89644
      3189.279        2485.150
  20702196.847    20702196.7224   20702201.6454  108791119.508 8  84772315.62246
      -618.816        -482.196
  20407574.553    20407573.1124   20407579.7274  107242564.193 8  83565650.68846
      -347.895        -271.090
  22738015.552    22738015.3764   22738021.7274  119489526.635 6  93108551.32043
     -1936.072       -1508.612
  24798379.136    24798378.2224   24798383.1654  130316853.115 5 101545425.48441
     -2260.087       -1761.101
  23863146.806    23863146.1394   23863153.0874  125401677.750 5  97715616.51341
      3486.176        2716.490
  24442678.214    24442676.9334   24442684.8464  128447229.249 4 100088702.93841
      3632.713        2830.649
  20754040.954    20754040.778    20754045.045   110747596.967 8  86137068.829 6
     -1786.532       -1389.527
  19772078.333    19772077.270    19772077.214   105841497.733 8  82321210.095 6
      2239.436        1741.783
  22860173.576    22860173.318    22860176.535   122415194.022 5  95211844.123 5
      4166.794        3240.828
  19236330.262    19236330.533    19236335.088   102721108.701 9  79894272.408 7
       800.213         622.387
  21631631.709    21631630.552    21631637.278   115308840.777 7  89684707.166 4
      4140.056        3220.048
  21382028.932    21382028.885    21382032.958   114219314.838 7  88837373.020 6
     -2881.704       -2241.327
 11 10 14  0  4  0.0000000  0 15G02G04G05G07G10G13G23G26G28R06R07R08
                                R09R10R16
  22084738.122    22084737.4124   22084742.3524  116056090.797 7  90433342.23144
      -773.366        -602.611
  23550210.269    23550209.4454   23550215.8274  123757235.565 6  96434229.91942
     -2754.402       -2146.278
  22355685.523    22355685.5364   22355690.9444  117479939.596 7  91542823.64844
      3180.730        2478.493
  20705773.137    20705772.9604   20705778.1334  108809913.784 8  84786960.51546
      -634.274        -494.241
  20409605.997    20409604.7784   20409611.4214  107253241.291 8  83573970.50046
      -364.065        -283.692
  22749078.222    22749077.8704   22749084.0584  119547659.244 6  93153849.41143
     -1939.597       -1511.384
  24811286.934    24811285.3874   24811289.8324  130384674.805 4 101598273.58041
     -2261.590       -1762.318
  23843255.435    23843254.1494   23843262.6144  125297147.328 5  97634164.25841
      3482.317        2713.479
  24421937.985    24421937.2684   24421944.4494  128338241.855 4 100003777.92441
      3632.816        2830.724
  20764128.432    20764128.241    20764132.584   110801426.534 8  86178936.251 6
     -1802.234       -1401.740
  19759570.957    19759569.522    19759569.148   105774541.400 8  82269132.942 6
      2223.831        1729.646
  22836834.491    22836833.005    22836836.071   122290203.966 6  95114629.649 5
      4165.669        3239.961
  19231906.661    19231906.831    19231911.168   102697487.442 9  79875900.330 7
       774.410         602.318
  21608370.644    21608368.812    21608376.300   115184843.433 7  89588264.818 4
      4126.293        3209.335
  21398248.234    21398248.364    21398252.733   114305956.831 7  88904761.222 6
     -2894.544       -2251.316
 11 10 14  0  4 30.0000000  0 15G02G04G05G07G10G13G23G26G28R06R07R08
                                R09R10R16
  22089201.691    22089201.2904   22089205.6194  116079546.976 7  90451619.76244
      -790.559        -616.023
  23565943.955    23565942.9124   23565949.6974  123839916.723 5  96498656.74842
     -2757.808       -2148.918
  22337550.249    22337550.3244   22337555.6754  117384638.033 6  91468562.70744
      3172.506        2472.078
  20709436.461    20709436.1744   20709441.2934  108829164.373 8  84801960.97046
      -649.300        -505.948
  20411728.944    20411727.5224   20411734.1914  107264396.400 8  83582662.78046
      -379.815        -295.960
  22760158.603    22760158.8384   22760164.4064  119605890.812 6  93199224.61543
     -1942.723       -1513.809
  24824199.114    24824201.2704   24824204.7784  130452532.528 5 101651149.64141
     -2262.550       -1762.976
  23823383.397    23823384.0684   23823389.9824  125192722.540 5  97552794.32241
      3478.935        2710.851
  24401197.168    24401196.0694   24401207.1394  128229251.859 4  99918850.85641
      3633.239        2831.125
  20774303.482    20774303.105    20774307.195   110855720.024 8  86221164.487 6
     -1817.532       -1413.635
  19747150.161    19747149.032    19747148.644   105708053.641 8  82217420.238 6
      2208.406        1717.650
  22813497.933    22813497.054    22813499.154   122165243.390 5  95017438.111 5
      4164.806        3239.299
  19227626.751    19227626.874    19227630.974   102674632.454 9  79858124.235 7
       749.048         582.591
  21585184.572    21585183.703    21585190.939   115061253.188 7  89492139.092 4
      4112.843        3198.880
  21414538.047    21414538.556    21414543.496   114392976.902 7  88972443.472 6
     -2906.931       -2260.943
 11 10 14  0  5  0.0000000  0 15G02G04G05G07G10G13G23G26G28R06R07R08
                                R09R10R16
  22093763.918    22093763.2364   22093767.1254  116103520.153 7  90470300.14444
      -807.660        -629.346
  23581696.949    23581696.4234   23581703.0534  123922702.206 5  96563164.88442
     -2761.189       -2151.580
  22319462.547    22319462.5984   22319468.0254  117289586.467 7  91394496.55444
      3164.248        2465.650
  20713185.807    20713185.4794   20713190.3924  108848866.632 8  84817313.37546
      -664.183        -517.545
  20413942.047    20413940.8634   20413947.3194  107276026.509 8  83591725.18846
      -395.543        -308.216
  22771258.517    22771257.8324   22771264.0904  119664217.514 6  93244673.92743
     -1945.772       -1516.174
  24837117.620    24837115.9994   24837121.2154  130520423.047 4 101704051.35341
     -2263.536       -1763.773
  23803531.550    23803531.0874   23803539.6484  125088400.977 5  97471504.82941
      3475.621        2708.277
  24380456.823    24380456.4184   24380465.1894  128120259.243 4  99833921.72141
      3633.131        2830.989
  20784564.543    20784564.344    20784568.416   110910473.999 8  86263750.887 6
     -1832.776       -1425.494
  19734817.200    19734815.910    19734815.673   105642033.840 8  82166071.507 6
      2192.865        1705.558
  22790165.902    22790166.317    22790170.172   122040310.891 5  94920268.381 5
      4163.957        3238.631
  19223489.549    19223489.874    19223494.037   102652540.416 9  79840941.543 7
       723.742         562.909
  21562075.642    21562074.189    21562082.667   114938069.810 7  89396329.832 5
      4099.335        3188.371
  21430897.550    21430898.157    21430902.871   114480367.675 7  89040414.053 6
     -2919.075       -2270.393
 11 10 14  0  5 30.0000000  0 15G02G04G05G07G10G13G23G26G28R06R07R08
                                R09R10R16
  22098424.732    22098423.7804   22098427.7404  116128011.779 7  90489384.51044
      -825.030        -642.880
  23597469.765    23597470.1924   23597476.7364  124005592.346 5  96627754.56542
     -2764.776       -2154.369
  22301423.817    22301423.6084   22301428.9254  117194790.694 7  91320629.72644
      3155.521        2458.848
  20717021.235    20717021.0104   20717025.8234  108869022.425 8  84833019.17746
      -679.449        -529.438
  20416246.348    20416244.9154   20416251.8244  107288135.054 8  83601160.40746
      -411.632        -320.751
  22782377.337    22782376.0294   22782381.5514  119722643.137 6  93290200.33142
     -1949.192       -1518.846
  24850044.229    24850042.6554   24850048.3164  130588349.978 4 101756981.43841
     -2264.859       -1764.835
  23783700.238    23783699.9714   23783706.3854  124984186.991 5  97390299.10941
      3471.931        2705.417
  24359718.087    24359715.8664   24359724.6704  128011270.053 5  99748995.28241
      3632.873        2830.825
  20794912.617    20794912.366    20794916.031   110965691.574 8  86306697.868 6
     -1848.318       -1437.578
  19722572.323    19722571.458    19722571.014   105576488.703 8  82115091.956 6
      2176.941        1693.176
  22766842.607    22766842.606    22766844.826   121915412.519 6  94823125.230 5
      4162.623        3237.599
  19219495.969    19219496.115    19219500.489   102631214.128 9  79824354.445 7
       698.087         542.955
  21539045.103    21539042.782    21539051.416   114815299.839 7  89300842.098 5
      4085.326        3177.477
  21447327.039    21447327.574    21447332.359   114568129.133 7  89108672.944 6
     -2931.523       -2280.075
 11 10 14  0  6  0.0000000  0 15G02G04G05G07G10G13G23G26G28R06R07R08
                                R09R10R16
  22103182.723    22103182.4984   22103186.5274  116153017.698 7  90508869.62244
      -841.949        -656.065
  23613263.002    23613262.6624   23613269.3834  124088582.252 5  96692421.98042
     -2767.764       -2156.708
  22283433.423    22283433.6004   22283439.0394  117100250.957 7  91246962.40044
      3147.167        2452.335
  20720942.149    20720942.1924   20720947.1994  108889628.339 8  84849075.74046
      -694.193        -540.931
  20418640.946    20418639.7614   20418646.5314  107300719.888 8  83610966.75846
      -427.295        -332.957
  22793512.520    22793512.8054   22793517.4374  119781164.681 6  93335801.49942
     -1952.196       -1521.177
  24862977.222    24862973.6154   24862980.4084  130656310.753 4 101809937.89941
     -2265.800       -1765.542
  23763889.513    23763887.8684   23763895.5104  124880078.156 5  97309175.37641
      3468.690        2702.902
  24338978.426    24338979.9254   24338984.8414  127902284.996 4  99664072.05841
      3632.946        2830.851
  20805346.065    20805345.909    20805349.542   111021369.375 8  86350002.804 6
     -1863.445       -1449.346
  19710416.650    19710415.622    19710415.260   105511417.688 8  82064481.167 6
      2161.264        1680.980
  22743524.594    22743524.990    22743527.784   121790548.471 5  94726008.772 5
      4161.735        3236.903
  19215645.190    19215645.157    19215649.326   102610650.446 9  79808360.479 7
       672.913         523.375
  21516089.547    21516089.068    21516097.613   114692943.857 7  89205676.358 5
      4071.727        3166.907
  21463824.858    21463824.775    21463829.187   114656254.935 7  89177215.215 6
     -2943.444       -2289.345
 11 10 14  0  6 30.0000000  0 15G02G04G05G07G10G13G23G26G28R06R07R08
                                R09R10R16
  22108038.248    22108037.2074   22108040.8744  116178529.439 7  90528748.89744
      -859.062        -669.396
  23629072.316    23629072.3754   23629079.6414  124171662.388 5  96757159.70242
     -2771.042       -2159.260
  22265490.733    22265490.7394   22265496.4524  117005962.972 7  91173491.26044
      3138.476        2445.567
  20724947.577    20724947.3864   20724952.3554  108910675.547 8  84865476.16846
      -709.179        -552.610
  20421125.268    20421124.0264   20421130.4774  107313774.476 8  83621139.14846
      -443.259        -345.394
  22804665.804    22804665.1734   22804670.5974  119839774.967 6  93381471.81342
     -1955.415       -1523.724
  24875912.582    24875915.9294   24875918.2854  130724298.645 4 101862915.48341
     -2267.023       -1766.486
  23744096.123    23744094.5714   23744102.9994  124776068.962 5  97228129.26241
      3465.035        2700.052
  24318239.940    24318240.0724   24318247.5984  127793300.091 5  99579148.91941
      3632.514        2830.519
  20815864.761    20815864.698    20815868.222   111077500.062 8  86393659.988 6
     -1878.828       -1461.310
  19698349.127    19698347.914    19698347.542   105446817.937 8  82014236.912 6
      2145.163        1668.464
  22720214.537    22720213.315    22720216.219   121665714.857 5  94628915.981 5
      4160.306        3235.785
  19211935.498    19211935.662    19211939.722   102590841.777 9  79792953.745 7
       647.418         503.548
  21493213.565    21493212.430    21493220.717   114570997.805 7  89110829.458 5
      4057.739        3156.012
  21480387.813    21480388.574    21480392.999   114744734.581 7  89246032.704 5
     -2955.463       -2298.688
 11 10 14  0  7  0.0000000  0 15G02G04G05G07G10G13G23G26G28R06R07R08
                                R09R10R16
  22112990.476    22112990.2384   22112993.4294  116204557.182 7  90549030.24344
      -876.215        -682.768
  23644900.246    23644900.3714   23644907.5694  124254842.202 5  96821975.07842
     -2774.340       -2161.818
  22247599.275    22247599.1624   22247604.8874  116911941.347 7  91100227.66144
      3129.555        2438.611
  20729039.044    20729038.6264   20729043.5404  108932174.960 8  84882228.96246
      -724.208        -564.320
  20423701.249    20423700.0954   20423706.6234  107327311.364 8  83631687.35146
      -459.301        -357.898
  22815837.807    22815837.6854   22815843.4924  119898486.249 6  93427220.82842
     -1958.774       -1526.318
  24888859.835    24888858.2564   24888865.1404  130792325.849 4 101915923.71741
     -2268.154       -1767.432
  23724324.969    23724325.7264   23724332.0174  124672172.102 5  97147170.69841
      3461.269        2697.092
  24297503.250    24297503.1224   24297509.3944  127684330.721 5  99494237.83641
      3632.057        2830.144
  20826470.970    20826470.670    20826474.593   111134095.879 8  86437678.939 6
     -1894.267       -1473.319
  19686372.238    19686371.218    19686370.726   105382705.336 8  81964371.548 6
      2128.920        1655.827
  22696910.064    22696909.512    22696912.641   121540926.400 6  94531858.292 5
      4158.757        3234.588
  19208369.604    19208369.745    19208374.043   102571800.151 9  79778143.597 7
       621.958         483.744
  21470417.007    21470415.424    21470424.292   114449477.132 7  89016313.395 5
      4043.556        3144.988
  21497019.155    21497020.225    21497024.551   114833576.576 7  89315132.003 6
     -2967.409       -2307.982
 11 10 14  0  7 30.0000000  0 15G02G04G05G07G10G13G23G26G28R06R07R08
                                R09R10R16
  22118042.701    22118041.3264   22118045.1924  116231101.743 7  90569714.30844
      -893.462        -696.203
  23660748.090    23660747.8524   23660756.4214  124338121.894 5  96886868.30442
     -2777.640       -2164.389
  22229758.661    22229758.8674   22229764.4514  116818191.045 7  91027175.48744
      3120.399        2431.479
  20733216.042    20733215.8484   20733220.6564  108954127.051 8  84899334.49346
      -739.312        -576.085
  20426369.348    20426368.0834   20426374.9124  107341332.987 8  83642613.27646
      -475.537        -370.547
  22827029.591    22827029.1204   22827035.9054  119957300.433 6  93473050.02042
     -1962.228       -1529.001
  24901812.493    24901808.2624   24901815.7544  130860395.176 4 101968964.73041
     -2269.643       -1768.547
  23704577.085    23704577.7374   23704584.0274  124568390.830 5  97066302.16441
      3457.458        2694.099
  24276770.327    24276769.0894   24276776.0834  127575382.270 5  99409343.10341
      3631.263        2829.564
  20837164.398    20837164.264    20837168.222   111191158.570 8  86482061.008 6
     -1909.936       -1485.502
  19674487.488    19674486.337    19674486.072   105319085.190 8  81914889.201 6
      2112.388        1642.973
  22673616.769    22673615.963    22673618.453   121416188.433 6  94434839.893 5
      4156.986        3233.221
  19204947.226    19204947.608    19204951.883   102553527.048 9  79763931.193 7
       596.238         463.741
  21447700.878    21447699.582    21447707.436   114328387.254 7  88922132.401 5
      4029.077        3133.728
  21513719.179    21513719.344    21513723.697   114922779.822 7  89384512.290 6
     -2979.444       -2317.342
 11 10 14  0  8  0.0000000  0 15G02G04G05G07G10G13G23G26G28R06R07R08
                                R09R10R16
  22123191.902    22123190.6644   22123194.4944  116258161.953 7  90590800.16644
      -910.612        -709.564
  23676614.663    23676614.7014   23676621.4314  124421499.234 5  96951837.58941
     -2780.880       -2166.912
  22211971.566    22211971.6334   22211977.0544  116724715.695 7  90954337.55444
      3111.197        2424.311
  20737479.519    20737479.2694   20737484.4064  108976531.518 8  84916792.52246
      -754.372        -587.822
  20429130.224    20429128.9064   20429135.5554  107355840.401 8  83653917.74446
      -491.727        -383.162
  22838241.825    22838241.4654   22838248.2094  120016218.786 6  93518960.38242
     -1965.695       -1531.714
  24914775.033    24914775.8954   24914780.8514  130928507.457 4 102022039.25341
     -2271.080       -1769.681
  23684849.715    23684850.9234   23684854.7184  124464726.731 5  96985524.97641
      3453.486        2691.017
  24256042.247    24256041.4334   24256047.7764  127466458.827 5  99324467.86241
      3630.232        2828.780
  20847945.730    20847945.365    20847949.489   111248688.766 8  86526806.689 6
     -1925.523       -1497.623
  19662695.648    19662694.407    19662694.263   105255961.688 8  81865793.141 6
      2095.833        1630.096
  22650333.942    22650332.838    22650335.448   121291504.722 6  94337863.684 5
      4155.185        3231.812
  19201669.546    19201669.841    19201674.172   102536023.049 9  79750316.980 7
       570.648         443.839
  21425066.117    21425065.085    21425073.069   114207731.980 7  88828289.433 5
      4014.509        3122.393
  21530484.275    21530485.188    21530489.326   115012341.743 7  89454171.542 5
     -2991.363       -2326.613
 11 10 14  0  8 30.0000000  0 15G02G04G05G07G10G13G23G26G28R06R07R08
                                R09R10R16
  22128437.704    22128437.1474   22128441.2514  116285732.736 7  90612283.88144
      -927.675        -722.868
  23692499.036    23692498.5244   23692504.9414  124504968.307 5  97016878.37342
     -2784.002       -2169.345
  22194235.966    22194235.9964   22194240.9214  116631514.477 7  90881713.24544
      3101.950        2417.104
  20741827.981    20741827.8994   20741832.8754  108999383.555 8  84934599.30646
      -769.319        -599.472
  20431982.558    20431981.3614   20431987.8984  107370830.582 8  83665598.38946
      -507.867        -395.737
  22849472.832    22849472.7704   22849477.9284  120075237.516 6  93564948.94742
     -1969.148       -1534.399
  24927742.819    24927740.6014   24927749.4194  130996659.417 4 102075144.66541
     -2272.537       -1770.768
  23665145.341    23665144.3574   23665151.7654  124361177.312 5  96904837.17041
      3449.570        2687.944
  24235319.863    24235319.1714   24235324.7824  127357559.875 5  99239611.64041
      3629.407        2828.097
  20858814.146    20858813.515    20858817.961   111306682.782 8  86571913.124 6
     -1940.989       -1509.657
  19650996.078    19650994.988    19650994.667   105193333.332 8  81817082.196 6
      2079.198        1617.156
  22627059.073    22627058.313    22627061.260   121166874.024 6  94240928.718 5
      4153.253        3230.311
  19198534.880    19198535.099    19198539.215   102519283.743 9  79737297.526 7
       545.073         423.948
  21402512.791    21402511.979    21402519.450   114087511.143 7  88734784.352 5
      3999.915        3111.049
  21547316.620    21547316.635    21547321.610   115102255.284 7  89524104.268 5
     -3003.138       -2335.773
 11 10 14  0  9  0.0000000  0 15G02G04G05G07G10G13G23G26G28R06R07R08
                                R09R10R16
  22133782.563    22133782.4294   22133786.8694  116313823.737 6  90634172.95744
      -944.849        -736.234
  23708401.751    23708401.4454   23708408.2624  124588538.181 5  97081997.69241
     -2787.178       -2171.832
  22176555.081    22176555.1094   22176560.2484  116538601.172 7  90809313.27344
      3092.457        2409.704
  20746263.698    20746263.5604   20746268.4604  109022692.956 8  84952762.47546
      -784.420        -611.236
  20434929.200    20434928.0264   20434934.5524  107386314.968 8  83677664.13646
      -524.219        -408.479
  22860724.837    22860724.2054   22860729.2224  120134367.782 6  93611024.44842
     -1972.721       -1537.177
  24940722.673    24940719.9704   24940725.1674  131064862.656 4 102128290.05941
     -2274.138       -1772.084
  23645464.366    23645464.4124   23645472.5034  124257754.480 5  96824247.93141
      3445.484        2684.822
  24214604.701    24214603.7874   24214610.7084  127248699.818 5  99154785.75141
      3628.191        2827.147
  20869770.258    20869770.177    20869774.660   111365151.282 8  86617388.604 6
     -1956.706       -1521.885
  19639391.799    19639390.871    19639391.102   105131216.120 8  81768768.807 6
      2062.500        1604.165
  22603798.638    22603797.665    22603800.485   121042311.665 6  94144046.870 5
      4151.084        3228.631
  19195545.409    19195545.501    19195549.791   102503320.010 9  79724881.296 7
       519.378         403.961
  21380044.248    21380042.654    21380050.895   113967739.015 7  88641628.274 5
      3985.043        3099.477
  21564215.459    21564216.082    21564221.102   115192528.252 7  89594316.556 5
     -3014.968       -2344.975
 11 10 14  0  9 30.0000000  0 15G02G04G05G07G10G13G23G26G28R06R07R08
                                R09R10R16
  22139226.535    22139225.6974   22139230.2334  116342428.828 7  90656462.61944
      -961.977        -749.593
  23724321.759    23724322.3454   23724329.4884  124672201.919 5  97147190.15641
     -2790.351       -2174.313
  22158928.381    22158928.6074   22158933.8074  116445974.248 7  90737136.45244
      3082.842        2402.211
  20750785.483    20750785.2704   20750790.3154  109046454.062 8  84971277.62746
      -799.467        -622.962
  20437969.235    20437967.8474   20437974.5234  107402289.700 8  83690111.96746
      -540.571        -421.230
  22871998.360    22871997.1724   22872001.9634  120193605.624 6  93657183.76042
     -1976.276       -1539.949
  24953709.608    24953703.5324   24953713.6074  131133113.264 4 102181472.39241
     -2275.592       -1773.196
  23625806.640    23625806.9754   23625814.0724  124154455.076 5  96743754.91941
      3441.367        2681.586
  24193895.079    24193896.0144   24193902.7524  127139877.695 5  99069989.40241
      3626.820        2826.094
  20880815.807    20880815.738    20880819.933   111424089.851 8  86663229.700 6
     -1972.362       -1534.060
  19627883.067    19627882.066    19627881.985   105069608.668 8  81720851.893 6
      2045.088        1590.624
  22580548.714    22580548.714    22580551.175   120917815.139 6  94047216.261 5
      4148.819        3226.871
  19192700.226    19192700.268    19192704.543   102488126.892 9  79713064.436 7
       493.676         383.967
  21357658.379    21357657.676    21357665.600   113848414.760 7  88548820.540 5
      3970.046        3087.814
  21581181.275    21581181.428    21581186.163   115283152.784 7  89664802.281 5
     -3026.585       -2354.009
 11 10 14  0 10  0.0000000  0 15G02G04G05G07G10G13G23G26G28R06R07R08
                                R09R10R16
  22144766.594    22144765.8744   22144770.4564  116371542.994 6  90679148.97144
      -978.981        -762.851
  23740258.775    23740258.2474   23740267.6314  124755953.940 5  97212451.39641
     -2793.242       -2176.550
  22141356.673    22141356.8984   22141361.9384  116353633.205 7  90665182.41144
      3073.208        2394.701
  20755392.010    20755391.7634   20755396.8274  109070662.232 8  84990141.13546
      -814.425        -634.614
  20441101.686    20441100.4214   20441107.1624  107418751.448 8  83702939.29246
      -556.893        -433.944
  22883291.339    22883289.8264   22883294.6884  120252947.558 6  93703424.21942
     -1979.866       -1542.763
  24966704.541    24966703.3914   24966705.3624  131201407.935 4 102234688.99741
     -2277.268       -1774.507
  23606174.754    23606174.0164   23606180.1384  124051276.987 5  96663356.41641
      3437.229        2678.374
  24173194.106    24173194.9154   24173201.0244  127031093.329 4  98985222.47941
      3625.391        2824.947
  20891948.939    20891948.598    20891952.150   111483494.905 8  86709433.610 6
     -1987.947       -1546.180
  19616469.869    19616468.661    19616468.299   105008510.994 8  81673331.488 6
      2028.007        1577.339
  22557313.501    22557312.091    22557314.974   120793384.779 6  93950437.094 5
      4146.475        3225.029
  19189998.741    19189998.840    19190002.965   102473700.404 9  79701843.839 7
       468.066         364.053
  21335358.192    21335357.154    21335364.244   113729537.668 7  88456360.586 4
      3955.052        3076.162
  21598210.804    21598211.179    21598216.010   115374122.383 7  89735556.391 5
     -3038.037       -2362.912
 11 10 14  0 10 30.0000000  0 15G02G04G05G07G10G13G23G26G28R06R07R08
                                R09R10R16
  22150404.085    22150402.6654   22150406.7194  116401161.617 7  90702228.41044
      -995.555        -775.766
  23756212.819    23756212.2184   23756219.8954  124839788.682 5  97277777.11741
     -2795.745       -2178.500
  22123838.815    22123838.8134   22123844.4664  116261578.137 7  90593451.19044
      3063.832        2387.401
  20760082.984    20760082.6954   20760087.6344  109095312.889 8  85009349.44046
      -828.922        -645.916
  20444326.335    20444325.0874   20444331.8544  107435697.358 8  83716143.88946
      -572.817        -446.355
  22894602.100    22894601.8824   22894607.7564  120312390.770 6  93749743.56642
     -1983.028       -1545.228
  24979708.824    24979703.7644   24979714.4084  131269743.972 4 102287937.89341
     -2278.431       -1775.414
  23586561.522    23586561.0394   23586569.6084  123948217.822 5  96583050.62441
      3433.421        2675.397
  24152500.598    24152498.9154   24152507.1644  126922346.959 5  98900485.15741
      3624.289        2824.153
  20903167.670    20903167.575    20903171.364   111543362.934 8  86755997.610 6
     -2003.178       -1558.029
  19605151.596    19605150.249    19605150.005   104947923.217 8  81626207.663 6
      2011.166        1564.236
  22534089.097    22534087.997    22534090.710   120669020.140 6  93853709.062 5
      4144.440        3223.456
  19187439.941    19187440.163    19187444.278   102460036.713 9  79691216.528 7
       442.858         344.441
  21313140.911    21313139.594    21313148.125   113611108.067 7  88364248.695 5
      3940.276        3064.654
  21615304.716    21615304.586    21615309.138   115465430.121 7  89806573.489 5
     -3049.053       -2371.488
 11 10 14  0 11  0.0000000  0 15G02G04G05G07G10G13G23G26G28R06R07R08
                                R09R10R16
  22156134.248    22156134.3414   22156138.6074  116431282.420 7  90725699.14444
     -1012.500        -788.964
  23772181.107    23772180.8994   23772189.1364  124923702.973 5  97343164.82341
     -2798.491       -2180.640
  22106376.412    22106376.3554   22106381.6264  116169810.784 7  90521944.18044
      3053.932        2379.688
  20764857.521    20764857.3014   20764862.4344  109120404.238 8  85028901.13746
      -843.831        -657.529
  20447643.355    20447642.0354   20447648.6554  107453127.472 8  83729725.78946
      -589.196        -459.115
  22905933.541    22905932.5404   22905938.0464  120371934.582 6  93796141.27142
     -1986.584       -1547.977
  24992721.919    24992723.9924   24992723.3394  131338121.059 4 102341218.69741
     -2279.980       -1776.564
  23566973.726    23566973.2394   23566979.4354  123845277.953 5  96502837.77941
      3429.236        2672.118
  24131815.550    24131814.7114   24131821.6844  126813641.247 5  98815779.53141
      3622.667        2822.841
  20914473.469    20914473.205    20914477.211   111603692.747 8  86802920.775 6
     -2018.824       -1570.197
  19593928.805    19593927.643    19593927.290   104887847.860 8  81579482.387 6
      1993.816        1550.744
  22510877.045    22510876.665    22510878.541   120544723.638 6  93757034.023 5
      4141.945        3221.523
  19185023.808    19185023.979    19185027.943   102447134.438 9  79681181.429 7
       417.292         324.561
  21291008.322    21291007.249    21291015.394   113493128.226 7  88272486.612 5
      3924.995        3052.779
  21632459.866    21632460.025    21632464.259   115557072.038 7  89877850.516 5
     -3060.354       -2380.271
 11 10 14  0 11 30.0000000  0 15G02G04G05G07G10G13G23G26G28R06R07R08
                                R09R10R16
  22161961.958    22161961.1764   22161965.7174  116461903.592 7  90749559.77844
     -1028.781        -801.641
  23788163.766    23788163.4464   23788171.3194  125007694.773 5  97408612.92641
     -2800.663       -2182.333
  22088968.860    22088968.5604   22088974.2314  116078334.663 7  90450664.09244
      3044.568        2372.393
  20769715.972    20769715.6834   20769720.7264  109145935.149 8  85048795.34946
      -858.080        -668.631
  20451052.388    20451051.1754   20451057.8404  107471042.358 8  83743685.42446
      -604.951        -471.388
  22917282.517    22917282.5034   22917288.5324  120431579.258 6  93842617.57642
     -1989.585       -1550.308
  25005742.526                                   131406540.237 4
     -2281.101
  23547407.423    23547407.5934   23547412.6524  123742458.630 5  96422718.83541
      3425.566        2669.274
  24111137.972    24111137.4394   24111143.2724  126704979.837 5  98731108.38041
      3621.554        2821.992
  20925865.698    20925865.601    20925869.763   111664484.334 8  86850203.102 6
     -2033.825       -1581.865
  19582802.898    19582801.694    19582801.267   104828288.989 8  81533158.813 6
      1977.092        1537.740
  22487678.896    22487678.404    22487681.098   120420498.752 6  93660414.681 5
      4139.931        3219.949
  19182750.193    19182750.271    19182754.226   102434993.150 9  79671738.211 7
       392.296         305.121
  21268960.662    21268959.603    21268967.048   113375601.665 7  88181077.093 5
      3910.239        3041.294
  21649677.278    21649677.258    21649682.067   115649045.205 7  89949385.190 5
     -3070.956       -2388.519
 11 10 14  0 12  0.0000000  0 15G02G04G05G07G10G13G23G26G28R06R07R08
                                R09R10R16
  22167883.853    22167882.7994   22167886.1244  116493018.642 7  90773805.27444
     -1045.526        -814.701
  23804159.839    23804160.8244   23804167.9284  125091757.373 5  97474116.18941
     -2803.342       -2184.409
  22071616.321    22071616.4974   22071622.3194  115987147.613 7  90379609.26144
      3034.604        2364.621
  20774656.876    20774656.5044   20774661.6904  109171899.384 8  85069027.22046
      -872.821        -680.124
  20454552.720    20454551.5924   20454558.3364  107489437.349 8  83758019.17246
      -621.310        -484.141
  22928651.453    22928650.9524   22928656.4374  120491320.190 6  93889168.89942
     -1993.124       -1553.080
  25018768.118                                   131474996.856 4
     -2282.566
  23527864.033    23527862.1824   23527870.2174  123639756.189 5  96342690.98441
      3421.341        2665.965
  24090468.064    24090467.0564   24090475.4724  126596360.975 5  98646470.42841
      3619.778        2820.599
  20937343.596    20937343.623    20937347.183   111725732.552 8  86897840.588 6
     -2049.356       -1593.946
  19571772.975    19571771.664    19571771.176   104769244.180 8  81487235.071 6
      1959.424        1523.997
  22464494.568    22464493.530    22464495.289   120296343.815 6  93563849.748 5
      4137.180        3217.791
  19180617.759    19180618.022    19180622.398   102423607.523 9  79662882.736 7
       366.803         285.290
  21246997.415    21246996.064    21247004.060   113258526.644 7  88090018.769 5
      3894.825        3029.313
  21666954.723    21666955.407    21666960.028   115741341.244 7  90021170.986 5
     -3082.019       -2397.125
 11 10 14  0 12 30.0000000  0 15G02G04G05G07G10G13G23G26G28R06R07R08
                                R09R10R16
  22173899.609    22173898.9404   22173902.5624  116524634.432 6  90798440.93144
     -1062.054        -827.575
  23820172.772    23820171.1954   23820180.9004  125175896.483 5  97539679.08041
     -2805.778       -2186.291
  22054321.873    22054321.5244   22054326.6944  115896260.580 7  90308788.20045
      3024.686        2356.897
  20779681.562    20779681.4024   20779686.3154  109198304.297 8  85089602.48446
      -887.339        -691.435
  20458146.473    20458145.1304   20458152.0254  107508321.478 8  83772734.06246
      -637.466        -496.728
  22940039.537    22940040.5884   22940043.7094  120551165.833 6  93935801.80742
     -1996.428       -1555.657
  25031799.451                                   131543499.993 3
     -2284.081
  23508343.422    23508340.9544   23508351.3274  123537180.139 5  96262761.64541
      3417.207        2662.768
  24069808.586    24069808.3704   24069814.3834  126487796.779 5  98561875.01441
      3617.992        2819.208
  20948908.906    20948908.374    20948912.192   111787445.732 8  86945839.703 6
     -2064.688       -1605.868
  19560840.707    19560839.713    19560839.486   104710726.141 8  81441721.039 6
      1941.948        1510.403
  22441324.254    22441323.124    22441326.526   120172270.717 6  93467348.468 5
      4134.496        3215.713
  19178628.652    19178628.850    19178632.998   102412985.257 9  79654620.975 7
       341.533         265.635
  21225121.591    21225120.227    21225128.135   113141915.056 7  87999320.893 5
      3879.468        3017.354
  21684294.383    21684295.071    21684299.814   115833965.448 7  90093212.001 5
     -3092.711       -2405.442
 11 10 14  0 13  0.0000000  0 15G02G04G05G07G10G13G23G26G28R06R07R08
                                R09R10R16
  22180008.796    22180008.1354   22180012.0324  116556739.091 7  90823457.53943
     -1078.393        -840.304
  23836196.215    23836195.3304   23836202.9144  125260099.662 5  97605291.92441
     -2807.879       -2187.978
  22037081.962    22037082.0494   22037087.2974  115805666.445 7  90238195.37845
      3014.797        2349.191
  20784787.911    20784787.7464   20784792.5734  109225137.914 8  85110511.80446
      -901.654        -702.585
  20461831.052    20461829.7614   20461836.7204  107527684.751 8  83787822.31446
      -653.518        -509.234
  22951445.636    22951445.3244   22951450.7584  120611106.687 6  93982508.92642
     -1999.702       -1558.200
  25044843.308                                   131612039.347 3
     -2285.286
  23488845.946    23488843.8964   23488852.2394  123434720.943 5  96182923.33241
      3413.226        2659.664
  24049158.802    24049157.7084   24049165.1784  126379280.191 5  98477316.67941
      3616.255        2817.886
  20960558.720    20960558.719    20960562.514   111849612.950 8  86994191.962 6
     -2079.914       -1617.711
  19550005.843    19550005.041    19550004.682   104652726.991 8  81396610.586 6
      1924.456        1496.798
  22418166.575    22418167.052    22418168.733   120048271.777 6  93370904.857 5
      4131.917        3213.713
  19176780.050    19176780.270    19176784.574   102403114.929 9  79646944.062 7
       316.401         246.090
  21203330.753    21203329.549    21203337.087   113025759.345 7  87908977.579 5
      3864.151        3005.450
  21701692.905    21701693.476    21701697.809   115926904.095 7  90165497.588 5
     -3103.250       -2413.638
 11 10 14  0 13 30.0000000  0 15G02G04G05G07G10G13G23G26G28R06R07R08
                                R09R10R16
  22186210.165    22186209.2244   22186213.5134  116589327.365 6  90848850.97043
     -1094.438        -852.811
  23852230.117    23852229.6124   23852236.7534  125344361.075 5  97670950.08541
     -2809.721       -2189.392
  22019898.144    22019898.2464   22019903.2514  115715364.590 7  90167830.30445
      3005.024        2341.572
  20789974.606    20789974.4454   20789979.4024  109252395.611 8  85131751.57046
      -915.787        -713.602
  20465606.511    20465605.1604   20465611.7034  107547523.706 8  83803281.22646
      -669.356        -521.577
  22962869.897    22962869.6654   22962874.2204  120671139.424 6  94029287.63042
     -2002.778       -1560.598
  25057894.780                                   131680611.937 3
     -2286.475
  23469370.669    23469369.1854   23469377.7164  123332376.396 5  96103174.37341
      3409.460        2656.742
  24028518.055    24028517.4644   24028524.1084  126270810.873 5  98392795.23741
      3614.718        2816.652
  20972293.152    20972292.962    20972297.312   111912230.600 8  87042894.566 6
     -2094.887       -1629.358
  19539268.658    19539267.489    19539267.442   104595248.231 8  81351904.880 6
      1907.163        1483.350
  22395024.880    22395024.665    22395028.522   119924346.685 6  93274518.699 5
      4129.433        3211.775
  19175071.644    19175072.005    19175075.976   102393992.312 9  79639848.704 7
       291.475         226.702
  21181625.861    21181624.464    21181631.863   112910059.227 7  87818988.611 5
      3848.906        2993.594
  21719149.018    21719149.426    21719153.788   116020150.361 7  90238022.448 5
     -3113.469       -2421.583
 11 10 14  0 14  0.0000000  0 15G02G04G05G07G10G13G23G26G28R06R07R08
                                R09R10R16
  22192502.743    22192501.9144   22192505.8884  116622393.827 7  90874617.03643
     -1110.032        -864.958
  23868273.127    23868273.1214   23868282.3884  125428675.104 5  97736649.25641
     -2811.238       -2190.562
  22002770.355    22002770.0534   22002775.0834  115625354.616 7  90097692.66645
      2995.580        2334.222
  20795241.542    20795241.4204   20795246.3664  109280073.039 8  85153318.39746
      -929.428        -724.228
  20469471.619    20469470.2264   20469476.8664  107567834.904 8  83819108.11646
      -684.792        -533.602
  22974310.480    22974311.0444   22974315.4774  120731260.428 6  94076135.12042
     -2005.338       -1562.604
  25070949.204                                   131749214.914 3
     -2287.074
  23449916.483    23449915.5474   23449922.0964  123230144.253 5  96023513.01041
      3405.979        2653.976
  24007885.643    24007885.1694   24007893.0314  126162389.005 5  98308310.72541
      3613.393        2815.605
  20984111.296    20984111.225    20984115.296   111975294.495 8  87091944.246 6
     -2109.421       -1640.658
  19528628.146    19528626.718    19528626.540   104538287.140 8  81307601.808 6
      1890.128        1470.098
  22371897.151    22371896.433    22371898.375   119800494.997 6  93178189.610 5
      4127.285        3210.103
  19173502.729    19173502.821    19173506.933   102385612.841 9  79633331.348 7
       267.091         207.739
  21160005.750    21160004.773    21160012.457   112794814.261 7  87729353.660 5
      3834.021        2982.016
  21736660.195    21736660.987    21736666.197   116113697.492 7  90310781.295 5
     -3123.125       -2429.097
 11 10 14  0 14 30.0000000  0 15G02G04G05G07G10G13G23G26G28R06R07R08
                                R09R10R16
  22198883.620    22198883.2784   22198888.1124  116655930.490 6  90900749.48943
     -1125.823        -877.268
  23884327.490    23884326.8284   23884334.0514  125513032.852 5  97802382.48041
     -2812.810       -2191.791
  21985696.272    21985696.2704   21985701.8614  115535632.842 7  90027779.60645
      2985.760        2326.570
  20800586.893    20800586.7164   20800591.3884  109308162.034 8  85175205.92746
      -943.305        -735.041
  20473425.274    20473424.0604   20473430.6634  107588612.555 8  83835298.47446
      -700.523        -545.858
  22985767.036    22985765.7324   22985771.2744  120791463.430 6  94123046.50142
     -2008.323       -1564.924
  25084008.211                                   131817842.096 3
     -2288.027
  23430482.753    23430482.2754   23430488.3574  123128018.883 5  95943934.82741
      3402.188        2651.037
  23987261.727    23987260.9864   23987268.1394  126054011.375 5  98223860.72041
      3611.708        2814.317
  20996011.994    20996011.917    20996015.950   112038797.947 8  87141335.810 6
     -2124.263       -1652.204
  19518083.805    19518082.426    19518082.019   104481842.008 8  81263700.046 6
      1872.683        1456.529
  22348782.263    22348781.552    22348784.575   119676713.655 6  93081915.228 5
      4124.688        3208.083
  19172071.335    19172071.403    19172075.740   102377969.353 9  79627386.420 7
       242.406         188.538
  21138470.907    21138469.248    21138478.492   112680021.168 7  87640070.164 5
      3818.742        2970.132
  21754227.600    21754228.006    21754232.670   116207535.407 7  90383766.309 5
     -3132.954       -2436.737
 11 10 14  0 15  0.0000000  0 15G02G04G05G07G10G13G23G26G28R06R07R08
                                R09R10R16
  22205356.122    22205355.7694   22205360.0284  116689942.251 7  90927252.12843
     -1141.739        -889.669
  23900390.501    23900389.1024   23900396.5814  125597438.891 5  97868153.33541
     -2814.423       -2193.053
  21968679.300    21968679.3394   21968684.5934  115446208.943 7  89958098.65445
      2975.675        2318.705
  20806011.354    20806011.1164   20806016.1514  109336668.170 8  85197418.49746
      -957.259        -745.914
  20477469.324    20477468.0024   20477474.8144  107609863.894 8  83851857.94546
      -716.394        -558.225
  22997241.154    22997240.1944   22997244.5684  120851755.497 6  94170027.28742
     -2011.312       -1567.257
  25097074.902                                   131886500.894 3
     -2289.207
  23411070.287    23411070.6074   23411075.8064  123026008.420 5  95864446.15741
      3398.308        2648.058
  23966648.664    23966649.1724   23966653.7204  125945688.058 5  98139452.97341
      3609.737        2812.809
  21007996.023    21007995.981    21008000.228   112102747.009 8  87191073.952 6
     -2139.184       -1663.807
  19507637.332    19507636.084    19507635.564   104425922.630 8  81220207.195 6
      1855.099        1442.859
  22325680.239    22325680.660    22325682.507   119553012.599 6  92985703.335 5
      4121.863        3205.897
  19170778.684    19170778.863    19170782.964   102371067.885 9  79622018.620 7
       217.577         169.227
  21117023.170    21117021.774    21117029.740   112565689.589 7  87551145.636 5
      3803.207        2958.050
  21771850.014    21771850.296    21771854.362   116301668.126 7  90456980.617 5
     -3142.690       -2444.316
 11 10 14  0 15 30.0000000  0 15G02G04G05G07G10G13G23G26G28R06R07R08
                                R09R10R16
  22211918.361    22211918.3744   22211922.8684  116724428.851 6  90954124.80343
     -1157.507        -901.951
  23916462.140    23916459.9434   23916467.2244  125681892.632 5  97933961.33241
     -2815.965       -2194.268
  21951720.211    21951720.2244   21951725.0354  115357087.267 7  89888653.20345
      2965.573        2310.836
  20811515.088    20811514.9954   20811520.1414  109365591.520 8  85219956.16946
      -971.109        -756.709
  20481603.760    20481602.7594   20481609.4004  107631590.746 8  83868787.95246
      -732.221        -570.557
  23008731.222    23008730.6574   23008735.2334  120912138.465 6  94217078.91842
     -2014.343       -1569.620
  25110144.474                                   131955193.236 3
     -2290.448
  23391681.358    23391679.8194   23391685.6474  122924115.505 5  95785049.13941
      3394.431        2645.006
  23946047.176    23946044.6284   23946052.0604  125837424.243 5  98055091.63341
      3607.762        2811.258
  21020064.358    21020064.179    21020068.014   112167143.305 8  87241159.953 6
     -2154.071       -1675.385
  19497290.266    19497289.122    19497288.910   104370534.217 8  81177127.320 6
      1837.330        1429.038
  22302597.740    22302597.065    22302600.181   119429396.710 6  92889557.667 5
      4118.995        3203.666
  19169625.377    19169625.619    19169629.793   102364908.978 9  79617228.371 7
       192.860         150.001
  21095661.315    21095660.692    21095668.858   112451824.540 7  87462583.950 5
      3787.648        2945.948
  21789526.762    21789527.062    21789531.023   116396093.809 7  90530422.803 5
     -3152.427       -2451.885
 11 10 14  0 16  0.0000000  0 14G02G04G05G07G10G13G26G28R06R07R08R09
                                R10R16
  22218572.532    22218571.2584   22218575.2884  116759389.681 6  90981366.98643
     -1173.184        -914.168
  23932538.689    23932540.6144   23932547.6614  125766392.891 5  97999805.60541
     -2817.340       -2195.313
  21934818.964    21934819.0894   21934824.2374  115268272.045 7  89819446.53945
      2955.442        2302.942
  20817098.783    20817098.5644   20817103.4614  109394931.981 8  85242818.85546
      -984.890        -767.446
  20485829.107    20485827.6734   20485834.5594  107653794.390 8  83886089.48146
      -747.993        -582.849
  23020238.867    23020238.5944   23020243.1894  120972613.637 6  94264202.40842
     -2017.286       -1571.910
  23372313.901    23372313.5004   23372320.3354  122822342.192 5  95705745.29041
      3390.487        2641.945
  23925457.387    23925456.2754   23925461.6394  125729224.368 5  97970780.11841
      3605.700        2809.611
  21032216.013    21032215.738    21032219.614   112231987.481 8  87291594.297 6
     -2168.866       -1686.892
  19487042.806    19487041.910    19487041.713   104315680.469 8  81134463.296 6
      1819.428        1415.116
  22279529.530    22279528.778    22279530.175   119305871.116 6  92793482.199 5
      4116.011        3201.349
  19168611.360    19168611.265    19168615.541   102359492.912 9  79613015.880 7
       168.212         130.837
  21074389.786    21074388.354    21074396.450   112338430.033 8  87374388.237 5
      3772.013        2933.790
  21807257.106    21807257.740    21807262.730   116490810.363 7  90604091.208 5
     -3162.013       -2459.335
 11 10 14  0 16 30.0000000  0 14G02G04G05G07G10G13G26G28R06R07R08R09
                                R10R16
  22225314.439    22225314.1094   22225318.0374  116794823.771 7  91008977.94743
     -1189.126        -926.588
  23948629.063    23948628.5924   23948634.8414  125850938.268 5  98065685.06341
     -2819.011       -2196.622
  21917976.952    21917977.0454   21917982.4754  115179766.866 7  89750481.46945
      2944.855        2294.690
  20822761.093    20822760.9624   20822766.0314  109424688.961 8  85266006.11146
      -998.933        -778.388
  20490145.066    20490143.8914   20490150.6424  107676475.783 8  83903763.28246
      -764.134        -595.430
  23031764.309    23031764.4744   23031768.8844  121033181.961 6  94311398.47342
     -2020.621       -1574.542
  23352970.366    23352970.0414   23352975.2884  122720690.342 5  95626536.09341
      3386.295        2638.653
  23904880.476    23904878.1974   23904884.8864  125621092.383 5  97886521.48441
      3603.185        2807.679
  21044451.155    21044451.201    21044455.392   112297279.605 8  87342377.048 6
     -2183.997       -1698.667
  19476897.048    19476895.740    19476895.551   104261367.421 8  81092219.815 6
      1801.301        1401.012
  22256479.086    22256478.667    22256482.168   119182439.016 6  92697479.494 5
      4112.649        3198.723
  19167735.869    19167736.084    19167740.165   102354819.339 9  79609380.882 7
       143.296         111.452
  21053206.262    21053204.841    21053212.694   112225509.730 8  87286561.351 5
      3755.979        2921.314
  21825042.303    21825042.896    21825047.977   116585815.433 7  90677984.017 5
     -3171.737       -2466.908
 11 10 14  0 17  0.0000000  0 14G02G04G05G07G10G13G26G28R06R07R08R09
                                R10R16
  22232146.690    22232145.6404   22232150.1204  116830725.393 7  91036953.21943
     -1204.674        -938.706
  23964725.381    23964723.3844   23964732.1814  125935522.737 5  98131594.95341
     -2820.326       -2197.643
  21901194.302    21901194.2174   21901199.0424  115091570.959 7  89681757.39645
      2934.496        2286.620
  20828501.915    20828501.6744   20828506.8014  109454856.915 8  85289513.59946
     -1012.621        -789.050
  20494551.656    20494550.3054   20494556.9754  107699631.227 8  83921806.47346
      -779.921        -607.730
  23043306.285    23043306.2054   23043313.2724  121093840.145 5  94358664.54342
     -2023.603       -1576.830
  23333650.595    23333648.7964   23333654.7074  122619157.354 5  95547419.48441
      3382.324        2635.586
  23884315.790    23884316.5484   23884321.5074  125513028.328 5  97802315.79641
      3600.778        2805.794
  21056770.365    21056770.206    21056773.983   112363015.924 8  87393505.289 6
     -2198.774       -1710.158
  19466851.308    19466850.386    19466849.940   104207592.376 8  81050394.775 6
      1783.328        1387.035
  22233447.280    22233446.447    22233449.136   119059100.211 6  92601549.311 5
      4109.472        3196.254
  19166998.778    19166999.007    19167003.287   102350883.693 9  79606319.828 7
       118.725          92.345
  21032110.787    21032110.043    21032117.690   112113063.368 7  87199103.081 5
      3740.093        2908.965
  21842879.960    21842880.715    21842885.866   116681102.078 6  90752095.812 5
     -3181.082       -2474.173
 11 10 14  0 17 30.0000000  0 14G02G04G05G07G10G13G26G28R06R07R08R09
                                R10R16
  22239067.990    22239068.2844   22239072.5624  116867102.452 7  91065298.96143
     -1220.394        -950.953
  23980831.208    23980830.9824   23980837.0794  126020153.762 5  98197541.09841
     -2821.698       -2198.731
  21884472.459    21884472.2644   21884477.1354  115003697.025 7  89613284.20645
      2923.820        2278.304
  20834322.656    20834322.4264   20834327.2564  109485444.885 8  85313348.38046
     -1026.524        -799.890
  20499050.108    20499048.6164   20499055.4064  107723270.618 8  83940226.76346
      -795.977        -620.243
  23054868.193    23054868.5704   23054874.8044  121154597.954 6  94406008.23642
     -2026.806       -1579.337
  23314353.195    23314353.2124   23314359.0874  122517754.092 6  95468403.98241
      3378.083        2632.263
  23863767.278    23863767.0504   23863773.1964  125405045.154 5  97718173.10541
      3598.163        2803.762
  21069174.321    21069173.867    21069177.688   112429205.762 8  87444986.260 6
     -2213.783       -1721.831
  19456908.942    19456907.836    19456907.460   104154369.701 8  81008999.361 6
      1764.919        1372.716
  22210433.485    22210432.358    22210436.700   118935867.715 6  92505701.815 5
      4106.008        3193.558
  19166401.843    19166401.910    19166406.136   102347694.608 9  79603839.436 7
        93.980          73.093
  21011107.933    21011106.659    21011114.125   112001103.698 8  87112023.363 5
      3723.928        2896.382
  21860772.068    21860772.330    21860777.347   116776676.662 6  90826431.562 5
     -3190.550       -2481.542
 11 10 14  0 18  0.0000000  0 14G02G04G05G07G10G13G26G28R06R07R08R09
                                R10R16
  22246081.159    22246079.4794   22246083.7834  116903946.694 7  91094008.73643
     -1235.763        -962.933
  23996942.716    23996942.5664   23996949.0384  126104822.660 5  98263516.78241
     -2822.790       -2199.579
  21867811.239    21867810.9754   21867815.9204  114916141.156 7  89545058.85945
      2913.326        2270.124
  20840221.616    20840221.4704   20840226.4024  109516444.948 8  85337504.27446
     -1040.085        -810.453
  20503639.167    20503637.9844   20503644.6144  107747387.509 8  83959019.13146
      -811.746        -632.527
  23066447.119    23066448.6104   23066454.2524  121215449.180 6  94453424.70242
     -2029.810       -1581.654
  23295081.766    23295081.4084   23295086.3684  122416474.978 5  95389485.24441
      3374.000        2629.083
  23843233.550    23843232.3654   23843240.2924  125297139.378 5  97634090.71641
      3595.680        2801.815
  21081661.859    21081661.585    21081665.485   112495841.589 7  87496814.107 6
     -2228.514       -1733.284
  19447068.931    19447067.681    19447067.335   104101694.963 8  80968030.120 6
      1746.732        1358.571
  22187440.551    22187440.221    22187443.344   118812738.644 6  92409934.761 6
      4102.600        3190.913
  19165942.778    19165943.019    19165947.077   102345244.250 9  79601933.601 7
        69.511          54.069
  20990195.480    20990193.926    20990201.862   111889626.677 8  87025319.029 5
      3707.927        2883.942
  21878715.700    21878716.348    21878720.699   116872529.433 6  90900983.693 5
     -3199.545       -2488.531
 11 10 14  0 18 30.0000000  0 14G02G04G05G07G10G13G26G28R06R07R08R09
                                R10R16
  22253179.700    22253179.4994   22253183.7534  116941256.363 6  91123081.18943
     -1251.418        -975.131
  24013060.393    24013061.6714   24013067.8674  126189527.735 5  98329520.59041
     -2824.046       -2200.549
  21851211.083    21851210.9084   21851215.7934  114828906.956 7  89477084.16245
      2902.408        2261.617
  20846199.033    20846198.6964   20846203.8094  109547855.971 8  85361980.39546
     -1053.872        -821.198
  20508319.491    20508318.3394   20508324.8824  107771982.803 8  83978184.28946
      -827.848        -645.072
  23078045.512    23078046.5644   23078051.8774  121276394.667 5  94500914.65942
     -2033.064       -1584.224
  23275831.535    23275830.9984   23275836.7074  122315321.813 5  95310664.62041
      3369.656        2625.712
  23822715.867    23822715.4764   23822720.3534  125189315.472 5  97550072.12141
      3592.700        2799.511
  21094233.216    21094232.943    21094236.954   112562923.679 7  87548989.055 6
     -2243.513       -1744.953
  19437332.005    19437330.905    19437330.435   104049572.901 8  80927490.734 6
      1728.157        1344.122
  22164466.927    22164466.899    22164469.249   118689716.634 6  92314250.999 6
      4098.931        3188.057
  19165621.980    19165622.331    19165626.309   102343532.244 9  79600602.045 7
        44.705          34.770
  20969373.647    20969372.398    20969379.759   111778636.107 8  86938993.053 5
      3691.541        2871.200
  21896711.869    21896711.814    21896715.957   116968657.728 7  90975750.141 5
     -3208.872       -2495.787
 11 10 14  0 19  0.0000000  0 14G02G04G05G07G10G13G26G28R06R07R08R09
                                R10R16
  22260368.994    22260368.2954   22260372.7494  116979034.178 6  91152518.43743
     -1267.085        -987.340
  24029187.889    24029187.3004   24029192.7774  126274271.096 5  98395554.22541
     -2825.415       -2201.600
  21834673.340    21834673.2944   21834678.5584  114742001.702 7  89409365.78245
      2891.278        2252.947
  20852255.211    20852254.9514   20852259.6774  109579681.033 8  85386779.13746
     -1067.772        -832.028
  20513091.968    20513090.5774   20513097.2024  107797061.311 8  83997725.97446
      -844.047        -657.697
  23089662.828    23089662.1524   23089669.2744  121337439.205 6  94548481.77442
     -2036.497       -1586.894
  23256608.413    23256607.2464   23256612.9044  122214300.020 5  95231946.34341
      3365.160        2622.215
  23802215.878    23802213.9594   23802220.7314  125081581.123 5  97466123.32841
      3589.590        2797.066
  21106888.940    21106888.358    21106892.430   112630456.118 7  87601514.250 6
     -2258.605       -1756.694
  19427699.889    19427698.822    19427698.459   103998010.949 8  80887386.993 6
      1709.335        1329.485
  22141514.463    22141514.079    22141518.027   118566809.652 6  92218656.695 6
      4094.878        3184.906
  19165440.460    19165440.576    19165444.802   102342561.868 9  79599847.311 7
        19.934          15.506
  20948644.455    20948643.417    20948651.284   111668139.400 8  86853051.196 5
      3674.926        2858.281
  21914759.002    21914759.076    21914763.511   117065063.223 7  91050732.174 5
     -3218.136       -2502.993
 11 10 14  0 19 30.0000000  0 14G02G04G05G07G10G13G26G28R06R07R08R09
                                R10R16
  22267646.808    22267647.0534   22267650.4354  117017281.518 7  91182321.53943
     -1282.647        -999.464
  24045321.325    24045318.6504   24045327.1744  126359053.518 5  98461618.29141
     -2826.677       -2202.614
  21818199.400    21818199.3524   21818204.9914  114655431.667 7  89341908.61245
      2880.118        2244.249
  20858390.059    20858389.9294   20858395.3074  109611921.865 8  85411901.85946
     -1081.531        -842.752
  20517956.594    20517955.4924   20517962.0824  107822626.142 8  84017646.61746
      -860.193        -670.282
  23101298.697    23101298.1854   23101303.3294  121398586.111 6  94596128.68942
     -2039.841       -1589.481
  23237411.119    23237409.0994   23237415.7444  122113414.108 5  95153333.98341
      3360.655        2618.698
  23781731.469    23781728.3324   23781737.1854  124973942.887 5  97382249.41341
      3586.376        2794.541
  21119628.709    21119628.524    21119632.869   112698441.277 8  87654391.578 6
     -2273.674       -1768.415
  19418173.687    19418172.318    19418171.809   103947015.004 8  80847723.476 6
      1690.428        1314.777
  22118586.703    22118585.488    22118587.695   118444024.343 6  92123157.010 5
      4090.934        3181.837
  19165398.339    19165398.297    19165402.359   102342335.251 9  79599671.060 7
        -4.717          -3.671
  20928009.841    20928008.374    20928015.736   111558142.708 8  86767498.233 5
      3658.242        2845.301
  21932857.580    21932858.313    21932862.549   117161745.280 7  91125929.301 5
     -3227.149       -2510.006
 11 10 14  0 20  0.0000000  0 14G02G04G05G07G10G13G26G28R06R07R08R09
                                R10R16
  22275013.085    22275013.6224   22275017.1734  117055993.171 6  91212486.44943
     -1297.909       -1011.362
  24061460.922    24061460.5804   24061468.3214  126443870.014 5  98527708.92741
     -2827.548       -2203.278
  21801789.690    21801789.6024   21801794.9044  114569196.257 7  89274712.19345
      2869.103        2235.669
  20864603.900    20864603.7034   20864608.7904  109644573.956 8  85437345.03946
     -1095.051        -853.288
  20522913.593    20522912.1984   20522918.8794  107848674.055 8  84037943.68546
      -876.115        -682.687
  23112953.623    23112953.4104   23112959.3384  121459832.192 6  94643852.87042
     -2043.020       -1591.952
  23218237.188    23218237.4474   23218243.1984  122012661.673 5  95074825.62641
      3356.406        2615.374
  23761267.298    23761265.4214   23761273.4084  124866400.910 5  97298450.48241
      3583.276        2792.204
  21132453.729    21132453.210    21132457.451   112766875.505 7  87707618.195 6
     -2288.445       -1779.902
  19408752.624    19408751.555    19408750.995   103896585.699 8  80808500.676 6
      1671.713        1300.222
  22095680.080    22095679.231    22095681.707   118321360.560 6  92027751.846 6
      4086.969        3178.753
  19165493.963    19165494.173    19165498.307   102342847.732 9  79600069.666 7
       -29.185         -22.698
  20907467.721    20907466.675    20907473.959   111448645.669 8  86682333.885 5
      3641.744        2832.466
  21951007.496    21951008.146    21951012.654   117258697.983 6  91201336.915 5
     -3236.080       -2516.944
 11 10 14  0 20 30.0000000  0 14G02G04G05G07G10G13G26G28R06R07R08R09
                                R10R16
  22282468.108    22282467.1454   22282471.5944  117095165.018 6  91243009.95143
     -1313.217       -1023.289
  24077606.774    24077605.5244   24077614.8974  126528715.979 5  98593822.58341
     -2828.516       -2204.002
  21785443.681    21785443.6064   21785448.4004  114483296.584 7  89207777.37945
      2857.820        2226.876
  20870894.981    20870894.6984   20870899.8174  109677633.896 8  85463106.04446
     -1108.649        -863.896
  20527961.857    20527960.5464   20527967.2334  107875203.050 8  84058615.62446
      -892.180        -695.206
  23124626.889    23124627.2654   23124633.4214  121521175.834 6  94691653.09242
     -2046.286       -1594.486
  23199089.148    23199088.9214   23199095.8634  121912041.813 5  94996420.57841
      3351.938        2611.901
  23740819.981    23740820.7294   23740826.8394  124758956.420 5  97214727.54041
      3580.022        2789.633
  21145362.143    21145361.510    21145365.846   112835756.103 8  87761191.996 6
     -2303.292       -1791.446
  19399438.014    19399437.033    19399436.484   103846723.960 8  80769719.320 6
      1652.688        1285.425
  22072794.954    22072794.815    22072796.899   118198819.787 6  91932442.392 6
      4082.777        3175.497
  19165728.102    19165727.927    19165731.958   102344095.645 9  79601040.270 7
       -53.710         -41.772
  20887020.141    20887019.072    20887026.444   111339649.001 8  86597558.721 5
      3625.006        2819.449
  21969207.672    21969207.827    21969211.883   117355915.826 7  91276950.751 5
     -3244.859       -2523.782
 11 10 14  0 21  0.0000000  0 14G02G04G05G07G10G13G26G28R06R07R08R09
                                R10R16
  22290008.443    22290008.3214   22290013.0124  117134794.027 6  91273889.67543
     -1328.484       -1035.179
  24093755.592    24093755.8394   24093764.2954  126613588.344 5  98659956.75241
     -2829.469       -2204.768
  21769161.633    21769161.7074   21769166.3524  114397734.315 7  89141105.49045
      2846.496        2218.044
  20877263.319    20877263.0814   20877268.1764  109711099.103 8  85489182.82846
     -1122.179        -874.424
  20533101.312    20533100.0714   20533106.8544  107902212.278 8  84079661.77346
      -908.242        -707.722
  23136318.102    23136318.4944   23136323.5464  121582616.336 6  94739528.77642
     -2049.510       -1597.026
  23179966.844    23179966.4154   23179972.5884  121811554.854 5  94918119.07741
      3347.447        2608.398
  23720392.442    23720393.0244   23720400.3974  124651612.039 5  97131082.63241
      3576.521        2786.914
  21158353.450    21158353.440    21158357.506   112905081.491 8  87815111.735 6
     -2318.172       -1803.022
  19390229.895    19390228.785    19390228.529   103797431.870 8  80731381.031 6
      1633.586        1270.567
  22049935.516    22049934.922    22049937.778   118076404.644 6  91837230.612 6
      4078.434        3172.122
  19166098.952    19166099.091    19166103.019   102346077.211 9  79602581.495 7
       -78.181         -60.807
  20866667.156    20866665.950    20866673.549   111231154.531 8  86513174.150 5
      3608.166        2806.350
  21987455.749    21987456.008    21987460.169   117453394.919 7  91352767.793 5
     -3253.565       -2530.553
 11 10 14  0 21 30.0000000  0 14G02G04G05G07G10G13G26G28R06R07R08R09
                                R10R16
  22297635.983    22297635.6084   22297640.2224  117174876.791 6  91305122.97243
     -1343.480       -1046.864
  24109912.109    24109912.6674   24109919.9524  126698483.593 5  98726108.75441
     -2830.030       -2205.192
  21752944.266    21752944.2044   21752949.3784  114312511.208 7  89074697.87045
      2835.234        2209.274
  20883708.114    20883707.7934   20883712.7254  109744966.952 7  85515573.35146
     -1135.426        -884.743
  20538332.342    20538331.0354   20538337.7934  107929700.737 8  84101081.34146
      -924.130        -720.096
  23148028.122    23148027.6024   23148032.8794  121644152.678 6  94787479.12342
     -2052.646       -1599.425
  23160870.342    23160869.6704   23160876.6604  121711200.272 5  94839920.71441
      3343.077        2604.973
  23699986.316    23699984.5654   23699990.6654  124544369.647 5  97047517.13841
      3573.168        2784.334
  21171428.178    21171428.066    21171432.075   112974849.438 8  87869375.683 6
     -2332.798       -1814.399
  19381128.647    19381127.417    19381127.292   103748711.629 8  80693487.504 6
      1614.608        1255.809
  22027098.868    22027098.292    22027101.163   117954117.052 6  91742118.033 6
      4074.257        3168.865
  19166606.752    19166606.875    19166611.313   102348789.651 9  79604691.169 7
      -102.397         -79.640
  20846408.299    20846407.335    20846415.262   111123164.265 8  86429181.734 5
      3591.427        2793.326
  22005751.827    22005752.351    22005756.514   117551130.688 7  91428784.483 5
     -3262.016       -2537.126
 11 10 14  0 22  0.0000000  0 14G02G04G05G07G10G13G26G28R06R07R08R09
                                R10R16
  22305348.651    22305347.9864   22305351.6794  117215401.020 7  91336700.28243
     -1358.089       -1058.245
  24126070.842    24126068.6624   24126076.9844  126783388.952 5  98792268.61341
     -2830.255       -2205.378
  21736790.016    21736789.9454   21736794.7224  114227619.538 7  89008548.52145
      2824.202        2200.674
  20890227.293    20890227.0904   20890231.8854  109779225.455 8  85542268.28646
     -1148.390        -894.850
  20543652.484    20543651.2424   20543657.8144  107957657.876 8  84122866.11946
      -939.666        -732.208
  23159754.795    23159754.7384   23159760.7004  121705774.496 6  94835496.12542
     -2055.432       -1601.634
  23141795.654    23141796.3344   23141803.0114  121610969.079 5  94761818.50241
      3339.006        2601.802
  23679596.618    23679596.9344   23679601.2304  124437222.177 5  96964025.65941
      3570.029        2781.859
  21184582.933    21184582.476    21184587.433   113045049.264 7  87923975.533 6
     -2347.154       -1825.567
  19372132.274    19372131.309    19372131.279   103700555.391 8  80656032.653 6
      1595.816        1241.187
  22004285.215    22004284.367    22004288.159   117831949.684 6  91647098.996 6
      4070.184        3165.694
  19167249.229    19167249.344    19167253.600   102352220.919 9  79607359.941 7
      -126.297         -98.235
  20826242.886    20826241.696    20826249.197   111015669.938 8  86345575.053 5
      3574.912        2780.485
  22024093.037    22024093.659    22024097.830   117649109.107 6  91504989.914 5
     -3269.885       -2543.249
 11 10 14  0 22 30.0000000  0 14G02G04G05G07G10G13G26G28R06R07R08R09
                                R10R16
  22313144.623    22313144.4414   22313147.6374  117256371.396 6  91368625.23743
     -1372.992       -1069.860
  24142228.495    24142227.3184   24142236.3954  126868308.884 5  98858439.88641
     -2830.770       -2205.781
  21720700.176    21720700.4144   21720705.6434  114143068.511 7  88942664.60645
      2812.770        2191.767
  20896821.893    20896821.5164   20896826.3784  109813879.872 8  85569271.72546
     -1161.634        -905.172
  20549062.928    20549061.7044   20549068.2584  107986089.863 8  84145020.90846
      -955.562        -744.593
  23171498.469    23171498.6944   23171503.8894  121767488.780 6  94883585.12242
     -2058.617       -1604.121
  23122748.356    23122748.5154   23122755.6084  121510868.430 5  94683818.02541
      3334.605        2598.403
  23659227.692    23659226.2014   23659231.5084  124330179.567 5  96880615.88441
      3566.344        2778.976
  21197820.162    21197820.020    21197824.386   113115686.190 7  87978915.355 6
     -2361.739       -1836.908
  19363243.686    19363242.542    19363242.348   103652971.997 8  80619023.342 6
      1576.565        1226.218
  21981495.467    21981494.907    21981498.243   117709912.447 6  91552181.145 6
      4065.808        3162.297
  19168027.573    19168027.509    19168031.645   102356375.891 9  79610591.589 7
      -150.466        -117.030
  20806171.966    20806170.537    20806178.448   110908680.856 8  86262361.337 5
      3557.912        2767.273
  22042481.900    22042481.710    22042486.248   117747333.817 6  91581386.878 5
     -3278.164       -2549.676
 11 10 14  0 23  0.0000000  0 14G02G04G05G07G10G13G26G28R06R07R08R09
                                R10R16
  22321025.526    22321024.2694   22321027.3184  117297781.286 6  91400892.66943
     -1387.625       -1081.264
  24158390.352    24158390.0074   24158396.3284  126953236.489 5  98924617.06641
     -2830.884       -2205.866
  21704674.975    21704675.1624   21704680.4654  114058856.713 7  88877045.01745
      2801.427        2182.928
  20903490.334    20903490.2294   20903495.1134  109848924.128 8  85596578.93546
     -1174.604        -915.277
  20554562.669    20554561.7644   20554568.1914  108014992.334 8  84167542.30446
      -971.229        -756.804
  23183260.055    23183258.9294   23183265.3934  121829291.287 6  94931742.91742
     -2061.535       -1606.390
  23103724.471    23103723.5724   23103730.0954  121410895.294 5  94605916.89241
      3330.371        2595.098
  23638877.995    23638876.6964   23638882.9054  124223240.876 5  96797287.08641
      3562.892        2776.255
  21211138.432    21211138.299    21211142.454   113186755.299 7  88034191.329 6
     -2376.129       -1848.100
  19354461.654    19354460.503    19354460.041   103605961.266 8  80582459.432 6
      1557.563        1211.440
  21958730.269    21958729.217    21958732.516   117588004.637 6  91457363.966 6
      4061.464        3158.915
  19168940.090    19168940.134    19168944.293   102361248.977 9  79614381.773 7
      -174.342        -135.600
  20786195.875    20786194.278    20786201.591   110802195.394 8  86179539.329 5
      3541.105        2754.193
  22060913.958    22060914.534    22060919.014   117845797.017 6  91657969.327 5
     -3285.998       -2555.781
 11 10 14  0 23 30.0000000  0 14G02G04G05G07G10G13G26G28R06R07R08R09
                                R10R16
  22328987.386    22328986.6174   22328990.3754  117339624.683 6  91433497.90243
     -1401.874       -1092.371
  24174552.457    24174550.6344   24174559.4214  127038166.237 5  98990795.94141
     -2830.885       -2205.873
  21688715.036    21688714.6764   21688719.9694  113974983.857 7  88811689.54745
      2790.225        2174.196
  20910232.223    20910231.9894   20910236.9934  109884353.087 8  85624185.91546
     -1187.222        -925.113
  20560151.744    20560150.3664   20560157.0064  108044361.673 8  84190427.50046
      -986.630        -768.806
  23195036.728    23195037.4394   23195041.4814  121891178.558 6  94979966.73742
     -2064.192       -1608.469
  23084725.061    23084723.7034   23084730.1184  121311047.027 5  94528113.09041
      3326.292        2591.911
  23618548.873    23618546.6644   23618552.4314  124116405.868 5  96714039.01841
      3559.532        2773.672
  21224537.372    21224537.083    21224541.204   113258252.349 7  88089800.139 6
     -2390.226       -1859.068
  19345785.963    19345785.022    19345784.898   103559520.897 8  80546339.143 6
      1538.531        1196.635
  21935988.553    21935988.052    21935991.145   117466225.936 6  91362647.207 6
      4057.230        3155.622
  19169985.822    19169986.117    19169990.223   102366834.913 9  79618726.393 7
      -197.929        -153.949
  20766313.812    20766312.392    20766319.750   110696212.970 8  86097108.584 5
      3524.466        2741.250
  22079390.737    22079390.882    22079395.644   117944492.120 6  91734732.144 5
     -3293.513       -2561.625
 11 10 14  0 24  0.0000000  0 14G02G04G05G07G10G13G26G28R06R07R08R09
                                R10R16
  22337032.201    22337031.0174   22337035.6384  117381900.351 6  91466439.96343
     -1416.401       -1103.694
  24190715.287    24190714.2774   24190722.4064  127123096.381 5  99056975.15841
     -2830.990       -2205.974
  21672819.502    21672819.3444   21672824.4854  113891452.935 7  88746600.52145
      2778.593        2165.140
  20917047.336    20917047.1544   20917052.1004  109920165.834 8  85652091.94546
     -1200.179        -935.203
  20565829.525    20565828.1774   20565834.8824  108074198.425 8  84213676.90546
     -1002.378        -781.075
  23206830.088    23206830.0994   23206834.4604  121953151.320 6  95028257.15742
     -2067.230       -1610.813
  23065747.753    23065748.1084   23065754.7154  121211325.365 6  94450407.93242
      3321.888        2588.488
  23598239.039    23598239.0154   23598242.9344  124009678.261 5  96630874.69341
      3555.681        2770.672
  21238016.279    21238015.927    21238019.905   113330177.091 7  88145741.587 6
     -2404.647       -1870.278
  19337218.694    19337217.420    19337217.229   103513657.140 8  80510667.327 6
      1519.147        1181.559
  21913273.474    21913271.325    21913274.528   117344580.147 6  91268033.826 6
      4052.525        3151.965
  19171165.266    19171165.485    19171169.798   102373132.604 9  79623624.598 7
      -221.846        -172.547
  20746526.354    20746525.266    20746532.616   110590736.527 8  86015071.362 5
      3507.351        2727.938
  22097909.512    22097909.716    22097914.301   118043416.397 6  91811673.221 5
     -3301.317       -2567.685
 11 10 14  0 24 30.0000000  0 14G02G04G05G07G10G13G26G28R06R07R08R09
                                R10R16
  22345158.191    22345158.2034   22345162.7844  117424607.232 6  91499718.03543
     -1430.899       -1114.984
  24206876.049    24206875.6914   24206883.3924  127208025.849 5  99123153.84041
     -2831.118       -2206.083
  21656989.936    21656989.7544   21656994.9734  113808267.974 7  88681781.07845
      2766.906        2156.032
  20923934.964    20923934.8604   20923940.0294  109956362.167 8  85680296.87546
     -1213.067        -945.245
  20571596.229    20571595.0294   20571601.7494  108104503.850 8  84237291.51446
     -1018.125        -793.345
  23218639.829    23218638.4734   23218644.1754  122015211.395 6  95076615.62442
     -2070.255       -1613.184
  23046796.156    23046795.8594   23046803.4034  121111732.441 5  94372803.09442
      3317.469        2585.040
  23577950.536    23577948.6504   23577955.7344  123903062.929 5  96547797.81941
      3551.823        2767.680
  21251574.333    21251574.356    21251578.887   113402529.973 7  88202016.041 6
     -2419.021       -1881.460
  19328758.866    19328757.728    19328757.202   103468372.438 8  80475445.892 6
      1499.634        1166.382
  21890581.610    21890580.991    21890583.817   117223072.777 6  91173528.101 6
      4047.773        3148.271
  19172477.900    19172477.937    19172482.409   102380141.972 9  79629076.332 7
      -245.585        -191.013
  20726835.363    20726833.896    20726841.117   110485770.154 8  85933430.864 5
      3490.250        2714.637
  22116470.277    22116470.790    22116475.733   118142567.854 6  91888790.998 5
     -3308.920       -2573.610
 11 10 14  0 25  0.0000000  0 14G02G04G05G07G10G13G26G28R06R07R08R09
                                R10R16
  22353368.696    22353367.7214   22353372.2974  117467748.616 6  91533334.67043
     -1444.925       -1125.911
  24223037.385    24223037.8174   24223045.5464  127292957.830 5  99189334.40841
     -2830.799       -2205.839
  21641227.537    21641227.7164   21641232.9724  113725437.234 7  88617237.64445
      2755.391        2147.056
  20930896.966    20930896.7074   20930901.5904  109992946.113 8  85708803.83846
     -1225.589        -955.005
  20577453.138    20577452.0704   20577458.8604  108135283.047 8  84261275.29446
     -1033.537        -805.351
  23230466.423    23230465.4814   23230472.4484  122077363.991 5  95125046.19942
     -2072.954       -1615.292
  23027869.581    23027868.8414   23027875.2524  121012275.086 5  94295303.87242
      3313.301        2581.794
  23557684.457    23557683.2084   23557690.2754  123796568.576 5  96464815.25241
      3548.116        2764.773
  21265214.962    21265215.044    21265218.623   113475315.884 7  88258627.284 6
     -2433.080       -1892.396
  19320409.246    19320408.042    19320407.511   103423675.564 8  80440681.654 6
      1480.398        1151.421
  21867918.182    21867917.808    21867920.864   117101711.991 6  91079136.382 6
      4043.211        3144.720
  19173924.831    19173924.859    19173929.043   102387866.823 9  79635084.547 7
      -269.034        -209.245
  20707241.033    20707239.920    20707246.747   110381322.135 8  85852193.534 5
      3473.286        2701.436
  22135074.946    22135074.833    22135080.407   118241949.450 6  91966087.765 5
     -3316.186       -2579.252
 11 10 14  0 25 30.0000000  0 14G02G04G05G07G10G13G26G28R06R07R08R09
                                R10R16
  22361658.716    22361657.7054   22361662.5804  117511316.010 6  91567283.26043
     -1459.603       -1137.351
  24239199.758    24239197.4464   24239205.3004  127377883.940 5  99255510.45141
     -2831.069       -2206.038
  21625532.560    21625532.1764   21625537.1384  113642956.991 7  88552967.33145
      2743.215        2137.573
  20937930.991    20937930.6784   20937935.3504  110029909.759 8  85737606.67546
     -1238.665        -965.193
  20583399.496    20583398.1244   20583404.9414  108166529.529 8  84285623.19246
     -1049.606        -817.874
  23242309.970    23242308.9064   23242315.5104  122139603.097 5  95173544.18441
     -2076.277       -1617.880
  23008967.788    23008966.9494   23008974.6414  120912947.439 6  94217905.74142
      3308.477        2578.031
  23537441.011    23537439.5524   23537446.2104  123690192.134 5  96381924.54541
      3543.565        2761.213
  21278935.349    21278935.011    21278938.826   113548527.239 7  88315569.435 6
     -2447.712       -1903.777
  19312168.559    19312167.412    19312167.090   103379562.222 8  80406371.273 6
      1460.377        1135.849
  21845281.804    21845281.104    21845284.767   116980494.891 6  90984856.435 6
      4037.849        3140.550
  19175503.747    19175503.910    19175507.792   102396298.749 9  79641642.722 7
      -293.086        -227.956
  20687743.552    20687742.083    20687749.230   110277388.447 8  85771356.246 5
      3455.613        2687.700
  22153720.068    22153720.606    22153725.573   118341550.999 6  92043555.604 5
     -3324.009       -2585.335
 11 10 14  0 26  0.0000000  0 14G02G04G05G07G10G13G26G28R06R07R08R09
                                R10R16
  22370030.008    22370029.5284   22370033.4674  117555307.929 6  91601562.66443
     -1473.594       -1148.258
  24255358.256    24255360.8274   24255366.7574  127462802.384 5  99321680.50241
     -2830.589       -2205.645
  21609904.117    21609903.9644   21609909.2454  113560831.477 7  88488973.42345
      2731.474        2128.422
  20945036.910    20945036.7174   20945041.7254  110067252.232 8  85766704.70146
     -1251.192        -974.953
  20589434.403    20589433.2294   20589440.1004  108198244.198 8  84310335.91146
     -1065.077        -829.929
  23254170.592    23254169.5424   23254175.3974  122201929.918 6  95222110.52142
     -2079.165       -1620.112
  22990091.748    22990092.1244   22990098.1394  120813751.953 5  94140610.56242
      3304.167        2574.671
  23517221.528    23517221.2144   23517227.5454  123583937.660 5  96299128.87341
      3539.669        2758.175
  21292735.032    21292734.546    21292737.940   113622163.982 7  88372842.448 6
     -2461.795       -1914.728
  19304037.347    19304036.321    19304036.260   103336037.077 8  80372518.383 6
      1440.871        1120.679
  21822673.993    21822672.851    21822676.323   116859426.064 6  90890691.792 6
      4032.982        3136.768
  19177215.001    19177215.202    19177219.168   102405437.390 9  79648750.554 7
      -316.484        -246.154
  20668342.765    20668341.370    20668348.924   110173972.551 8  85690921.672 5
      3438.398        2674.311
  22172406.478    22172406.881    22172411.639   118441370.560 6  92121193.005 5
     -3331.070       -2590.829
 11 10 14  0 26 30.0000000  0 14G02G04G05G07G10G13G26G28R06R07R08R09
                                R10R16
  22378483.256    22378482.0194   22378486.1624  117599724.934 7  91636173.31243
     -1487.547       -1159.137
  24271516.396    24271517.1504   24271523.3034  127547714.076 5  99387845.30241
     -2830.196       -2205.336
  21594344.692    21594344.5054   21594349.8664  113479065.852 7  88425259.94445
      2719.582        2119.162
  20952215.390    20952214.9094   20952220.1124  110104974.803 8  85796098.90846
     -1263.664        -984.672
  20595558.977    20595557.7934   20595564.8044  108230429.331 8  84335415.22746
     -1080.591        -842.022
  23266049.139    23266048.3594   23266053.3734  122264347.477 6  95270747.53042
     -2082.028       -1622.344
  22971241.069    22971240.6084   22971248.0904  120714692.072 5  94063421.07442
      3299.878        2571.328
  23497027.603    23497025.6864   23497030.7584  123477811.187 5  96216432.95441
      3535.450        2754.880
  21306613.593    21306613.745    21306618.038   113696228.136 7  88430447.890 6
     -2475.843       -1925.656
  19296017.384    19296016.425    19296016.424   103293105.481 8  80339127.137 6
      1421.202        1105.380
  21800092.662    21800092.051    21800095.708   116738511.597 6  90796647.239 6
      4027.921        3132.826
  19179058.854    19179058.945    19179063.109   102415283.341 9  79656408.522 7
      -339.853        -264.329
  20649040.435    20649039.179    20649046.078   110071079.646 8  85610893.871 5
      3421.097        2660.859
  22191133.220    22191134.334    22191138.511   118541407.296 6  92198999.320 5
     -3338.076       -2596.279
 11 10 14  0 27  0.0000000  0 14G02G04G05G07G10G13G26G28R06R07R08R09
                                R10R16
  22387016.265    22387014.9264   22387019.1144  117644565.568 7  91671114.04443
     -1501.669       -1170.118
  24287673.684    24287673.2534   24287681.8964  127632617.085 5  99454003.35641
     -2829.816       -2205.099
  21578854.132    21578854.1734   21578859.1454  113397663.112 7  88361829.24745
      2707.387        2109.650
  20959465.790    20959465.3804   20959470.4434  110143076.353 8  85825788.42146
     -1276.276        -994.502
  20601773.401    20601772.0654   20601778.9944  108263085.340 8  84360861.45546
     -1096.280        -854.247
  23277943.527    23277942.5934   23277948.4264  122326856.321 5  95319455.70842
     -2085.136       -1624.786
  22952417.173    22952415.9044   22952423.1544  120615769.379 6  93986338.46742
      3295.186        2567.673
  23476856.695    23476856.1304   23476860.9574  123371816.904 5  96133840.03241
      3531.045        2751.463
  21320573.340    21320573.410    21320577.844   113770719.402 7  88488385.531 6
     -2490.056       -1936.715
  19288109.132    19288108.072    19288107.864   103250771.477 8  80306200.685 6
      1401.246        1089.858
  21777542.890    21777542.507    21777545.726   116617755.335 6  90702725.709 6
      4022.653        3128.732
  19181034.713    19181034.958    19181039.433   102425835.499 9  79664615.761 7
      -363.410        -282.652
  20629836.430    20629835.362    20629842.730   109968712.976 8  85531275.373 5
      3403.508        2647.169
  22209901.269    22209901.957    22209905.927   118641658.996 6  92276972.842 5
     -3345.221       -2601.841
 11 10 14  0 27 30.0000000  0 14G02G04G05G07G10G13G26G28R06R07R08R09
                                R10R16
  22395628.622    22395628.1644   22395632.2814  117689826.984 6  91706382.65843
     -1515.683       -1181.045
  24303828.501    24303826.5034   24303835.6904  127717509.026 5  99520152.78741
     -2829.498       -2204.830
  21563433.648    21563433.3244   21563438.2044  113316626.032 7  88298683.47245
      2695.132        2100.102
  20966788.202    20966787.7364   20966793.1264  110181555.215 8  85855771.94546
     -1288.901       -1004.341
  20608077.054    20608075.9254   20608082.7614  108296211.870 8  84386674.33146
     -1112.045        -866.530
  23289855.665    23289855.4644   23289861.2114  122389456.289 6  95368234.90842
     -2088.107       -1627.086
  22933619.424    22933618.7824   22933624.9894  120516984.766 5  93909363.49542
      3290.552        2564.076
  23456711.753    23456711.7204   23456717.6304  123265957.647 5  96051352.33941
      3526.406        2747.859
  21334612.950    21334613.007    21334617.171   113845636.780 7  88546654.586 6
     -2504.354       -1947.834
  19280312.967    19280311.636    19280311.484   103209036.909 8  80273740.462 6
      1381.141        1074.216
  21755023.087    21755022.343    21755024.789   116497160.973 6  90608930.108 6
      4017.121        3124.425
  19183143.005    19183143.147    19183147.257   102437092.044 9  79673370.856 7
      -386.905        -300.932
  20610731.286    20610730.318    20610738.151   109866874.671 8  85452067.814 5
      3385.793        2633.395
  22228708.824    22228709.270    22228713.635   118742122.012 6  92355110.705 5
     -3352.247       -2607.304
 11 10 14  0 28  0.0000000  0 14G02G04G05G07G10G13G26G28R06R07R08R09
                                R10R16
  22404320.957    22404320.4144   22404325.0874  117735507.497 6  91741977.85143
     -1529.651       -1191.934
  24319980.041    24319978.2974   24319988.8754  127802388.137 5  99586292.20941
     -2829.071       -2204.463
  21548082.763    21548082.7064   21548088.0674  113235957.868 8  88235825.15945
      2682.715        2090.429
  20974181.877    20974181.6194   20974186.8644  110220410.173 8  85886048.52946
     -1301.387       -1014.069
  20614470.558    20614469.1554   20614476.0194  108329809.096 8  84412853.97946
     -1127.750        -878.767
  23301785.502    23301784.7614   23301791.2134  122452148.446 6  95417085.88941
     -2091.269       -1629.556
  22914847.331    22914846.7634   22914853.4544  120418339.850 5  93832497.34342
      3285.811        2560.377
  23436593.793    23436592.9624   23436599.9384  123160237.191 5  95968972.77341
      3521.658        2744.166
  21348732.439    21348731.853    21348735.673   113920979.759 7  88605254.669 6
     -2518.524       -1958.854
  19272629.357    19272628.135    19272627.655   103167905.263 8  80241749.178 6
      1361.020        1058.572
  21732534.146    21732532.963    21732535.925   116376732.484 6  90515263.533 6
      4011.498        3120.054
  19185382.422    19185382.808    19185386.731   102449051.420 9  79682672.604 7
      -410.348        -319.159
  20591727.365    20591725.808    20591733.487   109765568.033 8  85373273.775 5
      3368.001        2619.560
  22247555.410    22247554.959    22247559.721   118842794.224 6  92433411.285 5
     -3359.223       -2612.727
 11 10 14  0 28 30.0000000  0 14G02G04G05G07G10G13G26G28R06R07R08R09
                                R10R16
  22413092.442    22413091.8794   22413096.1994  117781600.295 6  91777894.27143
     -1543.293       -1202.565
  24336127.343    24336127.7604   24336137.2034  127887248.024 5  99652416.67841
     -2828.418       -2203.947
  21532802.371    21532802.2884   21532806.8574  113155657.198 7  88173253.22045
      2670.506        2080.914
  20981646.267    20981646.0444   20981651.2154  110259635.258 8  85916613.52946
     -1313.679       -1023.647
  20620952.415    20620951.3294   20620957.9554  108363872.221 8  84439396.65846
     -1143.219        -890.817
  23313732.411    23313731.1254   23313737.4774  122514928.416 6  95466005.30442
     -2094.147       -1631.785
  22896101.376    22896101.0284   22896108.4474  120319831.207 5  93755737.39642
      3281.352        2556.901
  23416503.198    23416501.9304   23416507.8464  123054654.484 5  95886700.52841
      3517.146        2740.632
  21362930.290    21362929.876    21362933.515   113996742.601 7  88664181.311 6
     -2532.446       -1969.682
  19265057.753    19265056.636    19265056.400   103127374.838 8  80210225.509 6
      1340.966        1042.974
  21710076.263    21710074.720    21710077.525   116256468.422 6  90421724.823 6
      4005.993        3115.768
  19187752.765    19187752.739    19187757.037   102461707.501 9  79692516.227 7
      -433.479        -337.152
  20572822.029    20572820.439    20572827.634   109664790.749 8  85294891.447 5
      3350.381        2605.854
  22266438.134    22266438.759    22266443.364   118943667.708 6  92511868.418 5
     -3365.716       -2617.781
 11 10 14  0 29  0.0000000  0 14G02G04G05G07G10G13G26G28R06R07R08R09
                                R10R16
  22421941.395    22421941.2844   22421945.4234  117828104.845 6  91814131.56943
     -1557.077       -1213.311
  24352271.933    24352272.7564   24352278.6204  127972087.740 5  99718525.41241
     -2827.688       -2203.402
  21517592.035    21517591.9804   21517597.3704  113075728.358 7  88110971.00645
      2657.983        2071.151
  20989180.904    20989180.7504   20989185.5914  110299230.577 8  85947467.02146
     -1326.087       -1033.317
  20627523.613    20627522.2164   20627528.9284  108398402.571 8  84466303.41446
     -1158.880        -903.022
  23325695.853    23325696.2054   23325701.5204  122577798.145 6  95514994.69042
     -2097.267       -1634.246
  22877382.344    22877382.3094   22877388.8394  120221461.610 5  93679085.79142
      3276.601        2553.189
  23396438.496    23396436.7774   23396442.8744  122949214.612 5  95804539.61942
      3512.178        2736.769
  21377207.014    21377206.971    21377210.563   114072926.239 7  88723435.241 6
     -2546.558       -1980.660
  19257599.707    19257598.537    19257598.194   103087450.871 8  80179173.532 6
      1320.604        1027.136
  21687648.097    21687647.633    21687650.986   116136374.463 6  90328318.444 6
      4000.217        3111.277
  19190252.967    19190253.168    19190257.450   102475059.978 9  79702901.487 7
      -456.752        -355.252
  20554015.595    20554014.433    20554022.357   109564546.982 8  85216924.091 5
      3332.461        2591.909
  22285358.824    22285359.811    22285364.393   119044741.315 6  92590481.204 5
     -3372.562       -2623.102
 11 10 14  0 29 30.0000000  0 14G02G04G05G07G10G13G26G28R06R07R08R09
                                R10R16
  22430868.876    22430867.8384   22430872.1674  117875013.562 6  91850683.80543
     -1570.434       -1223.720
  24368412.815    24368411.7534   24368419.3224  128056900.002 5  99784612.80241
     -2826.690       -2202.622
  21502452.172    21502452.2944   21502457.7794  112996168.703 7  88048976.47045
      2645.677        2061.568
  20996785.123    20996784.6364   20996789.5624  110339189.354 8  85978603.72046
     -1338.097       -1042.676
  20634182.409    20634181.0694   20634187.8064  108433394.676 8  84493569.98046
     -1174.225        -914.979
  23337675.458    23337675.1174   23337680.3644  122640752.233 5  95564049.80241
     -2100.023       -1636.373
  22858688.330    22858688.4154   22858695.2814  120123226.512 5  93602538.97342
      3272.157        2549.722
  23376400.549    23376399.0764   23376406.6254  122843915.279 6  95722488.20442
      3507.446        2733.090
  21391560.817    21391560.942    21391565.667   114149524.164 7  88783011.391 6
     -2560.265       -1991.320
  19250254.037    19250252.947    19250252.646   103048129.807 8  80148590.476 6
      1300.510        1011.506
  21665252.908    21665252.573    21665255.172   116016448.891 6  90235043.031 6
      3994.585        3106.898
  19192882.531    19192882.740    19192887.052   102489101.281 9  79713822.503 7
      -479.646        -373.061
  20535309.624    20535308.651    20535316.530   109464834.160 8  85139369.685 5
      3314.781        2578.164
  22304316.441    22304316.549    22304321.464   119146006.135 6  92669242.687 5
     -3378.768       -2627.938
 11 10 14  0 30  0.0000000  0 14G02G04G05G07G10G13G26G28R06R07R08R09
                                R10R16
  22439872.421    22439871.5284   22439875.5244  117922328.369 6  91887552.45343
     -1583.927       -1234.215
  24384543.973    24384547.0204   24384553.6654  128141686.700 4  99850680.33241
     -2825.795       -2201.919
  21487384.169    21487384.1204   21487389.2104  112916985.293 7  87987275.11945
      2633.128        2051.792
  21004458.228    21004457.9834   21004463.1974  110379513.923 8  86010025.46046
     -1350.245       -1052.138
  20640929.968    20640928.5894   20640935.1584  108468852.667 8  84521199.57246
     -1189.717        -927.051
  23349672.469    23349671.9564   23349677.1514  122703795.447 5  95613174.37641
     -2102.947       -1638.676
  22840022.164    22840021.1724   22840028.4564  120025131.515 5  93526101.33242
      3267.458        2546.083
  23356390.380    23356389.5884   23356396.3714  122738764.289 5  95640552.39842
      3502.562        2729.266
  21405993.814    21405993.609    21405997.911   114226539.783 7  88842912.416 6
     -2574.172       -2002.129
  19243022.497    19243021.445    19243020.953   103009418.497 8  80118481.675 6
      1280.165         995.685
  21642890.866    21642889.852    21642892.475   115896698.870 6  90141904.142 6
      3988.665        3102.295
  19195641.751    19195641.785    19195645.856   102503834.341 9  79725281.554 7
      -502.656        -390.953
  20516705.141    20516703.506    20516710.907   109365658.542 8  85062233.105 5
      3296.825        2564.196
  22323308.669    22323309.426    22323314.637   119247463.546 6  92748153.972 5
     -3385.116       -2632.864
 11 10 14  0 30 30.0000000  0 14G02G04G05G07G10G13G26G28R06R07R08R09
                                R10R16
  22448952.898    22448952.3504   22448955.9784  117970046.713 6  91924735.56743
     -1597.271       -1244.630
  24400677.011    24400675.6074   24400682.9564  128226445.883 5  99916726.41141
     -2824.727       -2201.102
  21472388.130    21472388.3154   21472393.2614  112838180.738 7  87925868.97645
      2620.556        2041.990
  21012201.070    21012200.8854   21012205.8874  110420202.411 8  86041730.77046
     -1362.303       -1061.537
  20647765.873    20647764.5084   20647771.1894  108504776.033 8  84549191.78846
     -1205.158        -939.085
  23361686.393    23361684.9474   23361691.1584  122766927.899 5  95662368.46641
     -2105.832       -1640.937
  22821381.761    22821382.4364   22821388.9024  119927177.493 6  93449773.55142
      3262.810        2542.438
  23336408.793    23336409.3534   23336415.8144  122633764.939 5  95558734.74441
      3497.453        2725.277
  21420505.517    21420504.688    21420508.850   114303971.846 7  88903137.340 6
     -2587.980       -2012.876
  19235905.359    19235904.274    19235904.171   102971320.339 8  80088849.773 6
      1259.734         979.790
  21620562.123    21620561.068    21620564.249   115777128.800 6  90048905.217 6
      3982.760        3097.700
  19198529.626    19198529.675    19198533.865   102519256.708 9  79737276.729 7
      -525.499        -408.727
  20498200.930    20498199.876    20498207.288   109267022.414 8  84985516.133 5
      3278.900        2550.250
  22342338.046    22342338.377    22342343.078   119349110.614 6  92827212.770 5
     -3391.271       -2637.653
 11 10 14  0 31  0.0000000  0 14G02G04G05G07G10G13G26G28R06R07R08R09
                                R10R16
  22458108.687    22458107.7364   22458111.1914  118018158.559 6  91962225.28443
     -1610.476       -1254.915
  24416797.532    24416797.0884   24416804.3974  128311167.047 4  99982742.75441
     -2823.627       -2200.220
  21457463.250    21457463.2954   21457468.1844  112759749.944 7  87864754.07445
      2607.870        2032.108
  21020011.320    21020011.2744   21020016.3394  110461246.134 8  86073712.88446
     -1374.256       -1070.850
  20654688.666    20654687.3224   20654694.1644  108541156.420 8  84577540.13346
     -1220.523        -951.056
  23373715.566    23373715.8084   23373720.4194  122830141.802 6  95711626.04141
     -2108.760       -1643.203
  22802767.195    22802766.9884   22802773.6064  119829357.670 6  93373550.32742
      3258.156        2538.831
  23316456.676    23316455.7574   23316462.6114  122528912.531 5  95477031.59741
      3492.353        2721.294
  21435092.335    21435091.970    21435095.890   114381811.830 7  88963679.531 6
     -2601.702       -2023.542
  19228901.513    19228900.311    19228900.441   102933829.536 8  80059690.249 6
      1239.271         963.878
  21598265.479    21598264.611    21598267.516   115657733.636 6  89956042.342 6
      3976.707        3092.995
  19201545.208    19201545.242    19201549.264   102535358.629 9  79749800.450 7
      -548.262        -426.429
  20479797.512    20479795.965    20479803.691   109168920.689 8  84909214.809 5
      3260.915        2536.265
  22361400.578    22361400.541    22361405.243   119450936.287 6  92906410.479 5
     -3397.347       -2642.380
 11 10 14  0 31 30.0000000  0 14G02G04G05G07G10G13G26G28R06R07R08R09
                                R10R16
  22467337.252    22467337.1714   22467341.3874  118066662.133 6  92000020.26443
     -1623.375       -1264.969
  24432912.029    24432911.7044   24432921.3484  128395848.685 5 100048728.33741
     -2822.092       -2199.060
  21442610.445    21442610.2264   21442615.2414  112681696.178 7  87803932.95645
      2595.412        2022.400
  21027889.194    21027889.1024   21027894.0764  110502643.645 8  86105970.67646
     -1385.853       -1079.887
  20661698.692    20661697.4484   20661704.0814  108577993.825 8  84606244.59046
     -1235.602        -962.808
  23385759.766    23385759.6914   23385765.6914  122893438.146 6  95760947.85041
     -2111.316       -1645.202
  22784179.518    22784178.6454   22784185.4044  119731673.413 6  93297432.74542
      3253.758        2535.392
  23296532.392    23296533.0744   23296538.6154  122424210.861 5  95395445.88442
      3487.410        2717.477
  21449755.691    21449755.606    21449759.274   114460058.665 7  89024538.170 6
     -2615.067       -2033.939
  19222012.487    19222011.502    19222010.952   102896949.877 8  80031006.065 6
      1219.027         948.133
  21576002.596    21576002.045    21576004.201   115538517.659 6  89863318.817 6
      3970.801        3088.400
  19204687.541    19204687.468    19204691.533   102552138.292 9  79762851.301 7
      -570.648        -443.841
  20461494.516    20461493.271    20461500.510   109071355.904 8  84833331.106 5
      3243.104        2522.407
  22380495.355    22380495.823    22380500.378   119552937.982 6  92985745.116 5
     -3403.066       -2646.827
 11 10 14  0 32  0.0000000  0 14G02G04G05G07G10G13G26G28R06R07R08R09
                                R10R16
  22476642.367    22476641.1044   22476645.5254  118115554.910 6  92038118.50443
     -1636.137       -1274.917
  24449017.939    24449018.6634   24449026.4754  128480489.034 4 100114681.75641
     -2820.582       -2197.846
  21427829.312    21427829.3374   21427834.2474  112604022.410 8  87743407.94745
      2582.821        2012.585
  21035833.765    21035833.5524   21035838.6404  110544393.420 8  86138502.96146
     -1397.446       -1088.921
  20668795.553    20668794.3964   20668800.9144  108615288.186 8  84635305.12146
     -1250.704        -974.578
  23397821.107    23397820.3574   23397825.4284  122956817.261 6  95810334.14341
     -2113.955       -1647.249
  22765616.804    22765615.9534   22765622.1124  119634126.272 6  93221422.00742
      3249.379        2531.973
  23276637.747    23276638.2564   23276643.8134  122319663.612 5  95313980.52042
      3482.334        2713.504
  21464495.649    21464495.210    21464498.596   114538711.822 7  89085712.838 6
     -2628.446       -2044.346
  19215237.604    19215236.431    19215236.277   102860683.614 8  80002798.964 6
      1198.688         932.311
  21553774.132    21553773.910    21553775.883   115419484.636 6  89770737.584 6
      3964.669        3083.635
  19207956.073    19207956.349    19207960.535   102569594.228 9  79776428.143 7
      -593.058        -461.268
  20443292.838    20443291.506    20443298.683   108974330.471 8  84757866.891 5
      3225.226        2508.506
  22399622.665    22399623.364    22399627.542   119655112.849 6  93065214.443 5
     -3408.655       -2651.179
 11 10 14  0 32 30.0000000  0 14G02G04G05G07G10G13G26G28R06R07R08R09
                                R10R16
  22486020.255    22486018.4174   22486023.2674  118164835.373 6  92076518.82643
     -1649.274       -1285.146
  24465115.731    24465115.2684   24465124.0254  128565086.723 4 100180601.95441
     -2819.359       -2196.889
  21413121.539    21413121.6284   21413126.5364  112526731.940 8  87683181.60545
      2569.785        2002.427
  21043845.358    21043845.4004   21043850.3394  110586494.860 8  86171309.27346
     -1409.389       -1098.229
  20675979.493    20675978.2194   20675984.8924  108653040.205 8  84664722.26846
     -1266.155        -986.612
  23409897.123    23409897.7404   23409903.0744  123020280.249 5  95859785.78041
     -2116.999       -1649.596
  22747080.897    22747080.7044   22747084.6844  119536717.868 6  93145519.38842
      3244.480        2528.166
  23256774.204    23256773.1684   23256777.6534  122215274.769 6  95232638.59542
      3476.796        2709.186
  21479310.711    21479310.613    21479314.596   114617770.655 7  89147203.037 6
     -2642.196       -2055.040
  19208578.088    19208577.059    19208576.612   102825034.849 8  79975072.142 6
      1177.835         916.093
  21531580.749    21531580.136    21531582.634   115300639.509 6  89678302.512 6
      3958.200        3078.595
  19211351.697    19211351.739    19211356.000   102587724.952 9  79790529.819 7
      -615.730        -478.900
  20425192.635    20425191.536    20425199.036   108877847.764 8  84682824.797 5
      3206.856        2494.218
  22418781.954    22418782.342    22418786.677   119757458.910 6  93144816.898 5
     -3414.486       -2655.710
 11 10 14  0 33  0.0000000  0 14G02G04G05G07G10G13G26G28R06R07R08R09
                                R10R16
  22495470.328    22495469.8204   22495475.2954  118214501.448 6  92115219.64743
     -1661.777       -1294.892
  24481206.671    24481206.7774   24481215.0644  128649639.237 5 100246486.94941
     -2817.436       -2195.406
  21398487.298    21398487.1414   21398492.4624  112449828.064 7  87623256.51045
      2557.137        1992.573
  21051923.539    21051923.5284   21051928.7144  110628946.185 7  86204388.22546
     -1420.699       -1107.037
  20683250.394    20683249.0814   20683256.0354  108691249.365 8  84694495.63046
     -1281.105        -998.266
  23421990.326    23421990.5564   23421996.6904  123083827.553 5  95909303.14941
     -2119.491       -1651.577
  22728570.404    22728570.5484   22728576.1824  119439449.741 6  93069726.05842
      3240.105        2524.759
  23236939.732    23236940.1044   23236944.9084  122111047.965 5  95151422.93242
      3471.692        2705.194
  21494201.814    21494202.167    21494206.651   114697234.571 7  89209008.301 6
     -2655.353       -2065.274
  19202034.615    19202033.316    19202032.698   102790005.652 8  79947827.198 6
      1157.419         900.214
  21509422.482    21509422.151    21509424.605   115181985.404 6  89586015.999 6
      3952.076        3073.839
  19214872.931    19214873.036    19214877.080   102606528.587 9  79805154.874 7
      -637.808        -496.073
  20407194.769    20407193.406    20407201.454   108781909.895 8  84608206.475 5
      3189.007        2480.342
  22437972.334    22437972.933    22437977.171   119859972.895 6  93224549.974 5
     -3419.761       -2659.808
 11 10 14  0 33 30.0000000  0 14G02G04G05G07G10G13G26G28R06R07R08R09
                                R10R16
  22504994.195    22504994.3094   22504998.2134  118264547.042 6  92154216.17543
     -1674.461       -1304.768
  24497286.107    24497286.5774   24497295.2024  128734141.113 4 100312332.51841
     -2815.841       -2194.131
  21383925.901    21383926.0644   21383931.5994  112373309.452 7  87563631.61945
      2544.165        1982.467
  21060067.584    21060067.4634   21060072.3004  110671742.366 8  86237735.88846
     -1432.260       -1116.046
  20690607.655    20690606.2104   20690613.0594  108729911.646 8  84724622.06346
     -1296.292       -1010.098
  23434097.657    23434097.5484   23434103.2394  123147455.614 6  95958883.40441
     -2122.301       -1653.723
  22710086.701    22710086.1684   22710093.1654  119342319.040 6  92994039.81942
      3235.412        2521.095
  23217137.113    23217135.8174   23217141.8974  122006982.792 6  95070333.19942
      3466.159        2700.913
  21509168.557    21509168.462    21509172.575   114777098.784 7  89271124.917 6
     -2668.815       -2075.742
  19195606.201    19195605.083    19195604.918   102755595.072 8  79921063.402 6
      1136.688         884.089
  21487301.095    21487300.477    21487302.918   115063522.583 6  89493878.255 6
      3945.521        3068.737
  19218519.086    19218519.274    19218523.481   102625999.337 9  79820298.793 7
      -660.107        -513.418
  20389299.201    20389298.109    20389305.266   108686515.573 8  84534010.902 5
      3170.723        2466.116
  22457193.168    22457193.958    22457198.924   119962648.857 6  93304409.016 5
     -3425.153       -2664.004
 11 10 14  0 34  0.0000000  0 14G02G04G05G07G10G13G26G28R06R07R08R09
                                R10R16
  22514588.862    22514588.5304   22514592.6794  118314968.426 6  92193505.54943
     -1686.700       -1314.316
  24513357.236    24513359.3694   24513364.5704  128818589.295 5 100378136.32841
     -2813.825       -2192.616
  21369438.870    21369438.8214   21369443.8114  112297177.840 7  87504308.28845
      2531.480        1972.577
  21068276.411    21068276.2184   21068281.3054  110714880.554 8  86271350.06146
     -1443.361       -1124.698
  20698050.569    20698049.4014   20698056.2324  108769025.413 8  84755100.31046
     -1311.056       -1021.602
  23446221.142    23446221.1724   23446227.3124  123211163.485 5  96008525.88441
     -2124.675       -1655.602
  22691630.018    22691629.3564   22691636.5854  119245325.742 6  92918460.63242
      3231.048        2517.706
  23197365.346    23197364.8554   23197370.8934  121903081.412 6  94989371.11342
      3460.840        2696.768
  21524209.984    21524209.446    21524213.428   114857360.339 7  89333550.570 6
     -2681.758       -2085.811
  19189294.003    19189292.849    19189292.221   102721804.836 8  79894782.097 6
      1116.235         868.182
  21465215.141    21465214.141    21465216.312   114945253.232 6  89401891.010 6
      3939.310        3063.908
  19222289.730    19222289.731    19222294.039   102646133.555 9  79835958.746 7
      -681.954        -530.412
  20371505.990    20371504.553    20371511.983   108591665.598 8  84460238.706 5
      3152.813        2452.191
  22476444.039    22476445.119    22476450.336   120065481.991 6  93384390.310 5
     -3430.117       -2667.870
 11 10 14  0 34 30.0000000  0 14G02G04G05G07G10G13G26G28R06R07R08R09
                                R10R16
  22524255.171    22524254.7574   22524258.5254  118365761.934 6  92233084.88243
     -1699.035       -1323.926
  24529416.656    24529413.7334   24529426.2834  128902980.032 4 100443895.31741
     -2811.847       -2191.044
  21355025.545    21355025.3504   21355030.4454  112221434.384 8  87445287.41245
      2518.522        1962.485
  21076550.080    21076549.7684   21076554.4794  110758357.669 8  86305228.32646
     -1454.635       -1133.481
  20705579.421    20705578.0114   20705584.8824  108808588.698 8  84785928.82946
     -1326.028       -1033.268
  23458359.321    23458359.0704   23458365.9504  123274950.042 5  96058229.67841
     -2127.317       -1657.676
  22673199.273    22673198.9914   22673204.9784  119148469.503 6  92842988.27042
      3226.489        2514.137
  23177624.108    23177624.2174   23177630.8214  121799345.184 6  94908537.69842
      3455.306        2692.454
  21539325.419    21539324.536    21539328.337   114938017.354 7  89396283.792 6
     -2694.883       -2096.020
  19183097.606    19183096.475    19183096.068   102688635.513 8  79868983.727 6
      1095.502         852.055
  21443165.639    21443164.770    21443167.077   114827179.846 6  89310056.140 6
      3932.686        3058.752
  19226184.101    19226184.089    19226188.257   102666927.992 9  79852132.198 7
      -703.922        -547.496
  20353814.723    20353813.483    20353820.937   108497361.156 8  84386890.821 5
      3134.611        2438.030
  22495723.972    22495723.953    22495729.357   120168468.124 6  93464490.613 5
     -3435.121       -2671.757
 11 10 14  0 35  0.0000000  0 14G02G04G05G07G10G13G26G28R06R07R08R09
                                R10R16
  22533990.896    22533989.0044   22533994.0174  118416920.086 6  92272948.35443
     -1711.349       -1333.510
  24545463.333    24545462.5484   24545473.3014  128987306.068 4 100509604.01541
     -2809.731       -2189.388
  21340685.702    21340685.2904   21340690.4694  112146077.300 7  87386567.60745
      2505.455        1952.308
  21084886.831    21084886.5454   21084891.5694  110802167.070 8  86339365.49346
     -1465.812       -1142.192
  20713192.674    20713191.3604   20713197.9644  108848596.065 8  84817103.38546
     -1340.958       -1044.902
  23470512.287    23470511.5724   23470518.4994  123338810.255 5  96107990.81641
     -2129.918       -1659.663
  22654792.867    22654792.2754   22654798.8894  119051746.293 6  92767619.54742
      3221.917        2510.584
  23157915.625    23157914.3104   23157921.1694  121695772.913 5  94827832.06742
      3449.671        2688.054
  21554512.802    21554512.390    21554516.878   115019063.262 7  89459319.493 6
     -2707.981       -2106.211
  19177017.202    19177015.935    19177015.431   102656085.347 8  79843666.927 6
      1074.613         835.809
  21421151.697    21421151.397    21421154.126   114709301.058 6  89218372.661 6
      3926.046        3053.588
  19230200.058    19230200.179    19230204.743   102688375.334 9  79868813.463 7
      -725.751        -564.473
  20336224.600    20336223.574    20336231.456   108403599.088 8  84313964.785 5
      3116.358        2423.836
  22515029.723    22515030.172    22515034.991   120271598.926 6  93544703.447 5
     -3440.010       -2675.563
 11 10 14  0 35 30.0000000  0 14G02G04G05G07G10G13G26G28R06R07R08R09
                                R10R16
  22543795.977    22543795.3954   22543800.2464  118468453.384 6  92313104.14943
     -1723.964       -1343.357
  24561499.464    24561498.5714   24561508.7194  129071577.860 5 100575270.29041
     -2808.124       -2188.140
  21326421.883    21326421.9004   21326426.9854  112071121.699 8  87328160.64845
      2491.849        1941.695
  21093288.965    21093288.5804   21093293.3964  110846320.041 8  86373770.39546
     -1477.441       -1151.255
  20720892.667    20720891.4774   20720898.0524  108889060.064 8  84848633.75846
     -1356.351       -1056.893
  23482680.647    23482680.9174   23482685.0074  123402757.708 5  96157819.99041
     -2132.987       -1662.065
  22636416.256    22636415.0944   22636420.7284  118955170.424 6  92692365.62542
      3216.781        2506.586
  23138241.170    23138239.4254   23138245.3844  121592380.828 5  94747266.82341
      3443.318        2683.106
  21569775.963    21569775.997    21569779.764   115100510.048 7  89522666.974 6
     -2721.472       -2116.701
  19171054.892    19171053.812    19171053.624   102624169.950 8  79818843.832 6
      1053.291         819.228
  21399178.672    21399178.140    21399180.763   114591633.427 6  89126853.398 6
      3918.718        3047.886
  19234340.685    19234340.764    19234345.175   102710486.189 9  79886010.793 7
      -748.045        -581.812
  20318740.327    20318738.928    20318746.544   108310394.858 8  84241472.622 5
      3097.504        2409.169
  22534366.466    22534365.728    22534370.849   120374885.125 6  93625037.141 5
     -3445.359       -2679.722
 11 10 14  0 36  0.0000000  0 14G02G04G05G07G10G13G26G28R06R07R08R09
                                R10R16
  22553672.353    22553672.7714   22553677.1224  118520358.516 6  92353549.67243
     -1736.402       -1353.036
  24577525.726    24577524.7084   24577531.6034  129155792.840 5 100640892.23841
     -2806.203       -2186.657
  21312234.974    21312234.9294   21312240.1934  111996569.256 8  87270067.83745
      2478.269        1931.120
  21101755.938    21101755.4424   21101760.5484  110890814.329 8  86408441.28845
     -1488.869       -1160.159
  20728678.934    20728677.8684   20728684.5294  108929979.161 8  84880518.75846
     -1371.597       -1068.781
  23494866.088    23494866.9644   23494871.6374  123466791.715 5  96207716.58541
     -2136.002       -1664.406
  22618065.815    22618065.0504   22618071.0834  118858741.810 6  92617226.47542
      3211.745        2502.657
  23118601.329    23118600.2694   23118606.0814  121489171.331 6  94666843.85742
      3437.156        2678.307
  21585113.713    21585113.783    21585118.084   115182355.827 7  89586324.790 6
     -2734.858       -2127.112
  19165211.434    19165210.273    19165210.373   102592889.741 8  79794514.779 6
      1031.941         802.618
  21377243.971    21377243.944    21377246.864   114474180.146 6  89035500.856 6
      3911.438        3042.229
  19238605.289    19238605.327    19238609.571   102733257.760 9  79903722.019 7
      -770.064        -598.940
  20301360.183    20301358.541    20301366.664   108217749.830 8  84169415.396 5
      3078.753        2394.582
  22553729.153    22553729.744    22553733.981   120478322.370 6  93705488.312 5
     -3450.431       -2683.668
 11 10 14  0 36 30.0000000  0 14G02G04G05G07G10G13G26G28R06R07R08R09
                                R10R16
  22563620.989    22563620.4054   22563624.9844  118572631.283 6  92394281.65943
     -1748.541       -1362.492
  24593537.513    24593540.8224   24593546.3734  129239946.772 4 100706466.59641
     -2804.097       -2185.022
  21298125.182    21298125.1524   21298130.2234  111922421.367 8  87212290.25745
      2464.796        1920.618
  21110286.778    21110286.6744   21110291.6344  110935646.222 8  86443375.21845
     -1500.040       -1168.864
  20736552.081    20736550.9094   20736557.4754  108971351.414 8  84912756.86346
     -1386.646       -1080.506
  23507067.354    23507066.3484   23507073.0884  123530910.922 5  96257679.56741
     -2138.762       -1666.548
  22599743.474    22599742.9854   22599749.6994  118762460.078 5  92542201.74242
      3206.900        2498.889
  23098996.160    23098995.6704   23099001.3814  121386145.720 5  94586564.18542
      3431.008        2673.496
  21600526.249    21600525.760    21600529.779   115264597.150 7  89650290.272 5
     -2748.035       -2137.364
  19159487.359    19159486.038    19159485.779   102562246.448 8  79770681.100 6
      1010.778         786.158
  21355351.396    21355351.683    21355354.298   114356942.942 7  88944316.374 6
      3904.226        3036.618
  19242992.481    19242992.754    19242996.810   102756685.709 9  79921943.756 7
      -791.876        -615.906
  20284084.658    20284083.445    20284091.102   108125663.938 8  84097793.051 5
      3060.152        2380.121
  22573119.431    22573120.733    22573124.965   120581906.574 6  93786053.773 4
     -3455.260       -2687.424
 11 10 14  0 37  0.0000000  0 14G02G04G05G07G10G13G26G28R06R07R08R09
                                R10R16
  22573637.925    22573638.2724   22573642.4374  118625272.220 6  92435300.55743
     -1760.798       -1372.052
  24609542.507    24609543.3054   24609551.1984  129324041.473 5 100771994.77841
     -2802.192       -2183.479
  21284093.041    21284092.9814   21284098.5324  111848684.224 8  87154832.74445
      2451.036        1909.895
  21118882.922    21118882.6624   21118887.5224  110980817.965 8  86478573.95245
     -1511.374       -1177.698
  20744511.766    20744510.5894   20744517.3164  109013179.989 8  84945350.55146
     -1401.888       -1092.385
  23519286.288    23519284.0724   23519292.3384  123595118.833 5  96307711.69841
     -2141.760       -1668.909
  22581450.816    22581450.8254   22581456.9654  118666329.570 6  92467294.89242
      3201.803        2494.898
  23079427.835    23079426.2824   23079431.8094  121283311.110 6  94506433.34442
      3424.647        2668.538
  21616013.029    21616012.547    21616016.267   115347236.766 7  89714565.536 6
     -2761.272       -2147.656
  19153882.518    19153881.624    19153881.470   102532245.886 8  79747347.326 6
       989.312         769.464
  21333499.888    21333499.297    21333501.978   114239928.905 6  88853305.477 6
      3896.689        3030.753
  19247503.139    19247503.347    19247507.270   102780771.664 9  79940677.278 7
      -813.809        -632.964
  20266915.963    20266914.587    20266922.143   108034143.031 8  84026610.136 5
      3041.239        2365.407
  22592538.799    22592539.047    22592543.762   120685638.007 6  93866733.723 5
     -3460.068       -2691.166
 11 10 14  0 37 30.0000000  0 14G02G04G05G07G10G13G26G28R06R07R08R09
                                R10R16
  22583724.606    22583723.5714   22583727.8894  118678275.206 6  92476601.56143
     -1772.645       -1381.297
  24625532.886    24625532.0474   24625539.9974  129408070.468 5 100837471.74241
     -2799.636       -2181.525
  21270139.308    21270139.3104   21270144.6564  111775356.273 8  87097694.07545
      2437.553        1899.390
  21127542.228    21127541.9814   21127546.9274  111026323.615 7  86514032.89045
     -1522.240       -1186.162
  20752557.811    20752556.3624   20752563.0954  109055460.002 8  84978295.99646
     -1416.687       -1103.916
  23531520.338    23531520.7274   23531525.7594  123659411.752 5  96357810.01941
     -2144.394       -1670.979
  22563185.586    22563185.5964   22563191.3454  118570347.466 6  92392503.62942
      3197.025        2491.201
  23059894.437    23059894.1104   23059900.1344  121180666.654 6  94426450.66542
      3418.462        2663.725
  21631571.753    21631572.044    21631576.306   115430269.178 7  89779146.293 6
     -2774.119       -2157.650
  19148397.990    19148396.888    19148396.666   102502886.094 8  79724511.930 6
       968.118         752.980
  21311690.188    21311689.996    21311692.410   114123138.045 7  88762468.124 6
      3889.379        3025.068
  19252135.733    19252135.807    19252139.664   102805509.083 9  79959917.498 7
      -835.270        -649.654
  20249852.787    20249851.428    20249858.726   107943185.310 8  83955865.252 5
      3022.679        2350.972
  22611983.010    22611983.561    22611989.189   120789509.880 6  93947522.936 5
     -3464.521       -2694.625
 11 10 14  0 38  0.0000000  0 14G02G04G05G07G10G13G26G28R06R07R08R09
                                R10R16
  22593878.030    22593878.2614   22593881.8474  118731636.457 6  92518181.72543
     -1784.763       -1390.733
  24641511.020    24641510.4984   24641516.7474  129492030.660 5 100902895.08641
     -2797.544       -2179.906
  21256263.867    21256263.5784   21256269.0864  111702438.760 8  87040875.23446
      2423.650        1888.559
  21136264.679    21136264.4494   21136269.2554  111072160.145 8  86549749.66345
     -1533.451       -1194.893
  20760688.433    20760687.2794   20760693.8564  109098189.197 8  85011591.45946
     -1431.859       -1115.736
  23543770.822    23543769.5264   23543777.7604  123723788.572 5  96407973.74141
     -2147.396       -1673.300
  22544948.640    22544948.9974   22544955.2584  118474513.321 6  92317827.69442
      3191.935        2487.240
  23040397.343    23040396.9814   23040403.1194  121078214.272 5  94346617.64142
      3411.790        2658.553
  21647205.361    21647205.270    21647209.193   115513691.708 7  89844030.473 6
     -2787.302       -2167.901
  19143032.906    19143032.028    19143031.833   102474167.419 8  79702175.182 6
       946.483         736.150
  21289922.558    21289921.732    21289924.913   114006572.519 7  88671806.080 6
      3881.712        3019.111
  19256888.999    19256889.335    19256893.675   102830893.989 9  79979661.318 7
      -857.005        -666.560
  20232894.713    20232893.433    20232901.160   107852791.075 8  83885558.642 5
      3003.659        2336.175
  22631452.964    22631454.389    22631459.466   120893517.818 6  94028417.959 5
     -3469.194       -2698.260
 11 10 14  0 38 30.0000000  0 14G02G04G05G07G10G13G26G28R06R07R08R09
                                R10R16
  22604101.041    22604100.9004   22604104.5694  118785357.453 6  92560042.21643
     -1796.749       -1400.068
  24657472.180    24657476.4184   24657481.4884  129575924.218 4 100968266.59241
     -2795.277       -2178.125
  21242467.094    21242467.1604   21242472.7194  111629938.648 7  86984381.64545
      2409.645        1877.644
  21145050.441    21145050.2894   21145055.2754  111118330.452 8  86585726.52045
     -1544.590       -1203.576
  20768905.860    20768904.6874   20768911.1774  109141371.037 8  85045239.63646
     -1446.976       -1127.516
  23556038.414    23556039.1934   23556043.2264  123788253.872 5  96458206.41841
     -2150.321       -1675.552
  22526742.233    22526741.2524   22526747.1114  118378832.858 6  92243271.50942
      3186.772        2483.202
  23020939.759    23020938.6624   23020945.0074  120975961.454 6  94266940.12942
      3405.092        2653.351
  21662912.702    21662912.314    21662916.740   115597507.455 7  89909220.484 6
     -2800.399       -2178.086
  19137789.392    19137788.367    19137788.070   102446098.348 8  79680343.677 6
       924.794         719.286
  21268198.264    21268197.901    21268199.786   113890240.339 7  88581325.484 6
      3873.785        3012.942
  19261764.746    19261764.851    19261768.932   102856928.580 9  79999910.447 7
      -878.653        -683.396
  20216043.865    20216042.373    20216050.360   107762966.541 8  83815695.125 5
      2984.597        2321.355
  22650950.001    22650951.185    22650956.260   120997663.393 6  94109420.036 5
     -3473.795       -2701.841
 11 10 14  0 39  0.0000000  0 14G02G04G05G07G10G13G26G28R06R07R08R09
                                R10R16
  22614392.429    22614392.4454   22614396.3404  118839438.349 6  92602183.13843
     -1808.839       -1409.488
  24673426.537    24673426.1044   24673435.8424  129659751.184 5 101033586.19241
     -2793.244       -2176.548
  21228751.345    21228751.2734   21228756.6114  111557861.069 7  86928217.30645
      2395.336        1866.492
  21153899.972    21153899.7824   21153904.7804  111164835.243 8  86621964.00945
     -1555.880       -1212.375
  20777210.000    20777208.4854   20777215.4274  109185008.027 8  85079242.47146
     -1462.320       -1139.474
  23568322.209    23568322.0064   23568328.8974  123852810.256 5  96508510.04141
     -2153.558       -1678.088
  22508564.611    22508564.2424   22508569.8784  118283309.293 6  92168837.56942
      3181.305        2478.935
  23001520.627    23001519.6024   23001526.5944  120873914.067 6  94187422.69042
      3397.928        2647.746
  21678693.722    21678693.589    21678697.952   115681717.743 7  89974717.366 6
     -2813.729       -2188.456
  19132667.767    19132666.756    19132666.668   102418682.610 8  79659020.316 6
       902.758         702.144
  21246519.459    21246518.794    21246521.823   113774148.576 7  88491031.905 6
      3865.577        3006.561
  19266761.857    19266762.024    19266766.233   102883613.077 9  80020665.055 7
      -900.497        -700.386
  20199300.489    20199299.152    20199307.118   107673716.580 8  83746278.502 5
      2965.265        2306.319
  22670472.439    22670472.938    22670477.667   121101946.137 6  94190528.829 5
     -3478.527       -2705.519
 11 10 14  0 39 30.0000000  0 14G02G04G05G07G10G13G26G28R06R07R08R09
                                R10R16
  22624751.732    22624751.0154   22624755.1634  118893874.656 6  92644601.01143
     -1820.392       -1418.485
  24689363.096    24689364.2424   24689368.2844  129743507.709 4 101098850.86041
     -2790.553       -2174.472
  21215116.013    21215116.0734   21215121.0714  111486206.994 8  86872382.96245
      2381.446        1855.674
  21162812.780    21162812.6284   21162817.2084  111211670.991 7  86658459.39245
     -1566.623       -1220.744
  20785599.821    20785598.4574   20785605.2414  109229097.787 8  85113598.11646
     -1477.132       -1151.008
  23580624.309    23580625.0524   23580630.5444  123917456.285 5  96558883.55741
     -2156.312       -1680.262
  22490416.583    22490416.6094   22490422.5224  118187942.068 6  92094525.47242
      3176.366        2475.085
  22982140.593    22982140.9494   22982146.9264  120772073.520 6  94108066.44742
      3391.292        2642.555
  21694548.631    21694548.207    21694552.596   115766319.231 7  90040518.509 6
     -2826.471       -2198.364
  19127668.772    19127667.599    19127667.390   102391920.603 8  79638205.412 6
       881.415         685.547
  21224885.178    21224884.344    21224886.749   113658298.004 7  88400925.912 6
      3857.696        3000.430
  19271879.882    19271880.126    19271884.301   102910943.087 9  80041921.731 7
      -921.651        -716.841
  20182665.385    20182664.006    20182671.811   107585041.061 8  83677308.666 5
      2946.320        2291.584
  22690019.328    22690019.889    22690024.541   121206361.476 6  94271740.741 5
     -3482.617       -2708.698
 11 10 14  0 40  0.0000000  0 14G02G04G05G07G10G13G26G28R06R07R08R09
                                R10R16
  22635176.099    22635174.7234   22635180.3004  118948655.262 6  92687287.16143
     -1831.747       -1427.338
  24705287.163    24705286.7724   24705293.7264  129827183.023 4 101164052.23441
     -2787.812       -2172.344
  21201560.373    21201560.1834   21201565.1764  111414970.318 7  86816873.86846
      2367.566        1844.857
  21171785.901    21171785.7274   21171791.1634  111258827.325 7  86695204.58445
     -1577.209       -1228.995
  20794073.952    20794072.9034   20794079.5474  109273630.779 8  85148299.13546
     -1491.823       -1162.457
  23592941.028    23592941.1064   23592948.3234  123982183.433 5  96609320.26241
     -2158.951       -1682.291
  22472297.461    22472296.8064   22472302.3014  118092723.596 6  92020329.28142
      3171.455        2471.254
  22962800.679    22962799.5224   22962805.7494  120670434.243 6  94028867.01442
      3384.569        2637.324
  21710474.837    21710474.354    21710478.122   115851301.938 7  90106616.161 6
     -2839.121       -2208.203
  19122790.479    19122789.296    19122789.123   102365806.407 8  79617894.357 6
       859.622         668.593
  21203294.446    21203294.100    21203296.767   113542684.004 7  88311003.917 6
      3849.791        2994.279
  19277116.533    19277116.843    19277120.935   102938907.286 9  80063671.660 7
      -942.669        -733.188
  20166136.392    20166135.247    20166142.740   107496933.160 8  83608780.317 5
      2927.417        2276.879
  22709588.985    22709589.232    22709594.062   121310897.750 6  94353046.706 5
     -3486.560       -2711.767
 11 10 14  0 40 30.0000000  0 14G02G04G05G07G10G13G26G28R06R07R08R09
                                R10R16
  22645664.859    22645663.7184   22645668.8224  119003772.865 6  92730235.91343
     -1842.703       -1435.863
  24721194.140    24721193.9004   24721202.0444  129910770.461 4 101229185.07741
     -2784.684       -2169.894
  21188083.709    21188083.5454   21188088.2424  111344148.834 8  86761688.29745
      2353.845        1834.165
  21180819.470    21180819.2564   21180824.5404  111306297.920 8  86732194.64745
     -1587.478       -1236.995
  20802631.723    20802630.5434   20802637.4134  109318601.874 8  85183341.53746
     -1506.211       -1173.671
  23605272.163    23605272.5544   23605279.3064  124046987.513 5  96659816.91441
     -2161.294       -1684.147
  22454205.150    22454204.4544   22454210.6944  117997650.442 6  91946246.31042
      3166.739        2467.585
  22943497.080    22943496.7254   22943502.3984  120568994.863 6  93949823.35242
      3378.023        2632.234
  21726470.651    21726469.917    21726474.193   115936659.690 7  90173005.526 5
     -2851.382       -2217.741
  19118032.394    19118031.322    19118031.026   102340336.807 8  79598084.656 6
       838.192         651.930
  21181748.269    21181747.881    21181750.698   113427305.822 7  88221265.336 6
      3842.037        2988.250
  19282470.648    19282471.000    19282475.226   102967498.568 9  80085909.325 7
      -963.367        -749.283
  20149713.427    20149712.553    20149719.986   107409390.279 8  83540691.423 5
      2908.779        2262.387
  22729177.773    22729178.801    22729184.978   121415547.534 5  94434440.962 5
     -3490.119       -2714.538
 11 10 14  0 41  0.0000000  0 14G02G04G05G07G10G13G26G28R06R07R08R09
                                R10R16
  22656217.718    22656216.7874   22656221.8844  119059230.588 6  92773449.69442
     -1854.226       -1444.835
  24737084.497    24737086.6664   24737091.2864  129994273.663 4 101294252.22241
     -2782.133       -2167.906
  21174687.080    21174687.1064   21174691.9964  111273750.916 8  86706832.78046
      2339.461        1822.960
  21189913.583    21189913.1894   21189918.6844  111354087.057 8  86769432.92045
     -1598.310       -1245.432
  20811273.613    20811272.5954   20811279.5204  109364015.792 8  85218728.98946
     -1521.220       -1185.362
  23617620.611    23617620.6194   23617625.9764  124111874.238 5  96710377.97341
     -2164.324       -1686.471
  22436142.629    22436142.5084   22436147.3794  117902729.112 6  91872281.65042
      3161.512        2463.525
  22924234.576    22924232.8394   22924238.4404  120467764.541 6  93870942.59542
      3370.775        2626.575
  21742536.924    21742536.680    21742540.843   116022396.953 7  90239690.060 5
     -2864.262       -2227.758
  19113396.413    19113395.330    19113394.745   102315519.887 8  79578782.600 6
       816.449         635.016
  21160249.212    21160248.266    21160250.384   113312173.073 7  88131717.643 6
      3833.568        2981.664
  19287943.310    19287943.560    19287947.555   102996720.396 9  80108637.414 7
      -984.606        -765.806
  20133397.602    20133396.750    20133404.787   107322419.776 8  83473047.710 5
      2889.408        2247.315
  22748791.234    22748791.330    22748797.606   121520313.529 6  94515925.604 5
     -3494.189       -2717.700
 11 10 14  0 41 30.0000000  0 14G02G04G05G07G10G13G26G28R06R07R08R09
                                R10R16
  22666834.072    22666834.2184   22666839.0884  119115024.472 6  92816925.42842
     -1865.413       -1453.575
  24752955.743    24752957.1434   24752969.1484  130077688.867 4 101359250.77941
     -2779.129       -2165.539
  21161371.520    21161371.4624   21161376.8784  111203777.797 8  86652308.27446
      2325.250        1811.882
  21199067.335    21199067.1334   21199072.7724  111402191.658 8  86806917.03345
     -1608.796       -1253.610
  20819999.608    20819998.3514   20820005.2004  109409870.325 8  85254459.78445
     -1535.903       -1196.807
  23629984.385    23629984.3684   23629989.8124  124176842.656 5  96761002.66841
     -2167.042       -1688.620
  22418107.706    22418107.7714   22418115.0884  117807959.688 6  91798435.38642
      3156.356        2459.495
  22905010.598    22905009.8894   22905015.7194  120366744.992 6  93792226.09142
      3363.704        2621.075
  21758675.036    21758674.427    21758677.999   116108511.025 7  90306667.659 5
     -2876.794       -2237.512
  19108882.556    19108881.201    19108880.859   102291355.146 8  79559987.791 6
       794.296         617.783
  21138795.026    21138794.071    21138796.355   113197287.897 7  88042362.523 6
      3825.294        2975.230
  19293533.220    19293533.139    19293537.296   103026568.476 9  80131852.588 7
     -1005.420        -781.993
  20117190.513    20117189.140    20117196.798   107236022.161 8  83405849.576 5
      2870.307        2232.460
  22768424.324    22768424.814    22768430.681   121625191.760 6  94597497.548 5
     -3497.860       -2720.555
 11 10 14  0 42  0.0000000  0 14G02G04G05G07G10G13G26G28R06R07R08R09
                                R10R16
  22677515.381    22677514.3974   22677518.9464  119171148.897 6  92860658.71842
     -1876.428       -1462.149
  24768812.160    24768816.6624   24768822.3494  130161011.730 4 101424177.40741
     -2776.116       -2163.210
  21148136.971    21148136.9874   21148142.1754  111134229.153 8  86598114.53046
      2311.037        1800.809
  21208280.536    21208280.3564   21208285.5284  111450606.946 7  86844643.20645
     -1619.166       -1261.682
  20828808.577    20828807.3054   20828814.2784  109456162.318 8  85290531.45046
     -1550.489       -1208.171
  23642362.344    23642362.1924   23642369.2554  124241890.030 5  96811688.88041
     -2169.690       -1690.701
  22400101.988    22400102.6524   22400108.2564  117713339.895 6  91724705.69042
      3151.296        2455.553
  22885827.048    22885826.1774   22885832.2214  120265936.424 6  93713673.98342
      3356.590        2615.512
  21774882.285    21774882.630    21774885.459   116194997.241 7  90373934.704 5
     -2889.210       -2247.160
  19104490.740    19104489.633    19104489.375   102267846.549 8  79541703.314 6
       772.799         601.065
  21117387.294    21117386.424    21117388.765   113082651.099 7  87953200.561 6
      3816.889        2968.696
  19299238.675    19299238.927    19299242.855   103057037.657 9  80155550.841 7
     -1026.075        -798.058
  20101089.661    20101088.367    20101096.267   107150196.442 8  83339096.249 5
      2851.170        2217.578
  22788079.179    22788078.799    22788084.302   121730176.523 6  94679152.338 5
     -3501.349       -2723.268
 11 10 14  0 42 30.0000000  0 14G02G04G05G07G10G13G26G28R06R07R08R09
                                R10R16
  22688257.610    22688256.8914   22688261.4244  119227599.467 6  92904646.11842
     -1886.880       -1470.296
  24784652.664    24784651.2304   24784662.0214  130244237.766 4 101489028.72341
     -2772.433       -2160.312
  21134983.090    21134983.0594   21134988.2794  111065105.937 8  86544252.29246
      2297.205        1790.028
  21217552.501    21217552.2414   21217557.0904  111499328.987 8  86882608.44245
     -1628.976       -1269.331
  20837700.268    20837699.2944   20837705.9714  109502889.197 8  85326941.99646
     -1564.589       -1219.160
  23654755.159    23654754.5014   23654760.3624  124307014.532 5  96862435.20441
     -2171.962       -1692.427
  22382126.072    22382124.9704   22382131.0664  117618869.253 6  91651092.21342
      3146.718        2451.979
  22866683.467    22866682.8714   22866688.6244  120165340.515 5  93635287.56342
      3349.809        2610.251
  21791158.782    21791158.683    21791162.567   116281852.568 7  90441488.840 5
     -2901.113       -2256.422
  19100220.837    19100219.552    19100219.365   102244988.745 8  79523925.012 6
       751.211         584.274
  21096026.412    21096025.782    21096028.494   112968265.070 7  87864233.670 6
      3808.888        2962.466
  19305060.128    19305060.299    19305064.382   103088123.448 9  80179728.681 7
     -1046.228        -813.733
  20085096.257    20085094.973    20085102.235   107064942.288 8  83272787.471 5
      2832.472        2203.034
  22807751.023    22807751.675    22807756.143   121835262.926 6  94760886.190 4
     -3504.328       -2725.588
 11 10 14  0 43  0.0000000  0 14G02G04G05G07G10G13G26G28R06R07R08R09
                                R10R16
  22699060.131    22699059.9184   22699063.6314  119284368.157 6  92948881.43742
     -1897.564       -1478.628
  24800468.573    24800470.0524   24800477.1654  130327359.563 4 101553798.67141
     -2769.003       -2157.653
  21121909.883    21121909.8534   21121914.9374  110996404.888 8  86490719.00946
      2282.960        1778.932
  21226880.553    21226880.4574   21226885.9334  111548351.166 8  86920807.53645
     -1639.078       -1277.202
  20846673.592    20846672.5544   20846679.3364  109550044.170 8  85363686.12246
     -1578.974       -1230.371
  23667160.870    23667160.5114   23667168.0094  124372210.928 5  96913237.55241
     -2174.407       -1694.337
  22364176.015    22364175.4594   22364182.2054  117524543.158 6  91577591.37643
      3141.750        2448.108
  22847580.522    22847580.2034   22847586.3244  120064954.827 6  93557064.95842
      3342.643        2604.651
  21807502.827    21807502.745    21807507.717   116369069.617 7  90509324.309 5
     -2913.277       -2265.883
  19096071.824    19096070.838    19096070.634   102222779.825 8  79506651.399 6
       729.458         567.357
  21074711.319    21074711.172    21074713.325   112854127.173 7  87775459.744 6
      3800.368        2955.844
  19310995.176    19310995.323    19310999.559   103119817.317 9  80204379.467 7
     -1066.585        -829.566
  20069209.309    20069207.820    20069215.438   106980255.658 8  83206920.105 5
      2813.413        2188.207
  22827442.061    22827441.970    22827446.261   121940442.708 6  94842692.667 4
     -3507.569       -2728.113
 11 10 14  0 43 30.0000000  0 14G02G04G05G07G10G13G26G28R06R07R08R09
                                R10R16
  22709924.484    22709923.8754   22709927.9894  119341457.376 6  92993366.52043
     -1908.168       -1486.885
  24816267.493    24816266.3434   24816276.0444  130410380.162 4 101618489.75341
     -2765.507       -2154.941
  21108918.416    21108918.1074   21108923.1494  110928133.515 8  86437520.54146
      2268.610        1767.746
  21236267.241    21236266.9784   21236272.0594  111597677.047 8  86959243.28045
     -1649.126       -1285.036
  20855729.813    20855728.5054   20855735.1514  109597631.796 8  85400767.37146
     -1593.357       -1241.578
  23679582.420    23679582.1894   23679589.0154  124437484.716 5  96964100.20641
     -2176.954       -1696.326
  22346254.815    22346254.4834   22346261.2514  117430367.918 6  91504208.08343
      3136.744        2444.202
  22828520.837    22828519.0274   22828525.3964  119964787.590 6  93479012.57842
      3335.330        2598.983
  21823916.351    21823915.989    21823921.025   116456652.523 7  90577444.346 5
     -2925.421       -2275.329
  19092045.890    19092044.878    19092044.316   102201227.972 8  79489888.836 6
       707.522         550.292
  21053445.040    21053444.833    21053447.365   112740246.819 7  87686886.143 6
      3791.760        2949.146
  19317044.894    19317045.017    19317049.069   103152122.243 9  80229505.527 7
     -1086.874        -845.351
  20053429.726    20053428.623    20053436.183   106896143.946 8  83141499.894 5
      2794.206        2173.268
  22847149.785    22847149.879    22847154.769   122045718.347 6  94924573.693 5
     -3510.731       -2730.576
 11 10 14  0 44  0.0000000  0 14G02G04G05G07G10G13G26G28R06R07R08R09
                                R10R16
  22720847.928    22720846.5024   22720851.3614  119398860.137 6  93038095.90542
     -1918.561       -1494.973
  24832044.633    24832044.9174   24832055.3284  130493292.954 4 101683096.89741
     -2761.773       -2151.979
  21096007.867    21096007.8474   21096013.2404  110860289.961 8  86384655.43646
      2254.369        1756.651
  21245710.114    21245709.7814   21245714.9054  111647300.249 8  86997910.70245
     -1658.969       -1292.706
  20864866.677    20864865.3024   20864872.1384  109645646.945 8  85438181.75245
     -1607.537       -1252.623
  23692017.327    23692016.5584   23692022.7464  124502831.847 5  97015020.01941
     -2179.320       -1698.156
  22328361.849    22328360.8614   22328367.3304  117336340.362 6  91430939.86343
      3131.898        2440.453
  22809500.041    22809499.3274   22809505.1434  119864837.721 6  93401129.59742
      3328.100        2593.322
  21840397.114    21840396.117    21840401.087   116544594.933 7  90645844.003 5
     -2937.299       -2284.564
  19088141.977    19088141.044    19088140.876   102180330.826 8  79473635.489 6
       685.954         533.519
  21032226.885    21032226.744    21032228.256   112626623.650 7  87598512.580 6
      3783.198        2942.489
  19323207.620    19323207.872    19323211.640   103185031.062 9  80255101.280 7
     -1106.886        -860.912
  20037758.338    20037756.854    20037764.413   106812604.638 8  83076524.890 5
      2775.210        2158.497
  22866874.311    22866874.121    22866879.185   122151082.504 6  95006523.575 5
     -3513.493       -2732.723
 11 10 14  0 44 30.0000000  0 14G02G04G05G07G10G13G26G28R06R07R08R09
                                R10R16
  22731830.252    22731829.8874   22731834.2044  119456575.038 6  93083068.51242
     -1929.064       -1503.170
  24847801.457    24847800.7024   24847811.2584  130576097.795 4 101747620.06041
     -2758.449       -2149.440
  21083180.073    21083179.8694   21083185.4234  110792878.521 8  86332127.04646
      2239.727        1745.243
  21255210.050    21255209.5944   21255214.4764  111697220.448 8  87036809.54445
     -1669.031       -1300.540
  20874084.704    20874083.6294   20874090.3934  109694090.079 8  85475929.63845
     -1621.997       -1263.894
  23704467.610    23704466.5154   23704472.8784  124568253.702 5  97065998.05641
     -2182.049       -1700.318
  22310498.247    22310497.9074   22310503.6164  117242462.734 6  91357788.47643
      3126.678        2436.371
  22790522.429    22790521.7644   22790527.2314  119765109.506 6  93323419.31242
      3320.489        2587.386
  21856943.317    21856943.772    21856948.356   116632896.752 7  90714523.191 5
     -2949.469       -2294.035
  19084361.506    19084360.393    19084360.164   102160092.232 8  79457894.350 6
       663.413         515.989
  21011057.886    21011057.092    21011059.232   112513262.575 7  87510342.865 6
      3774.162        2935.458
  19329483.064    19329483.368    19329487.540   103218542.554 9  80281165.771 7
     -1127.098        -876.633
  20022194.164    20022192.847    20022200.121   106729639.922 8  83011996.796 5
      2755.774        2143.379
  22886613.770    22886613.691    22886619.475   122256533.744 5  95088541.187 4
     -3516.542       -2735.087
 11 10 14  0 45  0.0000000  0 14G02G04G05G07G10G13G26G28R06R07R08R09
                                R10R16
  22742872.921    22742871.7974   22742876.0594  119514601.229 6  93128283.69242
     -1939.434       -1511.261
  24863538.979    24863539.3834   24863548.4064  130658794.187 4 101812058.71941
     -2754.801       -2146.598
  21070435.009    21070434.8124   21070440.2914  110725903.535 8  86279938.75046
      2225.138        1733.872
  21264765.911    21264765.5744   21264770.8034  111747437.939 8  87075940.05445
     -1678.929       -1308.259
  20883384.875    20883383.6614   20883390.5614  109742962.329 8  85514011.90245
     -1636.287       -1275.030
  23716932.240    23716931.3964   23716936.6164  124633752.392 5  97117035.95041
     -2184.624       -1702.305
  22292662.392    22292661.8364   22292668.9464  117148738.115 6  91284756.32243
      3121.485        2432.329
  22771588.081    22771586.9754   22771593.0034  119665608.475 6  93245886.04942
      3312.875        2581.458
  21873560.144    21873559.860    21873563.883   116721559.114 7  90783482.798 5
     -2961.454       -2303.351
  19080703.914    19080702.901    19080702.540   102140514.258 8  79442667.029 6
       641.489         498.935
  20989937.979    20989937.633    20989940.269   112400169.467 7  87422381.568 6
      3765.156        2928.454
  19335871.643    19335871.937    19335876.151   103252655.786 9  80307698.283 7
     -1147.167        -892.242
  20006738.987    20006737.435    20006744.812   106647253.986 8  82947918.861 5
      2736.461        2128.355
  22906370.147    22906370.910    22906375.976   122362071.696 5  95170626.263 4
     -3519.357       -2737.273
 11 10 14  0 45 30.0000000  0 14G02G04G05G07G10G13G26G28R06R07R08R09
                                R10R16
  22753973.996    22753973.0714   22753976.1354  119572938.779 6  93173741.48542
     -1949.693       -1519.228
  24879256.969    24879257.0394   24879264.4584  130741382.773 4 101876413.36241
     -2751.067       -2143.683
  21057774.082    21057774.1394   21057779.5444  110659369.969 8  86228094.41646
      2210.453        1722.431
  21274378.527    21274378.4044   21274383.7214  111797953.759 7  87115303.01945
     -1688.752       -1315.911
  20892767.175    20892765.9724   20892772.7834  109792265.782 8  85552430.15845
     -1650.579       -1286.165
  23729411.397    23729410.0664   23729417.4164  124699330.757 5  97168135.92841
     -2187.263       -1704.343
  22274857.453    22274856.2304   22274862.2714  117055170.494 6  91211846.50143
      3116.354        2428.325
  22752697.666    22752696.9774   22752703.6094  119566340.317 6  93168534.25442
      3305.022        2575.320
  21890242.787    21890243.262    21890246.241   116810582.710 7  90852723.358 5
     -2973.435       -2312.670
  19077170.887    19077170.156    19077169.918   102121602.793 8  79427958.098 6
       619.315         481.692
  20968870.673    20968870.207    20968872.216   112287351.484 7  87334634.250 6
      3756.078        2921.397
  19342372.873    19342372.931    19342377.230   103287371.085 9  80334699.067 7
     -1167.130        -907.768
  19991392.541    19991391.397    19991399.239   106565451.102 8  82884294.403 5
      2717.076        2113.277
  22926144.244    22926144.600    22926148.557   122467696.182 5  95252778.646 4
     -3522.188       -2739.482
 11 10 14  0 46  0.0000000  0 14G02G04G05G07G10G13G26G28R06R07R08R09
                                R10R16
  22765134.181    22765133.5374   22765137.6124  119631586.072 6  93219440.63542
     -1960.264       -1527.467
  24894950.306    24894950.9534   24894961.3674  130823862.487 4 101940683.15141
     -2747.695       -2141.095
  21045198.113    21045197.9264   21045203.4554  110593281.429 8  86176596.85246
      2195.277        1710.607
  21284047.945    21284047.7564   21284053.0984  111848767.129 8  87154897.83645
     -1698.922       -1323.829
  20902231.389    20902230.0624   20902237.0464  109842000.305 8  85591184.32246
     -1665.203       -1297.560
  23741904.578    23741905.3244   23741911.4054  124764990.402 5  97219299.25641
     -2190.210       -1706.634
  22257082.684    22257081.4774   22257087.5534  116961761.580 6  91139060.36443
      3110.781        2423.978
  22733853.588    22733852.6504   22733858.0534  119467309.136 6  93091367.10843
      3296.842        2568.954
  21906993.854    21906993.617    21906996.723   116899967.168 7  90922244.583 5
     -2985.703       -2322.213
  19073763.505    19073762.454    19073762.024   102103360.898 8  79413769.949 6
       596.672         464.078
  20947854.697    20947854.076    20947856.567   112174812.506 7  87247103.942 6
      3746.415        2913.875
  19348986.160    19348986.457    19348990.719   103322686.441 9  80362166.563 7
     -1187.365        -923.506
  19976157.100    19976155.369    19976163.112   106484233.589 8  82821125.236 5
      2697.247        2097.858
  22945932.901    22945934.124    22945938.425   122573405.512 5  95334997.006 5
     -3525.140       -2741.773
 11 10 14  0 46 30.0000000  0 14G02G04G05G07G10G13G26G28R06R07R08R09
                                R10R16
  22776352.418    22776351.4664   22776355.7784  119690537.616 6  93265376.88642
     -1970.129       -1535.173
  24910624.375    24910623.7494   24910634.0844  130906228.270 4 102004864.11541
     -2743.601       -2137.889
  21032706.495    21032706.5124   21032711.7314  110527637.534 8  86125445.77046
      2180.687        1699.233
  21293773.346    21293773.2284   21293778.5584  111899873.659 7  87194721.09245
     -1708.411       -1331.231
  20911776.714    20911775.5504   20911782.4334  109892162.315 8  85630271.59345
     -1679.208       -1308.475
  23754415.121    23754414.9524   23754421.7664  124830728.693 5  97270523.86541
     -2192.600       -1708.513
  22239336.676    22239336.4854   22239342.3294  116868509.781 6  91066396.63343
      3105.708        2420.036
  22715053.000    22715052.1614   22715058.3774  119368515.327 6  93014384.92843
      3289.113        2562.951
  21923811.076    21923811.112    21923814.128   116989707.943 7  90992042.963 5
     -2997.288       -2331.225
  19070480.762    19070479.587    19070479.185   102085787.669 8  79400101.869 6
       574.432         446.779
  20926891.413    20926890.411    20926892.725   112062554.048 7  87159791.822 6
      3737.229        2906.733
  19355710.834    19355711.034    19355715.397   103358596.556 9  80390096.657 7
     -1206.852        -938.664
  19961029.621    19961028.412    19961036.573   106403600.112 8  82758410.321 5
      2678.007        2082.893
  22965738.680    22965738.037    22965742.306   122679194.038 6  95417276.985 4
     -3527.605       -2743.695
 11 10 14  0 47  0.0000000  0 14G02G04G05G07G10G13G26G28R06R07R08R09
                                R10R16
  22787628.328    22787627.4444   22787631.7634  119749792.474 6  93311549.45842
     -1980.345       -1543.114
  24926278.616    24926277.1284   24926287.0374  130988480.022 4 102068956.24141
     -2739.924       -2134.985
  21020300.279    21020300.3524   21020305.3274  110462442.306 7  86074644.29846
      2165.558        1687.441
  21303554.652    21303554.1964   21303559.6034  111951273.290 7  87234772.73745
     -1718.292       -1338.934
  20921403.765    20921402.5514   20921409.4064  109942752.773 8  85669692.71545
     -1693.598       -1319.693
  23766940.839    23766938.9404   23766945.2804  124896547.560 5  97321811.27841
     -2195.458       -1710.741
  22221622.202    22221621.1784   22221628.4334  116775418.048 6  90993857.63543
      3100.209        2415.745
  22696300.755    22696299.1164   22696304.2684  119269963.945 6  92937591.66142
      3280.805        2556.476
  21940694.203    21940694.425    21940699.023   117079805.253 7  91062118.649 5
     -3009.261       -2340.542
  19067323.315    19067322.242    19067321.964   102068885.518 8  79386955.743 6
       552.131         429.432
  20905980.809    20905980.247    20905982.976   111950581.405 7  87072701.992 6
      3727.549        2899.205
  19362546.946    19362547.060    19362551.527   103395100.315 9  80418488.468 7
     -1226.780        -954.165
  19946013.764    19946012.523    19946020.019   106323554.351 8  82696152.514 5
      2658.278        2067.545
  22985555.610    22985556.282    22985560.153   122785061.020 5  95499618.003 4
     -3530.340       -2745.822
 11 10 14  0 47 30.0000000  0 14G02G04G05G07G10G13G26G28R06R07R08R09
                                R10R16
  22798960.829    22798960.5044   22798964.3634  119809348.530 6  93357956.74142
     -1990.451       -1551.020
  24941907.391    24941905.0404   24941914.2724  131070616.249 4 102132958.27241
     -2736.179       -2132.087
  21007980.009    21007979.9644   21007985.0644  110397699.070 8  86024195.02146
      2150.268        1675.532
  21313390.796    21313390.5524   21313395.9354  112002964.891 8  87275051.88945
     -1728.149       -1346.609
  20931112.255    20931110.9784   20931118.1014  109993771.445 8  85709447.51345
     -1708.021       -1330.925
  23779480.531    23779480.4984   23779486.9154  124962447.514 5  97373161.84041
     -2198.273       -1712.923
  22203938.111    22203937.5004   22203944.6554  116682488.081 6  90921444.69643
      3094.727        2411.469
  22677592.675    22677592.0724   22677597.1764  119171658.692 6  92860990.16242
      3272.392        2549.904
  21957645.579    21957645.701    21957650.026   117170257.997 7  91132470.761 5
     -3021.225       -2349.844
  19064291.775    19064290.609    19064289.947   102052657.146 8  79374333.665 6
       529.364         411.726
  20885125.154    20885124.573    20885126.818   111838899.186 7  86985838.057 6
      3717.559        2891.433
  19369493.658    19369493.881    19369497.769   103432195.566 9  80447340.336 7
     -1246.632        -969.607
  19931108.047    19931106.746    19931114.416   106244098.372 8  82634353.428 5
      2638.382        2052.076
  23005387.293    23005388.463    23005393.462   122891004.325 5  95582018.356 4
     -3532.990       -2747.878
 11 10 14  0 48  0.0000000  0 14G02G04G05G07G10G13G26G28R06R07R08R09
                                R10R16
  22810349.751    22810350.5454   22810355.6574  119869203.269 5  93404596.75742
     -2000.187       -1558.584
  24957514.658    24957512.7194   24957522.9924  131152635.523 4 102196869.30441
     -2731.925       -2128.761
  20995746.285    20995746.2224   20995751.0074  110333410.731 7  85974100.21546
      2135.280        1663.852
  21323282.526    21323282.5194   21323287.8304  112054947.009 8  87315557.43545
     -1737.625       -1353.992
  20940902.299    20940900.9894   20940908.0844  110045217.491 8  85749535.32845
     -1722.049       -1341.855
  23792036.993    23792035.8564   23792041.9874  125028429.287 5  97424576.19241
     -2200.802       -1714.936
  22186285.005    22186284.5994   22186291.0744  116589721.274 6  90849158.88043
      3089.463        2407.372
  22658933.985    22658932.9464   22658938.6404  119073602.899 6  92784583.06042
      3264.347        2543.643
  21974663.392    21974662.602    21974667.046   117261064.896 7  91203098.345 5
     -3032.847       -2358.877
  19061386.682    19061385.609    19061385.657   102037106.591 8  79362238.775 6
       507.109         394.418
  20864323.713    20864323.293    20864325.706   111727512.040 7  86899203.616 6
      3707.883        2883.906
  19376550.824    19376551.016    19376555.170   103469879.885 9  80476650.363 7
     -1265.947        -984.623
  19916313.786    19916311.987    19916319.509   106165233.685 8  82573014.244 5
      2618.884        2036.907
  23025234.234    23025235.055    23025239.997   122997021.720 5  95664476.335 4
     -3535.087       -2749.508
 11 10 14  0 48 30.0000000  0 14G02G04G05G07G10G13G26G28R06R07R08R09
                                R10R16
  22821796.509    22821796.3144   22821800.7264  119929353.173 5  93451466.77142
     -2009.834       -1566.096
  24973099.851    24973097.3774   24973109.9434  131234534.405 4 102260686.42641
     -2727.697       -2125.463
  20983599.680    20983599.4224   20983604.2204  110269578.501 8  85924360.81746
      2120.179        1652.089
  21333229.523    21333229.3174   21333234.5134  112107217.442 8  87356287.63645
     -1747.088       -1361.369
  20950773.107    20950771.9584   20950778.6294  110097089.162 8  85789954.80045
     -1736.088       -1352.791
  23804608.082    23804607.1634   23804614.6864  125094492.224 5  97476053.77041
     -2203.422       -1716.941
  22168663.174    22168662.4414   22168669.3494  116497117.852 6  90777000.37843
      3084.101        2403.208
  22640322.160    22640321.0284   22640326.7524  118975798.683 6  92708371.99643
      3255.995        2537.146
  21991746.078    21991746.167    21991750.831   117352223.335 7  91273999.335 5
     -3044.363       -2367.836
  19058608.017    19058606.926    19058606.617   102022232.566 8  79350670.076 6
       484.503         376.836
  20843578.510    20843578.469    20843580.382   111616422.669 7  86812800.769 6
      3698.038        2876.251
  19383717.255    19383717.426    19383721.748   103508149.643 9  80506415.732 7
     -1285.303        -999.681
  19901629.572    19901628.147    19901635.814   106086960.970 8  82512135.476 5
      2599.256        2021.645
  23045094.114    23045095.034    23045100.763   123103109.572 5  95746989.082 4
     -3537.327       -2751.257
 11 10 14  0 49  0.0000000  0 14G02G04G05G07G10G13G26G28R06R07R08R09
                                R10R16
  22833299.820    22833299.0464   22833302.5154  119989794.775 6  93498564.09542
     -2019.559       -1573.689
  24988663.047    24988661.7934   24988669.4014  131316310.728 4 102324408.17641
     -2723.824       -2122.485
  20971539.608    20971539.6694   20971544.4574  110206204.155 8  85874978.20846
      2104.806        1640.116
  21343230.751    21343230.6004   21343235.7274  112159773.374 8  87397240.30745
     -1756.601       -1368.777
  20960724.718    20960723.4504   20960729.9194  110149384.646 8  85830704.52145
     -1750.238       -1363.818
  23817193.837    23817193.0324   23817200.7154  125160636.060 5  97527594.41941
     -2206.167       -1719.103
  22151071.514    22151071.7724   22151078.0844  116404677.959 6  90704969.29843
      3078.635        2398.926
  22621758.481    22621757.5974   22621764.2214  118878248.693 6  92632359.03043
      3247.388        2530.434
  22008894.129    22008894.721    22008898.983   117443731.398 7  91345172.275 5
     -3056.076       -2376.941
  19055956.587    19055955.201    19055954.942   102008037.321 8  79339629.311 6
       461.873         359.239
  20822890.405    20822889.686    20822892.212   111505634.183 7  86726631.964 6
      3687.896        2868.365
  19390993.050    19390993.219    19390997.255   103547001.242 9  80536633.649 7
     -1304.741       -1014.796
  19887056.768    19887055.524    19887063.463   106009281.025 8  82451717.751 5
      2579.442        2006.231
  23064966.935    23064967.476    23064972.903   123209264.442 5  95829553.964 4
     -3539.579       -2753.009
 11 10 14  0 49 30.0000000  0 14G02G04G05G07G10G13G26G28R06R07R08R09
                                R10R16
  22844854.997    22844854.2344   22844858.8854  120050521.327 6  93545883.43842
     -2028.773       -1580.866
  25004199.033    25004201.0254   25004207.3564  131397958.210 4 102388029.31641
     -2719.257       -2118.878
  20959566.972    20959566.9994   20959571.8244  110143286.049 8  85825951.11746
      2089.775        1628.395
  21353284.970    21353284.8354   21353290.0984  112212609.464 8  87438411.28045
     -1765.715       -1375.880
  20970756.021    20970754.7074   20970761.6414  110202099.503 8  85871781.01845
     -1764.005       -1374.550
  23829796.535    23829794.3104   23829800.7034  125226856.768 5  97579194.94341
     -2208.575       -1720.995
  22133512.158    22133512.0794   22133518.0654  116312399.117 6  90633063.71843
      3073.424        2394.877
  22603243.424    22603242.4504   22603248.4404  118780952.126 6  92556543.53243
      3239.073        2523.952
  22026108.080    22026107.673    22026111.779   117535582.859 7  91416612.302 5
     -3067.342       -2385.714
  19053430.835    19053429.686    19053429.327   101994517.821 8  79329114.137 6
       439.546         341.866
  20802257.360    20802256.663    20802259.077   111395146.199 7  86640696.869 6
      3678.029        2860.688
  19398376.215    19398376.515    19398380.907   103586428.044 9  80567298.935 7
     -1323.652       -1029.506
  19872595.133    19872593.659    19872600.897   105932191.002 8  82391758.854 5
      2559.969        1991.086
  23084852.565    23084852.186    23084856.016   123315479.728 5  95912165.849 4
     -3541.418       -2754.441
 11 10 14  0 50  0.0000000  0 14G02G04G05G07G10G13G26G28R06R07R08R09
                                R10R16
  22856463.337    22856462.2624   22856466.7614  120111523.670 6  93593417.69742
     -2037.978       -1588.043
  25019709.688    25019711.1044   25019716.1704  131479468.377 4 102451543.51141
     -2714.695       -2115.334
  20947680.017    20947679.9994   20947685.1304  110080820.275 8  85777276.48646
      2074.625        1616.589
  21363391.189    21363390.9164   21363396.2574  112265717.337 7  87479794.02545
     -1774.764       -1382.931
  20980865.695    20980864.4464   20980871.2584  110255226.172 8  85913178.41145
     -1777.744       -1385.256
  23842411.287    23842408.5704   23842416.2884  125293148.141 5  97630850.56741
     -2210.900       -1722.813
  22115981.649    22115981.0074   22115987.6614  116220275.806 6  90561279.33243
      3068.190        2390.803
  22584776.230    22584775.7864   22584780.8504  118683905.713 6  92480922.96543
      3230.757        2517.469
  22043383.308    22043383.357    22043387.025   117627770.136 6  91488313.515 5
     -3078.496       -2394.385
  19051030.697    19051029.513    19051028.991   101981668.909 8  79319120.526 6
       417.091         324.405
  20781679.634    20781679.301    20781682.414   111284956.433 7  86554993.733 6
      3667.981        2852.877
  19405865.815    19405865.901    19405870.036   103626420.289 9  80598404.012 7
     -1342.459       -1044.132
  19858242.640    19858241.249    19858248.987   105855685.825 8  82332254.839 5
      2540.422        1975.881
  23104744.907    23104745.225    23104749.006   123421746.521 6  95994817.827 4
     -3542.983       -2755.656
 11 10 14  0 50 30.0000000  0 14G02G04G05G07G10G13G26G28R06R07R08R09
                                R10R16
  22868123.853    22868124.7134   22868128.3104  120172802.494 6  93641167.38742
     -2047.095       -1595.170
  25035192.172    25035197.9554   25035200.7234  131560842.608 4 102514951.78841
     -2710.126       -2111.790
  20935880.326    20935880.3214   20935885.1834  110018812.690 8  85728958.88846
      2059.315        1604.657
  21373549.239    21373549.0484   21373554.2064  112319098.773 8  87521389.94145
     -1783.832       -1390.004
  20991054.386    20991053.0564   20991059.5224  110308766.813 8  85954898.38645
     -1791.486       -1395.973
  23855039.464    23855039.6314   23855046.1274  125359514.064 5  97682564.22441
     -2213.359       -1724.683
  22098481.546    22098481.2794   22098487.8574  116128312.668 6  90489619.74743
      3062.812        2386.595
  22566357.561    22566356.8054   22566361.9794  118587116.012 6  92405502.41243
      3222.096        2510.741
  22060722.833    22060721.955    22060726.426   117720294.605 6  91560276.983 5
     -3089.642       -2403.057
  19048756.642    19048755.603    19048755.245   101969496.633 8  79309653.190 6
       394.538         306.860
  20761160.240    20761159.249    20761162.087   111175072.018 7  86469528.075 6
      3657.797        2844.951
  19413461.039    19413461.205    19413465.496   103666978.703 9  80629949.447 7
     -1361.316       -1058.805
  19844001.132    19843999.820    19844007.067   105779770.292 8  82273209.429 5
      2520.761        1960.589
  23124648.628    23124648.212    23124652.624   123528065.495 5  96077510.375 4
     -3544.696       -2756.991
 11 10 14  0 51  0.0000000  0 14G02G04G05G07G10G13G26G28R06R07R08R09
                                R10R16
  23179627.852    23179627.6564   23179631.8724  121809765.095 6  94916722.61642
     -2055.844       -1601.966
  25350444.630                                   133217487.697 3
     -2705.042
  21223959.712    21223959.5384   21223964.7674  111532679.773 8  86908595.57246
      2044.323        1592.979
  21683549.880    21683549.7534   21683554.6694  113948162.149 7  88790789.96045
     -1792.502       -1396.752
  21301111.827    21301110.5924   21301117.2434  111938130.905 8  87224532.73145
     -1804.883       -1406.404
  24167473.406    24167474.0874   24167479.5624  127001364.324 5  98961928.02241
     -2215.487       -1726.333
  22380804.282    22380803.5374   22380810.1584  117611925.621 6  91645681.80843
      3057.753        2382.668
  22847780.401    22847779.6594   22847785.4874  120066001.173 6  93557880.47043
      3213.756        2504.225
  22377915.273    22377914.964    22377919.083   119412893.652 7  92876742.893 5
     -3100.458       -2411.467
  19346400.273    19346399.403    19346399.172   103562807.039 8  80548894.607 6
       372.509         289.728
  21040489.066    21040488.173    21040491.768   112670867.789 7  87632924.797 6
      3647.770        2837.152
  19720952.482    19720952.724    19720956.721   105308966.118 9  81907050.768 7
     -1379.633       -1073.047
  20129661.415    20129660.342    20129667.899   107302502.678 8  83457556.849 5
      2501.432        1945.561
  23444351.294    23444351.028    23444354.859   125235860.111 5  97405795.079 4
     -3546.052       -2758.039
 11 10 14  0 51 30.0000000  0 13G02G05G07G10G13G26G28R06R07R08R09R10
                                R16
  23191389.492    23191389.1154   23191393.0454  121871572.448 5  94964884.15142
     -2064.673       -1608.834
  21212332.589    21212332.5924   21212337.5354  111471579.524 8  86860984.98646
      2028.960        1581.007
  21693807.916    21693807.7314   21693813.2764  114002069.694 7  88832795.82145
     -1801.383       -1403.674
  21311454.123    21311452.9314   21311459.9334  111992480.887 8  87266883.36245
     -1818.495       -1417.012
  24180128.353    24180126.5954   24180133.9514  127067863.860 5  99013745.83841
     -2217.843       -1728.148
  22363362.734    22363362.2874   22363369.0314  117520270.036 6  91574261.88043
      3052.487        2378.566
  22829457.469    22829457.4964   22829463.3554  119969717.880 6  93482854.53343
      3205.053        2497.449
  22395374.973    22395375.763    22395380.737   119506071.165 6  92949214.283 5
     -3111.435       -2420.005
  19344377.035    19344375.651    19344375.549   103551974.942 8  80540469.629 6
       349.812         272.075
  21020081.517    21020080.973    21020084.254   112561589.940 7  87547930.916 6
      3637.386        2829.083
  19728755.396    19728755.511    19728759.197   105350632.295 9  81939457.796 7
     -1398.163       -1087.460
  20115639.264    20115637.873    20115645.532   107227753.955 8  83399418.957 5
      2481.778        1930.273
  23464266.646    23464268.672    23464273.800   125342259.707 5  97488550.330 4
     -3547.298       -2759.017
 11 10 14  0 52  0.0000000  0 13G02G05G07G10G13G26G28R06R07R08R09R10
                                R16
  23203200.069    23203199.5494   23203203.1314  121933637.461 6  95013246.44642
     -2073.169       -1615.467
  21200792.259    21200792.1864   21200796.7504  111410933.938 8  86813728.68446
      2013.842        1569.224
  21704115.377    21704115.2924   21704120.2744  114056235.343 7  88875002.80745
     -1809.854       -1410.278
  21321873.080    21321871.6404   21321878.3674  112047230.847 8  87309545.65445
     -1831.743       -1427.333
  24192794.225    24192795.0334   24192800.7184  127134428.051 5  99065614.04641
     -2220.001       -1729.864
  22345949.874    22345949.7044   22345956.2494  117428767.157 6  91502960.95043
      3047.468        2374.651
  22811185.342    22811183.8484   22811189.9494  119873689.842 6  93408027.50743
      3196.575        2490.843
  22412898.561    22412897.958    22412901.944   119599570.196 6  93021935.731 5
     -3122.040       -2428.256
  19342478.672    19342477.530    19342477.168   103541813.546 8  80532566.313 6
       327.460         254.690
  20999732.872    20999732.287    20999734.717   112452618.290 7  87463175.193 6
      3627.186        2821.138
  19736660.534    19736660.800    19736664.304   105392845.378 9  81972290.199 7
     -1416.257       -1101.535
  20101725.963    20101724.526    20101732.132   107153588.341 8  83341734.593 5
      2462.368        1915.172
  23484193.212    23484194.228    23484198.383   125448693.014 5  97571331.808 4
     -3548.426       -2759.890
 11 10 14  0 52 30.0000000  0 13G02G05G07G10G13G26G28R06R07R08R09R10
                                R16
  23215060.085    23215058.4144   23215062.9364  121995958.792 5  95061808.47242
     -2081.727       -1622.107
  21189338.964    21189338.7704   21189343.5754  111350746.673 8  86766829.51546
      1998.488        1557.266
  21714472.367    21714471.8174   21714476.5104  114110658.565 7  88917410.50845
     -1818.421       -1416.952
  21332367.824    21332366.5334   21332373.3594  112102381.870 7  87352520.46745
     -1845.134       -1437.768
  24205475.258    24205472.1024   24205481.0894  127201058.258 5  99117533.70241
     -2222.171       -1731.586
  22328567.157    22328567.1934   22328573.1814  117337419.796 6  91431781.19543
      3042.189        2370.535
  22792960.278    22792959.7424   22792965.6904  119777921.603 6  93333402.91243
      3187.796        2483.988
  22430481.511    22430480.397    22430483.930   119693390.591 6  93094907.142 5
     -3132.784       -2436.612
  19340705.826    19340704.844    19340704.633   103532324.687 8  80525186.083 6
       305.004         237.223
  20979441.573    20979440.780    20979442.990   112343958.661 7  87378662.161 6
      3616.649        2812.946
  19744667.707    19744667.961    19744671.943   105435603.940 9  82005546.857 7
     -1434.442       -1115.680
  20087922.447    20087921.111    20087928.768   107080008.090 8  83284505.522 5
      2442.837        1899.983
  23504125.040    23504124.595    23504128.879   125555159.221 5  97654138.875 4
     -3549.363       -2760.613
 11 10 14  0 53  0.0000000  0 13G02G05G07G10G13G26G28R06R07R08R09R10
                                R16
  23226969.079    23226968.7234   23226972.6464  122058544.140 6  95110576.23342
     -2090.764       -1629.143
  21177975.312    21177975.2464   21177980.3574  111291030.553 8  86720297.47446
      1982.442        1544.759
  21724879.351    21724879.0524   21724883.5824  114165348.162 8  88960025.77445
     -1827.626       -1424.123
  21342940.754    21342939.3904   21342946.2864  112157943.108 7  87395814.93245
     -1859.081       -1448.638
  24218167.435    24218166.6944   24218175.1684  127267765.249 5  99169513.16141
     -2225.143       -1733.890
  22311215.734    22311216.1144   22311221.0834  117246239.357 6  91360731.50543
      3036.316        2365.956
  22774788.669    22774787.7444   22774793.9424  119682426.856 6  93258991.43243
      3178.378        2476.652
  22448124.790    22448124.209    22448127.247   119787541.167 6  93168135.363 5
     -3144.046       -2445.371
  19339061.426    19339060.312    19339060.248   103523521.452 8  80518339.110 6
       281.720         219.112
  20959210.551    20959210.081    20959212.760   112235625.507 7  87294403.038 6
      3605.442        2804.231
  19752778.493    19752778.602    19752782.796   105478915.625 9  82039233.723 7
     -1453.128       -1130.209
  20074230.907    20074229.410    20074237.089   107007024.893 8  83227740.819 5
      2422.600        1884.240
  23524062.146    23524062.859    23524067.046   125661666.240 5  97736977.667 4
     -3551.143       -2762.003
 11 10 14  0 53 30.0000000  0 13G02G05G07G10G13G26G28R06R07R08R09R10
                                R16
  23238928.667    23238928.0624   23238932.1634  122121391.785 6  95159548.38342
     -2099.170       -1635.715
  21166702.029    21166701.9704   21166707.3734  111231789.124 8  86674135.31546
      1966.816        1532.586
  21735336.970    21735336.6694   21735341.4944  114220303.752 7  89002848.30145
     -1836.237       -1430.834
  21353591.703    21353590.4054   21353597.5214  112213914.482 7  87439428.97545
     -1872.510       -1459.096
  24230875.578    24230874.3394   24230882.4034  127334550.480 5  99221553.58741
     -2227.517       -1735.722
  22293897.248    22293897.1894   22293902.9044  117155228.385 6  91289813.87843
      3030.917        2361.745
  22756669.027    22756668.4514   22756675.0204  119587209.812 6  93184796.34243
      3169.253        2469.546
  22465830.166    22465829.290    22465832.659   119882020.922 6  93241619.608 5
     -3154.742       -2453.689
  19337545.775    19337544.601    19337544.197   103515405.810 8  80512026.931 6
       259.173         201.581
  20939042.225    20939041.734    20939043.835   112127623.995 7  87210401.876 6
      3594.527        2795.744
  19760993.013    19760993.033    19760997.038   105522778.614 9  82073349.377 7
     -1471.229       -1144.289
  20060651.647    20060650.499    20060658.472   106934641.315 8  83171442.490 5
      2402.805        1868.844
  23544006.507    23544007.810    23544012.989   125768212.963 5  97819847.352 4
     -3552.156       -2762.797
 11 10 14  0 54  0.0000000  0 13G02G05G07G10G13G26G28R06R07R08R09R10
                                R16
  23250936.675    23250936.7214   23250941.0784  122184496.576 6  95208720.90942
     -2107.519       -1642.225
  21155519.097    21155518.9844   21155524.3384  111173021.850 8  86628342.63146
      1951.286        1520.480
  21745844.277    21745844.2284   21745849.3414  114275521.240 7  89045874.90145
     -1844.612       -1437.362
  21364320.171    21364318.9114   21364326.0214  112270292.820 7  87483360.13345
     -1885.749       -1469.413
  24243600.116    24243601.9764   24243605.8644  127401411.755 5  99273653.25841
     -2229.700       -1737.433
  22276610.480    22276609.9434   22276615.8734  117064385.294 6  91219027.06543
      3025.569        2357.589
  22738603.301    22738602.2524   22738608.5934  119492270.827 6  93110817.92443
      3160.242        2462.533
  22483595.905    22483595.814    22483599.557   119976826.467 7  93315357.249 5
     -3165.253       -2461.862
  19336157.880    19336156.608    19336156.524   103507976.746 8  80506248.757 6
       236.486         183.932
  20918935.883    20918935.036    20918937.868   112019955.150 7  87126659.456 6
      3583.635        2787.267
  19769309.019    19769309.299    19769313.141   105567187.531 8  82107889.644 7
     -1489.082       -1158.175
  20047185.115    20047183.703    20047191.591   106862856.085 8  83115609.541 5
      2383.159        1853.567
  23563958.484    23563959.541    23563965.441   125874794.250 5  97902743.912 4
     -3552.955       -2763.415
 11 10 14  0 54 30.0000000  0 13G02G05G07G10G13G26G28R06R07R08R09R10
                                R16
  23262993.191    23262993.2254   23262997.1884  122247853.109 6  95258089.60742
     -2116.348       -1649.097
  21144426.410    21144426.0704   21144431.5604  111114728.637 8  86582919.34346
      1934.881        1507.700
  21756400.792    21756400.5254   21756405.7574  114330995.863 7  89089101.86245
     -1853.730       -1444.462
  21375125.378    21375123.9814   21375130.9274  112327074.150 8  87527605.31245
     -1899.703       -1480.290
  24256338.016    24256338.7554   24256342.1244  127468346.524 5  99325810.22841
     -2232.663       -1739.718
  22259355.585    22259354.5014   22259360.8234  116973708.529 6  91148369.84543
      3019.461        2352.835
  22720589.846    22720588.7774   22720595.4684  119397610.692 6  93037056.78443
      3150.333        2454.801
  22501421.414    22501422.161    22501425.846   120071952.273 6  93389343.974 5
     -3176.508       -2470.617
  19334898.062    19334896.775    19334896.607   103501232.676 8  80501003.352 6
       212.986         165.656
  20898891.521    20898890.917    20898893.789   111912620.973 7  87043177.336 6
      3571.942        2778.176
  19777726.525    19777726.790    19777730.760   105612136.734 8  82142850.138 7
     -1507.611       -1172.589
  20033830.290    20033828.978    20033836.548   106791667.256 8  83060240.460 5
      2362.723        1837.668
  23583916.629    23583916.955    23583923.493   125981404.896 5  97985663.312 4
     -3554.464       -2764.588
 11 10 14  0 55  0.0000000  0 13G02G05G07G10G13G26G28R06R07R08R09R10
                                R16
  23275098.726    23275098.7404   23275102.1014  122311467.836 5  95307659.45842
     -2124.898       -1655.778
  21133425.966    21133426.0204   21133430.9544  111056921.366 8  86537874.71146
      1918.723        1495.110
  21767007.465    21767007.6384   21767012.3654  114386735.828 7  89132535.58945
     -1862.481       -1451.284
  21386008.873    21386007.4874   21386014.3764  112384266.866 8  87572171.05145
     -1913.352       -1490.922
  24269090.191    24269089.4174   24269095.9894  127535364.401 5  99378031.93541
     -2235.380       -1741.838
  22242134.028    22242133.6854   22242139.9454  116883208.916 6  91077850.66743
      3013.623        2348.273
  22702632.004    22702631.1604   22702637.4754  119303241.556 6  92963522.40643
      3140.698        2447.300
  22519310.353    22519310.115    22519314.959   120167406.633 6  93463586.255 5
     -3187.357       -2479.052
  19333768.238    19333767.201    19333766.941   103495185.870 8  80496300.270 6
       189.810         147.629
  20878912.891    20878912.092    20878914.291   111805634.122 7  86959965.343 6
      3560.313        2769.131
  19786246.507    19786246.622    19786250.637   105657632.682 9  82178235.877 7
     -1525.698       -1186.658
  20020589.187    20020587.810    20020595.513   106721085.681 8  83005343.681 5
      2342.503        1821.945
  23603881.075    23603882.090    23603888.463   126088051.966 5  98068611.032 4
     -3555.555       -2765.428
 11 10 14  0 55 30.0000000  0 14G02G05G07G10G13G26G28R06R07R08R09R10
                                R11R16
  23287251.905    23287250.4304   23287256.4494  122375331.622 5  95357423.40142
     -2132.844       -1661.954
  21122517.244    21122517.1024   21122522.1134  110999595.800 8  86493205.43846
      1902.905        1482.783
  21777663.453    21777663.2384   21777668.4894  114442732.909 8  89176169.66345
     -1870.765       -1457.739
  21396968.866    21396967.6084   21396974.4964  112441863.275 8  87617051.35545
     -1926.506       -1501.170
  24281857.474    24281859.0914   24281862.3184  127602459.502 5  99430313.81041
     -2237.687       -1743.644
  22224945.641    22224945.0804   22224951.2664  116792881.215 6  91007465.45843
      3008.135        2343.999
  22684728.602    22684728.0944   22684734.1874  119209160.371 6  92890212.38143
      3131.291        2439.965
  22537258.468    22537258.612    22537262.605   120263181.341 6  93538077.689 5
     -3197.692       -2487.098
  19332767.940    19332766.773    19332766.635   103489830.410 8  80492134.901 6
       167.113         129.976
  20858998.380    20858997.907    20859000.120   111698992.852 7  86877022.144 6
      3549.016        2760.342
  19794867.154    19794867.346    19794871.346   105703666.023 9  82214039.582 7
     -1543.281       -1200.331
  20007461.396    20007460.017    20007467.435   106651106.170 8  82950915.186 5
      2322.688        1806.538
  23996527.547    23996527.760    23996534.822   128230168.864 4  99734605.596
      4477.727        3482.672
  23623851.285    23623851.860    23623858.767   126194726.868 5  98151580.425 4
     -3556.284       -2766.000
 11 10 14  0 56  0.0000000  0 14G02G05G07G10G13G26G28R06R07R08R09R10
                                R11R16
  23299450.606    23299450.1334   23299454.7524  122439436.398 5  95407375.11742
     -2141.024       -1668.336
  21111699.431    21111699.5684   21111704.4214  110942748.774 8  86448909.05546
      1886.743        1470.184
  21788366.695    21788366.6894   21788372.1034  114498980.255 7  89219998.74545
     -1879.220       -1464.330
  21408004.580    21408003.5214   21408010.4174  112499856.964 8  87662241.23445
     -1939.877       -1511.594
  24294639.471    24294637.3624   24294643.7184  127669626.506 5  99482651.71241
     -2240.221       -1745.600
  22207788.539    22207788.0094   22207794.4754  116702721.060 7  90937210.80043
      3002.392        2339.525
  22666880.075    22666879.1904   22666885.5104  119115364.885 6  92817125.00443
      3121.588        2432.406
  22555265.405    22555265.259    22555270.249   120359268.885 6  93612812.444 5
     -3208.276       -2495.323
  19331895.835    19331894.677    19331894.406   103485161.981 8  80488503.889 6
       144.026         112.019
  20839148.503    20839147.779    20839149.780   111592695.482 7  86794346.416 6
      3537.288        2751.224
  19803586.905    19803587.095    19803591.014   105750228.400 9  82250254.762 7
     -1561.048       -1214.147
  19994445.200    19994444.075    19994451.691   106581724.355 8  82896951.555 5
      2302.604        1790.912
  23971408.068    23971407.480    23971415.618   128095933.411 5  99630200.486 4
      4471.250        3477.631
  23643825.377    23643825.355    23643831.690   126301421.682 5  98234565.304 4
     -3556.930       -2766.505
 11 10 14  0 56 30.0000000  0 14G02G05G07G10G13G26G28R06R07R08R09R10
                                R11R16
  23311694.848    23311693.8954   23311699.4514  122503781.483 5  95457514.06642
     -2148.837       -1674.420
  21100973.703    21100973.8224   21100978.5804  110886384.740 8  86404989.02446
      1870.704        1457.692
  21799118.626    21799118.3324   21799123.3344  114555478.273 8  89264023.16145
     -1887.438       -1470.728
  21419116.729    21419115.2514   21419122.2334  112558249.164 8  87707741.63545
     -1953.029       -1521.842
  24307434.693    24307435.1764   24307441.6014  127736867.957 5  99535047.64441
     -2242.661       -1747.568
  22190663.902    22190663.4264   22190669.1654  116612732.092 6  90867089.52643
      2996.791        2335.170
  22649086.474    22649085.8584   22649091.6774  119021860.086 6  92744264.15343
      3111.948        2424.875
  22573329.954    22573330.792    22573335.220   120455670.336 6  93687791.357 5
     -3218.594       -2503.358
  19331152.482    19331151.503    19331151.286   103481183.852 8  80485409.777 6
       121.090          94.181
  20819362.938    20819362.278    20819365.076   111486747.832 7  86711942.705 6
      3525.656        2742.174
  19812405.305    19812405.516    19812409.645   105797319.015 9  82286880.791 7
     -1578.425       -1227.664
  19981542.229    19981541.033    19981548.096   106512943.105 8  82843455.036 5
      2282.710        1775.441
  23946321.105    23946322.373    23946330.608   127961892.281 4  99525946.391 4
      4464.661        3472.498
  23663802.067    23663803.142    23663809.121   126408136.201 5  98317565.498 4
     -3557.479       -2766.931
 11 10 14  0 57  0.0000000  0 14G02G05G07G10G13G26G28R06R07R08R09R10
                                R11R16
  23323984.928    23323984.9764   23323988.6174  122568366.445 5  95507839.95942
     -2156.671       -1680.513
  21090340.834    21090340.9024   21090346.0014  110830508.434 8  86361449.04646
      1854.417        1444.999
  21809917.673    21809917.3264   21809922.1674  114612227.674 7  89308243.46745
     -1895.791       -1477.240
  21430304.366    21430303.0034   21430309.7804  112617040.871 8  87753553.33945
     -1966.356       -1532.225
  24320244.730    24320245.1174   24320252.9604  127804186.303 5  99587503.51541
     -2245.269       -1749.578
  22173572.743    22173572.8064   22173578.3824  116522917.423 6  90797104.09443
      2990.891        2330.560
  22631348.666    22631348.8324   22631354.4454  118928651.418 6  92671634.02243
      3101.986        2417.130
  22591455.834    22591454.644    22591458.898   120552385.476 6  93763014.246 5
     -3229.025       -2511.461
  19330539.078    19330538.112    19330537.759   103477899.985 8  80482855.643 6
        97.924          76.167
  20799644.417    20799643.661    20799646.589   111381156.721 7  86629816.294 6
      3513.724        2732.899
  19821322.783    19821322.944    19821326.820   105844937.388 9  82323917.302 7
     -1595.974       -1241.313
  19968752.365    19968751.034    19968758.516   106444765.860 8  82790428.296 5
      2262.526        1759.749
  23921276.852    23921275.541    23921283.793   127828050.608 4  99421847.443 4
      4458.150        3467.450
  23683784.553    23683784.001    23683789.522   126514870.347 5  98400580.968 4
     -3558.048       -2767.374
 11 10 14  0 57 30.0000000  0 14G02G05G07G10G13G26G28R06R07R08R09R10
                                R11R16
  23336319.296    23336318.7804   23336323.6724  122633185.968 5  95558348.64542
     -2164.507       -1686.639
  21079800.750    21079800.6294   21079805.9214  110775119.348 8  86318288.71646
      1838.178        1432.348
  21820763.554    21820763.2254   21820768.3784  114669224.046 7  89352656.21245
     -1903.969       -1483.610
  21441567.369    21441565.9274   21441572.5964  112676228.593 7  87799673.63045
     -1979.495       -1542.460
  24333069.742    24333068.8404   24333074.3814  127871578.972 5  99640017.23641
     -2247.609       -1751.392
  22156514.131    22156513.7644   22156520.0904  116433275.673 6  90727253.39343
      2985.156        2326.098
  22613669.042    22613668.2284   22613673.6614  118835739.104 7  92599234.83943
      3092.126        2409.450
  22609637.965    22609637.431    22609641.185   120649410.097 6  93838477.830 5
     -3239.284       -2519.445
  19330055.214    19330054.083    19330053.749   103475308.721 8  80480840.205 6
        75.129          58.433
  20779992.603    20779991.947    20779995.218   111275923.240 7  86547968.039 6
      3501.857        2723.667
  19830338.056    19830338.165    19830342.130   105893077.876 9  82361359.900 7
     -1613.308       -1254.795
  19956076.002    19956074.444    19956081.882   106377191.156 9  82737870.199 5
      2242.478        1744.143
  23896267.785    23896266.544    23896275.351   127694408.545 4  99317903.751 4
      4451.354        3462.177
  23703767.030    23703767.917    23703772.270   126621619.074 5  98483607.773 4
     -3558.511       -2767.729
 11 10 14  0 58  0.0000000  0 14G02G05G07G10G13G26G28R06R07R08R09R10
                                R11R16
  23348698.099    23348698.4384   23348702.8054  122698233.208 5  95609034.74442
     -2172.040       -1692.509
  21069352.699    21069352.7224   21069358.2394  110720215.319 8  86275506.35346
      1821.964        1419.711
  21831655.462    21831655.1574   21831660.2284  114726461.818 7  89397257.06145
     -1912.024       -1489.890
  21452904.520    21452903.4234   21452910.1304  112735806.946 8  87846098.30745
     -1992.517       -1552.611
  24345907.333    24345906.6624   24345913.2794  127939042.568 5  99692586.24341
     -2250.051       -1753.307
  22139488.461    22139487.6314   22139494.4354  116343804.044 6  90657535.24843
      2979.497        2321.681
  22596044.976    22596043.2754   22596049.3824  118743122.141 6  92527065.78143
      3082.216        2401.721
  22627875.205    22627876.370    22627880.538   120746738.475 6  93914177.664 5
     -3249.422       -2527.324
  19329700.155    19329698.788    19329698.681   103473407.583 8  80479361.524 6
        51.882          40.352
  20760407.917    20760407.300    20760410.185   111171047.079 7  86466397.712 6
      3489.846        2714.325
  19839449.138    19839449.639    19839453.794   105941733.120 8  82399202.863 7
     -1630.499       -1268.165
  19943511.106    19943509.850    19943517.171   106310215.652 8  82685778.152 5
      2222.462        1728.577
  23871294.796    23871294.983    23871302.564   127560964.474 4  99214114.046 4
      4444.691        3456.978
  23723752.379    23723753.152    23723756.689   126728375.926 5  98566640.874 4
     -3558.735       -2767.912
 11 10 14  0 58 30.0000000  0 14G02G05G07G10G13G26G28R06R07R08R09R10
                                R11R16
  23361118.546    23361118.7644   23361124.8784  122763509.416 5  95659899.26342
     -2179.746       -1698.505
  21058998.316    21058998.3354   21059003.7174  110665803.166 8  86233107.27146
      1805.465        1406.853
  21842593.818    21842593.7194   21842598.4184  114783943.560 7  89442048.01945
     -1920.192       -1496.258
  21464317.066    21464315.6414   21464322.3664  112795778.821 7  87892829.62945
     -2005.671       -1562.863
  24358759.818    24358760.9254   24358766.9344  128006581.262 5  99745213.81841
     -2252.659       -1755.347
  22122496.073    22122495.4954   22122501.7684  116254508.063 6  90587953.97743
      2973.521        2317.030
  22578477.938    22578477.2194   22578482.9594  118650808.104 6  92455132.78243
      3072.009        2393.769
  22646173.348    22646172.431    22646177.559   120844372.501 6  93990115.233 5
     -3259.605       -2535.253
  19329474.443    19329473.406    19329473.323   103472200.797 8  80478422.894 6
        28.474          22.148
  20740891.928    20740891.412    20740893.697   111066536.934 7  86385112.047 6
      3477.500        2704.723
  19848657.956    19848658.125    19848661.769   105990904.405 8  82437447.198 7
     -1647.684       -1281.535
  19931060.001    19931058.753    19931066.537   106243844.544 8  82634156.178 5
      2202.221        1712.841
  23846361.804    23846361.260    23846368.205   127427725.289 5  99110483.684 4
      4437.797        3451.616
  23743740.199    23743740.077    23743743.935   126835142.882 5  98649681.832 4
     -3559.079       -2768.170
 11 10 14  0 59  0.0000000  0 14G02G05G07G10G13G26G28R06R07R08R09R10
                                R11R16
  23373584.428    23373583.8204   23373588.6004  122829009.054 5  95710937.89442
     -2187.078       -1704.205
  21048737.652    21048737.4704   21048742.5304  110611882.119 8  86191090.87046
      1789.150        1394.142
  21853577.855    21853577.7214   21853582.5674  114841664.891 7  89487025.66445
     -1928.054       -1502.381
  21475803.506    21475802.2194   21475809.1894  112856140.395 8  87939864.60545
     -2018.550       -1572.895
  24371626.530    24371626.0814   24371632.5944  128074192.846 5  99797898.14941
     -2254.956       -1757.108
  22105536.294    22105535.6544   22105542.6644  116165386.112 7  90518508.31443
      2967.780        2312.548
  22560968.624    22560968.2534   22560974.0854  118558797.009 7  92383435.82243
      3061.911        2385.898
  22664525.808    22664526.078    22664530.553   120942308.031 6  94066287.302 5
     -3269.544       -2542.975
  19329378.792    19329377.729    19329377.674   103471688.000 8  80478024.043 6
         5.545           4.314
  20721443.921    20721443.320    20721445.233   110962394.035 7  86304112.029 6
      3465.280        2695.214
  19857961.779    19857961.756    19857965.572   106040586.071 9  82476088.491 7
     -1664.540       -1294.642
  19918721.972    19918720.707    19918728.243   106178075.775 9  82583002.698 5
      2182.188        1697.260
  23821466.229    23821465.216    23821473.406   127294691.304 5  99007013.126 4
      4431.056        3446.350
  23763726.506    23763727.339    23763731.371   126941914.915 5  98732726.766 4
     -3559.128       -2768.209
 11 10 14  0 59 30.0000000  0 14G02G05G07G10G13G26G28R06R07R08R09R10
                                R11R16
  23386090.391    23386089.4724   23386093.4774  122894726.084 6  95762145.87541
     -2194.170       -1709.751
  21038570.099    21038570.0194   21038574.8904  110558451.007 8  86149456.23446
      1772.886        1381.473
  21864606.443    21864606.3164   21864611.4854  114899620.740 7  89532186.05345
     -1935.719       -1508.351
  21487362.979    21487361.8654   21487368.9574  112916887.219 7  87987199.77845
     -2031.244       -1582.788
  24384504.511    24384504.7994   24384512.4954  128141874.352 5  99850636.98741
     -2257.173       -1758.833
  22088610.036    22088609.8074   22088615.8384  116076435.990 7  90449196.53543
      2962.220        2308.236
  22543516.816    22543516.2984   22543522.3514  118467088.717 6  92311974.81543
      3051.930        2378.123
  22682935.220    22682935.073    22682939.881   121040539.727 6  94142689.728 5
     -3279.277       -2550.547
  19329412.500    19329411.277    19329411.010   103471867.013 8  80478163.257 6
       -17.515         -13.624
  20702064.394    20702063.959    20702066.527   110858618.923 7  86223398.057 6
      3453.045        2685.704
  19867359.116    19867359.678    19867363.770   106090771.680 8  82515121.738 7
     -1681.167       -1307.573
  19906496.511    19906495.206    19906502.908   106112907.186 9  82532316.025 5
      2162.332        1681.815
  23796607.673    23796607.147    23796613.805   127161861.525 5  98903701.283 4
      4424.183        3441.021
  23783715.124    23783715.893    23783719.202   127048686.497 5  98815771.319 4
     -3558.890       -2768.023
 11 10 14  1  0  0.0000000  1 14G02G05G07G10G13G26G28R06R07R08R09R10
                                R11R16
  23398635.837    23398634.9914   23398639.5694  122960653.696 5  95813517.99542
     -2201.121       -1715.160
  21028495.463    21028495.2954   21028500.1804  110505507.972 8  86108201.93146
      1756.634        1368.801
  21875678.544    21875678.3604   21875683.3564  114957805.776 7  89577525.02645
     -1943.253       -1514.222
  21498994.857    21498993.7674   21499000.6764  112978013.914 7  88034830.95645
     -2043.837       -1592.599
  24397396.594    24397397.4034   24397403.3284  128209621.579 5  99903427.03041
     -2259.293       -1760.513
  22071715.469    22071715.3034   22071721.4624  115987654.945 7  90380016.52043
      2956.586        2303.828
  22526123.420    22526122.1124   22526128.0454  118375682.081 6  92240748.89343
      3041.881        2370.304
  22701397.606    22701397.443    22701402.355   121139061.386 6  94219317.674 5
     -3288.831       -2557.979
  19329574.149    19329573.143    19329572.712   103472733.763 8  80478837.383 6
       -40.335         -31.371
  20682753.555    20682752.917    20682755.547   110755211.222 7  86142969.851 6
      3440.781        2676.161
  19876850.895    19876850.990    19876855.026   106141454.138 8  82554541.423 7
     -1697.592       -1320.349
  19894383.358    19894381.798    19894389.440   106048335.449 8  82482093.577 5
      2142.485        1666.378
  23771788.364    23771786.659    23771794.678   127029234.386 4  98800547.058 4
      4417.500        3435.817
  23803700.778    23803701.696    23803705.878   127155450.858 5  98898810.262 4
     -3558.537       -2767.752
 11 10 14  1  0 30.0000000  0 14G02G05G07G10G13G26G28R06R07R08R09R10
                                R11R16
  23411221.887    23411220.9484   23411225.2234  123026792.642 5  95865054.78042
     -2208.191       -1720.674
  21018514.557    21018514.5104   21018519.6934  110453058.692 8  86067332.36546
      1739.978        1355.824
  21886794.626    21886794.4254   21886799.8434  115016221.479 7  89623043.74245
     -1951.097       -1520.341
  21510699.844    21510698.5804   21510705.4854  113039522.781 8  88082759.93145
     -2056.742       -1602.658
  24410302.407    24410301.1254   24410310.0484  128277438.206 5  99956271.12741
     -2261.927       -1762.509
  22054854.068    22054853.8514   22054859.6594  115899047.567 7  90310971.82043
      2950.575        2299.148
  22508787.355    22508786.6054   22508792.1174  118284583.607 6  92169763.08543
      3031.370        2362.100
  22719915.272    22719915.415    22719919.707   121237874.713 6  94296172.480 5
     -3298.675       -2565.643
  19329865.789    19329864.561    19329864.191   103474293.906 8  80480050.818 6
       -63.678         -49.531
  20663512.612    20663512.133    20663514.784   110652178.570 7  86062833.357 6
      3428.068        2666.269
  19886435.143    19886435.292    19886439.280   106192633.837 8  82594347.852 7
     -1714.304       -1333.350
  19882382.051    19882380.975    19882388.397   105984364.979 8  82432338.779 5
      2122.221        1650.609
  23747007.539    23747006.048    23747015.397   126896816.119 4  98697555.315 4
      4410.344        3430.250
  23823686.436    23823686.872    23823691.686   127262209.493 5  98981844.778 4
     -3558.556       -2767.770
 11 10 14  1  1  0.0000000  0 14G02G05G07G10G13G26G28R06R07R08R09R10
                                R11R16
  23423846.402    23423846.6354   23423850.6364  123093139.197 6  95916753.31742
     -2214.955       -1725.940
  21008628.117    21008628.1264   21008633.2644  110401104.618 8  86026848.66646
      1723.484        1342.977
  21897954.153    21897954.0144   21897959.2194  115074865.558 7  89668740.41245
     -1958.649       -1526.220
  21522476.883    21522475.4864   21522482.6564  113101411.841 7  88130985.16145
     -2069.353       -1612.491
  24423220.845    24423222.3014   24423224.1784  128345323.815 5 100009168.98641
     -2264.052       -1764.229
  22038026.386    22038025.4154   22038030.8074  115810614.539 7  90242062.97943
      2944.746        2294.609
  22491511.029    22491510.2194   22491516.1684  118193795.551 6  92099019.15143
      3020.987        2354.007
  22738487.351    22738487.054    22738491.092   121336977.126 6  94373252.124 5
     -3308.288       -2573.108
  19330286.289    19330285.048    19330284.849   103476545.322 8  80481801.912 6
       -86.681         -67.422
  20644343.090    20644342.632    20644345.011   110549524.667 7  85982991.450 6
      3415.406        2656.427
  19896111.926    19896112.189    19896116.165   106244307.099 8  82634538.170 7
     -1730.677       -1346.080
  19870494.228    19870493.071    19870500.616   105920995.364 8  82383051.311 5
      2102.225        1635.060
  23722265.891    23722265.870    23722273.758   126764608.611 4  98594727.507 4
      4403.283        3424.771
  23843670.698    23843671.072    23843675.378   127368959.356 5  99064872.455 4
     -3558.245       -2767.528
 11 10 14  1  1 30.0000000  0 14G02G05G07G10G13G26G28R06R07R08R09R10
                                R11R16
  23436510.570    23436509.5804   23436514.8014  123159689.056 5  95968610.27241
     -2221.603       -1731.091
  20998835.923    20998835.8084   20998841.0964  110349646.243 8  85986751.22846
      1707.082        1330.193
  21909156.879    21909156.6704   21909161.8364  115133735.005 7  89714612.69845
     -1965.952       -1531.910
  21534326.024    21534324.8534   21534331.8224  113163678.370 8  88179504.51745
     -2081.748       -1622.141
  24436152.184    24436150.0434   24436157.4274  128413277.455 5 100062119.88741
     -2266.206       -1765.895
  22021230.654    22021230.7244   22021236.0944  115722355.118 7  90173289.42343
      2939.178        2290.259
  22474294.185    22474293.4444   22474299.5804  118103319.121 6  92028518.05943
      3010.748        2346.036
  22757112.047    22757112.476    22757116.485   121436365.145 6  94450553.903 5
     -3317.582       -2580.344
  19330836.570    19330835.236    19330835.063   103479490.131 8  80484092.306 6
      -109.664         -85.297
  20625244.337    20625243.850    20625245.986   110447251.234 7  85903445.449 7
      3402.810        2646.626
  19905879.915    19905880.218    19905884.464   106296469.275 8  82675108.748 7
     -1746.737       -1358.579
  19858718.808    19858717.627    19858724.893   105858226.201 9  82334230.863 5
      2082.389        1619.634
  23697565.949    23697565.334    23697571.544   126632612.937 5  98492064.550 4
      4396.358        3419.375
  23863652.490    23863652.818    23863656.477   127475696.587 5  99147890.297 4
     -3557.589       -2767.009
 11 10 14  1  2  0.0000000  0 14G02G05G07G10G13G26G28R06R07R08R09R10
                                R11R16
  23449214.057    23449212.8014   23449217.2414  123226442.075 5  96020625.54741
     -2228.361       -1736.400
  20989139.028    20989138.8024   20989144.2034  110298688.351 8  85947043.77446
      1690.332        1317.141
  21920402.903    21920402.5204   21920407.6724  115192830.627 7  89760661.20645
     -1973.539       -1537.825
  21546247.010    21546245.6994   21546252.7674  113226323.520 7  88228318.90445
     -2094.370       -1631.974
  24449095.473    24449096.2014   24449098.9984  128481301.594 5 100115125.64541
     -2268.556       -1767.682
  22004469.810    22004469.0954   22004475.1994  115634273.451 7  90104654.37943
      2933.172        2285.592
  22457137.313    22457136.3434   22457143.0804  118013160.082 7  91958264.26743
      3000.101        2337.736
  22775791.805    22775791.165    22775795.489   121536039.440 6  94528078.316 5
     -3327.092       -2587.742
  19331516.400    19331515.214    19331514.951   103483129.908 8  80486923.232 6
      -132.935        -103.394
  20606217.746    20606217.269    20606219.798   110345365.587 7  85824201.074 6
      3389.786        2636.499
  19915739.701    19915739.934    19915744.273   106349119.780 8  82716059.134 7
     -1763.059       -1371.269
  19847056.911    19847055.388    19847063.255   105796060.428 8  82285879.720 5
      2062.224        1603.949
  23672903.664    23672904.797    23672910.782   126500834.033 5  98389570.134 4
      4389.069        3413.718
  23883630.926    23883632.318    23883636.197   127582421.597 5  99230898.641 4
     -3557.154       -2766.671
 11 10 14  1  2 30.0000000  0 14G02G05G07G10G13G26G28R06R07R08R09R10
                                R11R16
  23461953.286    23461954.3834   23461958.5774  123293397.550 5  96072798.56641
     -2235.281       -1741.779
  20979537.976    20979537.7354   20979542.9514  110248234.962 8  85907729.44446
      1673.261        1303.841
  21931691.174    21931691.0344   21931696.2284  115252152.982 7  89806886.40845
     -1981.247       -1543.830
  21558239.881    21558238.7144   21558245.8874  113289347.910 7  88277428.80545
     -2107.175       -1641.952
  24462055.693    24462056.7364   24462058.7534  128549399.056 5 100168188.61341
     -2271.165       -1769.713
  21987741.984    21987741.8484   21987747.9884  115546372.714 6  90036160.31943
      2926.939        2280.732
  22440041.955    22440041.5654   22440047.4154  117923323.471 7  91888261.71843
      2989.055        2329.133
  22794523.862    22794524.283    22794527.941   121636000.221 6  94605825.580 5
     -3336.820       -2595.303
  19332326.973    19332325.967    19332325.597   103487470.158 8  80490298.977 6
      -156.320        -121.579
  20587264.617    20587264.282    20587267.018   110243873.301 7  85745262.634 7
      3376.374        2626.066
  19925690.995    19925691.062    19925695.202   106402257.574 8  82757388.531 7
     -1779.408       -1383.984
  19835508.545    19835507.170    19835514.635   105734500.996 9  82238000.165 5
      2041.811        1588.071
  23648286.589    23648285.320    23648291.013   126369276.604 5  98287247.868 4
      4381.453        3407.792
  23903608.366    23903608.802    23903613.444   127689134.638 5  99313897.680 4
     -3556.916       -2766.494
 11 10 14  1  3  0.0000000  0 14G02G05G07G10G13G26G28R06R07R08R09R10
                                R11R16
  23474732.852    23474733.4114   23474738.8134  123360555.942 5  96125129.72241
     -2241.850       -1746.902
  20970034.180    20970034.0334   20970038.9344  110198291.538 8  85868812.49146
      1656.357        1290.668
  21943023.439    21943023.2164   21943028.4504  115311703.899 7  89853289.70745
     -1988.747       -1549.669
  21570305.869    21570304.6714   21570311.3304  113352754.070 7  88326836.18845
     -2119.800       -1651.794
  24475028.440    24475026.9864   24475031.6834  128617572.855 5 100221311.03941
     -2273.656       -1771.658
  21971050.366    21971049.9154   21971056.4764  115458657.510 7  89967810.81843
      2920.829        2275.964
  22423008.935    22423008.8134   22423014.6144  117833815.411 7  91818515.17943
      2978.178        2320.660
  22813310.401    22813309.986    22813314.397   121736248.873 6  94683796.736 5
     -3346.316       -2602.694
  19333269.135    19333268.113    19333267.864   103492513.184 8  80494221.317 6
      -179.732        -139.788
  20568386.381    20568385.966    20568388.392   110142782.488 7  85666636.452 6
      3363.086        2615.734
  19935733.280    19935733.408    19935737.546   106455883.328 8  82799097.445 7
     -1795.503       -1396.503
  19824074.794    19824073.342    19824080.695   105673552.475 8  82190595.768 5
      2021.537        1572.303
  23623706.740    23623708.047    23623713.715   126237947.036 5  98185102.789 4
      4373.902        3401.919
  23923583.139    23923583.838    23923588.514   127795836.756 5  99396888.227 4
     -3556.379       -2766.078
 11 10 14  1  3 30.0000000  0 14G02G05G07G10G13G26G28R06R07R08R09R10
                                R11R16
  23487552.071    23487553.7204   23487556.6644  123427914.159 5  96177616.55341
     -2248.660       -1752.201
  20960627.386    20960627.4064   20960632.2474  110148859.776 8  85830294.23846
      1639.087        1277.209
  21954398.485    21954398.3884   21954403.9544  115371481.625 7  89899869.74245
     -1996.424       -1555.656
  21582443.926    21582442.7494   21582449.4774  113416540.350 7  88376539.77345
     -2132.619       -1661.783
  24488015.442    24488015.1674   24488021.8894  128685823.200 5 100274493.11141
     -2276.333       -1773.765
  21954394.634    21954394.2734   21954400.1034  115371129.005 7  89899606.80644
      2914.401        2270.959
  22406039.321    22406038.6034   22406044.5374  117744639.014 7  91749027.09143
      2966.876        2311.849
  22832151.688    22832150.608    22832155.955   121836783.491 6  94761990.321 5
     -3355.985       -2610.211
  19334342.589    19334341.542    19334341.535   103498259.909 8  80498690.986 6
      -203.382        -158.184
  20549584.267    20549583.966    20549586.314   110042096.613 7  85588325.221 6
      3349.306        2605.012
  19945866.255    19945866.542    19945870.198   106509993.851 8  82841183.405 6
     -1811.835       -1409.207
  19812755.378    19812754.116    19812761.928   105613215.002 9  82143666.633 5
      2000.976        1556.310
  23599175.188    23599173.755    23599181.647   126106847.764 5  98083136.973 4
      4366.077        3395.848
  23943556.239    23943555.769    23943561.563   127902525.432 5  99479868.325 4
     -3556.154       -2765.899
 11 10 14  1  4  0.0000000  0 14G02G05G07G10G13G26G28R06R07R08R09R10
                                R11R16
  23500408.814    23500407.5454   23500411.8344  123495469.360 5  96230256.87641
     -2255.044       -1757.198
  20951318.380    20951318.5244   20951323.6944  110099941.532 8  85792176.12646
      1622.093        1263.969
  21965816.265    21965816.2184   21965822.0944  115431484.045 7  89946624.86445
     -2003.740       -1561.355
  21594654.086    21594652.8994   21594659.7054  113480705.071 7  88426538.24445
     -2145.054       -1671.466
  24501019.036    24501018.3084   24501022.0574  128754149.998 5 100327734.77841
     -2278.780       -1775.667
  21937774.082    21937773.9024   21937779.6234  115283787.984 7  89831548.88644
      2908.315        2266.217
  22389133.918    22389132.8334   22389138.2134  117655796.653 7  91679799.29543
      2955.864        2303.277
  22851044.125    22851044.155    22851049.384   121937601.525 6  94840404.346 5
     -3365.266       -2617.428
  19335547.716    19335546.747    19335546.725   103504711.232 8  80503708.663 6
      -226.742        -176.353
  20530858.748    20530858.311    20530860.352   109941819.112 7  85510331.619 7
      3335.806        2594.516
  19956089.243    19956089.628    19956093.783   106564585.132 8  82883643.285 7
     -1827.619       -1421.481
  19801550.859    19801549.524    19801557.100   105553488.818 9  82097212.942 5
      1980.744        1540.573
  23574685.361    23574684.656    23574691.383   125975980.475 5  97981351.400 4
      4358.383        3389.860
  23963523.060    23963524.864    23963531.125   128009198.345 5  99562836.161 4
     -3555.379       -2765.291
 11 10 14  1  4 30.0000000  0 14G02G05G07G10G13G26G28R06R07R08R09R10
                                R11R16
  23513301.634    23513299.1244   23513304.5364  123563219.837 5  96283049.32541
     -2261.687       -1762.337
  20942108.066    20942108.0854   20942113.4964  110051540.136 8  85754460.75146
      1604.600        1250.340
  21977277.455    21977277.4804   21977282.9144  115491711.180 7  89993555.08345
     -2011.451       -1567.364
  21606936.156    21606934.8804   21606941.9214  113545248.190 8  88476831.57445
     -2157.892       -1681.474
  24514033.698    24514034.3844   24514040.3424  128822555.145 5 100381037.51341
     -2281.608       -1777.876
  21921189.325    21921189.0514   21921195.3264  115196637.281 7  89763639.26744
      2901.689        2261.057
  22372291.461    22372290.9974   22372296.3724  117567292.938 7  91610835.38444
      2944.245        2294.216
  22869990.178    22869990.742    22869995.410   122038702.782 6  94919038.649 5
     -3374.889       -2624.909
  19336885.002    19336883.777    19336883.661   103511868.705 8  80509275.574 6
      -250.546        -194.868
  20512210.128    20512209.351    20512211.894   109841956.499 7  85432660.705 7
      3321.661        2583.515
  19966402.585    19966402.819    19966406.915   106619656.147 8  82926476.293 7
     -1843.796       -1434.064
  19790461.511    19790460.256    19790467.686   105494375.943 9  82051236.274 5
      1960.039        1524.466
  23550240.435    23550238.483    23550244.955   125845349.509 5  97879749.587 4
      4350.248        3383.524
  23983490.914    23983490.461    23983497.235   128115854.942 4  99645791.297 4
     -3555.004       -2764.996
 11 10 14  1  5  0.0000000  0 14G02G05G07G10G13G26G28R06R07R08R09R10
                                R11R16
  23526229.082    23526229.1784   23526234.0394  123631163.043 5  96335991.98341
     -2267.731       -1767.034
  20932996.534    20932996.4284   20933001.9674  110003658.091 8  85717150.06346
      1587.536        1237.041
  21988780.922    21988780.8034   21988786.3204  115552161.493 7  90040659.20845
     -2018.591       -1572.930
  21619290.086    21619288.7774   21619295.9744  113610168.706 7  88527418.97845
     -2170.156       -1691.028
  24527066.879    24527067.7204   24527072.2994  128891038.925 5 100434401.49141
     -2283.946       -1779.731
  21904641.935    21904641.6224   21904647.8814  115109678.315 7  89695879.04944
      2895.560        2256.273
  22355514.965    22355514.1564   22355519.8654  117479130.788 7  91542137.61944
      2933.142        2285.574
  22888989.188    22888989.307    22888994.269   122140085.117 6  94997891.587 5
     -3383.948       -2631.963
  19338354.557    19338353.110    19338352.743   103519734.205 8  80515393.175 6
      -273.853        -213.000
  20493639.338    20493638.635    20493640.976   109742512.198 7  85355315.144 6
      3307.900        2572.810
  19976805.042    19976805.179    19976809.377   106675204.007 8  82969680.178 7
     -1859.419       -1446.214
  19779487.336    19779486.087    19779493.372   105435877.458 8  82005737.457 5
      1939.825        1508.755
  23525836.937    23525837.178    23525843.445   125714957.961 5  97778334.112 4
      4342.538        3377.529
  24003453.023    24003453.408    24003460.910   128222493.278 4  99728732.200 4
     -3554.230       -2764.393
 11 10 14  1  5 30.0000000  0 14G02G05G07G10G13G26G28R06R07R08R09R10
                                R11R16
  23539195.608    23539194.9984   23539200.0124  123699294.050 5  96389080.97441
     -2274.238       -1772.127
  20923983.576    20923983.6364   20923988.8894  109956294.937 8  85680243.70746
      1570.080        1223.441
  22000326.078    22000326.0944   22000331.0684  115612831.035 7  90087934.16045
     -2025.975       -1578.681
  21631715.247    21631714.0524   21631721.2374  113675462.896 7  88578297.55645
     -2182.707       -1700.804
  24540112.004    24540112.1144   24540116.4024  128959599.382 5 100487825.19741
     -2286.682       -1781.814
  21888130.567    21888130.4054   21888135.8354  115022909.459 7  89628266.96144
      2889.088        2251.243
  22338803.253    22338802.1374   22338808.2184  117391310.489 7  91473706.24144
      2921.597        2276.566
  22908041.175    22908040.198    22908044.290   122241744.508 6  95076959.997 5
     -3393.252       -2639.194
  19339955.419    19339954.239    19339954.001   103528305.110 8  80522059.420 6
      -297.483        -231.373
  20475146.951    20475146.605    20475148.715   109643487.847 7  85278296.217 6
      3293.767        2561.822
  19987295.577    19987295.777    19987299.785   106731222.786 8  83013250.337 7
     -1875.143       -1458.443
  19768628.161    19768626.918    19768634.288   105377991.060 8  81960714.713 5
      1919.310        1492.799
  23501479.626    23501479.944    23501487.924   125584805.531 5  97677104.578 4
      4334.411        3371.192
  24023412.559    24023412.858    24023419.422   128329108.635 4  99811655.243 4
     -3553.642       -2763.938
 11 10 14  1  6  0.0000000  0 14G02G05G07G10G13G26G28R06R07R08R09R10
                                R11R16
  23552195.136    23552194.5484   23552199.0934  123767612.281 5  96442315.89241
     -2280.293       -1776.844
  20915070.170    20915070.1424   20915075.3504  109909454.753 8  85643744.86446
      1552.691        1209.890
  22011912.701    22011912.6764   22011917.9974  115673720.788 7  90135380.71745
     -2033.208       -1584.316
  21644211.842    21644210.3464   21644218.0254  113741131.725 7  88629468.06145
     -2195.087       -1710.459
  24553174.069    24553175.6734   24553179.7124  129028238.671 5 100541310.38641
     -2289.219       -1783.804
  21871655.440    21871655.4304   21871661.4444  114936334.900 7  89560806.28444
      2882.666        2246.228
  22322157.877    22322157.2404   22322162.8474  117303837.373 7  91405545.37844
      2910.051        2267.580
  22927143.126    22927143.411    22927146.655   122343680.553 6  95156243.593 4
     -3402.387       -2646.302
  19341689.293    19341687.912    19341687.652   103537585.083 8  80529277.165 6
      -321.279        -249.884
  20456734.281    20456734.016    20456736.330   109544889.919 7  85201608.942 6
      3279.566        2550.769
  19997874.494    19997874.435    19997878.649   106787712.091 8  83057186.461 7
     -1890.710       -1470.555
  19757883.851    19757882.710    19757890.444   105320719.546 8  81916170.207 5
      1898.879        1476.901
  23477171.629    23477170.786    23477177.230   125454897.233 5  97576064.814 4
      4326.298        3364.911
  24043368.195    24043367.647    24043372.828   128435701.136 4  99894560.495 4
     -3552.442       -2763.000
 11 10 14  1  6 30.0000000  0 14G02G05G07G10G13G26G28R06R07R08R09R10
                                R11R16
  23565229.698    23565229.3144   23565235.5294  123836110.955 5  96495691.41941
     -2286.243       -1781.488
  20906255.894    20906255.8894   20906261.0514  109863135.723 8  85607652.11146
      1535.233        1196.283
  22023540.482    22023540.5254   22023545.7414  115734824.916 7  90182994.31344
     -2040.370       -1589.898
  21656778.257    21656777.0904   21656784.5504  113807169.973 7  88680926.42045
     -2207.428       -1720.071
  24566251.015    24566248.9144   24566258.9414  129096953.431 5 100594854.35441
     -2291.781       -1785.808
  21855217.509    21855217.4294   21855223.3204  114849951.669 6  89493494.68944
      2876.240        2241.223
  22305577.932    22305577.4154   22305583.3124  117216710.523 7  91337654.33344
      2898.394        2258.487
  22946297.535    22946297.084    22946300.454   122445888.051 6  95235738.295 5
     -3411.432       -2653.337
  19343554.253    19343553.156    19343552.901   103547569.890 8  80537043.120 6
      -344.654        -268.064
  20438401.661    20438401.108    20438403.447   109446718.492 7  85125253.399 6
      3265.156        2539.562
  20008539.715    20008539.886    20008543.811   106844664.701 8  83101482.933 6
     -1906.136       -1482.553
  19747254.225    19747253.248    19747260.830   105264059.713 9  81872101.460 6
      1878.438        1461.010
  23452907.331    23452905.509    23452912.771   125325231.681 5  97475213.938 4
      4318.061        3358.491
  24063314.716    24063316.196    24063320.521   128542265.289 3  99977443.723 4
     -3551.599       -2762.363
 11 10 14  1  7  0.0000000  0 14G02G05G07G10G13G26G28R06R07R08R09R10
                                R11R16
  23578297.979    23578297.8354   23578303.6124  123904784.935 5  96549203.54341
     -2291.768       -1785.792
  20897540.832    20897540.7904   20897545.8694  109817337.650 8  85571965.29846
      1518.144        1182.967
  22035208.406    22035208.3884   22035213.2764  115796139.596 7  90230771.97444
     -2047.057       -1595.108
  21669414.964    21669413.4474   21669420.4334  113873574.181 7  88732669.94845
     -2219.295       -1729.320
  24579339.341    24579339.2374   24579348.6914  129165741.701 5 100648455.57941
     -2293.907       -1787.422
  21838815.545    21838815.2304   21838821.1834  114763758.976 7  89426331.57144
      2870.169        2236.495
  22289064.472    22289063.6744   22289069.5374  117129930.343 7  91270033.42344
      2887.111        2249.709
  22965500.487    22965500.238    22965504.611   122548362.498 6  95315440.628 5
     -3420.000       -2660.004
  19345551.169    19345550.095    19345549.849   103558259.098 8  80545356.933 6
      -367.796        -286.063
  20420149.128    20420148.518    20420151.180   109348975.261 8  85049230.891 7
      3251.229        2528.732
  20019291.125    20019291.059    20019294.933   106902075.145 8  83146135.497 7
     -1921.008       -1494.119
  19736740.075    19736738.833    19736746.082   105208009.571 9  81828506.916 5
      1858.447        1445.462
  23428684.194    23428683.997    23428692.611   125195809.134 4  97374552.131 4
      4310.332        3352.474
  24083259.998    24083259.812    24083263.512   128648796.469 4 100060301.293 4
     -3550.347       -2761.389
 11 10 14  1  7 30.0000000  0 14G02G05G07G10G13G26G28R06R07R08R09R10
                                R11R16
  23591398.748    23591399.3944   23591403.3274  123973626.854 5  96602846.55641
     -2297.553       -1790.304
  20888924.127    20888924.1874   20888929.2534  109772057.366 8  85536681.95746
      1500.611        1169.307
  22046915.445    22046915.1124   22046919.9854  115857658.611 7  90278708.86144
     -2054.096       -1600.588
  21682119.414    21682118.2394   21682125.0914  113940337.771 7  88784693.52345
     -2231.506       -1738.837
  24592444.011    24592443.4564   24592450.3864  129234598.708 5 100702110.40941
     -2296.458       -1789.455
  21822448.910    21822448.6964   21822454.6764  114677752.971 7  89359313.91844
      2863.633        2231.406
  22272616.014    22272615.0244   22272621.3274  117043495.071 7  91202681.27944
      2875.353        2240.532
  22984753.634    22984753.123    22984756.955   122651096.883 6  95395345.152 5
     -3428.813       -2666.851
  19347678.534    19347677.342    19347677.151   103569647.556 8  80554214.614 6
      -391.450        -304.462
  20401975.960    20401975.402    20401977.896   109251659.311 7  84973540.706 7
      3236.640        2517.387
  20030126.291    20030126.527    20030130.284   106959935.122 8  83191137.699 7
     -1936.172       -1505.912
  19726338.851    19726337.290    19726344.756   105152564.494 9  81785382.980 6
      1838.019        1429.570
  23404509.918    23404509.715    23404516.554   125066627.022 5  97274077.334 4
      4301.960        3345.970
  24103193.272    24103195.343    24103197.308   128755287.069 3 100143126.833 4
     -3549.085       -2760.392
 11 10 14  1  8  0.0000000  0 14G02G05G07G10G13G26G28R06R07R08R09R10
                                R11R16
  23604529.936    23604529.9324   23604535.0584  124042632.521 5  96656617.08541
     -2302.743       -1794.324
  20880406.480    20880406.3964   20880411.5784  109727296.036 8  85501802.99846
      1483.497        1155.969
  22058660.186    22058660.0444   22058664.7574  115919379.590 7  90326803.11244
     -2060.637       -1605.689
  21694891.802    21694890.5984   21694897.8884  114007458.633 7  88836995.48345
     -2243.201       -1747.949
  24605560.514    24605558.8694   24605568.8204  129303524.034 5 100755818.44941
     -2298.538       -1791.066
  21806119.152    21806118.2214   21806123.8144  114591934.099 7  89292442.08044
      2857.592        2226.691
  22256234.034    22256233.3224   22256239.0514  116957406.526 7  91135599.31644
      2863.919        2231.623
  23004054.890    23004053.552    23004057.305   122754087.921 6  95475449.285 5
     -3437.174       -2673.354
  19349936.098    19349935.220    19349935.055   103581734.016 8  80563615.186 6
      -414.483        -322.375
  20383883.092    20383882.545    20383885.026   109154773.766 7  84898185.291 7
      3222.444        2506.344
  20041044.917    20041045.212    20041049.226   107018241.241 8  83236486.897 6
     -1950.842       -1517.322
  19716050.838    19716049.296    19716056.975   105097724.173 9  81742729.407 5
      1818.046        1414.044
  23380381.717    23380381.119    23380387.810   124937686.956 5  97173790.755 4
      4294.035        3339.814
  24123121.054    24123123.979    24123124.812   128861735.025 3 100225919.711 4
     -3547.401       -2759.088
 11 10 14  1  8 30.0000000  0 14G02G05G07G10G13G26G28R06R07R08R09R10
                                R11R16
  23617691.157    23617691.5994   23617697.8504  124111801.746 5  96710515.05341
     -2308.292       -1798.691
  20871988.433    20871988.3224   20871993.5304  109683058.104 8  85467331.87746
      1465.896        1142.259
  22070443.752    22070443.7134   22070448.8054  115981303.464 7  90375055.48044
     -2067.452       -1611.006
  21707732.993    21707731.6454   21707738.8544  114074938.164 7  88889576.91945
     -2255.257       -1757.340
  24618689.800    24618691.0554   24618697.5284  129372520.348 5 100809581.80941
     -2301.064       -1793.037
  21789824.320    21789823.7044   21789829.5414  114506306.209 7  89225719.07244
      2851.137        2221.669
  22239918.693    22239917.8034   22239923.5864  116871670.348 7  91068791.91044
      2851.961        2222.299
  23023402.535    23023402.243    23023406.292   122857336.523 6  95555753.738 5
     -3445.845       -2680.100
  19352325.860    19352324.521    19352324.380   103594523.753 8  80573562.749 6
      -437.934        -340.614
  20365872.247    20365871.276    20365874.157   109058325.452 7  84823169.939 7
      3207.608        2494.805
  20052046.952    20052047.316    20052051.467   107076992.876 8  83282182.606 7
     -1965.754       -1528.920
  19705876.904    19705875.523    19705883.108   105043491.798 8  81700548.685 5
      1797.650        1398.176
  23356297.187    23356296.876    23356303.620   124808994.153 5  97073696.530 4
      4285.568        3333.215
  24143043.458    24143043.579    24143045.219   128968140.909 3 100308679.889 4
     -3546.045       -2758.041
 11 10 14  1  9  0.0000000  0 14G02G05G07G10G13G26G28R06R07R08R09R10
                                R11R16
  23630884.082    23630883.9714   23630888.8384  124181122.669 5  96764531.18741
     -2313.159       -1802.449
  20863668.233    20863668.2364   20863673.7264  109639335.734 8  85433262.49346
      1448.796        1128.933
  22082264.221    22082264.1184   22082269.0154  116043419.002 7  90423457.20144
     -2073.701       -1615.871
  21720640.408    21720638.8234   21720645.5874  114142765.173 7  88942429.12345
     -2266.661       -1766.228
  24631830.487    24631830.2234   24631838.5304  129441577.855 5 100863392.86341
     -2302.913       -1794.493
  21773564.096    21773563.9704   21773570.5454  114420861.097 7  89159138.48344
      2845.095        2216.954
  22223669.632    22223668.6034   22223674.8474  116786279.628 7  91002253.68844
      2840.579        2213.441
  23042797.203    23042796.783    23042801.906   122960831.204 6  95636249.584 5
     -3453.857       -2686.332
  19354843.721    19354842.843    19354842.678   103608004.923 8  80584048.087 6
      -460.914        -358.487
  20347941.301    20347940.967    20347943.566   108962308.460 7  84748490.057 7
      3193.323        2483.696
  20063130.728    20063130.732    20063134.648   107136176.954 8  83328214.664 6
     -1979.988       -1539.989
  19695815.100    19695813.998    19695821.395   104989857.965 8  81658833.492 6
      1777.814        1382.747
  23332257.441    23332259.160    23332266.095   124680541.319 5  96973788.957 4
      4277.724        3327.111
  24162952.008    24162950.419    24162955.306   129074492.848 3 100391398.087 4
     -3544.202       -2756.598
 11 10 14  1  9 30.0000000  0 13G02G05G07G10G13G26G28R06R07R08R09R10
                                R11
  23644103.840    23644104.6604   23644109.2904  124250596.330 5  96818666.34641
     -2318.273       -1806.446
  20855447.319    20855447.4274   20855452.7064  109596135.365 8  85399599.86246
      1431.344        1115.337
  22094121.741    22094121.0674   22094126.5314  116105729.439 7  90472010.78944
     -2080.195       -1620.934
  21733613.742    21733612.7354   21733619.1754  114210942.588 7  88995554.37645
     -2278.361       -1775.348
  24644984.109    24644984.4514   24644990.5564  129510701.429 5 100917255.37541
     -2305.170       -1796.261
  21757340.514    21757340.0694   21757346.7484  114335604.442 7  89092704.73744
      2838.768        2212.030
  22207487.466    22207486.7044   22207493.1604  116701241.479 7  90935990.21844
      2828.750        2204.210
  23062238.421    23062238.505    23062243.214   123064574.106 6  95716938.498 5
     -3462.207       -2692.823
  19357493.081    19357491.907    19357491.681   103622184.335 8  80595076.509 6
      -484.256        -376.645
  20330093.196    20330092.732    20330095.116   108866731.208 7  84674152.208 7
      3178.545        2472.201
  20074294.804    20074295.018    20074299.218   107195794.808 8  83374584.105 6
     -1994.392       -1551.195
  19685866.594    19685865.359    19685872.959   104936827.102 8  81617587.274 6
      1757.692        1367.088
  23308268.628    23308267.033    23308274.212   124552335.318 5  96874073.336 4
      4269.468        3320.689
 11 10 14  1 10  0.0000000  0 13G02G05G07G10G13G26G28R06R07R08R09R10
                                R11
  23657354.345    23657352.9384   23657358.5704  124320224.433 5  96872921.91141
     -2323.628       -1810.599
  20847327.179    20847327.1394   20847332.1054  109553462.766 8  85366348.48446
      1413.409        1101.358
  22106016.270    22106016.2144   22106021.3084  116168236.841 7  90520717.84144
     -2087.024       -1626.256
  21746654.948    21746653.4644   21746660.0174  114279472.815 7  89048954.54445
     -2290.410       -1784.736
  24658151.827    24658152.5634   24658157.9984  129579895.833 5 100971173.06741
     -2307.862       -1798.324
  21741153.687    21741153.2074   21741159.6554  114250541.538 7  89026421.97044
      2831.998        2206.753
  22191373.218    22191372.7274   22191379.0204  116616562.800 7  90870006.83644
      2816.382        2194.578
  23081727.862    23081727.585    23081730.977   123168567.098 6  95797821.927 5
     -3470.817       -2699.528
  19360272.923    19360271.918    19360271.657   103637066.200 8  80606651.283 6
      -507.949        -395.072
  20312328.857    20312328.092    20312330.473   108771601.822 8  84600162.691 7
      3163.234        2460.293
  20085540.947    20085541.006    20085545.157   107255847.455 8  83421291.709 7
     -2009.133       -1562.660
  19676032.184    19676030.884    19676038.106   104884403.537 9  81576813.400 5
      1737.144        1351.115
  23284320.562    23284321.605    23284329.063   124424382.520 5  96774554.652 4
      4260.678        3313.859
 11 10 14  1 10 30.0000000  0 13G02G05G07G10G13G26G28R06R07R08R09R10
                                R11
  23670632.438    23670630.9654   23670636.3154  124390001.238 5  96927293.35541
     -2328.275       -1814.239
  20839307.292    20839307.1124   20839312.0234  109511317.172 8  85333507.75946
      1396.146        1087.910
  22117947.464    22117947.2974   22117952.7244  116230937.212 7  90569575.24844
     -2093.120       -1631.000
  21759761.968    21759760.3654   21759767.5394  114348351.974 7  89102626.60045
     -2301.693       -1793.527
  24671332.299    24671330.0634   24671337.9744  129649158.457 4 101025143.95341
     -2309.772       -1799.791
  21725003.275    21725002.7814   21725008.4854  114165671.061 7  88960289.15344
      2825.861        2201.972
  22175328.646    22175327.5474   22175333.7784  116532244.019 7  90804303.90244
      2804.688        2185.474
  23101260.917    23101261.000    23101265.486   123272805.673 6  95878896.350 5
     -3478.628       -2705.595
  19363183.973    19363182.704    19363182.798   103652647.713 8  80618770.224 6
      -530.849        -412.877
  20294647.787    20294647.118    20294649.435   108676922.140 8  84526522.947 7
      3148.526        2448.856
  20096867.139    20096867.392    20096871.390   107316329.402 8  83468333.221 6
     -2023.123       -1573.535
  19666310.714    19666309.807    19666317.486   104832585.213 9  81536510.268 6
      1717.287        1335.665
  23260426.027    23260425.017    23260430.485   124296683.315 5  96675233.174 4
      4252.509        3307.499
 11 10 14  1 11  0.0000000  0 13G02G05G07G10G13G26G28R06R07R08R09R10
                                R11
  23683938.297    23683937.4674   23683940.6514  124459922.222 5  96981777.10241
     -2333.080       -1817.969
  20831387.577    20831387.5054   20831392.3014  109469698.547 8  85301077.65446
      1378.472        1074.137
  22129915.020    22129914.8484   22129920.1174  116293827.306 7  90618580.49744
     -2099.498       -1635.964
  21772935.028    21772933.7124   21772940.8034  114417576.951 7  89156568.12745
     -2313.260       -1802.535
  24684524.013    24684522.6924   24684531.2804  129718487.688 4 101079166.73141
     -2312.145       -1801.699
  21708889.854    21708889.2374   21708895.1424  114080992.657 7  88894305.99144
      2819.420        2196.955
  22159351.672    22159351.1794   22159356.7324  116448286.286 7  90738882.30944
      2792.529        2175.998
  23120841.365    23120840.467    23120844.641   123377285.868 6  95960158.698 5
     -3486.689       -2711.863
  19366224.825    19366223.686    19366223.729   103668927.288 8  80631432.103 6
      -554.354        -431.163
  20277051.113    20277050.563    20277053.032   108582694.101 7  84453234.475 7
      3133.324        2437.031
  20108273.033    20108273.158    20108277.097   107377235.367 8  83515704.524 6
     -2037.229       -1584.507
  19656703.621    19656702.199    19656709.688   104781370.825 9  81496676.864 6
      1697.075        1319.944
  23236575.702    23236574.664    23236581.554   124169237.825 5  96576109.040 4
      4243.993        3300.891
 11 10 14  1 11 30.0000000  0 13G02G05G07G10G13G26G28R06R07R08R09R10
                                R11
  23697270.216    23697269.8734   23697275.0834  124529988.839 5  97036374.34041
     -2338.052       -1821.852
  20823569.084    20823569.0454   20823574.0504  109428613.010 8  85269062.94846
      1360.503        1060.131
  22141919.084    22141918.7404   22141924.4554  116356909.714 7  90667735.60844
     -2106.046       -1641.072
  21786174.613    21786173.4284   21786180.3474  114487150.363 7  89210781.16645
     -2325.002       -1811.685
  24697730.731    24697732.2604   24697735.2904  129787888.037 4 101133244.94841
     -2314.640       -1803.584
  21692813.064    21692812.4984   21692818.6664  113996511.567 7  88828476.58544
      2812.644        2191.670
  22143444.705    22143443.8504   22143450.5034  116364696.015 7  90673747.04344
      2780.079        2166.302
  23140466.304    23140465.493    23140469.914   123482009.977 5  96041610.753 5
     -3494.897       -2718.251
  19369397.371    19369396.112    19369396.108   103685909.258 8  80644640.289 6
      -577.877        -449.462
  20259540.369    20259539.962    20259542.940   108488926.007 8  84380303.739 7
      3117.821        2424.970
  20119758.319    20119758.531    20119762.641   107438566.693 8  83563406.666 6
     -2051.522       -1595.630
  19647209.834    19647208.556    19647216.187   104730764.442 9  81457316.351 6
      1676.637        1304.050
  23212771.998    23212773.371    23212780.248   124042053.077 5  96477187.719 4
      4234.997        3293.890
 11 10 14  1 12  0.0000000  0 13G02G05G07G10G13G26G28R06R07R08R09R10
                                R11
  23710632.452    23710631.9484   23710635.8414  124600198.389 5  97091083.05041
     -2342.570       -1825.391
  20815852.834    20815852.6944   20815858.1304  109388062.609 8  85237465.22846
      1342.816        1046.350
  22153959.858    22153959.7674   22153964.7784  116420183.303 7  90717039.69244
     -2112.228       -1645.888
  21799479.873    21799478.6354   21799485.8154  114557071.145 7  89265264.88245
     -2336.385       -1820.554
  24710951.962    24710950.6274   24710956.6434  129857359.774 4 101187378.75941
     -2316.711       -1805.209
  21676775.138    21676774.4474   21676780.5544  113912229.485 7  88762802.24644
      2806.158        2186.612
  22127608.707    22127608.0514   22127613.9784  116281476.446 7  90608900.63944
      2767.853        2156.775
  23160135.683    23160135.868    23160140.537   123586975.710 5  96123250.742 5
     -3502.778       -2724.379
  19372701.214    19372700.080    19372699.791   103703595.117 8  80658395.940 6
      -601.178        -467.582
  20242117.058    20242116.516    20242118.847   108395622.123 8  84307734.057 7
      3102.456        2413.023
  20131322.986    20131323.231    20131326.989   107500320.469 8  83611437.371 6
     -2065.356       -1606.384
  19637830.164    19637829.023    19637836.665   104680766.562 9  81418429.115 6
      1656.521        1288.416
  23189022.907    23189022.081    23189029.810   123915131.482 5  96378471.038 4
      4226.379        3287.188
 11 10 14  1 12 30.0000000  0 13G02G05G07G10G13G26G28R06R07R08R09R10
                                R11
  23724020.524    23724019.1034   23724024.8474  124670549.961 5  97145902.35741
     -2347.514       -1829.222
  20808238.400    20808238.4854   20808243.7144  109348050.271 8  85206286.77846
      1324.679        1032.219
  22166037.191    22166036.8804   22166041.7664  116483647.953 7  90766492.65844
     -2118.763       -1650.984
  21812851.471    21812850.0194   21812856.8364  114627339.057 7  89320019.08744
     -2348.105       -1829.693
  24724185.820    24724187.3334   24724191.3704  129926904.974 4 101241569.79841
     -2319.544       -1807.438
  21660775.328    21660774.7854   21660780.7204  113828149.271 7  88697285.20144
      2799.198        2181.187
  22111844.151    22111843.3684   22111848.8804  116198631.696 7  90544346.30644
      2755.108        2146.836
  23179850.637    23179851.747    23179856.166   123692182.941 6  96205078.559 5
     -3511.001       -2730.776
  19376136.863    19376135.800    19376135.352   103721986.377 8  80672700.243 6
      -624.936        -486.061
  20224780.647    20224780.451    20224783.029   108302788.272 8  84235529.957 7
      3086.520        2400.626
  20142966.433    20142966.418    20142970.228   107562494.968 8  83659795.312 6
     -2079.556       -1617.437
  19628565.370    19628564.131    19628571.396   104631378.924 9  81380016.523 6
      1635.995        1272.447
  23165322.131    23165321.026    23165327.967   123788477.090 5  96279962.154 4
      4217.272        3280.094
 11 10 14  1 13  0.0000000  0 13G02G05G07G10G13G26G28R06R07R08R09R10
                                R11
  23737433.558    23737434.3184   23737438.5054  124741039.838 5  97200829.40541
     -2352.027       -1832.750
  20800726.822    20800726.8364   20800732.3714  109308577.211 8  85175528.54046
      1306.710        1018.217
  22178150.233    22178149.9024   22178154.7784  116547301.668 7  90816092.94144
     -2124.977       -1655.829
  21826288.473    21826287.3444   21826294.2424  114697952.172 7  89375042.28944
     -2359.539       -1838.608
  24737433.662    24737435.2604   24737440.1594  129996522.873 5 101295817.55841
     -2321.838       -1809.278
  21644813.558    21644812.9334   21644819.4454  113744271.352 7  88631925.79744
      2792.517        2175.986
  22096150.727    22096150.0954   22096155.5954  116116164.016 6  90480085.79244
      2742.550        2137.048
  23199612.793    23199612.566    23199617.345   123797629.035 6  96287092.152 5
     -3518.943       -2736.958
  19379704.380    19379703.292    19379703.019   103741083.379 8  80687553.454 6
      -648.319        -504.244
  20207532.907    20207532.508    20207534.942   108210427.220 7  84163693.592 7
      3070.712        2388.333
  20154687.459    20154687.471    20154691.974   107625086.793 8  83708477.834 6
     -2093.324       -1628.141
  19619414.533    19619413.281    19619420.969   104582601.032 9  81342078.170 6
      1615.739        1256.683
  23141672.306    23141669.879    23141675.833   123662091.609 5  96181662.462 4
      4208.334        3273.148
 11 10 14  1 13 30.0000000  0 13G02G05G07G10G13G26G28R06R07R08R09R10
                                R11
  23750872.983    23750872.8234   23750878.4834  124811663.913 5  97255860.97041
     -2356.254       -1836.043
  20793318.522    20793318.4284   20793323.5364  109269644.249 8  85145191.16346
      1288.767        1004.234
  22190298.624    22190298.4124   22190303.4324  116611141.563 7  90865838.32444
     -2131.067       -1660.572
  21839791.308    21839790.0024   21839796.7234  114768907.621 7  89430332.23644
     -2370.829       -1847.396
  24750696.192    24750693.9614   24750699.2694  130066212.905 4 101350121.50941
     -2324.175       -1811.063
  21628890.511    21628890.1784   21628896.2974  113660596.176 7  88566724.37044
      2785.816        2170.758
  22080530.263    22080529.2174   22080535.2144  116034075.070 7  90416120.39544
      2729.975        2127.252
  23219417.477    23219417.594    23219421.532   123903310.375 6  96369288.714 5
     -3526.569       -2742.884
  19383403.139    19383401.969    19383401.880   103760882.981 8  80702953.134 6
      -671.713        -522.444
  20190373.896    20190373.543    20190376.110   108118542.150 8  84092227.435 7
      3054.909        2376.040
  20166486.334    20166486.362    20166490.822   107688091.343 8  83757481.364 6
     -2106.964       -1638.753
  19610378.465    19610376.987    19610384.397   104534431.674 9  81304613.120 6
      1595.559        1240.994
  23118068.958    23118068.669    23118076.029   123535976.313 5  96083572.933 4
      4199.376        3266.182
 11 10 14  1 14  0.0000000  0 13G02G05G07G10G13G26G28R06R07R08R09R10
                                R11
  23764338.401    23764335.0604   23764342.5164  124882422.972 5  97310997.76141
     -2360.909       -1839.661
  20786013.364    20786013.2764   20786018.2414  109231256.118 8  85115278.32846
      1270.379         989.908
  22202482.698    22202482.5394   22202487.6784  116675169.586 7  90915730.26744
     -2137.518       -1665.597
  21853359.072    21853357.8134   21853364.7714  114840207.272 7  89485890.39844
     -2382.504       -1856.496
  24763970.228    24763975.6434   24763979.8434  130135978.315 4 101404484.16441
     -2326.942       -1813.146
  21613007.223    21613006.8194   21613012.8764  113577128.205 7  88501684.39144
      2778.672        2165.208
  22064981.992    22064981.2014   22064987.3044  115952370.372 7  90352454.41244
      2716.921        2117.079
  23239266.455    23239266.318    23239270.402   124009228.181 6  96451669.199 5
     -3534.640       -2749.162
  19387234.287    19387232.961    19387232.594   103781390.366 8  80718903.308 6
      -695.490        -540.935
  20173305.340    20173304.891    20173307.780   108027140.373 8  84021137.172 7
      3038.558        2363.324
  20178362.175    20178362.547    20178366.869   107751508.789 8  83806806.036 6
     -2120.875       -1649.567
  19601456.703    19601455.401    19601462.522   104486874.163 9  81267623.952 6
      1574.936        1224.954
  23094519.225    23094519.015    23094526.104   123410136.976 5  95985698.050 4
      4189.974        3258.867
 11 10 14  1 14 30.0000000  0 14G02G05G07G10G13G15G26G28R06R07R08R09
                                R10R11
  23777826.590    23777827.0834   23777831.6924  124953308.822 5  97366233.37141
     -2365.093       -1842.948
  20778811.211    20778811.0784   20778816.1684  109193409.265 8  85085787.27046
      1252.391         975.887
  22214701.423    22214700.8974   22214706.2064  116739378.700 7  90965763.32944
     -2143.436       -1670.211
  21866991.010    21866989.7684   21866996.9574  114911844.177 7  89541711.34844
     -2393.617       -1865.158
  24777260.353    24777259.9994   24777266.3974  130205813.861 4 101458901.41741
     -2329.205       -1814.938
  25019078.805    25019080.0604   25019083.3194  131476144.588 4 102448958.1974
      3376.838        2631.306
  21597162.290    21597161.7034   21597168.2734  113493863.378 7  88436802.71544
      2771.966        2159.966
  22049506.908    22049505.7934   22049511.5424  115871047.764 7  90289086.15244
      2704.214        2107.180
  23259158.665    23259158.358    23259162.114   124115374.579 6  96534227.486 5
     -3542.156       -2755.012
  19391195.654    19391194.571    19391194.336   103802598.035 8  80735398.148 6
      -718.759        -559.038
  20156326.766    20156326.410    20156328.532   107936220.216 8  83950421.506 7
      3022.484        2350.816
  20190313.815    20190314.186    20190318.454   107815330.828 8  83856445.398 6
     -2134.223       -1659.955
  19592648.664    19592647.458    19592655.079   104439923.210 8  81231106.554 6
      1554.803        1209.292
  23071020.431    23071020.597    23071027.291   123284570.052 5  95888034.984 4
      4180.943        3251.833
 11 10 14  1 15  0.0000000  0 14G02G05G07G10G13G15G26G28R06R07R08R09
                                R10R11
  23791340.350    23791339.4114   23791344.6414  125024320.043 5  97421566.71841
     -2369.243       -1846.163
  20771712.943    20771712.7774   20771718.0274  109156106.734 8  85056720.35546
      1234.217         961.731
  22226954.565    22226953.9994   22226959.7904  116803768.983 7  91015937.55344
     -2149.459       -1674.900
  21880687.208    21880685.9534   21880693.0124  114983818.429 7  89597795.17244
     -2404.867       -1873.927
  24790564.618    24790561.6364   24790570.0764  130275721.549 4 101513374.97641
     -2331.509       -1816.759
  24999799.911    24999799.4954   24999804.3354  131374828.956 4 102370011.00241
      3377.237        2631.617
  21581356.825    21581356.2944   21581362.7524  113410804.554 7  88372081.55944
      2765.065        2154.595
  22034105.184    22034104.3414   22034109.5574  115790111.434 7  90226018.89744
      2691.295        2097.117
  23279092.964    23279092.812    23279096.979   124221749.410 6  96616963.428 5
     -3549.710       -2760.886
  19395289.316    19395288.144    19395288.011   103824510.537 8  80752441.192 6
      -742.260        -577.314
  20139438.637    20139438.301    20139441.007   107845787.485 8  83880084.948 7
      3006.119        2338.092
  20202341.202    20202341.373    20202345.744   107879555.753 8  83906398.111 6
     -2147.588       -1670.345
  19583954.832    19583953.598    19583961.369   104393580.490 9  81195062.227 6
      1534.520        1193.518
  23047575.944    23047574.918    23047580.512   123159280.031 5  95790587.340 4
      4171.555        3244.539
 11 10 14  1 15 30.0000000  0 14G02G05G07G10G13G15G26G28R06R07R08R09
                                R10R11
  23804877.728    23804877.0954   23804879.8724  125095453.710 5  97476995.45241
     -2373.113       -1849.162
  20764718.149    20764718.1554   20764723.7164  109119350.141 8  85028078.84846
      1216.115         947.622
  22239241.600    22239241.5724   22239246.9504  116868339.117 7  91066251.92744
     -2155.299       -1679.461
  21894447.179    21894446.1274   21894453.2124  115056128.675 7  89654140.81444
     -2415.901       -1882.519
  24803879.759    24803877.8014   24803886.8614  130345701.456 4 101567904.79741
     -2333.804       -1818.537
  24980517.084    24980517.3914   24980523.9384  131273504.315 4 102291056.74041
      3377.684        2631.965
  21565591.272    21565590.5374   21565596.5934  113327952.874 7  88307521.81344
      2758.295        2149.323
  22018777.196    22018776.4054   22018782.0794  115709563.730 7  90163254.46244
      2678.425        2087.086
  23299069.112    23299070.004    23299073.765   124328350.204 6  96699875.134 5
     -3557.105       -2766.641
  19399514.133    19399512.869    19399512.511   103847126.070 8  80770031.036 6
      -765.551        -595.427
  20122643.022    20122642.385    20122645.097   107755846.182 8  83810130.606 7
      2989.806        2325.400
  20214443.749    20214443.669    20214447.805   107944180.228 8  83956661.581 6
     -2160.801       -1680.623
  19575375.390    19575374.034    19575381.236   104347845.997 9  81159490.961 6
      1514.354        1177.830
  23024180.490    23024180.267    23024185.936   123034269.180 5  95693356.920 4
      4162.357        3237.375
 11 10 14  1 16  0.0000000  0 14G02G05G07G10G13G15G26G28R06R07R08R09
                                R10R11
  23818433.743    23818434.6424   23818439.5064  125166702.140 5  97532513.61441
     -2376.891       -1852.115
  20757826.766    20757826.8154   20757832.4604  109083136.190 8  84999860.17646
      1198.020         933.521
  22251562.142    22251561.4504   22251567.2424  116933082.509 7  91116701.29344
     -2161.032       -1683.930
  21908270.296    21908268.7874   21908275.8794  115128767.790 7  89710742.71244
     -2426.832       -1891.037
  24817209.389    24817209.4774   24817215.0354  130415748.710 4 101622487.07241
     -2335.966       -1820.233
  24961234.350    24961233.7674   24961239.6494  131172166.307 4 102212092.09741
      3378.076        2632.286
  21549863.516    21549863.1614   21549868.6984  113245304.872 7  88243120.78644
      2751.455        2143.983
  22003522.670    22003522.1844   22003527.9004  115629402.457 7  90100791.14744
      2665.523        2077.034
  23319089.107    23319087.693    23319091.233   124435169.849 6  96782957.051 5
     -3564.365       -2772.287
  19403868.967    19403868.002    19403867.845   103870438.767 8  80788163.121 6
      -788.780        -613.498
  20105938.773    20105938.265    20105941.051   107666394.986 8  83740557.458 7
      2973.478        2312.698
  20226618.695    20226619.026    20226623.243   108009196.212 8  84007229.563 6
     -2173.748       -1690.698
  19566908.920    19566907.450    19566914.649   104302714.569 9  81124388.746 6
      1494.281        1162.218
  23000840.225    23000838.322    23000842.784   122909534.154 5  95596340.919 4
      4153.094        3230.187
 11 10 14  1 16 30.0000000  0 14G02G05G07G10G13G15G26G28R06R07R08R09
                                R10R11
  23832014.481    23832013.2594   23832019.5284  125238061.391 5  97588118.10841
     -2380.501       -1854.928
  20751038.771    20751038.8354   20751044.2864  109047464.943 8  84972064.39046
      1179.949         919.442
  22263914.761    22263914.0004   22263919.5744  116997996.254 7  91167283.41344
     -2166.629       -1688.284
  21922155.063    21922153.8764   21922161.1274  115201733.385 7  89767598.99744
     -2437.631       -1899.456
  24830551.538    24830552.4034   24830556.8834  130485862.365 4 101677121.09541
     -2338.253       -1821.995
  24941948.713    24941948.0294   24941953.8604  131070814.749 4 102133116.86641
      3378.625        2632.671
  21534174.900    21534174.3314   21534180.2574  113162860.673 7  88178878.56244
      2744.707        2138.727
  21988342.440    21988341.7784   21988347.5304  115549628.974 7  90038629.99844
      2652.575        2066.942
  23339146.540    23339145.809    23339149.868   124542204.807 6  96866206.425 5
     -3571.406       -2777.760
  19408354.427    19408353.232    19408353.406   103894448.997 8  80806837.727 6
      -812.000        -631.556
  20089326.280    20089325.826    20089328.431   107577436.359 8  83671367.416 7
      2956.977        2299.872
  20238866.716    20238866.815    20238871.193   108074599.310 8  84058098.627 6
     -2186.534       -1700.637
  19558554.889    19558553.558    19558561.095   104258184.638 9  81089754.358 6
      1474.293        1146.671
  22977548.431    22977548.114    22977553.282   122785076.365 5  95499540.501 4
      4143.909        3223.040
 11 10 14  1 17  0.0000000  0 14G02G05G07G10G13G15G26G28R06R07R08R09
                                R10R11
  23845613.276    23845614.3024   23845619.3934  125309528.354 5  97643806.54841
     -2383.956       -1857.637
  20744354.503    20744354.3714   20744359.6524  109012338.007 8  84944692.75046
      1161.853         905.340
  22276299.023    22276299.0964   22276304.1964  117063078.893 7  91217997.14044
     -2172.189       -1692.613
  21936101.848    21936100.5934   21936107.8124  115275023.320 7  89824708.03044
     -2448.341       -1907.799
  24843907.072    24843907.5574   24843911.2544  130556042.459 4 101731806.86141
     -2340.361       -1823.641
  24922656.983    24922656.4184   24922663.9714  130969450.373 4 102054131.64441
      3379.107        2633.079
  21518525.633    21518524.9474   21518530.9774  113080621.343 7  88114795.96944
      2737.935        2133.454
  21973236.869    21973235.8904   21973241.8604  115470245.740 7  89976772.94844
      2639.610        2056.836
  23359245.004    23359244.366    23359248.391   124649452.741 6  96949621.450 5
     -3578.481       -2783.264
  19412969.926    19412968.636    19412968.553   103919155.375 8  80826053.790 6
      -835.145        -649.558
  20072806.343    20072806.120    20072808.563   107488974.317 8  83602563.610 7
      2940.465        2287.029
  20251186.820    20251186.962    20251190.908   108140386.044 8  84109266.081 6
     -2199.226       -1710.509
  19550313.901    19550312.852    19550320.317   104214255.992 9  81055587.642 6
      1454.332        1131.151
  22954308.965    22954308.994    22954315.613   122660897.917 5  95402957.415 4
      4134.650        3215.833
 11 10 14  1 17 30.0000000  0 14G02G05G07G10G13G15G26G28R06R07R08R09
                                R10R11
  23859234.186    23859233.2104   23859238.6824  125381100.543 5  97699576.98141
     -2387.334       -1860.255
  20737773.912    20737773.7984   20737778.7974  108977756.962 8  84917746.47346
      1143.705         891.202
  22288716.125    22288715.3594   22288720.5574  117128329.081 7  91268841.42744
     -2177.664       -1696.877
  21950110.081    21950108.7554   21950115.5554  115348636.733 7  89882069.12544
     -2459.010       -1916.109
  24857273.112    24857271.9804   24857280.9504  130626289.185 4 101786544.61041
     -2342.448       -1825.272
  24903366.184    24903365.8954   24903373.6444  130868073.845 4 101975136.98741
      3379.658        2633.492
  21502914.473    21502914.5134   21502920.3384  112998588.125 7  88050873.98644
      2731.105        2128.136
  21958204.814    21958204.3624   21958210.7914  115391255.182 7  89915221.87944
      2626.552        2046.660
  23379382.390    23379382.734    23379386.411   124756911.554 6  97033200.489 4
     -3585.330       -2788.592
  19417715.324    19417714.121    19417714.115   103944558.174 8  80845811.509 6
      -858.266        -667.543
  20056380.588    20056380.162    20056382.616   107401012.793 8  83534149.101 7
      2923.768        2274.041
  20263577.600    20263577.671    20263581.942   108206553.514 8  84160729.658 6
     -2211.808       -1720.296
  19542185.877    19542184.552    19542192.253   104170928.540 9  81021888.526 6
      1434.331        1115.589
  22931123.311    22931123.273    22931130.374   122537001.114 5  95306593.392 4
      4125.275        3208.533
 11 10 14  1 18  0.0000000  0 14G02G05G07G10G13G15G26G28R06R07R08R09
                                R10R11
  23872874.308    23872872.1244   23872876.7804  125452773.716 5  97755426.14341
     -2390.806       -1862.971
  20731297.301    20731297.2204   20731302.2244  108943721.756 8  84891225.52946
      1125.337         876.887
  22301163.997    22301163.9774   22301168.6324  117193743.635 7  91319813.79744
     -2183.255       -1701.237
  21964178.899    21964177.6784   21964184.4064  115422570.102 7  89939679.54444
     -2469.803       -1924.526
  24870655.284    24870655.8534   24870658.0144  130696601.318 4 101841333.30241
     -2344.879       -1827.193
  24884071.539    24884072.2224   24884079.1704  130766684.614 4 101896132.39641
      3379.812        2633.608
  21487343.410    21487343.1084   21487349.2654  112916761.050 7  87987112.63244
      2724.083        2122.663
  21943248.872    21943248.2264   21943254.0794  115312658.785 7  89853977.95144
      2613.227        2036.275
  23399560.314    23399559.442    23399563.181   124864577.659 6  97116940.736 4
     -3592.332       -2794.034
  19422590.761    19422589.455    19422589.267   103970656.002 8  80866109.804 6
      -881.396        -685.529
  20040048.272    20040047.688    20040050.162   107313554.298 8  83466125.826 7
      2906.821        2260.860
  20276039.041    20276039.360    20276043.700   108273097.289 8  84212485.914 6
     -2224.442       -1730.121
  19534169.994    19534168.990    19534176.404   104128201.164 9  80988656.126 6
      1414.210        1099.942
  22907991.744    22907990.504    22907996.873   122413386.726 5  95210449.030 4
      4115.832        3201.206
 11 10 14  1 18 30.0000000  0 14G02G05G07G10G13G15G26G28R06R07R08R09
                                R10R11
  23886530.112    23886529.4434   23886536.5734  125524549.304 5  97811355.04441
     -2394.101       -1865.509
  20724925.745    20724925.7714   20724930.7674  108910238.557 8  84865134.72146
      1106.955         862.565
  22313644.287    22313643.8374   22313648.9204  117259325.870 7  91370916.82344
     -2188.766       -1705.529
  21978309.541    21978307.8054   21978314.7844  115496826.333 7  89997541.52444
     -2480.525       -1932.877
  24884048.390    24884049.2784   24884055.6274  130766983.668 4 101896176.66441
     -2347.085       -1828.895
  24864777.987    24864776.6794   24864785.8454  130665288.084 4 101817122.13441
      3380.053        2633.803
  21471812.819    21471812.3364   21471818.6264  112835146.139 7  87923516.60644
      2717.004        2117.146
  21928369.380    21928368.4454   21928373.6704  115234463.473 7  89793046.54944
      2599.865        2025.871
  23419774.397    23419774.590    23419779.434   124972453.574 6  97200844.187 4
     -3599.267       -2799.417
  19427596.768    19427595.438    19427595.337   103997453.219 8  80886952.066 6
      -904.839        -703.760
  20023811.556    20023810.986    20023813.467   107226607.723 8  83398500.714 7
      2889.744        2247.580
  20288571.190    20288571.482    20288575.763   108340018.649 8  84264535.849 6
     -2236.885       -1739.797
  19526268.380    19526267.060    19526274.365   104086078.055 9  80955893.719 6
      1394.125        1084.320
  22884911.948    22884911.370    22884917.157   122290062.063 5  95114530.101 4
      4106.041        3193.589
 11 10 14  1 19  0.0000000  0 14G02G05G07G10G13G15G26G28R06R07R08R09
                                R10R11
  23900207.133    23900206.5964   23900214.0964  125596419.064 5  97867357.37741
     -2397.042       -1867.774
  20718658.354    20718658.2104   20718663.6694  108877303.229 8  84839470.82146
      1088.816         848.428
  22326154.428    22326154.1464   22326159.3614  117325069.084 7  91422145.27844
     -2194.000       -1709.609
  21992499.958    21992498.5784   21992506.0404  115571398.481 7  90055649.68044
     -2490.865       -1940.926
  24897452.376    24897449.9924   24897457.8924  130837431.329 4 101951070.99641
     -2349.154       -1830.472
  24845479.575    24845478.9374   24845486.5984  130563879.704 4 101738102.64841
      3380.641        2634.290
  21456321.367    21456320.9444   21456327.5034  112753739.009 7  87860082.48144
      2710.206        2111.853
  21913564.302    21913563.7884   21913569.3074  115156666.518 7  89732425.56844
      2586.706        2015.615
  23440028.671    23440028.315    23440032.331   125080531.058 6  97284904.405 4
     -3605.795       -2804.510
  19432732.091    19432730.761    19432730.833   104024943.868 8  80908333.667 6
      -927.781        -721.609
  20007670.303    20007669.435    20007672.346   107140170.900 8  83331272.075 7
      2872.783        2234.385
  20301172.801    20301173.007    20301177.324   108407309.056 8  84316872.825 6
     -2249.005       -1749.227
  19518478.331    19518476.950    19518484.556   104044553.227 9  80923596.643 6
      1374.309        1068.903
  22861887.329    22861886.183    22861892.032   122167023.357 5  95018833.542 4
      4096.647        3186.275
 11 10 14  1 19 30.0000000  0 14G02G05G07G10G13G15G26G28R06R07R08R09
                                R10R11
  23913901.321    23913901.4844   23913906.0024  125668381.865 5  97923432.18641
     -2400.174       -1870.235
  20712495.922    20712495.8414   20712501.0244  108844919.061 8  84814236.40146
      1070.365         834.052
  22338695.366    22338695.1714   22338700.3244  117390973.121 7  91473499.05444
     -2199.356       -1713.790
  22006750.687    22006749.4294   22006756.8274  115646286.261 7  90114003.78944
     -2501.394       -1949.133
  24910869.846                    24910881.6244  130907945.374 4 102005862.92641
     -2351.458       -1601.263
  24826181.612    24826180.8394   24826186.0814  130462461.957 4 101659075.84341
      3380.808        2634.384
  21440869.933    21440869.5004   21440875.9024  112672542.572 7  87796812.54144
      2703.124        2106.333
  21898837.121    21898836.0174   21898841.6354  115079271.892 7  89672118.08144
      2573.187        2005.078
  23460320.343    23460320.002    23460323.688   125188809.605 6  97369120.984 4
     -3612.489       -2809.708
  19437997.203    19437996.034    19437995.927   104053129.153 8  80930255.549 6
      -950.983        -739.655
  19991625.424    19991624.594    19991626.926   107054249.745 8  83264444.510 7
      2855.473        2220.923
  20313842.637    20313842.852    20313847.231   108474966.767 8  84369495.474 6
     -2261.233       -1758.738
  19510800.899    19510799.415    19510806.727   104003627.989 9  80891765.913 6
      1354.273        1053.324
  22838916.403    22838915.332    22838920.529   122044274.032 5  94923361.938 4
      4086.879        3178.686
 11 10 14  1 20  0.0000000  0 14G02G05G07G10G13G15G26G28R06R07R08R09
                                R10R11
  23927613.208    23927611.2234   23927616.3404  125740431.620 5  97979574.78341
     -2402.974       -1872.419
  20706437.874    20706437.8484   20706443.0044  108813084.048 8  84789429.88946
      1052.111         819.832
  22351265.966    22351266.0874   22351270.7184  117457033.131 7  91524974.36244
     -2204.455       -1717.758
  22021060.673    22021059.2664   22021066.5054  115721484.811 7  90172600.05444
     -2511.684       -1957.151
  24924302.362                                   130978522.621 4
     -2353.588
  24806879.706    24806881.4314   24806885.8364  130361032.266 4 101580039.75841
      3381.295        2634.795
  21425458.988    21425458.4894   21425463.8914  112591554.984 7  87733705.33844
      2696.182        2100.922
  21884185.826    21884185.0984   21884190.6244  115002278.896 7  89612123.55844
      2559.843        1994.677
  23480648.338    23480647.743    23480652.214   125297283.739 5  97453489.673 4
     -3618.914       -2814.707
  19443391.380    19443390.441    19443390.276   104082005.134 8  80952714.631 6
      -974.045        -757.593
  19975676.100    19975675.685    19975678.261   106968844.348 8  83198018.094 7
      2838.277        2207.550
  20326580.804    20326580.634    20326584.749   108542985.207 8  84422398.705 6
     -2273.143       -1768.001
  19503235.186    19503233.956    19503241.579   103963298.966 9  80860398.907 6
      1334.471        1037.922
  22815998.579    22815998.592    22816003.852   121921813.473 5  94828114.907 4
      4077.260        3171.188
 11 10 14  1 20 30.0000000  0 14G02G05G07G10G13G15G26G28R06R07R08R09
                                R10R11
  23941339.647    23941338.7454   23941345.1564  125812569.477 5  98035786.03441
     -2406.145       -1874.910
  20700485.362    20700485.3054   20700490.4924  108781803.400 8  84765055.35546
      1033.279         805.154
  22363867.044    22363866.9984   22363871.8194  117523251.684 7  91576573.19344
     -2210.040       -1722.106
  22035429.783    22035428.3904   22035435.9814  115796996.655 7  90231440.43444
     -2522.404       -1965.499
  24937743.327                                   131049167.423 4
     -2356.298
  24787578.101    24787575.9174   24787582.4254  130259594.979 4 101500997.71141
      3381.181        2634.745
  21410088.061    21410087.9044   21410093.3594  112510781.377 7  87670764.87244
      2688.728        2095.119
  21869611.790    21869611.0984   21869616.5554  114925693.863 7  89552446.91444
      2545.851        1983.782
  23501013.000    23501013.018    23501016.807   125405955.203 5  97538011.852 4
     -3625.801       -2820.063
  19448915.646    19448914.524    19448914.550   104111576.106 8  80975714.261 6
      -997.438        -775.779
  19959824.745    19959824.357    19959827.331   106883962.840 8  83131999.143 7
      2820.470        2193.702
  20339385.696    20339386.014    20339390.455   108611365.756 8  84475583.558 6
     -2285.482       -1777.594
  19495782.427    19495780.807    19495787.953   103923569.775 9  80829498.437 6
      1314.172        1022.136
  22793137.990    22793137.053    22793142.536   121799647.711 5  94733097.158 4
      4067.092        3163.297
 11 10 14  1 21  0.0000000  0 14G02G05G07G10G13G15G26G28R06R07R08R09
                                R10R11
  23955083.281    23955082.1634   23955088.5584  125884790.827 5  98092062.32741
     -2408.815       -1876.993
  20694638.316    20694638.1054   20694643.3664  108751076.591 8  84741112.38046
      1014.898         790.830
  22376498.060    22376497.7954   22376502.5774  117589625.317 7  91628292.90644
     -2215.111       -1726.055
  22049858.478    22049856.8884   22049863.9674  115872817.975 7  90290521.97244
     -2532.632       -1973.480
  24951198.379                                   131119878.219 3
     -2358.245
  24768273.667    24768272.3594   24768278.7874  130158149.497 5 101421949.28741
      3381.503        2634.956
  21394757.986    21394757.5194   21394763.4434  112430221.369 7  87607990.86244
      2681.642        2089.592
  21855115.665    21855115.1854   21855120.7774  114849517.334 7  89493088.59944
      2532.258        1973.190
  23521413.190    23521414.717    23521418.334   125514819.787 5  97622684.219 4
     -3632.104       -2824.967
  19454569.153    19454567.924    19454567.896   104141839.075 8  80999252.105 6
     -1020.427        -793.664
  19944071.720    19944071.495    19944074.487   106799607.093 8  83066389.120 7
      2802.975        2180.092
  20352258.010    20352258.300    20352262.765   108680102.756 8  84529045.661 6
     -2297.247       -1786.750
  19488441.275    19488439.822    19488446.893   103884438.241 9  80799062.809 6
      1294.353        1006.723
  22770330.732    22770329.274    22770336.251   121677777.282 5  94638309.222 4
      4057.445        3155.786
 11 10 14  1 21 30.0000000  0 14G02G05G07G10G13G15G26G28R06R07R08R09
                                R10R11
  23968842.022    23968841.3174   23968849.6664  125957095.781 5  98148403.73941
     -2411.334       -1878.975
  20688897.318    20688897.1934   20688902.5064  108720907.801 8  84717604.22546
       996.488         776.489
  22389158.449    22389158.1314   22389163.2294  117656155.464 7  91680134.55244
     -2220.080       -1729.929
  22064345.836    22064344.8414   22064351.6284  115948949.881 7  90349845.52444
     -2542.674       -1981.298
  24964667.165                                   131190658.167 3
     -2360.426
  24748966.176    24748965.9924   24748972.6504  130056699.226 5 101342897.18641
      3381.856        2635.163
  21379469.470    21379468.8884   21379475.0094  112349879.074 7  87545386.48544
      2674.594        2084.106
  21840698.504    21840697.6244   21840703.1764  114773754.744 7  89434052.82844
      2518.679        1962.606
  23541851.849    23541852.119    23541856.609   125623877.965 5  97707507.150 4
     -3638.198       -2829.703
  19460352.362    19460351.209    19460350.975   104172797.050 8  81023330.514 6
     -1043.345        -811.485
  19928419.102    19928418.492    19928420.817   106715784.172 8  83001193.515 7
      2785.374        2166.405
  20365197.097    20365197.334    20365201.657   108749196.485 8  84582785.213 6
     -2308.817       -1795.743
  19481212.754    19481211.506    19481218.694   103845906.857 9  80769093.959 6
      1274.585         991.347
  22747581.737    22747580.124    22747586.386   121556207.035 5  94543754.750 4
      4047.523        3148.066
 11 10 14  1 22  0.0000000  0 14G02G05G07G10G13G15G26G28R06R07R08R09
                                R10R11
  23982617.856    23982617.1234   23982622.6284  126029483.877 5  98204809.91741
     -2414.348       -1881.328
  20683263.454    20683263.3484   20683268.8684  108691301.390 8  84694534.28646
       977.431         761.633
  22401848.655    22401848.3594   22401853.6814  117722843.651 7  91732099.34844
     -2225.599       -1734.235
  22078892.566    22078891.4214   22078898.3894  116025393.306 7  90409411.81744
     -2553.332       -1989.607
  24978152.216                                   131261509.670 4
     -2363.102
  24729660.272    24729660.7384   24729666.3254  129955248.177 4 101263844.43741
      3381.599        2635.019
  21364222.621    21364222.3714   21364228.5784  112269758.382 7  87482954.79144
      2666.936        2078.130
  21826361.139    21826360.0014   21826365.8634  114698411.731 7  89375344.00644
      2504.349        1951.441
  23562325.421    23562324.912    23562330.346   125733130.158 5  97792480.993 4
     -3645.056       -2835.037
  19466265.651    19466264.647    19466264.650   104204452.539 8  81047951.440 6
     -1066.835        -829.760
  19912865.783    19912865.893    19912867.874   106632500.309 8  82936417.177 7
      2767.069        2152.160
  20378202.960    20378203.175    20378207.455   108818646.384 8  84636801.789 6
     -2320.951       -1805.186
  19474097.547    19474096.110    19474103.360   103807977.893 9  80739593.661 6
      1254.198         975.488
  22724887.136    22724886.760    22724892.643   121434941.655 5  94449437.415 4
      4037.051        3139.930
 11 10 14  1 22 30.0000000  0 14G02G05G07G10G13G15G26G28R06R07R08R09
                                R10R11
  23996407.279    23996406.2974   23996412.8184  126101949.653 5  98261276.64841
     -2416.620       -1883.079
  20677736.306    20677736.0234   20677741.6364  108662255.450 8  84671901.08046
       959.035         747.297
  22414568.154    22414568.1654   22414573.2164  117789685.404 7  91784183.81144
     -2230.415       -1737.989
  22093497.677    22093495.9754   22093503.4034  116102143.546 7  90469217.19144
     -2563.246       -1997.343
  24991648.893                                   131332430.239 4
     -2365.069
  24710354.647    24710355.9664   24710360.6984  129853793.625 4 101184788.94941
      3381.968        2635.319
  21349018.077    21349017.8614   21349024.1074  112189857.948 7  87420694.72644
      2659.818        2072.576
  21812103.481    21812102.8334   21812108.2524  114623487.084 7  89316961.18644
      2490.708        1940.807
  23582836.754    23582834.407    23582839.575   125842571.738 5  97877602.124 4
     -3650.966       -2839.645
  19472308.644    19472307.689    19472307.626   104236800.881 8  81073111.250 6
     -1089.635        -847.496
  19897414.407    19897414.008    19897416.414   106549756.381 8  82872060.789 7
      2749.261        2138.312
  20391274.271    20391274.542    20391279.027   108888446.267 8  84691090.588 6
     -2332.239       -1813.967
  19467094.056    19467092.731    19467100.040   103770647.971 9  80710559.284 6
      1234.560         960.214
  22702249.752    22702249.899    22702256.376   121313980.657 5  94355356.770 4
      4027.121        3132.192
 11 10 14  1 23  0.0000000  0 14G02G05G07G10G13G15G26G28R06R07R08R09
                                R10R11
  24010211.470    24010210.1174   24010216.5374  126174489.505 4  98317801.02041
     -2419.265       -1885.120
  20672315.484    20672315.7144   20672320.9414  108633770.327 8  84649704.87546
       940.093         732.539
  22427316.457    22427316.3384   22427321.6504  117856678.552 7  91836386.23944
     -2235.671       -1742.077
  22108160.637    22108159.1994   22108166.3834  116179198.386 7  90529259.91344
     -2573.585       -2005.393
  25005155.566                                   131403419.056 3
     -2367.420
  24691048.664    24691049.1674   24691056.1014  129752336.038 5 101105731.14641
      3381.988        2635.334
  21333856.128    21333855.6274   21333861.5334  112110178.167 7  87358606.59344
      2652.242        2066.688
  21797926.071    21797924.9654   21797930.6464  114548982.541 7  89258905.71144
      2476.410        1929.676
  23603378.549    23603378.696    23603383.820   125952198.981 6  97962867.654 4
     -3657.375       -2844.616
  19478481.400    19478480.070    19478479.863   104269842.465 8  81098810.244 6
     -1113.138        -865.771
  19882063.960    19882063.381    19882066.054   106467555.396 8  82808126.679 7
      2730.876        2124.018
  20404410.455    20404410.813    20404415.355   108958592.249 8  84745648.558 6
     -2343.977       -1823.091
  19460203.468    19460202.176    19460209.702   103733916.092 9  80681990.053 6
      1214.387         944.521
  22679672.193    22679670.989    22679676.737   121193325.054 5  94261513.627 4
      4016.702        3124.094
 11 10 14  1 23 30.0000000  0 14G02G05G07G10G13G15G26G28R06R07R08R09
                                R10R11
  24024027.177    24024027.4044   24024035.7884  126247104.477 4  98374384.02441
     -2421.682       -1887.047
  20667002.743    20667002.8974   20667008.0824  108605851.347 8  84627949.81846
       921.247         717.853
  22440094.043    22440094.0504   22440099.1454  117923825.145 7  91888708.24144
     -2240.728       -1746.025
  22122882.146    22122880.8674   22122887.5724  116256559.846 7  90589541.56044
     -2583.749       -2013.312
  25018680.125                                   131474479.917 3
     -2369.932
  24671742.091    24671741.2194   24671747.9254  129650880.132 4 101026674.54841
      3381.818        2635.209
  21318736.521    21318735.7484   21318741.8014  112030724.275 7  87296694.48544
      2644.743        2060.836
  21783829.138    21783828.4794   21783834.2124  114474904.248 7  89201182.38344
      2462.206        1918.604
  23623958.933    23623958.815    23623962.954   126062013.328 5  98048278.701 5
     -3663.412       -2849.329
  19484783.365    19484782.005    19484781.980   104303577.960 8  81125048.952 6
     -1136.090        -883.624
  19866815.995    19866815.433    19866818.164   106385904.988 8  82744620.800 7
      2712.543        2109.756
  20417611.426    20417611.763    20417615.902   109029085.054 8  84800476.289 6
     -2355.488       -1832.047
  19453425.667    19453424.209    19453431.436   103697785.155 9  80653888.215 6
      1194.387         928.970
  22657150.582    22657150.249    22657156.141   121072980.941 5  94167912.767 4
      4006.376        3116.066
 11 10 14  1 24  0.0000000  0 14G02G05G07G10G13G15G26G28R06R07R08R09
                                R10R11
  24037860.300    24037858.4624   24037866.4384  126319788.980 5  98431021.10341
     -2423.940       -1888.758
  20661797.665    20661797.5284   20661802.7684  108578497.190 8  84606634.88746
       902.414         703.180
  22452900.305    22452899.5964   22452905.2154  117991121.520 7  91941146.95444
     -2245.690       -1749.894
  22137661.090    22137660.0634   22137667.0514  116334223.369 7  90650058.57744
     -2593.762       -2021.113
  25032214.213                                   131545610.525 3
     -2372.067
  24652436.205    24652435.5164   24652441.2434  129549423.729 5 100947617.67341
      3381.931        2635.270
  21303659.749    21303659.1934   21303664.8254  111951494.758 7  87234957.21444
      2637.265        2055.011
  21769813.568    21769812.8024   21769818.8064  114401251.962 7  89143791.01044
      2447.964        1907.500
  23644570.613    23644571.590    23644576.305   126172010.067 6  98133831.587 4
     -3669.547       -2854.088
  19491214.405    19491213.645    19491213.723   104338006.914 8  81151827.011 6
     -1159.253        -901.643
  19851671.438    19851671.046    19851673.934   106304806.742 8  82681544.380 7
      2694.074        2095.390
  20430876.598    20430876.931    20430881.069   109099918.967 8  84855569.323 6
     -2366.753       -1840.808
  19446759.720    19446758.344    19446765.744   103662252.342 9  80626251.594 6
      1174.476         913.480
  22634688.143    22634687.492    22634693.485   120952947.527 5  94074553.550 4
      3995.946        3107.958
 11 10 14  1 24 30.0000000  0 14G02G05G07G10G13G15G26G28R06R07R08R09
                                R10R11
  24051704.770    24051703.8564   24051709.7074  126392535.898 5  98487706.85841
     -2425.955       -1890.352
  20656698.942    20656698.9764   20656704.0644  108551704.507 8  84585757.46546
       883.682         688.585
  22465733.311    22465733.2944   22465738.2284  118058560.984 6  91993697.16244
     -2250.408       -1753.568
  22152495.996    22152494.8194   22152501.9374  116412182.940 7  90710806.28444
     -2603.622       -2028.804
  25045761.452                                   131616806.936 3
     -2374.430
  24633127.948    24633129.0454   24633133.5184  129447963.473 4 100868557.75141
      3382.083        2635.407
  21288624.637    21288624.0394   21288630.0594  111872486.702 7  87173392.50544
      2629.858        2049.243
  21755878.804    21755877.9144   21755883.8904  114328023.636 7  89086729.99144
      2433.811        1896.472
  23665217.031    23665217.611    23665222.513   126282182.326 6  98219520.987 4
     -3675.396       -2858.637
  19497774.677    19497773.560    19497773.164   104373121.412 8  81179138.274 6
     -1182.271        -919.542
  19836630.153    19836629.574    19836632.117   106224259.438 8  82618896.474 7
      2675.688        2081.093
  20444203.722    20444204.101    20444208.367   109171086.433 8  84910921.784 6
     -2377.804       -1849.403
  19440204.899    19440203.547    19440211.023   103627312.532 9  80599076.199 6
      1154.711         898.107
  22612283.743    22612282.811    22612288.488   120833222.491 5  93981434.184 4
      3985.674        3099.960
 11 10 14  1 25  0.0000000  0 14G02G05G07G10G13G15G26G28R06R07R08R09
                                R10R11
  24065559.362    24065558.0394   24065567.1524  126465344.662 5  98544440.89941
     -2427.728       -1891.729
  20651707.844    20651708.0334   20651712.9334  108525476.141 8  84565319.77146
       865.044         674.062
  22478593.698    22478593.8614   22478599.1214  118126145.165 6  92046360.13944
     -2254.986       -1757.131
  22167387.779    22167386.4154   22167393.2704  116490438.820 7  90771784.87644
     -2613.223       -2036.276
  25059324.139                                   131688069.754 3
     -2376.409
  24613821.078    24613819.8674   24613826.8004  129346502.328 4 100789497.16841
      3382.141        2635.425
  21273632.414    21273632.4224   21273638.0434  111793703.650 7  87112003.12844
      2622.546        2043.539
  21742025.286    21742024.6674   21742030.2844  114255223.801 7  89030002.85244
      2419.694        1885.480
  23685897.413    23685896.916    23685901.666   126392529.685 6  98305346.559 4
     -3680.928       -2862.930
  19504463.139    19504461.862    19504461.994   104408925.332 8  81206985.756 6
     -1204.733        -937.014
  19821692.663    19821691.986    19821694.114   106144268.812 8  82556681.542 7
      2657.188        2066.703
  20457593.400    20457593.520    20457598.060   109242586.201 8  84966532.697 6
     -2388.604       -1857.800
  19433761.694    19433760.472    19433767.950   103592967.325 9  80572363.262 6
      1135.125         882.874
  22589937.135    22589936.919    22589942.284   120713809.944 5  93888557.850 4
      3975.414        3091.993
 11 10 14  1 25 30.0000000  0 14G02G05G07G10G13G15G26G28R06R07R08R09
                                R10R11
  24079424.760    24079425.4874   24079430.6824  126538206.503 5  98601216.31041
     -2429.616       -1893.211
  20646823.463    20646823.4974   20646828.4784  108499807.931 8  84545318.56046
       846.248         659.415
  22491481.061    22491480.9944   22491486.1324  118193866.621 6  92099130.07344
     -2259.674       -1760.791
  22182334.402    22182332.9824   22182340.0014  116568983.329 7  90832988.38544
     -2622.947       -2043.863
  25072899.283                                   131759397.601 3
     -2378.610
  24594512.728    24594511.1404   24594518.3974  129245035.399 4 100710432.04141
      3382.190        2635.437
  21258682.699    21258681.9854   21258688.1484  111715140.909 7  87050785.42444
      2615.060        2037.706
  21728252.811    21728252.2054   21728257.7484  114182849.084 7  88973606.98444
      2405.377        1874.316
  23706607.223    23706607.255    23706612.525   126503044.301 5  98391302.232 4
     -3686.577       -2867.336
  19511278.597    19511277.652    19511277.720   104445410.249 8  81235362.903 6
     -1227.539        -954.753
  19806858.355    19806857.750    19806860.079   106064832.834 8  82494898.003 7
      2638.548        2052.204
  20471043.823    20471043.860    20471047.984   109314409.350 8  85022395.134 6
     -2399.461       -1866.250
  19427429.349    19427427.886    19427435.446   103559210.378 9  80546107.867 6
      1115.406         867.537
  22567647.350    22567647.778    22567654.123   120594706.194 5  93795921.668 4
      3964.921        3083.819
 11 10 14  1 26  0.0000000  0 14G02G05G07G10G13G15G26G28R06R07R08R09
                                R10R11
  24093299.163    24093298.5604   24093306.1994  126611119.029 5  98658031.17541
     -2431.154       -1894.404
  20642045.885    20642045.7024   20642050.7704  108474701.039 8  84525754.74546
       827.665         644.936
  22504394.365    22504394.1164   22504399.0804  118261724.162 7  92152006.06044
     -2264.069       -1764.215
  22197335.241    22197334.2494   22197341.5104  116647815.048 7  90894415.69644
     -2632.375       -2051.200
  25086479.962                                   131830786.522 3
     -2380.673
  24575201.902    24575203.4284   24575210.4054  129143563.523 4 100631363.07141
      3382.478        2635.677
  21243774.840    21243774.2124   21243780.3354  111636800.010 7  86989740.57844
      2607.759        2032.023
  21714561.959    21714560.9764   21714566.6464  114110901.678 7  88917544.09145
      2391.234        1863.295
  23727349.039    23727348.337    23727354.009   126613723.565 5  98477385.943 4
     -3691.879       -2871.459
  19518221.811    19518220.661    19518220.832   104482577.232 8  81264270.545 6
     -1250.349        -972.492
  19792128.505    19792128.179    19792130.362   105985955.598 8  82433549.039 7
      2619.982        2037.763
  20484553.429    20484553.883    20484558.029   109386553.046 8  85078506.887 6
     -2410.010       -1874.449
  19421206.401    19421205.249    19421212.591   103526040.885 9  80520309.382 6
      1095.991         852.437
  22545416.824    22545416.681    22545422.922   120475913.510 5  93703527.454 4
      3954.592        3075.798
 11 10 14  1 26 30.0000000  0 14G02G05G07G10G13G15G26G28R06R07R08R09
                                R10R11
  24107183.614    24107182.2464   24107189.1974  126684080.008 5  98714883.76041
     -2432.675       -1895.612
  20637375.010    20637375.1374   20637380.2674  108450157.299 8  84506629.74546
       808.953         630.353
  22517332.800    22517332.9414   22517337.7074  118329716.867 7  92204987.36244
     -2268.405       -1767.580
  22212390.558    22212389.7024   22212397.1214  116726932.936 7  90956065.98744
     -2641.765       -2058.513
  25100079.539                                   131902237.728 3
     -2382.729
  24555893.815    24555892.7954   24555899.5774  129042088.544 5 100552291.71241
      3382.692        2635.890
  21228909.274    21228909.2934   21228915.0854  111558683.119 7  86928870.27444
      2600.366        2026.257
  21700952.461    21700951.8614   21700957.7274  114039384.787 7  88861816.64945
      2376.913        1852.141
  23748120.860    23748120.459    23748125.391   126724566.102 5  98563596.612 4
     -3697.185       -2875.585
  19525292.185    19525291.063    19525291.021   104520425.029 8  81293707.705 6
     -1272.753        -989.915
  19777503.831    19777503.293    19777505.887   105907641.474 8  82372638.050 7
      2601.300        2023.233
  20498123.462    20498123.526    20498128.067   109459014.862 8  85134866.058 6
     -2420.454       -1882.574
  19415094.507    19415093.197    19415100.247   103493459.501 9  80494968.316 6
      1076.488         837.262
  22523244.092    22523244.911    22523252.140   120357434.273 5  93611377.019 4
      3944.339        3067.816
 11 10 14  1 27  0.0000000  0 14G02G05G07G10G13G15G26G28R06R07R08R09
                                R10R11
  24121077.390    24121074.1994   24121082.1184  126757081.590 5  98771768.04541
     -2434.185       -1896.745
  20632811.107    20632810.8934   20632816.0314  108426172.375 8  84487940.18846
       790.052         615.622
  22530296.361    22530296.1294   22530300.9424  118397838.191 6  92258068.89444
     -2272.952       -1771.122
  22227499.344    22227498.0864   22227505.6364  116806329.769 7  91017933.63744
     -2651.308       -2065.952
  25113684.481                                   131973746.511 3
     -2385.584
  24536580.545    24536582.5094   24536586.5724  128940605.657 4 100473214.19141
      3382.820        2635.967
  21214086.363    21214085.8744   21214092.0154  111480786.268 7  86868171.43044
      2592.778        2020.346
  21687424.950    21687424.0374   21687429.7034  113968295.243 7  88806422.21345
      2362.389        1840.819
  23768921.843    23768921.951    23768926.210   126835563.978 5  98649928.100 4
     -3702.644       -2879.828
  19532488.478    19532487.301    19532487.579   104558947.737 8  81323669.798 6
     -1295.459       -1007.582
  19762983.965    19762983.439    19762986.005   105829888.723 8  82312163.692 7
      2582.211        2008.382
  20511750.859    20511751.385    20511755.849   109531786.508 8  85191466.214 6
     -2430.981       -1890.766
  19409091.573    19409090.147    19409097.238   103461459.602 9  80470079.513 5
      1056.853         821.995
  22501132.006    22501131.055    22501137.572   120239265.460 5  93519468.018 4
      3933.565        3059.432
 11 10 14  1 27 30.0000000  0 13G02G05G07G10G15G26G28R06R07R08R09R10
                                R11
  24134976.364    24134975.9984   24134980.5294  126830127.180 5  98828686.61941
     -2435.635       -1897.916
  20628354.511    20628354.5434   20628359.6974  108402754.273 8  84469692.31146
       771.115         600.865
  22543285.265    22543284.5664   22543289.3144  118466093.268 6  92311254.64444
     -2277.418       -1774.613
  22242662.604    22242661.2074   22242668.4094  116886010.772 7  91080022.72044
     -2660.778       -2073.335
  24517270.775    24517270.1054   24517275.8534  128839122.863 4 100394136.68341
      3382.713        2635.907
  21199306.945    21199306.1084   21199312.2764  111403117.444 7  86807650.28045
      2585.097        2014.359
  21673979.806    21673979.0514   21673984.8634  113897642.228 7  88751367.92245
      2347.740        1829.404
  23789753.494    23789753.579    23789757.891   126946722.050 5  98736384.163 4
     -3707.920       -2883.922
  19539812.325    19539810.994    19539811.239   104598151.154 8  81354161.335 6
     -1318.108       -1025.198
  19748571.063    19748570.511    19748573.198   105752707.887 8  82252134.155 7
      2563.126        1993.540
  20525437.903    20525438.089    20525442.458   109604871.450 8  85248310.048 6
     -2441.399       -1898.867
  19403198.432    19403197.333    19403204.348   103430048.056 9  80445648.325 6
      1037.232         806.733
  22479078.798    22479077.460    22479083.233   120121415.517 6  93427807.023 4
      3922.960        3051.176
 11 10 14  1 28  0.0000000  0 13G02G05G07G10G15G26G28R06R07R08R09R10
                                R11
  24148884.100    24148884.4424   24148888.0244  126903209.297 5  98885633.61841
     -2436.534       -1898.570
  20624005.548    20624005.3974   20624010.5144  108379898.920 8  84451882.93846
       752.521         586.383
  22556297.624    22556297.5404   22556303.0064  118534475.751 7  92364539.66844
     -2281.460       -1777.749
  22257878.164    22257876.3434   22257883.9484  116965968.708 7  91142327.59444
     -2669.777       -2080.347
  24497956.853    24497956.7004   24497965.0884  128737635.622 4 100315055.75941
      3382.998        2636.091
  21184569.459    21184569.1894   21184575.0354  111325673.166 7  86747304.09345
      2577.802        2008.685
  21660617.962    21660616.8434   21660622.4364  113827422.751 7  88696651.45545
      2333.473        1818.291
  23810612.555    23810612.625    23810617.542   127058032.488 5  98822958.728 4
     -3712.805       -2887.729
  19547261.472    19547260.352    19547260.710   104638029.457 8  81385177.779 6
     -1340.382       -1042.517
  19734265.095    19734264.336    19734266.928   105676097.475 8  82192548.273 7
      2544.229        1978.843
  20539181.499    20539181.819    20539186.275   109678261.592 8  85305391.256 6
     -2451.291       -1906.561
  19397415.028    19397413.781    19397421.181   103399218.344 9  80421669.667 6
      1018.058         791.821
  22457083.743    22457083.208    22457088.568   120003881.389 6  93336391.656 4
      3912.570        3043.104
