     2.11           OBSERVATION DATA    M (MIXED)           RINEX VERSION / TYPE
teqc  2012Jun6                          20151118 02:01:20UTCPGM / RUN BY / DATE
OSX ker:10.8.0|Core 2 Duo|gcc 4.2 -m64|OSX ker:10.8.0+|=+   COMMENT
     2              OBSERVATION DATA    M (MIXED)           COMMENT
CCRINEXO V2.3.3 UX  BKG Frankfurt       11-OCT-11 00:16     COMMENT
Concatenated RINEX hourly files (24/24)                     COMMENT
JPS2RIN 1.40 lnx    SAC                 10-OCT-11 01:01     COMMENT
build Feb  6 2004 (c) Javad Navigation Systems              COMMENT
Stazione Astronomica Cagliari                               COMMENT
/home/srv/htdocs/glonass/hdata/CAGZ.tps                     COMMENT
SE TPS 8b1daea3                                             COMMENT
CAGZ                                                        MARKER NAME
12725M004                                                   MARKER NUMBER
SAC                 SAC-DIST                                OBSERVER / AGENCY
AGNV7TGA2O0         TPS E_GGD           3.3 Jul,10,2008 p4  REC # / TYPE / VERS
RRA052              JPSREGANT_DD_E  NONE                    ANT # / TYPE
  4893378.7999   772650.4734  4004179.0402                  APPROX POSITION XYZ
        0.0945        0.0000        0.0000                  ANTENNA: DELTA H/E/N
     1     1                                                WAVELENGTH FACT L1/2
     7    C1    P1    P2    L1    L2    D1    D2            # / TYPES OF OBSERV
    30.0000                                                 INTERVAL
teqc windowed: start @ 2011 Oct 10 04:00:00.000             COMMENT
teqc windowed: delta = 14400.000 sec                        COMMENT
  2011    10    10     4     0    0.0000000     GPS         TIME OF FIRST OBS
    15                                                      LEAP SECONDS
                                                            END OF HEADER
 11 10 10  4  0  0.0000000  1 17G05G09G12G15G17G18G26G28R03R05R06R14
                                R15R16R17R23R24
  23737483.531    23737484.3814   23737489.6424  124741322.774 6  97201049.56842
     -2958.581       -2305.397
  22499931.473    22499930.5344   22499937.6394  118237945.095 6  92133481.69043
      3123.042        2433.538
  25013065.914    25013064.5354   25013066.5974  131444528.097 5 102424330.02041
      4223.711        3291.196
  20714798.814    20714798.5434   20714803.4904  108857017.835 8  84823666.03646
      1894.227        1476.022
  23021783.769    23021783.9614   23021789.8664  120980306.710 6  94270386.91443
      2480.614        1932.948
  24046293.262    24046292.5064   24046299.0944  126364121.677 5  98465570.48741
      2535.540        1975.758
  20319241.551    20319241.1064   20319246.8864  106778350.688 8  83203927.26746
      -856.752        -667.599
  22288546.431    22288545.6534   22288551.0104  117127171.486 7  91267918.72244
     -1856.301       -1446.474
  21453382.818    21453382.992    21453389.777   114398946.791 7  88977010.294 6
     -1918.222       -1491.953
  19973327.104    19973326.753    19973331.981   106768902.172 8  83042500.760 7
         9.958           7.745
  22430710.686    22430710.947    22430713.669   119694577.501 6  93095807.995 5
      3729.452        2900.688
  21397141.931    21397141.045    21397130.174   114058881.251 7  88712492.016 3
     -1898.856       -1476.877
  20005267.807    20005268.357    20005272.713   106902117.054 8  83146130.184 6
       926.962         720.970
  22636753.784    22636754.683    22636759.612   120921487.873 6  94050071.030 5
      3038.727        2363.456
  23267817.440    23267816.336    23267819.787   124510791.955 5  96841758.346 4
      4275.119        3325.094
  23811910.908    23811908.898    23811915.276   127377684.026 3  99071559.820 4
     -1407.912       -1095.024
  22159224.540    22159223.330    22159227.103   118495353.851 7  92163081.851 5
      1794.737        1395.907
 11 10 10  4  0 30.0000000  0 17G05G09G12G15G17G18G26G28R03R05R06R14
                                R15R16R17R23R24
  23754382.840    23754382.2724   23754388.6214  124830123.879 5  97270245.22142
     -2961.364       -2307.551
  22482118.547    22482117.1674   22482123.8834  118144333.432 6  92060537.58043
      3117.852        2429.496
  24988959.119    24988961.6274   24988965.7094  131317866.016 4 102325632.34441
      4220.568        3288.774
  20704023.274    20704023.0774   20704027.8084  108800392.613 8  84779542.49146
      1880.852        1465.600
  23007657.660    23007657.4284   23007662.7174  120906070.168 6  94212540.27643
      2468.524        1923.520
  24031859.283    24031857.5364   24031865.7164  126288272.597 5  98406467.35041
      2521.199        1964.558
  20324178.270    20324177.6334   20324183.3574  106804292.021 8  83224141.29846
      -872.616        -679.962
  22299171.227    22299170.4464   22299175.7744  117183005.939 7  91311426.09144
     -1865.859       -1453.909
  21464183.879    21464183.741    21464190.111   114456539.452 7  89021804.598 6
     -1921.233       -1494.292
  19973348.998    19973348.876    19973353.493   106769019.895 8  83042592.316 7
       -17.775         -13.824
  22409792.467    22409791.833    22409796.306   119582952.229 6  93008988.330 5
      3712.221        2887.283
  21407837.831    21407836.750    21407827.855   114115895.667 7  88756836.691 3
     -1902.009       -1479.356
  20000092.421    20000092.156    20000096.338   106874456.629 8  83124616.517 6
       917.193         713.371
  22619706.097    22619706.391    22619712.231   120830419.327 6  93979239.958 5
      3032.651        2358.730
  23243863.808    23243863.406    23243867.822   124382615.312 5  96742065.407 4
      4270.043        3321.145
  23819865.837    23819867.620    23819874.604   127420256.121 3  99104671.415 4
     -1430.058       -1112.263
  22149220.839    22149220.947    22149224.827   118441866.134 6  92121480.332 5
      1771.209        1377.604
 11 10 10  4  1  0.0000000  0 16G05G09G12G15G17G18G26G28R03R05R06R14
                                R15R16R17R24
  23771294.629    23771294.8104   23771300.4234  124918998.899 5  97339498.49842
     -2963.573       -2309.291
  22464331.489    22464331.3144   22464337.4704  118050867.520 6  91987707.02943
      3113.261        2425.915
  24964874.161    24964872.8384   24964879.1504  131191287.985 4 102227000.13941
      4217.911        3286.687
  20693322.750    20693322.6644   20693327.3214  108744160.844 8  84735725.52846
      1867.994        1455.578
  22993598.458    22993598.1744   22993603.2034  120832188.515 6  94154970.17043
      2456.940        1914.503
  24017507.150    24017506.6664   24017512.0734  126212846.536 5  98347693.79041
      2507.286        1953.728
  20329203.385    20329202.7484   20329208.6934  106830699.791 8  83244718.78146
      -887.849        -691.833
  22309849.386    22309848.5794   22309854.2214  117239118.234 7  91355149.95844
     -1874.818       -1460.897
  21474999.116    21474998.952    21475005.956   114514212.965 7  89066661.782 6
     -1923.574       -1496.111
  19973524.979    19973524.722    19973529.486   106769960.218 8  83043323.671 7
       -44.854         -34.890
  22388968.354    22388968.735    22388973.240   119471835.807 6  92922564.503 5
      3695.571        2874.333
  21418549.572    21418548.541    21418542.525   114172995.218 7  88801247.444 3
     -1904.535       -1481.297
  19994969.374    19994969.220    19994973.607   106847079.442 8  83103323.151 6
       907.995         706.218
  22602690.832    22602690.367    22602696.806   120739524.719 6  93908544.185 5
      3027.148        2354.440
  23219937.849    23219937.792    23219943.564   124254584.883 5  96642486.196 4
      4265.412        3317.541
  22139348.046    22139348.423    22139352.784   118389076.228 6  92080421.564 5
      1748.219        1359.723
 11 10 10  4  1 30.0000000  0 16G05G09G12G15G17G18G26G28R03R05R06R14
                                R15R16R17R24
  23788219.109    23788220.4344   23788224.7154  125007940.759 5  97408803.83542
     -2965.958       -2311.147
  22446574.190    22446573.0814   22446578.6594  117957543.914 6  91914987.38543
      3108.288        2422.037
  24940802.862    24940802.6334   24940806.7004  131064791.628 4 102128431.59341
      4214.997        3284.366
  20682696.842    20682696.6154   20682701.5744  108688320.575 8  84692213.63546
      1854.651        1445.183
  22979605.867    22979606.1874   22979611.1824  120758660.016 6  94097675.25043
      2444.894        1905.108
  24003234.060    24003232.5724   24003239.5664  126137840.573 5  98289247.63241
      2493.067        1942.640
  20334316.410    20334315.9474   20334321.8924  106857569.166 8  83265655.95846
      -903.469        -704.004
  22320578.544    22320577.9694   22320583.2724  117295501.425 7  91399084.91244
     -1884.103       -1468.133
  21485828.897    21485828.420    21485835.433   114571960.511 7  89111576.548 6
     -1926.314       -1498.245
  19973854.081    19973853.591    19973858.535   106771718.716 8  83044691.394 7
       -72.339         -56.263
  22368240.847    22368240.727    22368244.238   119361227.759 6  92836536.059 5
      3678.261        2860.865
  21429276.283    21429274.934    21429275.656   114230174.799 7  88845720.514 3
     -1907.476       -1483.597
  19989898.131    19989897.971    19989902.385   106819980.512 8  83082246.215 6
       898.572         698.888
  22585707.077    22585707.506    22585710.484   120648799.722 6  93837980.321 5
      3021.110        2349.745
  23196041.131    23196039.525    23196044.161   124126699.708 5  96543019.972 4
      4260.178        3313.470
  22129605.539    22129605.455    22129610.614   118336982.873 6  92039904.561 5
      1724.654        1341.396
 11 10 10  4  2  0.0000000  0 16G05G09G12G15G17G18G26G28R03R05R06R14
                                R15R16R17R24
  23805158.350    23805156.6454   23805162.0204  125096947.280 5  97478159.57342
     -2968.017       -2312.713
  22428841.094    22428840.4944   22428847.0204  117864363.835 6  91842379.57043
      3103.520        2418.332
  24916747.605    24916742.2564   24916751.2474  130938379.677 4 102029928.88041
      4212.207        3282.254
  20672145.610    20672145.4294   20672150.3574  108632874.305 8  84649008.75846
      1841.539        1434.964
  22965682.244    22965681.7634   22965687.5374  120685488.380 6  94040658.41543
      2433.004        1895.853
  23989041.183    23989040.8124   23989045.9574  126063257.717 5  98231131.12241
      2478.954        1931.651
  20339517.652    20339517.1114   20339522.8664  106884900.923 8  83286953.42746
      -918.841        -715.980
  22331359.490    22331358.5574   22331363.4414  117352154.367 7  91443230.05644
     -1892.970       -1475.042
  21496672.277    21496671.975    21496678.869   114629783.318 7  89156549.850 6
     -1928.780       -1500.164
  19974336.053    19974335.633    19974340.377   106774295.379 8  83046695.466 7
       -99.584         -77.455
  22347609.576    22347609.612    22347612.938   119251133.011 6  92750906.838 5
      3661.155        2847.571
  21440018.455    21440017.381    21440019.222   114287434.096 7  88890255.424 3
     -1910.060       -1485.643
  19984878.884    19984878.796    19984883.136   106793159.832 8  83061385.701 6
       889.279         691.661
  22568754.886    22568755.031    22568759.275   120558245.128 6  93767548.998 5
      3015.550        2345.427
  23172168.217    23172168.878    23172173.768   123998966.686 5  96443672.085 4
      4255.117        3309.532
  22119996.131    22119995.702    22119999.496   118285589.166 6  91999931.715 5
      1701.361        1323.281
 11 10 10  4  2 30.0000000  0 16G05G09G12G15G17G18G26G28R03R05R06R14
                                R15R16R17R24
  23822108.816    23822107.8434   23822113.1904  125186024.370 5  97547570.29542
     -2970.165       -2314.420
  22411138.581    22411137.7594   22411144.1094  117771336.101 6  91769890.48643
      3098.592        2414.489
  24892708.011    24892708.4624   24892715.1294  130812062.370 4 101931499.86141
      4209.102        3279.842
  20661671.260    20661671.1284   20661676.2854  108577832.312 8  84606118.90046
      1828.150        1424.528
  22951828.130    22951828.0124   22951833.5814  120612684.620 6  93983928.23543
      2420.828        1886.357
  23974930.748    23974931.3094   23974936.5014  125989107.824 5  98173352.02041
      2464.597        1920.454
  20344807.979    20344807.6484   20344813.4644  106912703.008 8  83308617.37846
      -934.410        -728.117
  22342192.880    22342191.7874   22342196.8544  117409083.088 7  91487590.09144
     -1902.021       -1482.100
  21507531.697    21507531.458    21507537.132   114687688.606 7  89201587.290 5
     -1931.393       -1502.192
  19974972.511    19974972.014    19974976.984   106777697.750 8  83049341.759 7
      -126.980         -98.766
  22327074.739    22327075.183    22327079.051   119141563.821 6  92665686.396 5
      3643.646        2833.941
  21450775.942    21450775.053    21450775.772   114344780.926 7  88934858.636 3
     -1912.817       -1487.794
  19979912.842    19979913.071    19979917.238   106766624.924 8  83040747.470 6
       879.957         684.410
  22551836.134    22551836.565    22551840.893   120467868.990 6  93697256.463 5
      3009.695        2340.872
  23148330.038    23148329.843    23148334.214   123871398.740 5  96344452.592 4
      4249.685        3305.306
  22110518.389    22110517.894    22110520.662   118234906.301 6  91960511.733 5
      1677.700        1304.870
 11 10 10  4  3  0.0000000  0 16G05G09G12G15G17G18G26G28R03R05R06R14
                                R15R16R17R24
  23839071.593    23839071.3774   23839078.0244  125275169.521 5  97617034.04042
     -2972.411       -2316.168
  22393465.448    22393464.4794   22393471.0564  117678461.498 6  91697520.72843
      3093.471        2410.494
  24868690.830    24868688.6894   24868693.8754  130685841.869 4 101833146.31141
      4205.937        3277.358
  20651274.512    20651274.3864   20651279.5794  108523196.218 8  84563545.32846
      1814.660        1414.022
  22938044.803    22938044.6514   22938050.1094  120540251.411 6  93927486.80643
      2408.456        1876.713
  23960903.188    23960902.3194   23960907.1434  125915392.787 5  98115911.74941
      2450.097        1909.188
  20350188.188    20350187.6954   20350193.5454  106940975.259 8  83330647.69346
      -949.984        -740.244
  22353077.969    22353077.2274   22353081.7654  117466285.661 7  91532163.53044
     -1911.099       -1489.166
  21518405.694    21518405.800    21518412.108   114745675.764 7  89246688.432 5
     -1934.051       -1504.266
  19975763.342    19975762.687    19975767.681   106781925.218 8  83052629.786 7
      -154.417        -120.102
  22306641.864    22306642.031    22306645.052   119032524.350 6  92580877.949 5
      3626.038        2820.248
  21461549.062    21461548.777    21461552.280   114402214.241 7  88979528.998 3
     -1915.654       -1489.940
  19975000.428    19975000.820    19975005.280   106740374.865 8  83020330.763 6
       870.553         677.095
  22534952.682    22534952.394    22534956.115   120377671.854 6  93627103.170 5
      3003.821        2336.302
  23124523.807    23124522.095    23124527.084   123744000.288 5  96245364.941 4
      4243.926        3300.830
  22101173.216    22101173.051    22101176.614   118184936.885 6  91921646.660 5
      1653.936        1286.399
 11 10 10  4  3 30.0000000  0 16G05G09G12G15G17G18G26G28R03R05R06R14
                                R15R16R17R24
  23856047.049    23856047.8964   23856051.8444  125364374.634 5  97686544.51442
     -2974.720       -2317.943
  22375819.512    22375818.8384   22375825.6954  117585735.336 6  91625266.58943
      3088.325        2406.480
  24844690.609    24844688.3054   24844695.4154  130559715.163 5 101734865.83441
      4202.459        3274.656
  20640954.464    20640954.2584   20640959.5054  108468963.257 8  84521285.88946
      1800.931        1403.322
  22924331.025    22924331.2234   22924336.5594  120468186.689 6  93871332.49443
      2395.875        1866.914
  23946957.744    23946957.3434   23946963.7814  125842109.823 5  98058808.17241
      2435.457        1897.766
  20355656.652    20355656.1124   20355661.8924  106969712.605 8  83353040.42246
      -965.784        -752.559
  22364014.172    22364013.4264   22364018.5364  117523755.496 7  91576945.22544
     -1920.204       -1496.262
  21529295.822    21529294.718    21529300.913   114803739.235 7  89291848.896 5
     -1936.817       -1506.414
  19976707.139    19976706.874    19976711.887   106786972.144 8  83056555.184 7
      -181.967        -141.529
  22286306.285    22286306.216    22286311.274   118924013.718 6  92496480.834 5
      3608.046        2806.258
  21472340.141    21472338.768    21472350.291   114459728.523 7  89024262.214 3
     -1918.618       -1492.250
  19970140.681    19970140.923    19970144.750   106714403.740 8  83000131.005 6
       860.975         669.645
  22518098.175    22518098.317    22518103.139   120287648.531 6  93557085.046 5
      2997.748        2331.576
  23100747.626    23100747.044    23100751.568   123616771.239 5  96146409.029 4
      4237.989        3296.206
  22091959.571    22091959.857    22091964.657   118135678.447 6  91883334.571 5
      1629.977        1267.756
 11 10 10  4  4  0.0000000  0 16G05G09G12G15G17G18G26G28R03R05R06R14
                                R15R16R17R24
  23873035.035    23873033.8444   23873040.2564  125453645.038 5  97756105.86842
     -2976.536       -2319.378
  22358205.808    22358204.4354   22358210.0994  117493166.675 6  91553135.20343
      3083.193        2402.490
  24820708.222    24820708.5314   24820712.7784  130433692.618 5 101636666.47741
      4199.271        3272.155
  20630712.932    20630712.7564   20630717.7874  108415143.441 8  84479348.38446
      1787.329        1392.723
  22910689.454    22910689.4324   22910695.3424  120396500.995 6  93815473.53043
      2383.400        1857.192
  23933097.556    23933096.6124   23933100.8944  125769268.536 5  98002048.71041
      2420.918        1886.445
  20361215.076    20361214.5954   20361220.5514  106998922.660 8  83375801.49846
      -981.322        -764.666
  22375001.922    22375001.2694   22375006.0204  117581497.952 7  91621939.35444
     -1929.063       -1503.160
  21540199.334    21540198.968    21540205.942   114861886.277 7  89337074.363 6
     -1939.372       -1508.397
  19977806.168    19977805.992    19977810.583   106792845.840 8  83061123.630 7
      -209.344        -162.821
  22266072.676    22266073.052    22266075.923   118816043.624 6  92412504.116 5
      3590.200        2792.377
  21483146.701    21483145.312    21483155.413   114517330.813 7  89069063.948 3
     -1921.308       -1494.313
  19965334.416    19965334.121    19965338.007   106688718.258 8  82980153.417 6
       851.667         662.411
  22501280.022    22501280.655    22501283.910   120197807.068 6  93487208.364 5
      2991.889        2327.029
  23077007.047    23077005.230    23077009.480   123489724.397 5  96047594.823 4
      4232.041        3291.590
  22082884.481    22082883.866    22082887.579   118087141.647 6  91845583.756 5
      1606.090        1249.183
 11 10 10  4  4 30.0000000  0 16G05G09G12G15G17G18G26G28R03R05R06R14
                                R15R16R17R24
  23890032.720    23890033.8964   23890038.6874  125542974.706 5  97825713.38342
     -2978.783       -2321.137
  22340618.915    22340618.5144   22340624.6514  117400752.539 6  91481124.22243
      3077.777        2398.268
  24796745.524    24796747.6504   24796751.0554  130307772.558 5 101538546.98641
      4195.493        3269.247
  20620549.602    20620549.3584   20620554.3304  108361735.069 8  84437731.47946
      1773.252        1381.754
  22897120.459    22897120.2544   22897125.4654  120325193.448 6  93759909.23643
      2370.398        1847.060
  23919319.275    23919318.9894   23919324.0844  125696867.634 5  97945632.46941
      2405.835        1874.685
  20366862.880    20366862.5174   20366868.2364  107028601.848 8  83398928.13546
      -997.252        -777.081
  22386041.093    22386040.3844   22386045.2314  117639508.034 7  91667142.01344
     -1938.260       -1510.325
  21551117.862    21551117.671    21551124.980   114920112.303 7  89382361.253 6
     -1942.327       -1510.699
  19979058.548    19979058.339    19979063.419   106799541.908 8  83066331.699 7
      -237.057        -184.380
  22245940.687    22245940.232    22245945.061   118708614.691 6  92328948.317 5
      3571.742        2778.023
  21493968.027    21493967.095    21493973.992   114575016.601 7  89113930.612 3
     -1924.374       -1496.743
  19960580.039    19960580.016    19960584.299   106663315.517 8  82960395.749 6
       841.964         654.861
  22484495.421    22484495.128    22484498.736   120108144.016 6  93417470.454 5
      2985.634        2322.156
  23053297.840    23053297.349    23053302.546   123362861.017 5  95948923.324 4
      4225.585        3286.560
  22073944.490    22073943.668    22073945.644   118039325.427 6  91808393.395 5
      1581.696        1230.208
 11 10 10  4  5  0.0000000  0 16G05G09G12G15G17G18G26G28R03R05R06R14
                                R15R16R17R24
  23907044.459    23907043.5954   23907049.1194  125632364.777 5  97895367.98342
     -2980.732       -2322.654
  22323063.723    22323063.1004   22323068.9214  117308497.182 6  91409236.96443
      3072.422        2394.095
  24772804.748    24772805.7234   24772810.5994  130181960.755 5 101440511.85541
      4191.812        3266.323
  20610465.564    20610465.4484   20610470.4014  108308743.619 8  84396439.45646
      1759.284        1370.872
  22883623.725    22883623.4334   22883628.8804  120254270.521 6  93704644.63543
      2357.554        1837.057
  23905626.379    23905625.8734   23905631.3514  125624912.378 5  97889563.45441
      2390.936        1863.079
  20372600.726    20372600.1234   20372605.7424  107058753.292 8  83422422.76846
     -1013.011        -789.360
  22397131.300    22397130.6564   22397135.0304  117697787.216 7  91712554.36344
     -1947.186       -1517.295
  21562052.914    21562052.735    21562059.838   114978421.201 7  89427712.606 6
     -1945.106       -1512.857
  19980465.424    19980465.122    19980470.247   106807063.148 8  83072181.554 7
      -264.567        -205.772
  22225913.405    22225912.457    22225915.158   118601734.709 7  92245819.448 5
      3553.374        2763.742
  21504804.221    21504803.893    21504818.088   114632789.353 6  89158864.885 3
     -1927.319       -1498.990
  19955879.342    19955879.776    19955883.989   106638197.622 8  82940859.602 6
       832.431         647.450
  22467743.876    22467744.702    22467749.444   120018663.202 6  93347874.283 5
      2979.537        2317.420
  23029627.262    23029625.535    23029630.812   123236189.450 5  95850401.002 4
      4219.050        3281.479
  22065137.143    22065137.439    22065139.209   117992236.080 6  91771768.349 5
      1557.408        1211.320
 11 10 10  4  5 30.0000000  0 16G05G09G12G15G17G18G26G28R03R05R06R14
                                R15R16R17R24
  23924063.821    23924064.6144   23924070.7584  125721810.028 5  97965065.57942
     -2982.283       -2323.852
  22305536.879    22305537.1184   22305543.6334  117216399.316 6  91337472.41643
      3067.371        2390.153
  24748883.330    24748882.6934   24748890.4014  130056257.274 5 101342561.10341
      4188.454        3263.748
  20600461.042    20600460.8154   20600465.7254  108256168.940 8  84355472.18346
      1745.602        1360.208
  22870201.257    22870200.9714   22870205.8494  120183732.387 6  93649679.87943
      2344.932        1827.215
  23892019.324    23892019.2644   23892024.1854  125553402.626 5  97833841.58041
      2376.271        1851.626
  20378427.664    20378427.2334   20378432.6534  107089374.950 8  83446283.80046
     -1028.478        -801.412
  22408272.186    22408270.8224   22408275.9214  117756331.429 7  91758173.23244
     -1955.757       -1523.970
  21573002.634    21573002.528    21573009.241   115036809.526 7  89473125.738 5
     -1947.500       -1514.721
  19982026.291    19982026.001    19982031.013   106815406.230 8  83078670.631 7
      -291.716        -226.890
  22205985.699    22205984.929    22205988.743   118495405.449 6  92163118.937 5
      3535.156        2749.564
  21515658.557    21515657.806    21515668.865   114690645.605 7  89203864.106 3
     -1929.818       -1500.973
  19951232.305    19951232.143    19951236.305   106613362.337 8  82921543.267 6
       823.184         640.252
  22451026.832    22451027.729    22451030.697   119929362.298 6  93278418.055 5
      2973.843        2312.991
  23005992.723    23005990.987    23005996.417   123109712.694 5  95752030.214 4
      4212.675        3276.535
  22056466.042    22056466.172    22056470.057   117945873.675 6  91735708.731 5
      1533.379        1192.624
 11 10 10  4  6  0.0000000  0 16G05G09G12G15G17G18G26G28R03R05R06R14
                                R15R16R17R24
  23941094.533    23941093.4034   23941099.0834  125811297.569 5  98034796.12942
     -2983.625       -2324.896
  22288039.957    22288039.5464   22288045.9874  117124449.250 6  91265823.03843
      3062.490        2386.347
  24724981.821    24724981.0814   24724989.6854  129930653.597 4 101244688.11841
      4185.055        3261.092
  20590534.005    20590533.9324   20590538.8924  108204003.023 8  84314823.42546
      1731.979        1349.595
  22856850.074    22856849.6064   22856854.6094  120113572.147 7  93595009.57743
      2332.293        1817.371
  23878494.761    23878493.6704   23878497.0464  125482329.973 5  97778460.30141
      2361.771        1840.364
  20384342.259    20384341.8134   20384347.3774  107120456.179 9  83470502.93846
     -1043.741        -813.302
  22419460.790    22419459.5364   22419465.0224  117815128.500 7  91803989.12244
     -1964.135       -1530.484
  21583965.793    21583965.169    21583971.178   115095265.792 7  89518591.725 5
     -1949.736       -1516.460
  19983738.856    19983738.462    19983743.381   106824560.161 8  83085790.359 7
      -318.664        -247.850
  22186162.462    22186162.190    22186164.992   118389620.395 6  92080841.694 5
      3516.988        2735.439
  21526527.392    21526526.014    21526531.400   114748574.328 7  89248919.722 3
     -1932.208       -1502.804
  19946634.821    19946635.282    19946639.555   106588797.924 8  82902437.615 6
       814.279         633.330
  22434341.800    22434341.531    22434344.648   119840230.846 6  93209093.607 5
      2968.160        2308.563
  22982393.092    22982390.895    22982395.802   122983424.665 5  95653806.218 4
      4206.342        3271.604
  22047932.006    22047930.802    22047935.390   117900230.531 6  91700208.536 5
      1509.357        1173.948
 11 10 10  4  6 30.0000000  0 16G05G09G12G15G17G18G26G28R03R05R06R14
                                R15R16R17R24
  23958129.527    23958131.0654   23958135.2454  125900824.631 5  98104557.49242
     -2984.954       -2325.961
  22270570.212    22270569.8684   22270576.7244  117032647.428 6  91194289.18843
      3057.532        2382.495
  24701099.041    24701099.5894   24701106.5764  129805151.969 4 101146894.69741
      4181.576        3258.365
  20580685.163    20580685.1004   20580689.8694  108152246.866 8  84274493.96246
      1718.311        1338.943
  22843571.053    22843570.6244   22843575.9804  120043791.567 6  93540635.12743
      2319.598        1807.477
  23865053.343    23865051.0684   23865057.4284  125411695.742 5  97723420.65441
      2347.130        1828.926
  20390344.101    20390343.5914   20390349.5164  107151996.277 8  83495079.63346
     -1059.021        -825.209
  22430696.816    22430696.0294   22430700.7284  117874175.725 7  91849999.95744
     -1972.428       -1536.956
  21594940.645    21594940.183    21594945.900   115153789.684 7  89564110.323 5
     -1951.966       -1518.196
  19985602.352    19985602.121    19985607.213   106834523.358 8  83093539.526 7
      -345.604        -268.803
  22166440.524    22166440.634    22166442.938   118284383.177 6  91998990.534 5
      3498.677        2721.194
  21537406.911    21537405.482    21537410.761   114806574.587 6  89294030.996 3
     -1934.597       -1504.687
  19942088.791    19942088.846    19942093.334   106564502.614 8  82883541.278 6
       805.311         626.354
  22417687.639    22417687.995    22417691.821   119751268.881 6  93139900.981 5
      2962.510        2304.170
  22958828.347    22958827.419    22958830.889   122857330.427 5  95555732.952 4
      4199.855        3266.544
  22039532.354    22039532.008    22039534.534   117855308.450 7  91665269.166 5
      1485.328        1155.257
 11 10 10  4  7  0.0000000  0 16G05G09G12G15G17G18G26G28R03R05R06R14
                                R15R16R17R24
  23975174.042    23975173.4054   23975179.1524  125990389.189 5  98174348.05142
     -2986.288       -2326.979
  22253129.493    22253129.1434   22253135.5424  116940995.125 6  91122871.83143
      3052.364        2378.461
  24677236.128    24677236.0244   24677246.3604  129679754.868 4 101049182.71341
      4177.947        3255.581
  20570914.902    20570914.7284   20570919.5944  108100903.276 8  84234485.97646
      1704.339        1328.059
  22830365.422    22830365.2354   22830370.0904  119974394.258 7  93486559.32043
      2306.565        1797.324
  23851695.807    23851693.6274   23851700.1754  125341502.627 5  97668724.75341
      2332.197        1817.303
  20396433.409    20396432.8134   20396438.6664  107183995.571 8  83520014.14346
     -1074.523        -837.286
  22441980.246    22441979.4914   22441984.3054  117933471.818 7  91896204.70344
     -1980.917       -1543.567
  21605928.388    21605927.957    21605934.535   115212381.239 7  89609681.524 5
     -1954.429       -1520.111
  19987617.436    19987617.293    19987622.424   106845295.828 8  83101918.104 7
      -372.792        -289.945
  22146822.872    22146822.425    22146826.428   118179698.489 6  91917569.123 5
      3480.014        2706.677
  21548301.846    21548300.683    21548307.558   114864646.400 7  89339197.976 3
     -1937.101       -1506.645
  19937592.836    19937592.664    19937597.215   106540477.421 8  82864855.030 6
       796.144         619.225
  22401065.779    22401066.165    22401068.715   119662476.630 6  93070840.361 5
      2956.681        2299.642
  22935302.697    22935301.066    22935303.397   122731435.020 5  95457814.312 4
      4192.946        3261.194
  22031266.471    22031266.281    22031269.385   117811110.493 7  91630893.016 5
      1460.932        1136.281
 11 10 10  4  7 30.0000000  0 16G05G09G12G15G17G18G26G28R03R05R06R14
                                R15R16R17R24
  23992224.040    23992224.2044   23992230.0644  126079992.581 5  98244168.88041
     -2987.431       -2327.895
  22235718.355    22235718.0164   22235724.2074  116849496.992 6  91051574.62543
      3047.317        2374.535
  24653396.668    24653393.6564   24653403.1284  129554468.274 4 100951556.81041
      4174.273        3252.655
  20561224.176    20561223.9804   20561229.0014  108049977.992 8  84194803.94646
      1690.464        1317.243
  22817233.951    22817233.4494   22817238.4214  119905387.014 6  93432787.47743
      2293.672        1787.271
  23838424.100    23838423.8094   23838428.2074  125271756.216 5  97614376.93041
      2317.396        1805.740
  20402610.909    20402610.4084   20402616.1504  107216457.860 8  83545309.43546
     -1089.814        -849.206
  22453311.884    22453311.2614   22453315.7204  117993018.970 7  91942605.08144
     -1989.108       -1549.956
  21616929.023    21616929.375    21616935.122   115271044.255 7  89655308.321 5
     -1956.624       -1521.817
  19989784.832    19989784.558    19989789.531   106856880.027 8  83110928.033 7
      -399.678        -310.865
  22127310.396    22127309.952    22127312.552   118075574.280 7  91836583.672 5
      3461.387        2692.187
  21559210.071    21559208.896    21559213.351   114922792.874 7  89384422.954 3
     -1939.514       -1508.499
  19933147.709    19933147.749    19933151.978   106516724.845 8  82846380.821 6
       787.186         612.255
  22384476.200    22384475.665    22384479.661   119573858.501 6  93001915.175 5
      2951.049        2295.255
  22911814.364    22911813.075    22911814.911   122605747.656 5  95360057.506 4
      4186.021        3255.802
  22023137.007    22023136.502    22023140.351   117767643.122 6  91597085.084 5
      1436.658        1117.404
 11 10 10  4  8  0.0000000  0 16G05G09G12G15G17G18G26G28R03R05R06R14
                                R15R16R17R24
  24009280.550    24009282.4564   24009287.1114  126169629.281 5  98314015.65841
     -2988.426       -2328.639
  22218335.387    22218334.6964   22218341.6304  116758150.884 6  90980395.87043
      3042.276        2370.610
  24629576.063    24629572.7274   24629581.2654  129429291.537 4 100854016.57041
      4170.602        3249.823
  20551612.806    20551612.5974   20551617.5194  107999470.342 8  84155447.34746
      1676.599        1306.442
  22804176.249    22804175.7424   22804180.7884  119836769.453 6  93379319.26543
      2280.701        1777.173
  23825236.040    23825235.7194   23825240.1124  125202455.543 5  97560376.43141
      2302.561        1794.208
  20408875.706    20408875.1664   20408881.0734  107249379.773 8  83570962.87246
     -1105.087        -861.106
  22464690.101    22464689.1294   22464694.2154  118052812.118 7  91989197.13644
     -1997.173       -1556.233
  21627942.370    21627942.725    21627949.697   115329774.287 7  89700987.217 5
     -1958.817       -1523.526
  19992103.289    19992102.928    19992107.702   106869272.223 8  83120566.417 7
      -426.562        -331.769
  22107901.930    22107901.871    22107905.903   117972011.440 6  91756034.803 5
      3442.630        2677.604
  21570130.710    21570129.889    21570133.187   114981010.521 7  89429703.415 3
     -1941.816       -1510.304
  19928753.242    19928753.363    19928757.371   106493241.837 8  82828116.274 6
       778.282         605.331
  22367918.497    22367918.602    22367922.768   119485411.761 6  92933123.285 5
      2945.407        2290.871
  22888365.504    22888364.610    22888368.011   122480269.927 5  95262463.744 4
      4179.043        3250.376
  22015144.082    22015143.710    22015148.915   117724905.515 6  91563844.747 5
      1412.341        1098.495
 11 10 10  4  8 30.0000000  0 16G05G09G12G15G17G18G26G28R03R05R06R14
                                R15R16R17R24
  24026345.127    24026344.8844   24026351.2014  126259298.134 5  98383887.51041
     -2989.256       -2329.288
  22200982.763    22200981.7924   22200988.0114  116666959.090 6  90909337.35843
      3037.252        2366.684
  24605776.322    24605777.8314   24605782.6634  129304227.816 4 100756564.41841
      4167.044        3247.049
  20542081.888    20542081.5834   20542086.3244  107949383.526 8  84116418.66746
      1662.636        1295.562
  22791193.730    22791193.4604   22791198.9374  119768545.705 7  93326157.93144
      2267.653        1767.001
  23812134.013    23812133.7334   23812138.6134  125133603.870 5  97506725.80041
      2287.678        1782.582
  20415228.259    20415227.6404   20415233.6154  107282762.730 8  83596975.56246
     -1120.323        -872.977
  22476114.843    22476114.4274   22476119.0974  118112851.184 7  92035980.82244
     -2005.245       -1562.522
  21638970.276    21638969.413    21638975.536   115388573.012 7  89746719.571 5
     -1960.968       -1525.198
  19994572.676    19994572.411    19994577.127   106882472.874 8  83130833.595 7
      -453.333        -352.593
  22088601.739    22088601.080    22088602.755   117869015.429 7  91675926.835 5
      3423.856        2663.001
  21581065.635    21581064.794    21581069.967   115039300.099 7  89475039.779 3
     -1944.085       -1512.097
  19924409.349    19924409.212    19924413.193   106470028.632 8  82810061.569 6
       769.401         598.423
  22351392.859    22351393.250    22351396.791   119397137.851 6  92864465.829 5
      2939.692        2286.429
  22864957.214    22864956.176    22864961.115   122355008.548 5  95165038.225 4
      4171.906        3244.817
  22007289.805    22007290.037    22007294.413   117682901.642 7  91531175.078 6
      1388.015        1079.566
 11 10 10  4  9  0.0000000  0 16G05G09G12G15G17G18G26G28R03R05R06R14
                                R15R16R17R24
  24043414.203    24043414.0394   24043420.8624  126348999.872 5  98453784.97941
     -2990.427       -2330.197
  22183659.208    22183658.7244   22183664.9784  116575925.567 6  90838402.16343
      3031.889        2362.507
  24582000.452    24581999.9754   24582007.4794  129179283.270 5 100659205.06141
      4162.941        3243.858
  20532631.719    20532631.5444   20532636.1514  107899722.653 8  84077721.89046
      1648.347        1284.419
  22778286.456    22778286.5504   22778292.8014  119700721.513 6  93273307.92844
      2254.218        1756.527
  23799118.432    23799116.8264   23799122.8564  125065206.023 5  97453428.80841
      2272.497        1770.772
  20421668.981    20421668.4994   20421674.3384  107316609.532 8  83623349.68646
     -1135.835        -885.068
  22487587.074    22487585.8744   22487591.3164  118173137.166 7  92082956.91044
     -2013.553       -1569.005
  21650009.850    21650009.131    21650016.005   115447442.488 7  89792506.916 5
     -1963.369       -1527.071
  19997193.654    19997193.263    19997197.791   106896483.934 8  83141731.083 7
      -480.411        -373.656
  22069406.461    22069406.639    22069409.701   117766593.292 6  91596265.155 5
      3404.578        2648.009
  21592015.225    21592013.797    21592021.056   115097664.421 6  89520434.242 3
     -1946.621       -1514.030
  19920115.938    19920116.052    19920120.088   106447088.161 8  82792219.002 6
       760.254         591.304
  22334899.976    22334900.775    22334905.196   119309040.093 6  92795945.366 5
      2933.825        2281.864
  22841591.005    22841590.888    22841595.355   122229971.469 5  95067787.178 4
      4164.222        3238.834
  21999574.318    21999574.138    21999576.973   117641636.950 7  91499080.344 5
      1363.278        1060.317
 11 10 10  4  9 30.0000000  0 16G05G09G12G15G17G18G26G28R03R05R06R14
                                R15R16R17R24
  24060492.091    24060490.8274   24060497.0104  126438734.184 5  98523707.82441
     -2991.623       -2331.139
  22166366.886    22166365.8134   22166373.3834  116485053.565 6  90767592.84243
      3026.420        2358.251
  24558248.794    24558247.3294   24558254.3494  129054461.951 5 100561941.77141
      4158.606        3240.476
  20523263.259    20523263.2364   20523268.0214  107850492.297 8  84039360.57646
      1633.845        1273.125
  22765457.306    22765457.0374   22765462.6044  119633302.214 7  93220773.43544
      2240.601        1745.914
  23786188.792    23786188.8614   23786194.1824  124997266.676 5  97400489.10341
      2256.994        1758.692
  20428198.518    20428197.9664   20428203.8094  107350922.433 8  83650087.00346
     -1151.521        -897.285
  22499106.509    22499105.4084   22499110.4784  118233670.787 7  92130125.96544
     -2021.874       -1575.485
  21661063.251    21661063.270    21661069.141   115506385.185 7  89838351.241 5
     -1965.958       -1529.073
  19999966.664    19999966.480    19999971.056   106911306.983 8  83153260.113 7
      -507.594        -394.794
  22050322.833    22050321.914    22050324.548   117664751.910 6  91517055.241 5
      3384.981        2632.759
  21602978.091    21602977.295    21602994.781   115156105.298 7  89565888.222 3
     -1949.246       -1516.042
  19915874.805    19915874.699    19915878.510   106424422.035 8  82774589.799 6
       750.978         584.096
  22318442.160    22318442.540    22318447.106   119221120.947 6  92727563.829 5
      2927.745        2277.140
  22818269.317    22818267.592    22818272.881   122105166.670 5  94970716.807 4
      4156.268        3232.653
  21991995.098    21991995.096    21991999.115   117601116.230 6  91467564.265 5
      1338.286        1040.889
 11 10 10  4 10  0.0000000  0 16G05G09G12G15G17G18G26G28R03R05R06R14
                                R15R16R17R24
  24077573.123    24077572.5204   24077578.1054  126528496.604 5  98593652.58841
     -2992.367       -2331.706
  22149104.730    22149104.5964   22149111.1774  116394341.500 6  90696908.15743
      3021.110        2354.114
  24534517.432    24534517.6074   24534522.3584  128929764.056 5 100464774.62741
      4154.547        3237.282
  20513976.639    20513976.6294   20513981.5184  107801692.070 8  84001334.42846
      1619.542        1261.981
  22752704.988    22752705.1424   22752710.3084  119566287.964 7  93168554.56144
      2227.103        1735.406
  23773349.570    23773347.4584   23773353.2854  124929785.259 6  97347906.18441
      2241.812        1746.900
  20434816.368    20434815.7514   20434821.6154  107385698.662 8  83677185.35946
     -1166.906        -909.279
  22510671.651    22510671.2024   22510675.4674  118294447.612 7  92177484.52843
     -2029.856       -1581.704
  21672130.007    21672129.338    21672136.132   115565397.652 7  89884249.819 5
     -1968.198       -1530.824
  20002890.921    20002890.406    20002895.148   106926938.152 8  83165417.684 7
      -534.446        -415.682
  22031345.389    22031345.334    22031349.438   117563492.872 6  91438298.235 5
      3365.617        2617.700
  21613955.582    21613954.667    21613974.151   115214619.835 7  89611399.456 3
     -1951.617       -1517.912
  19911683.465    19911683.460    19911687.787   106402027.429 8  82757171.782 6
       742.006         577.118
  22302016.244    22302016.956    22302020.872   119133378.410 7  92659319.664 5
      2921.874        2272.573
  22794990.264    22794988.418    22794993.645   121980596.110 5  94873828.622 4
      4148.426        3226.558
  21984556.192    21984555.793    21984560.181   117561339.245 6  91436626.611 5
      1313.544        1021.646
 11 10 10  4 10 30.0000000  0 16G05G09G12G15G17G18G26G28R03R05R06R14
                                R15R16R17R24
  24094659.386    24094657.9814   24094663.9334  126618285.391 5  98663617.86941
     -2993.373       -2332.511
  22131873.986    22131872.8234   22131879.5674  116303791.257 6  90626349.56443
      3015.623        2349.827
  24510813.431    24510811.3074   24510817.3104  128805192.278 5 100367705.75741
      4150.312        3234.016
  20504772.946    20504772.5784   20504777.4484  107753324.733 8  83963645.59846
      1604.998        1250.645
  22740030.862    22740030.4824   22740035.5564  119499682.781 7  93116654.44044
      2213.302        1724.650
  23760594.698    23760593.7174   23760599.9374  124862764.423 5  97295682.17941
      2226.287        1734.760
  20441522.395    20441521.7294   20441527.6304  107420938.790 8  83704645.19746
     -1182.402        -921.352
  22522283.756    22522282.6944   22522287.4194  118355466.686 7  92225031.84643
     -2037.990       -1588.045
  21683209.277    21683209.146    21683216.354   115624481.307 7  89930203.762 5
     -1970.644       -1532.727
  20005965.922    20005965.823    20005970.490   106943377.219 8  83178203.615 7
      -561.428        -436.665
  22012479.248    22012479.905    22012483.638   117462820.709 7  91359997.700 5
      3345.890        2602.360
  21624945.971    21624945.199    21624958.184   115273208.446 6  89656968.319 3
     -1954.216       -1519.937
  19907543.730    19907543.658    19907547.674   106379904.740 8  82739965.254 6
       732.908         570.039
  22285624.757    22285624.962    22285629.620   119045813.233 6  92591213.432 5
      2915.947        2267.960
  22771754.284    22771754.041    22771759.431   121856266.134 5  94777127.547 4
      4140.258        3220.200
  21977257.687    21977257.306    21977260.802   117522309.334 6  91406270.013 5
      1288.487        1002.159
 11 10 10  4 11  0.0000000  0 16G05G09G12G15G17G18G26G28R03R05R06R14
                                R15R16R17R24
  24111749.181    24111748.8024   24111754.7814  126708097.515 5  98733601.34641
     -2994.283       -2333.216
  22114673.512    22114673.0554   22114679.4324  116213403.067 6  90555917.24743
      3010.071        2345.511
  24487132.131    24487131.5204   24487138.7334  128680748.538 5 100270736.64541
      4145.835        3230.498
  20495651.488    20495651.3724   20495656.0974  107705391.700 8  83926295.18846
      1590.372        1239.248
  22727433.924    22727434.0474   22727438.4274  119433488.231 6  93065074.30543
      2199.476        1713.879
  23747928.956    23747927.5904   23747932.9014  124796205.462 5  97243818.07441
      2210.770        1722.702
  20448316.309    20448315.8364   20448321.5894  107456642.181 8  83732466.01946
     -1197.974        -933.487
  22533940.832    22533940.1664   22533944.6074  118416725.877 7  92272766.28443
     -2046.050       -1594.335
  21694303.130    21694303.172    21694309.265   115683634.833 7  89976212.052 5
     -1973.105       -1534.640
  20009192.885    20009192.193    20009196.499   106960622.495 8  83191616.603 7
      -588.417        -457.657
  21993724.184    21993724.302    21993727.732   117362738.935 7  91282156.334 5
      3326.081        2586.953
  21635950.975    21635950.316    21635956.110   115331870.214 6  89702594.097 3
     -1956.737       -1521.925
  19903454.309    19903454.285    19903458.334   106358052.569 8  82722969.136 6
       723.740         562.906
  22269264.268    22269264.864    22269270.066   118958425.358 6  92523245.110 5
      2909.844        2263.212
  22748566.764    22748566.004    22748570.298   121732181.106 5  94680617.003 4
      4131.914        3213.701
  21970099.108    21970099.280    21970103.081   117484027.999 7  91376495.657 5
      1263.405         982.644
 11 10 10  4 11 30.0000000  0 16G05G09G12G15G17G18G26G28R03R05R06R14
                                R15R16R17R24
  24128844.216    24128843.5864   24128848.5444  126797930.976 5  98803601.45042
     -2994.819       -2333.609
  22097505.153    22097504.3354   22097509.8124  116123178.604 6  90485612.50143
      3004.681        2341.305
  24463477.728    24463475.6134   24463481.5964  128556435.489 5 100173869.33541
      4141.530        3227.192
  20486613.247    20486613.1414   20486618.0464  107657895.619 8  83889285.25146
      1575.876        1227.956
  22714916.395    22714916.3974   22714921.4014  119367708.058 7  93013817.04544
      2185.704        1703.147
  23735352.143    23735350.3044   23735356.4764  124730110.865 5  97192315.84441
      2195.418        1710.720
  20455198.563    20455198.0944   20455204.0344  107492809.213 8  83760648.11846
     -1213.299        -945.430
  22545643.668    22545642.6654   22545647.2634  118478223.951 7  92320686.85543
     -2053.908       -1600.442
  21705408.884    21705408.603    21705415.007   115742858.398 7  90022274.822 5
     -1975.308       -1536.350
  20012569.305    20012569.018    20012573.153   106978673.486 8  83205656.247 7
      -615.140        -478.441
  21975081.770    21975081.130    21975084.876   117263252.125 7  91204777.738 5
      3306.261        2571.537
  21646969.159    21646968.593    21646971.565   115390605.127 6  89748276.781 3
     -1959.059       -1523.702
  19899415.332    19899415.481    19899419.331   106336471.098 8  82706183.557 6
       714.862         556.004
  22252937.555    22252938.434    22252943.778   118871215.254 6  92455415.082 5
      2904.116        2258.754
  22725425.444    22725424.524    22725428.034   121608346.734 5  94584301.418 4
      4123.507        3207.168
  21963081.203    21963081.014    21963084.201   117446498.015 6  91347305.688 5
      1238.460         963.249
 11 10 10  4 12  0.0000000  0 16G05G09G12G15G17G18G26G28R03R05R06R14
                                R15R16R17R24
  24145940.843    24145943.2864   24145947.9634  126887785.086 5  98873617.64241
     -2995.157       -2333.903
  22080367.142    22080366.3724   22080371.6094  116033120.251 7  90415437.18443
      2999.475        2337.243
  24439847.041    24439846.5824   24439851.9704  128432256.970 5 100077106.88641
      4137.345        3223.915
  20477659.068    20477658.7774   20477663.8194  107610840.088 8  83852618.61246
      1561.451        1216.716
  22702478.896    22702478.3534   22702483.9174  119302346.563 7  92962886.02944
      2171.984        1692.463
  23722863.188    23722862.0074   23722867.1864  124664483.751 5  97141177.83541
      2180.012        1698.702
  20462169.189    20462168.8624   20462174.9534  107529441.001 8  83789192.36546
     -1228.533        -957.299
  22557391.625    22557390.7284   22557395.7134  118539960.466 7  92368793.22943
     -2061.533       -1606.389
  21716529.683    21716528.900    21716535.435   115802153.873 7  90068393.499 5
     -1977.342       -1537.934
  20016096.692    20016096.516    20016100.943   106997530.192 8  83220322.570 7
      -641.693        -499.095
  21956550.083    21956549.397    21956552.127   117164365.562 7  91127866.014 5
      3286.485        2556.156
  21658001.690    21658001.566    21658002.202   115449414.542 7  89794017.390 3
     -1961.227       -1525.373
  19895427.764    19895427.747    19895431.815   106315161.374 8  82689609.339 6
       706.115         549.201
  22236647.178    22236646.906    22236652.444   118784184.925 7  92387724.839 5
      2898.279        2254.220
  22702332.943    22702331.384    22702334.809   121484769.413 5  94488185.757 4
      4115.190        3200.704
  21956204.526    21956204.491    21956207.321   117409722.950 7  91318702.897 5
      1213.509         943.844
 11 10 10  4 12 30.0000000  0 16G05G09G12G15G17G18G26G28R03R05R06R14
                                R15R16R17R24
  24163044.298    24163043.7274   24163050.1074  126977656.821 5  98943647.54941
     -2996.119       -2334.647
  22063261.176    22063260.3104   22063266.5164  115943228.497 7  90345391.70743
      2993.566        2332.647
  24416242.038    24416241.0234   24416247.6494  128308214.445 5  99980450.41941
      4132.380        3220.058
  20468788.754    20468788.5764   20468793.3824  107564226.420 8  83816296.28147
      1546.333        1204.934
  22690120.773    22690120.8534   22690126.4244  119237405.932 7  92912282.96244
      2157.613        1681.261
  23710464.181    23710463.6104   23710470.7494  124599325.901 5  97090405.49141
      2164.026        1686.288
  20469228.444    20469227.9664   20469234.1044  107566537.074 8  83818098.38346
     -1244.321        -969.601
  22569184.464    22569183.4144   22569188.6944  118601933.168 7  92417083.65043
     -2069.740       -1612.782
  21727662.092    21727662.108    21727667.756   115861519.958 7  90114567.116 5
     -1980.097       -1540.078
  20019774.403    20019774.404    20019778.896   107017191.129 8  83235614.402 7
      -668.806        -520.182
  21938131.178    21938131.453    21938135.057   117066083.132 7  91051424.142 5
      3265.895        2540.138
  21669048.423    21669047.661    21669047.652   115508297.495 6  89839815.219 3
     -1964.019       -1527.581
  19891490.894    19891491.010    19891494.772   106294122.997 8  82673246.157 6
       696.742         541.910
  22220387.574    22220388.183    22220393.267   118697334.200 6  92320174.300 5
      2892.006        2249.340
  22679288.405    22679286.628    22679290.791   121361453.368 5  94392273.300 4
      4106.080        3193.616
  21949469.322    21949469.042    21949471.800   117373704.831 7  91290688.836 5
      1187.880         923.906
 11 10 10  4 13  0.0000000  0 16G05G09G12G15G17G18G26G28R03R05R06R14
                                R15R16R17R24
  24180150.741    24180150.2284   24180155.7924  127067549.702 5  99013693.95841
     -2996.835       -2335.219
  22046188.386    22046187.9774   22046193.4124  115853509.918 6  90275481.15143
      2987.696        2328.069
  24392663.929    24392663.3554   24392670.1254  128184316.572 5  99883906.65441
      4127.412        3216.187
  20460004.042    20460003.9014   20460008.8244  107518062.830 8  83780324.65647
      1531.211        1193.146
  22677844.480    22677844.7114   22677850.0094  119172894.580 7  92862014.38944
      2143.146        1669.981
  23698155.361    23698153.7394   23698159.8204  124534644.746 5  97040004.61341
      2148.048        1673.782
  20476377.137    20476376.6844   20476382.5884  107604102.941 8  83847370.47946
     -1260.062        -981.869
  22581022.662    22581022.2244   22581026.8404  118664146.189 7  92465561.31343
     -2077.786       -1619.054
  21738810.048    21738809.326    21738815.754   115920962.370 7  90160800.078 5
     -1982.728       -1542.126
  20023603.841    20023603.609    20023608.701   107037660.672 8  83251535.139 7
      -695.832        -541.203
  21919828.167    21919828.533    21919830.736   116968414.537 7  90975459.698 5
      3245.291        2524.110
  21680109.374    21680108.185    21680108.029   115567259.586 6  89885674.629 3
     -1966.791       -1529.724
  19887605.592    19887605.375    19887609.485   106273360.270 8  82657097.382 6
       687.446         534.676
  22204162.843    22204163.380    22204168.900   118610668.959 6  92252768.043 5
      2885.690        2244.420
  22656293.835    22656293.118    22656297.433   121238410.324 5  94296573.181 4
      4096.875        3186.446
  21942876.879    21942876.462    21942879.169   117338451.568 7  91263269.645 5
      1162.307         904.015
 11 10 10  4 13 30.0000000  0 16G05G09G12G15G17G18G26G28R03R05R06R14
                                R15R16R17R24
  24197258.261    24197257.8064   24197263.5504  127157453.173 5  99083748.59841
     -2996.842       -2335.201
  22029147.374    22029146.3924   22029152.1634  115763957.037 6  90205699.69543
      2982.457        2323.996
  24369111.915    24369112.2584   24369120.0384  128060557.008 4  99787470.68341
      4123.112        3212.796
  20451303.818    20451303.5904   20451308.5554  107472342.703 8  83744698.59247
      1516.735        1181.871
  22665649.660    22665648.9284   22665653.6704  119108806.764 6  92812075.84844
      2129.292        1659.188
  23685937.017    23685935.7964   23685942.7464  124470433.931 5  96989970.21641
      2132.622        1661.765
  20483613.631    20483612.9914   20483618.9014  107642129.783 8  83877001.78946
     -1275.098        -993.582
  22592905.963    22592904.4184   22592909.2044  118726589.585 7  92514218.50143
     -2085.149       -1624.792
  21749970.451    21749969.743    21749975.730   115980472.366 7  90207085.614 5
     -1984.647       -1543.611
  20027582.634    20027582.055    20027587.164   107058929.013 8  83268077.169 7
      -722.092        -561.631
  21901639.580    21901639.196    21901642.777   116871355.386 7  90899969.282 5
      3225.268        2508.535
  21691183.621    21691183.131    21691175.878   115626291.750 7  89931588.449 3
     -1968.794       -1531.285
  19883769.845    19883769.956    19883774.198   106252865.333 8  82641156.873 7
       678.848         527.991
  22187972.580    22187973.443    22187978.228   118524181.237 6  92185499.855 5
      2880.080        2240.066
  22633350.472    22633349.340    22633354.428   121115636.033 5  94201082.082 4
      4088.102        3179.631
  21936424.224    21936424.906    21936428.925   117303956.513 6  91236440.160 6
      1137.278         884.549
 11 10 10  4 14  0.0000000  0 16G05G09G12G15G17G18G26G28R03R05R06R14
                                R15R16R17R24
  24214366.855    24214367.6014   24214372.2534  127247360.345 5  99153806.12841
     -2996.961       -2335.305
  22012136.375    22012135.6344   22012142.1774  115674566.948 7  90136045.12243
      2976.959        2319.710
  24345587.881    24345588.1124   24345594.0084  127936933.306 4  99691140.55941
      4118.534        3209.258
  20442687.500    20442687.2814   20442692.1014  107427063.845 8  83709416.37047
      1501.955        1170.354
  22653534.577    22653533.7434   22653538.6374  119045141.032 7  92762466.20444
      2115.134        1648.148
  23673808.251    23673807.6104   23673809.2824  124406690.624 5  96940300.15241
      2116.961        1649.605
  20490936.735    20490936.1324   20490941.8714  107680613.036 8  83906988.74446
     -1290.380       -1005.492
  22604830.261    22604830.1104   22604835.0414  118789257.101 6  92563050.33743
     -2092.638       -1630.641
  21761141.229    21761140.726    21761148.111   116040045.614 6  90253420.325 5
     -1986.828       -1545.307
  20031709.672    20031709.225    20031714.155   107080990.245 8  83285235.896 7
      -748.532        -582.190
  21883565.043    21883564.340    21883566.872   116774905.012 7  90824952.346 5
      3204.827        2492.644
  21702269.981    21702269.861    21702253.697   115685389.449 7  89977553.364 3
     -1970.987       -1533.050
  19879983.568    19879983.533    19879987.526   106232632.559 8  82625420.286 6
       670.077         521.172
  22171814.747    22171815.040    22171820.736   118437866.278 6  92118366.031 5
      2874.314        2235.577
  22610458.570    22610456.881    22610462.409   120993131.823 5  94105801.039 4
      4078.941        3172.514
  21930114.789    21930114.880    21930119.487   117270217.551 6  91210198.778 5
      1112.021         864.905
 11 10 10  4 14 30.0000000  0 16G05G09G12G15G17G18G26G28R03R05R06R14
                                R15R16R17R24
  24231476.880    24231475.0904   24231481.6304  127337267.224 5  99223863.41641
     -2997.216       -2335.497
  21995157.649    21995156.2684   21995162.0334  115585338.368 6  90066516.41643
      2971.192        2315.221
  24322089.271    24322090.1734   24322096.5804  127813446.685 5  99594917.26241
      4113.463        3205.276
  20434155.214    20434155.0374   20434159.8604  107382226.367 8  83674478.08247
      1486.802        1158.548
  22641499.172    22641499.2194   22641504.0344  118981898.169 6  92713186.07244
      2100.653        1636.873
  23661766.144    23661763.5894   23661768.8794  124343415.562 5  96890994.90641
      2100.924        1637.063
  20498346.072    20498345.6544   20498351.4434  107719550.698 8  83937329.78046
     -1305.865       -1017.555
  22616798.310    22616797.3004   22616802.4774  118852145.223 7  92612054.05443
     -2100.325       -1636.614
  21772324.457    21772324.140    21772330.046   116099679.803 6  90299802.455 5
     -1989.177       -1547.134
  20035984.820    20035984.340    20035988.763   107103841.168 8  83303008.832 7
      -775.212        -602.945
  21865604.502    21865604.411    21865608.094   116679065.853 7  90750410.813 6
      3184.069        2476.495
  21713368.979    21713368.221    21713353.303   115744550.601 7  90023567.636 3
     -1973.491       -1534.884
  19876246.002    19876245.818    19876250.076   106212659.521 8  82609885.715 6
       661.077         514.171
  22155689.697    22155689.397    22155693.918   118351722.987 7  92051365.714 5
      2868.239        2230.847
  22587617.312    22587615.432    22587620.069   120870900.869 6  94010732.522 4
      4069.279        3164.994
  21923947.238    21923947.051    21923951.283   117237234.742 6  91184545.509 5
      1086.384         844.969
 11 10 10  4 15  0.0000000  0 16G05G09G12G15G17G18G26G28R03R05R06R14
                                R15R16R17R24
  24248583.276    24248583.6774   24248590.4814  127427173.888 5  99293920.55741
     -2996.697       -2335.083
  21978208.407    21978208.1024   21978214.0324  115496274.841 6  89997116.31744
      2966.218        2311.347
  24298619.803    24298617.9034   24298623.6104  127690101.736 5  99498804.35341
      4109.247        3202.039
  20425707.737    20425707.5814   20425712.5054  107337834.880 8  83639887.31647
      1472.451        1147.361
  22629546.004    22629545.6194   22629551.2624  118919083.608 7  92664239.68644
      2086.840        1626.114
  23649815.207    23649813.1124   23649817.7564  124280612.577 5  96842057.52841
      2085.746        1625.249
  20505842.761    20505842.2584   20505848.0754  107758945.108 8  83968026.72146
     -1320.587       -1029.030
  22628807.598    22628806.5454   22628811.5924  118915254.710 7  92661230.28543
     -2107.161       -1641.948
  21783519.867    21783519.628    21783526.022   116159376.731 6  90346233.386 5
     -1990.758       -1548.369
  20040407.002    20040406.908    20040411.495   107127482.819 8  83321396.785 7
      -801.020        -623.018
  21847759.855    21847759.974    21847762.867   116583844.269 7  90676349.613 5
      3163.914        2460.817
  21724479.519    21724478.931    21724456.218   115803777.316 6  90069632.673 3
     -1975.153       -1536.252
  19872557.002    19872557.251    19872561.443   106192948.866 8  82594555.219 6
       652.858         507.779
  22139594.838    22139595.607    22139600.483   118265754.076 6  91984501.039 5
      2862.922        2226.714
  22564825.588    22564825.725    22564829.702   120748951.227 5  93915882.817 4
      4060.432        3158.118
  21917920.821    21917921.077    21917926.272   117205012.697 6  91159483.934 6
      1061.526         825.630
 11 10 10  4 15 30.0000000  0 16G05G09G12G15G17G18G26G28R03R05R06R14
                                R15R16R17R24
  24265688.757    24265689.3354   24265696.2174  127517061.514 5  99363962.89041
     -2996.043       -2334.588
  21961288.865    21961287.9444   21961293.7174  115407361.215 6  89927833.03743
      2961.144        2307.379
  24275172.343    24275170.3244   24275176.6604  127566883.939 5  99402790.50941
      4104.954        3198.658
  20417342.542    20417342.3604   20417347.2824  107293874.931 8  83605632.81447
      1457.999        1136.102
  22617671.879    22617671.7464   22617677.0354  118856683.616 6  92615616.32844
      2072.950        1615.284
  23637951.259    23637949.3074   23637956.3114  124218267.103 5  96793476.66141
      2070.384        1613.324
  20513422.972    20513422.5444   20513428.2904  107798779.447 8  83999066.46246
     -1335.255       -1040.460
  22640855.744    22640855.3704   22640859.6704  118978567.547 7  92710564.95343
     -2113.940       -1647.227
  21794723.388    21794723.361    21794729.810   116219120.729 7  90392700.948 5
     -1992.353       -1549.610
  20044974.182    20044973.939    20044978.487   107151897.193 8  83340385.746 7
      -826.811        -643.074
  21830029.474    21830028.896    21830031.245   116489227.546 7  90602758.854 5
      3143.631        2445.044
  21735599.973    21735599.194    21735578.065   115863053.015 6  90115736.108 3
     -1976.774       -1537.511
  19868914.266    19868914.460    19868918.502   106173483.161 8  82579415.228 6
       644.659         501.402
  22123531.606    22123531.820    22123536.530   118179943.316 7  91917759.350 5
      2857.626        2222.594
  22542089.178    22542087.311    22542090.932   120627270.674 6  93821242.406 4
      4051.370        3151.070
  21912035.973    21912035.645    21912039.662   117173536.727 6  91135002.616 5
      1036.643         806.273
 11 10 10  4 16  0.0000000  0 16G05G09G12G15G17G18G26G28R03R05R06R14
                                R15R16R17R24
  24282793.103    24282791.0854   24282797.5354  127606939.101 5  99433997.35641
     -2995.616       -2334.241
  21944399.859    21944398.9624   21944404.6314  115318609.050 7  89858675.52344
      2955.834        2303.247
  24251750.113    24251749.4734   24251754.7574  127443806.476 5  99306885.99141
      4100.357        3195.074
  20409061.708    20409061.7014   20409066.3334  107250359.399 8  83571724.60747
      1443.247        1124.610
  22605878.816    22605878.7184   22605883.8794  118794711.738 7  92567326.55744
      2058.727        1604.208
  23626176.734    23626175.2564   23626179.3094  124156391.994 5  96745262.29841
      2054.770        1601.122
  20521088.806    20521088.3764   20521094.2274  107839064.401 8  84030457.33246
     -1350.189       -1052.095
  22652943.772    22652942.8774   22652947.9484  119042093.108 6  92760065.37543
     -2120.893       -1652.646
  21805937.522    21805937.309    21805944.716   116278921.475 6  90439212.623 5
     -1994.149       -1551.001
  20049687.851    20049687.494    20049692.373   107177093.997 8  83359983.237 7
      -852.761        -663.255
  21812413.684    21812413.548    21812416.787   116395230.277 6  90529649.883 5
      3123.023        2429.016
  21746731.342    21746730.333    21746710.146   115922388.228 7  90161885.670 3
     -1978.674       -1538.948
  19865319.775    19865319.726    19865323.834   106154273.174 8  82564474.140 6
       636.203         494.826
  22107499.655    22107499.730    22107503.867   118094301.678 7  91851149.211 5
      2851.970        2218.207
  22519403.029    22519401.673    22519405.355   120505876.198 6  93726824.503 4
      4041.796        3143.626
  21906290.711    21906290.573    21906295.382   117142819.745 6  91111111.640 5
      1011.363         786.623
 11 10 10  4 16 30.0000000  0 16G05G09G12G15G17G18G26G28R03R05R06R14
                                R15R16R17R24
  24299892.627    24299891.8614   24299898.9054  127696802.883 5  99504021.10941
     -2995.171       -2333.890
  21927541.362    21927540.6984   21927546.7944  115230018.461 7  89789643.94744
      2950.381        2298.988
  24228356.555    24228356.1584   24228361.0354  127320871.008 5  99211092.16041
      4095.458        3191.260
  20400865.986    20400865.7694   20400870.4624  107207289.330 8  83538163.52147
      1428.246        1112.920
  22594167.337    22594167.2324   22594173.2924  118733169.515 7  92519371.58944
      2044.252        1592.924
  23614492.087    23614491.3774   23614497.0784  124094987.881 5  96697414.95441
      2038.926        1588.802
  20528840.363    20528839.8184   20528845.8184  107879798.663 8  84062198.30546
     -1365.253       -1063.832
  22665072.601    22665071.8494   22665075.9864  119105828.580 7  92809729.38243
     -2127.969       -1658.156
  21817163.277    21817162.898    21817169.248   116338778.570 6  90485768.100 5
     -1996.130       -1552.540
  20054547.397    20054546.921    20054551.705   107203070.225 8  83380186.960 7
      -878.795        -683.505
  21794915.997    21794915.055    21794918.284   116301855.656 7  90457025.234 5
      3102.090        2412.733
  21757873.190    21757872.008    21757845.420   115981781.829 6  90208080.790 3
     -1980.753       -1540.563
  19861772.266    19861772.221    19861776.241   106135317.200 8  82549730.620 6
       627.636         488.160
  22091498.090    22091499.013    22091504.092   118008828.636 7  91784670.217 5
      2846.351        2213.829
  22496771.856    22496770.420    22496773.897   120384771.411 6  93632631.905 4
      4032.008        3136.002
  21900689.738    21900689.017    21900693.079   117112862.491 6  91087811.579 5
       985.888         766.798
 11 10 10  4 17  0.0000000  0 16G05G09G12G15G17G18G26G28R03R05R06R14
                                R15R16R17R24
  24316991.470    24316990.5954   24316995.7104  127786648.900 5  99574030.99041
     -2994.415       -2333.279
  21910713.376    21910712.9714   21910719.1574  115141588.876 6  89720737.81344
      2945.101        2294.876
  24204987.931    24204987.8574   24204995.0414  127198077.840 4  99115409.17841
      4090.853        3187.698
  20392754.827    20392754.6224   20392759.3964  107164665.018 8  83504949.77647
      1413.504        1101.428
  22582538.338    22582538.2004   22582543.4464  118672057.972 7  92471752.22144
      2029.973        1581.799
  23602896.830    23602894.5504   23602900.4904  124034054.820 5  96649934.68241
      2023.387        1576.657
  20536676.967    20536676.4364   20536682.2514  107920980.099 8  84094287.73846
     -1380.027       -1075.347
  22677240.275    22677239.3304   22677244.6564  119169770.560 7  92859554.29643
     -2134.696       -1663.398
  21828398.308    21828397.985    21828404.609   116398690.143 6  90532365.984 5
     -1997.828       -1553.867
  20059551.853    20059551.660    20059556.310   107229822.577 8  83400994.343 7
      -904.533        -703.527
  21777534.205    21777533.962    21777535.355   116209105.381 7  90384886.142 5
      3081.338        2396.596
  21769025.193    21769024.749    21768998.304   116041231.585 6  90254319.563 3
     -1982.436       -1541.869
  19858272.173    19858272.094    19858276.219   106116612.990 8  82535182.909 6
       619.355         481.718
  22075529.822    22075529.783    22075533.720   117923522.437 7  91718320.976 5
      2840.882        2209.572
  22474195.398    22474193.657    22474197.390   120263960.200 6  93538667.644 4
      4022.259        3128.423
  21895229.771    21895229.477    21895233.374   117083665.313 7  91065102.671 5
       960.674         747.192
 11 10 10  4 17 30.0000000  0 16G05G09G12G15G17G18G26G28R03R05R06R14
                                R15R16R17R24
  24334084.436    24334083.9044   24334090.0634  127876478.682 5  99644028.25041
     -2993.973       -2332.954
  21893918.480    21893917.5094   21893922.8484  115053324.723 7  89651960.55844
      2939.456        2290.494
  24181650.398    24181649.5024   24181654.1014  127075432.737 5  99019841.59641
      4085.715        3183.654
  20384729.268    20384729.1774   20384733.9734  107122491.613 8  83472087.38447
      1398.351        1089.623
  22570992.570    22570992.3254   22570997.1904  118611383.165 7  92424473.18544
      2015.292        1570.356
  23591391.678    23591391.0534   23591396.1064  123973597.960 5  96602825.44941
      2007.390        1564.210
  20544599.256    20544598.7304   20544604.3654  107962611.989 8  84126728.17446
     -1395.130       -1087.114
  22689447.690    22689446.7084   22689451.3364  119233920.584 7  92909541.33443
     -2141.646       -1668.816
  21839644.569    21839643.879    21839650.879   116458659.509 6  90579008.814 5
     -1999.819       -1555.410
  20064701.964    20064701.592    20064706.391   107257352.949 8  83422406.844 6
      -930.523        -723.737
  21760270.760    21760270.903    21760273.859   116116987.607 7  90313239.011 5
      3060.122        2380.101
  21780189.161    21780188.879    21780161.410   116100740.951 6  90300604.654 3
     -1984.542       -1543.516
  19854819.603    19854819.674    19854823.841   106098164.672 8  82520834.222 6
       610.748         475.027
  22059591.540    22059591.840    22059595.557   117838387.297 7  91652104.795 5
      2835.147        2205.109
  22451674.796    22451673.411    22451678.358   120143450.281 6  93444937.721 4
      4012.025        3120.465
  21889913.234    21889912.763    21889916.445   117055233.171 7  91042988.798 5
       935.086         727.290
 11 10 10  4 18  0.0000000  0 16G05G09G12G15G17G18G26G28R03R05R06R14
                                R15R16R17R24
  24351176.087    24351173.9764   24351181.0444  127966290.587 5  99714011.56241
     -2993.565       -2332.668
  21877154.057    21877152.6664   21877158.4024  114965227.727 7  89583313.57344
      2933.601        2285.920
  24158340.404    24158339.6724   24158347.0934  126952938.911 5  98924391.84641
      4080.403        3179.536
  20376790.173    20376790.1034   20376794.9374  107080771.989 8  83439578.58447
      1382.901        1077.585
  22559530.040    22559529.7574   22559535.1494  118551148.131 7  92377536.82444
      2000.298        1558.681
  23579978.530    23579977.0174   23579981.7964  123913619.737 5  96556089.20541
      1991.133        1551.532
  20552607.398    20552606.8584   20552612.6274  108004694.426 8  84159519.68646
     -1410.398       -1099.011
  22701694.125    22701693.4984   22701698.3504  119298277.627 7  92959689.68243
     -2148.794       -1674.384
  21850902.085    21850901.188    21850906.906   116518686.391 6  90625696.370 5
     -2002.039       -1557.142
  20069997.257    20069997.319    20070001.627   107285660.448 8  83444423.778 7
      -956.691        -744.090
  21743127.704    21743127.425    21743129.723   116025506.001 7  90242086.684 5
      3038.549        2363.320
  21791364.973    21791364.013    21791344.625   116160310.404 6  90346936.526 3
     -1986.784       -1545.302
  19851415.138    19851415.249    19851419.241   106079971.778 8  82506684.203 6
       601.995         468.218
  22043684.786    22043685.479    22043689.915   117753423.785 6  91586022.115 5
      2829.100        2200.403
  22429212.590    22429211.042    22429215.464   120023248.349 6  93351447.344 4
      4001.357        3112.169
  21884740.127    21884739.327    21884742.704   117027568.646 7  91021471.955 5
       909.190         707.146
 11 10 10  4 18 30.0000000  0 16G05G09G12G15G17G18G26G28R03R05R06R14
                                R15R16R17R24
  24368261.590    24368262.2774   24368268.6944  128056087.838 5  99783983.43941
     -2992.979       -2332.183
  21860422.136    21860421.8574   21860427.8604  114877304.944 7  89514802.34244
      2927.862        2281.451
  24135060.365    24135059.1834   24135065.8254  126830603.969 5  98829065.95341
      4075.211        3175.460
  20368939.032    20368938.9444   20368943.8174  107039513.778 8  83407429.32947
      1367.572        1065.640
  22548153.479    22548153.0814   22548158.3474  118491361.498 7  92330949.86444
      1985.403        1547.067
  23568657.334    23568658.3534   23568662.1544  123854127.805 5  96509731.88141
      1974.915        1538.901
  20560702.079    20560701.6804   20560707.3534  108047232.927 8  84192666.57146
     -1425.554       -1110.822
  22713981.185    22713980.5554   22713985.3394  119362846.095 6  93010002.76543
     -2155.784       -1679.833
  21862171.073    21862170.737    21862176.443   116578778.133 6  90672434.390 5
     -2004.134       -1558.771
  20075438.923    20075438.864    20075443.495   107314749.098 8  83467048.259 7
      -982.624        -764.258
  21726104.882    21726104.756    21726107.466   115934670.544 7  90171436.915 5
      3017.050        2346.593
  21802553.429    21802551.544    21802537.086   116219945.767 6  90393319.463 3
     -1988.943       -1546.949
  19848059.488    19848059.456    19848063.627   106062039.860 8  82492737.173 6
       593.369         461.507
  22027813.681    22027814.027    22027818.153   117668638.006 6  91520077.650 5
      2823.257        2195.870
  22406809.709    22406807.927    22406812.514   119903364.664 6  93258204.489 4
      3990.773        3103.939
  21879710.753    21879710.723    21879713.794   117000679.280 7  91000558.031 5
       883.390         687.087
 11 10 10  4 19  0.0000000  0 16G05G09G12G15G17G18G26G28R03R05R06R14
                                R15R16R17R24
  24385346.600    24385346.1884   24385351.6584  128145863.292 5  99853938.33141
     -2992.331       -2331.640
  21843723.310    21843722.8014   21843728.7704  114789551.956 7  89446423.45844
      2922.118        2276.969
  24111810.401    24111811.3894   24111816.7534  126708425.332 5  98733861.81441
      4069.753        3171.215
  20361175.242    20361175.0194   20361179.9694  106998714.055 8  83375637.33747
      1352.161        1053.634
  22536860.682    22536861.0424   22536866.0014  118432021.052 7  92284710.57444
      1970.390        1535.366
  23557427.275    23557426.7274   23557433.0124  123795118.754 5  96463750.81341
      1958.742        1526.292
  20568882.580    20568882.1284   20568887.7884  108090222.097 8  84226164.61846
     -1440.630       -1122.567
  22726307.387    22726306.5284   22726311.2674  119427619.353 7  93060475.43543
     -2162.666       -1685.195
  21873450.592    21873450.003    21873457.566   116638928.299 6  90719217.823 5
     -2006.150       -1560.335
  20081025.953    20081025.355    20081029.952   107344612.059 8  83490274.982 7
     -1008.447        -784.344
  21709203.251    21709203.251    21709206.499   115844479.869 7  90101288.626 5
      2995.423        2329.776
  21813750.878    21813750.408    21813740.646   116279641.490 6  90439749.476 3
     -1991.026       -1548.523
  19844751.594    19844751.400    19844755.585   106044363.220 8  82478988.685 6
       584.771         454.823
  22011973.805    22011974.206    22011978.788   117584025.271 7  91454267.765 5
      2817.348        2191.270
  22384464.353    22384464.493    22384468.832   119783800.031 6  93165209.805 4
      3979.968        3095.535
  21874826.920    21874826.583    21874830.378   116974561.765 7  90980244.420 5
       857.543         666.975
 11 10 10  4 19 30.0000000  0 16G05G09G12G15G17G18G26G28R03R05R06R14
                                R15R16R17R24
  24402427.955    24402425.0864   24402432.3494  128235618.615 5  99923877.57241
     -2991.495       -2331.011
  21827058.330    21827057.1434   21827062.4304  114701973.553 7  89378180.60644
      2916.334        2272.470
  24088591.075    24088591.7824   24088596.9734  126586409.007 5  98638784.17841
      4064.453        3167.105
  20353499.723    20353499.5614   20353504.3594  106958378.303 8  83344206.88847
      1336.749        1041.621
  22525655.115    22525654.7224   22525660.0104  118373133.060 7  92238823.83844
      1955.337        1523.629
  23546292.247    23546291.3014   23546296.6004  123736598.074 5  96418150.29941
      1942.485        1513.604
  20577149.498    20577149.0414   20577154.7134  108133665.354 8  84260016.49846
     -1455.684       -1134.302
  22738672.755    22738672.1224   22738676.5434  119492599.418 6  93111109.24443
     -2169.445       -1690.469
  21884741.892    21884741.865    21884748.927   116699141.159 6  90766050.021 5
     -2008.137       -1561.884
  20086757.163    20086756.847    20086761.924   107375251.434 8  83514105.605 7
     -1034.240        -804.410
  21692423.109    21692423.115    21692426.512   115754941.804 7  90031647.938 5
      2973.684        2312.865
  21824961.825    21824960.556    21824952.038   116339401.555 6  90486229.589 3
     -1993.117       -1550.200
  19841492.076    19841491.956    19841495.935   106026945.805 8  82465441.818 6
       576.289         448.223
  21996166.924    21996167.037    21996171.450   117499589.566 6  91388595.589 5
      2811.583        2186.784
  22362182.947    22362181.892    22362185.472   119664563.391 6  93072470.216 4
      3969.062        3087.048
  21870088.656    21870088.229    21870090.755   116949221.625 7  90960535.445 5
       831.674         646.855
 11 10 10  4 20  0.0000000  0 16G05G09G12G15G17G18G26G28R03R05R06R14
                                R15R16R17R24
  24419503.047    24419502.2944   24419509.2974  128325351.884 5  99993799.59941
     -2990.729       -2330.453
  21810425.163    21810424.7614   21810430.4854  114614571.580 7  89310075.20844
      2910.411        2267.860
  24065405.979    24065403.8484   24065410.1794  126464557.542 5  98543835.00441
      4058.887        3162.763
  20345912.806    20345912.7414   20345917.3924  106918509.188 8  83313140.05347
      1321.128        1029.450
  22514535.798    22514535.5514   22514541.1414  118314700.474 6  92193291.96144
      1940.101        1511.766
  23535249.161    23535248.2794   23535253.1364  123678567.998 5  96372932.08541
      1926.176        1500.912
  20585502.947    20585502.5074   20585508.3594  108177562.938 8  84294222.40346
     -1470.849       -1146.112
  22751076.968    22751076.2394   22751080.8364  119557784.929 7  93161903.15643
     -2176.292       -1695.817
  21896046.387    21896045.913    21896052.337   116759416.986 6  90812931.217 5
     -2010.280       -1563.552
  20092634.066    20092633.652    20092638.377   107406666.079 8  83538539.213 6
     -1060.078        -824.505
  21675768.254    21675767.511    21675770.915   115666060.488 7  89962518.055 5
      2951.702        2295.771
  21836184.492    21836182.690    21836177.146   116399226.041 6  90532759.729 3
     -1995.244       -1551.842
  19838281.217    19838281.181    19838285.146   106009787.378 8  82452096.389 6
       567.598         441.463
  21980393.594    21980393.624    21980398.680   117415331.729 7  91323061.751 5
      2805.620        2182.154
  22339964.147    22339961.992    22339966.154   119545660.074 5  92979989.867 4
      3957.766        3078.267
  21865495.484    21865494.539    21865498.310   116924661.085 7  90941432.803 5
       805.663         626.628
 11 10 10  4 20 30.0000000  0 16G05G09G12G15G17G18G26G28R03R05R06R14
                                R15R16R17R24
  24436572.085    24436573.4754   24436578.7314  128415054.856 5 100063698.03141
     -2989.622       -2329.571
  21793826.107    21793825.7754   21793831.3414  114527341.250 7  89242103.56644
      2904.735        2263.428
  24042249.434    24042247.5054   24042253.3874  126342867.899 5  98449011.92641
      4053.497        3158.572
  20338413.926    20338413.7594   20338418.4704  106879102.841 8  83282433.81647
      1305.731        1017.453
  22503502.683    22503502.4234   22503507.5364  118256720.184 7  92148112.52244
      1925.025        1500.019
  23524299.040    23524297.0184   23524302.9434  123621023.930 5  96328092.57041
      1909.922        1488.261
  20593941.676    20593940.9724   20593947.0664  108221908.447 8  84328777.33846
     -1485.706       -1157.694
  22763518.734    22763518.5544   22763523.0744  119623168.481 6  93212851.37243
     -2182.834       -1700.911
  21907360.509    21907360.463    21907366.092   116819750.299 6  90859857.115 5
     -2012.093       -1564.957
  20098654.111    20098653.903    20098658.747   107438847.788 8  83563569.431 7
     -1085.575        -844.336
  21659233.582    21659233.826    21659236.575   115577833.524 7  89893897.085 5
      2929.896        2278.811
  21847418.410    21847417.623    21847419.380   116459108.984 6  90579335.340 3
     -1997.118       -1553.307
  19835117.388    19835117.462    19835121.659   105992882.299 8  82438947.997 6
       559.254         434.976
  21964653.065    21964653.261    21964658.703   117331245.974 7  91257661.753 5
      2799.864        2177.668
  22317806.563    22317804.223    22317808.831   119427089.613 6  92887768.406 4
      3946.754        3069.697
  21861046.910    21861046.247    21861050.617   116900875.354 6  90922932.816 5
       779.831         606.539
 11 10 10  4 21  0.0000000  0 16G05G09G12G15G17G18G26G28R03R05R06R14
                                R15R16R17R24
  24453634.892    24453635.8924   24453641.4374  128504727.326 5 100133572.67441
     -2988.467       -2328.647
  21777260.119    21777258.9604   21777264.7294  114440285.623 7  89174268.03844
      2899.013        2258.978
  24019123.559    24019124.1834   24019127.2764  126221344.340 5  98354318.24741
      4048.086        3154.372
  20331004.085    20331003.8324   20331008.6574  106840163.282 8  83252091.30547
      1290.277        1005.415
  22492556.146    22492555.8984   22492561.0814  118199196.721 6  92103289.06144
      1909.910        1488.238
  23513442.541    23513442.1754   23513446.5884  123563969.726 5  96283634.76941
      1893.690        1475.592
  20602465.632    20602465.3524   20602471.4824  108266703.795 8  84363682.79746
     -1500.568       -1169.269
  22775998.912    22775998.1894   22776002.8014  119688750.638 6  93263954.36143
     -2189.281       -1705.930
  21918686.404    21918686.464    21918691.966   116880142.550 6  90906828.857 5
     -2013.994       -1566.432
  20104818.037    20104817.863    20104822.563   107471797.027 8  83589196.613 7
     -1110.941        -864.064
  21642824.655    21642824.046    21642826.472   115490266.925 7  89825789.766 5
      2907.929        2261.726
  21858662.466    21858662.237    21858660.932   116519052.636 6  90625958.230 3
     -1999.022       -1554.821
  19832001.323    19832001.528    19832005.573   105976231.229 8  82425997.171 6
       550.887         428.468
  21948944.370    21948944.724    21948949.185   117247335.253 7  91192397.893 5
      2794.241        2173.301
  22295710.298    22295710.154    22295714.129   119308858.860 5  92795811.152 4
      3935.377        3060.848
  21856744.378    21856744.292    21856747.937   116877868.566 6  90905038.680 5
       754.029         586.475
 11 10 10  4 21 30.0000000  0 16G05G09G12G15G17G18G26G28R03R05R06R14
                                R15R16R17R24
  24470693.337    24470692.2344   24470698.7164  128594361.899 5 100203417.80841
     -2987.084       -2327.618
  21760726.140    21760725.6054   21760731.5034  114353399.582 7  89106564.66644
      2893.409        2254.601
  23996029.305    23996028.3134   23996032.8214  126099982.205 5  98259750.37541
      4042.735        3150.202
  20323682.080    20323681.8074   20323686.5664  106801685.874 8  83222108.90547
      1274.903         993.429
  22481695.924    22481695.7534   22481701.0354  118142126.202 7  92058818.54644
      1894.799        1476.469
  23502678.030    23502676.8754   23502682.8964  123507400.828 5  96239555.13741
      1877.571        1463.045
  20611074.747    20611073.9964   20611079.8644  108311941.957 8  84398933.30546
     -1515.258       -1180.723
  22788515.170    22788514.0274   22788519.1924  119754523.595 6  93315206.00343
     -2195.534       -1710.806
  21930021.744    21930021.433    21930027.461   116940587.464 6  90953841.546 5
     -2015.688       -1567.754
  20111124.072    20111123.798    20111128.591   107505505.411 8  83615414.229 6
     -1136.223        -883.727
  21626537.597    21626537.205    21626539.572   115403357.932 7  89758193.901 5
      2886.042        2244.701
  21869919.785    21869918.348    21869915.546   116579050.342 6  90672623.101 3
     -2000.814       -1556.190
  19828931.342    19828931.543    19828935.691   105959827.786 8  82413238.938 6
       542.723         422.117
  21933268.560    21933268.484    21933272.789   117163592.828 7  91127264.959 5
      2788.625        2168.930
  22273681.372    22273679.106    22273683.206   119190967.054 6  92704117.533 4
      3924.084        3052.065
  21852587.374    21852587.234    21852589.281   116855635.247 7  90887746.087 5
       728.228         566.403
 11 10 10  4 22  0.0000000  0 16G05G09G12G15G17G18G26G28R03R05R06R14
                                R15R16R17R24
  24487742.259    24487741.1834   24487747.0214  128683955.389 5 100273230.93441
     -2985.794       -2326.587
  21744224.677    21744224.3194   21744230.3124  114266684.112 7  89038994.21744
      2887.665        2250.120
  23972964.555    23972964.5734   23972968.3164  125978784.227 5  98165310.40641
      4037.104        3145.774
  20316448.275    20316448.2664   20316452.7644  106763672.517 8  83192488.10947
      1259.334         981.297
  22470922.662    22470922.2604   22470927.3624  118085511.225 7  92014703.00644
      1879.508        1464.549
  23492004.899    23492003.7534   23492009.9614  123451319.192 5  96195855.18041
      1861.241        1450.330
  20619767.171    20619766.8024   20619772.5464  108357622.671 8  84434528.66146
     -1530.098       -1192.287
  22801067.319    22801066.1764   22801071.2714  119820485.599 6  93366604.96643
     -2201.896       -1715.770
  21941366.569    21941366.245    21941373.641   117001085.272 6  91000895.372 5
     -2017.506       -1569.173
  20117571.206    20117570.982    20117575.838   107539970.918 8  83642220.717 6
     -1161.464        -903.361
  21610374.892    21610374.607    21610376.510   115317110.114 7  89691112.286 5
      2863.832        2227.427
  21881184.737    21881184.360    21881184.781   116639101.968 6  90719329.882 3
     -2002.686       -1557.629
  19825908.536    19825908.513    19825912.621   105943672.708 8  82400673.884 6
       534.391         415.636
  21917622.555    21917622.722    21917626.596   117080019.094 7  91062263.217 5
      2782.940        2164.507
  22251713.942    22251713.214    22251716.607   119073419.282 6  92612691.515 4
      3912.484        3043.036
  21848575.031    21848574.338    21848576.326   116834177.080 7  90871056.415 5
       702.320         546.248
 11 10 10  4 22 30.0000000  0 16G05G09G12G15G17G18G26G28R03R05R06R14
                                R15R16R17R24
  24504782.119    24504781.0724   24504786.6094  128773501.924 5 100343007.44941
     -2984.051       -2325.203
  21727755.270    21727754.4504   21727760.9414  114180136.541 6  88971554.57944
      2882.124        2245.807
  23949932.049    23949933.0184   23949936.7234  125857748.797 5  98070997.08241
      4031.846        3141.678
  20309302.623    20309302.4984   20309307.2134  106726121.383 8  83163227.48247
      1243.978         969.331
  22460235.594    22460235.4544   22460239.7374  118029350.426 7  91970941.35744
      1864.416        1452.785
  23481425.174    23481425.0724   23481430.0684  123395722.563 5  96152533.17041
      1845.106        1437.746
  20628543.316    20628542.9234   20628548.7504  108403741.673 8  84470465.54146
     -1544.592       -1203.578
  22813654.799    22813653.8484   22813658.4054  119886630.908 7  93418146.75743
     -2207.875       -1720.421
  21952721.319    21952721.033    21952728.260   117061632.124 6  91047987.328 5
     -2019.021       -1570.356
  20124159.701    20124159.199    20124163.892   107575187.605 8  83669611.457 6
     -1186.348        -922.717
  21594336.052    21594335.525    21594338.203   115231523.490 7  89624544.934 5
      2841.852        2210.329
  21892459.548    21892458.736    21892479.377   116699203.623 6  90766075.625 3
     -2004.252       -1558.825
  19822930.770    19822930.910    19822934.703   105927760.761 8  82388297.936 6
       526.375         409.398
  21902009.248    21902008.971    21902011.967   116996610.714 7  90997390.065 5
      2777.575        2160.334
  22229812.426    22229810.696    22229814.377   118956216.208 6  92521533.581 4
      3900.949        3034.073
  21844705.255    21844705.236    21844709.136   116813491.841 7  90854967.907 5
       676.619         526.252
 11 10 10  4 23  0.0000000  0 16G05G09G12G15G17G18G26G28R03R05R06R14
                                R15R16R17R24
  24821605.187    24821604.4624   24821609.2664  130438416.504 5 101640343.52741
     -2982.551       -2324.120
  22011111.296    22011110.4204   22011116.6094  115669180.840 7  90131848.86244
      2876.315        2241.289
  24226726.590    24226726.2764   24226728.3374  127312302.695 5  99204415.71141
      4026.059        3137.203
  20602037.695    20602037.5934   20602042.5554  108264455.701 8  84361929.55047
      1228.359         957.164
  22749427.807    22749427.6194   22749432.6844  119549068.262 7  93155137.08844
      1849.049        1440.814
  23770731.698    23770729.6184   23770735.0184  124916034.375 5  97337191.72741
      1828.737        1425.005
  20937195.113    20937194.6874   20937200.5174  110025717.215 8  85734342.57846
     -1559.322       -1215.054
  23126068.548    23126067.3474   23126072.1234  121528376.016 6  94697428.66043
     -2214.042       -1725.240
  22263876.069    22263876.318    22263882.859   118720850.782 6  92338490.698 5
     -2020.783       -1571.722
  20430679.482    20430679.330    20430684.616   109213714.953 8  84944021.604 7
     -1211.440        -942.232
  21878214.409    21878214.399    21878217.092   116746354.384 7  90802746.737 5
      2819.460        2192.914
  22203535.044    22203534.743    22203551.330   118357415.854 6  92055796.255 3
     -2006.016       -1560.223
  20119790.914    20119791.044    20119795.252   107514092.163 8  83622111.255 6
       518.156         403.007
  22186216.958    22186217.750    22186222.223   118514808.043 6  92178210.214 5
      2771.894        2155.919
  22507767.808    22507766.818    22507771.289   120443617.474 6  93678401.261 4
      3889.021        3024.792
  22140774.294    22140774.147    22140778.163   118396706.360 7  92086356.988 5
       650.656         506.064
 11 10 10  4 23 30.0000000  0 16G05G09G12G15G17G18G26G28R03R05R06R14
                                R15R16R17R24
  24838626.323    24838628.0384   24838631.5354  130527868.168 4 101710046.06941
     -2981.001       -2322.895
  21994707.269    21994706.6134   21994712.0024  115582977.413 7  90064677.36544
      2870.449        2236.709
  24203757.733    24203758.2794   24203761.7834  127191605.120 5  99110365.63141
      4020.299        3132.719
  20595070.167    20595069.9214   20595074.6254  108227840.022 8  84333397.86047
      1212.578         944.865
  22738916.655    22738916.3944   22738921.7764  119493829.245 7  93112093.70944
      1833.454        1428.660
  23760338.260    23760337.8264   23760341.5454  124861417.453 5  97294633.12141
      1812.296        1412.191
  20946138.572    20946138.1924   20946144.3374  110072716.867 8  85770965.67746
     -1574.083       -1226.562
  23138724.958    23138724.5934   23138729.2814  121594889.463 6  94749257.31743
     -2220.290       -1730.091
  22275250.748    22275250.322    22275256.898   118781500.704 6  92385662.843 5
     -2022.639       -1573.162
  20437549.185    20437548.677    20437553.518   109250433.643 8  84972580.585 7
     -1236.534        -961.751
  21862426.228    21862425.630    21862429.062   116662106.029 7  90737220.288 5
      2796.918        2175.378
  22214831.139    22214830.213    22214837.091   118417622.746 6  92102623.697 3
     -2007.918       -1561.743
  20116904.876    20116905.074    20116909.810   107498671.184 8  83610117.166 6
       509.860         396.557
  22170665.064    22170665.805    22170670.627   118431736.168 6  92113598.795 5
      2766.160        2151.458
  22485998.476    22485997.158    22486001.672   120327125.301 6  93587796.263 4
      3876.865        3015.333
  22137197.222    22137197.376    22137200.524   118377576.032 7  92071477.875 5
       624.601         485.805
 11 10 10  4 24  0.0000000  0 16G05G09G12G15G17G18G26G28R03R05R06R14
                                R15R16R17R24
  24855641.059    24855639.9134   24855645.6894  130617276.210 5 101779714.71441
     -2979.523       -2321.691
  21978337.958    21978337.1604   21978342.5874  115496955.419 7  89997647.28144
      2864.393        2231.991
  24180821.906    24180823.2424   24180827.9754  127071086.789 5  99016455.26141
      4014.281        3128.046
  20588193.429    20588193.2754   20588197.8644  108191702.495 8  84305238.75147
      1196.636         932.444
  22728494.020    22728494.3254   22728499.6704  119439061.915 7  93069417.88244
      1817.710        1416.398
  23750039.961    23750039.6544   23750043.0344  124807300.235 5  97252463.88641
      1795.599        1399.156
  20955167.449    20955166.9994   20955173.0884  110120163.437 8  85807937.01846
     -1588.962       -1238.152
  23151418.028    23151417.2154   23151422.7844  121661592.074 6  94801233.36643
     -2226.487       -1734.911
  22286635.363    22286635.141    22286641.445   118842209.930 6  92432881.121 5
     -2024.612       -1574.698
  20444558.917    20444558.771    20444563.745   109287907.636 8  85001727.034 6
     -1261.667        -981.296
  21846766.285    21846765.992    21846768.233   116578539.851 7  90672224.357 5
      2774.136        2157.660
  22226136.697    22226136.200    22226133.612   118477889.801 6  92149498.068 3
     -2009.866       -1563.226
  20114066.281    20114066.431    20114070.829   107483502.549 8  83598319.341 6
       501.422         389.996
  22155147.795    22155148.596    22155153.455   118348840.870 7  92049124.709 5
      2760.233        2146.845
  22464298.316    22464297.586    22464301.489   120211004.920 6  93497480.443 4
      3864.481        3005.704
  22133767.798    22133766.864    22133769.717   118359232.658 7  92057210.813 5
       598.337         465.376
 11 10 10  4 24 30.0000000  0 16G05G09G12G15G17G18G26G28R03R05R06R14
                                R15R16R17R24
  24872644.850    24872644.4114   24872649.3394  130706633.230 5 101849343.57541
     -2977.683       -2320.266
  21962002.088    21962001.3374   21962006.7964  115411110.044 7  89930754.80044
      2858.519        2227.427
  24157922.767    24157922.3464   24157929.7844  126950744.043 5  98922681.71941
      4008.428        3123.451
  20581406.887    20581406.5974   20581411.4734  108156038.851 8  84277448.89947
      1180.827         920.129
  22718161.260    22718161.2594   22718166.3274  119384762.833 6  93027106.91944
      1802.071        1404.217
  23739836.655    23739834.2224   23739839.3384  124753678.234 5  97210680.54041
      1779.107        1386.319
  20964280.378    20964279.7034   20964285.7044  110168050.674 8  85845251.73746
     -1603.635       -1249.581
  23164145.646    23164144.7684   23164150.3794  121728475.994 6  94853350.69043
     -2232.492       -1739.600
  22298030.445    22298030.093    22298036.931   118902972.700 6  92480141.029 5
     -2026.341       -1576.026
  20451708.943    20451708.684    20451713.839   109326128.728 8  85031454.564 6
     -1286.496       -1000.606
  21831232.660    21831232.041    21831235.468   116495653.201 7  90607756.993 5
      2751.485        2140.047
  22237453.645    22237452.397    22237446.063   118538211.251 6  92196414.695 3
     -2011.662       -1564.590
  20111273.982    20111274.078    20111278.124   107468580.446 8  83586713.263 6
       493.306         383.687
  22139662.654    22139662.525    22139665.957   118266115.791 7  91984783.016 5
      2754.553        2142.428
  22442667.752    22442666.949    22442670.498   120095254.330 6  93407452.218 4
      3852.056        2996.046
  22130482.545    22130482.500    22130486.579   118341671.526 6  92043552.143 5
       572.291         445.112
 11 10 10  4 25  0.0000000  0 16G05G09G12G15G17G18G26G28R03R05R06R14
                                R15R16R17R24
  24889635.961    24889636.0504   24889641.2694  130795925.308 5 101918921.80341
     -2975.135       -2318.308
  21945697.087    21945696.5034   21945702.7634  115325430.918 7  89863991.88744
      2853.391        2223.420
  24135054.590    24135054.8434   24135059.9774  126830568.039 5  98829038.09841
      4003.263        3119.440
  20574708.312    20574708.2244   20574713.2854  108120839.093 8  84250020.51647
      1165.792         908.411
  22707916.147    22707915.9804   22707921.1064  119330923.267 7  92985154.02844
      1787.196        1392.618
  23729723.793    23729724.0994   23729729.2544  124700541.639 5  97169275.43441
      1763.341        1374.009
  20973474.593    20973474.0944   20973479.8054  110216366.510 8  85882900.43246
     -1617.453       -1260.350
  23176905.690    23176904.7724   23176909.8764  121795528.239 6  94905599.18443
     -2237.653       -1743.628
  22309432.861    22309433.016    22309439.294   118963777.160 6  92527433.350 5
     -2027.290       -1576.779
  20458996.340    20458996.178    20459001.148   109365082.874 8  85061752.243 6
     -1310.471       -1019.255
  21815826.092    21815825.977    21815828.030   116413437.873 7  90543811.769 5
      2729.510        2122.952
  22248777.306    22248776.301    22248773.915   118598574.719 6  92243364.125 3
     -2012.631       -1565.379
  20108525.684    20108525.577    20108529.762   107453892.544 8  83575289.347 6
       485.896         377.920
  22124205.571    22124205.977    22124210.318   118183550.160 7  91920565.346 5
      2749.796        2138.723
  22421105.026    22421104.254    22421107.372   119979867.176 6  93317706.675 4
      3840.348        2986.936
  22127343.232    22127342.823    22127346.944   118324882.061 6  92030493.694 5
       546.993         425.450
 11 10 10  4 25 30.0000000  0 17G05G09G12G15G17G18G26G27G28R03R05R06
                                R14R15R16R17R24
  24906616.366    24906615.7004   24906620.9664  130885154.110 5 101988450.72441
     -2973.264       -2316.844
  21929425.442    21929425.0784   21929430.8814  115239923.008 7  89797362.36944
      2847.302        2218.673
  24112219.394    24112219.5864   24112225.2784  126710564.767 5  98735529.09141
      3997.086        3114.602
  20568099.630    20568099.5234   20568104.4924  108086109.605 8  84222958.57847
      1149.689         895.859
  22697759.219    22697758.9884   22697764.3904  119277549.142 7  92943563.80544
      1771.250        1380.191
  23719705.833    23719705.4984   23719711.3804  124647895.603 5  97128252.53941
      1746.640        1360.999
  20982750.866    20982750.5604   20982756.1794  110265114.253 8  85920885.66946
     -1632.222       -1271.865
  21518087.157                                   113078311.829 8
      1367.747
  23189697.543    23189697.0764   23189702.0174  121862750.960 6  94957980.50743
     -2243.674       -1748.321
  22320844.714    22320844.011    22320850.640   119024626.865 6  92574760.865 5
     -2029.194       -1578.264
  20466421.295    20466420.801    20466425.445   109404772.323 8  85092621.813 6
     -1335.266       -1038.545
  21800545.119    21800545.580    21800548.587   116331901.410 7  90480394.513 5
      2706.457        2105.018
  22260110.181    22260109.073    22260104.375   118658984.655 6  92290349.581 3
     -2014.544       -1566.873
  20105821.346    20105821.268    20105825.539   107439442.544 8  83564050.463 6
       477.542         371.420
  22108779.601    22108780.307    22108785.272   118101147.768 7  91856474.634 5
      2743.953        2134.187
  22399612.801    22399610.759    22399613.985   119864852.894 6  93228251.149 4
      3827.453        2976.909
  22124348.070    22124348.291    22124352.291   118308869.645 6  92018039.601 5
       520.658         404.950
 11 10 10  4 26  0.0000000  0 17G05G09G12G15G17G18G26G27G28R03R05R06
                                R14R15R16R17R24
  24923586.453    24923585.2754   24923590.5094  130974324.994 5 102057934.58541
     -2971.340       -2315.342
  21913188.256    21913187.5434   21913193.5834  115154594.464 7  89730872.61144
      2841.318        2214.012
  24089417.611    24089418.2834   24089422.9244  126590743.352 5  98642161.76341
      3991.002        3109.881
  20561582.042    20561581.8414   20561586.7464  108051859.054 8  84196269.83747
      1133.723         883.419
  22687693.222    22687692.8134   22687698.5484  119224650.517 6  92902344.12044
      1755.373        1367.819
  23709782.072    23709783.0174   23709789.1384  124595749.232 5  97087618.98341
      1729.894        1347.973
  20992111.067    20992110.6104   20992116.2424  110314301.043 8  85959213.02746
     -1646.801       -1283.225
  21510292.662                                   113037350.705 8
      1363.034
  23202523.254    23202522.1894   23202527.3874  121930150.065 6  95010499.28143
     -2249.508       -1752.858
  22332265.848    22332265.052    22332272.147   119085530.486 6  92622130.314 5
     -2030.957       -1579.638
  20473984.432    20473983.973    20473988.880   109445201.988 8  85124067.097 6
     -1359.914       -1057.714
  21785396.092    21785395.441    21785397.651   116251054.802 7  90417513.854 5
      2683.376        2087.065
  22271452.411    22271452.095    22271452.549   118719448.477 6  92337376.988 3
     -2016.306       -1568.214
  20103163.180    20103163.118    20103167.416   107425238.092 8  83553002.557 6
       469.512         365.176
  22093386.650    22093387.115    22093391.696   118018916.818 7  91792517.261 5
      2738.299        2129.788
  22378189.913    22378189.380    22378193.409   119750224.090 6  93139095.433 4
      3814.582        2966.886
  22121500.556    22121500.792    22121504.455   118293642.640 6  92006196.372 5
       494.520         384.621
 11 10 10  4 26 30.0000000  0 17G05G09G12G15G17G18G26G27G28R03R05R06
                                R14R15R16R17R24
  24940541.553    24940542.7274   24940547.8934  131063436.264 4 102127371.96541
     -2969.413       -2313.835
  21896984.594    21896984.5124   21896990.6944  115069447.067 7  89664524.02544
      2835.149        2209.196
  24066651.227    24066650.9984   24066656.4614  126471107.192 5  98548938.79941
      3984.691        3104.953
  20555155.904    20555155.8164   20555160.6584  108018089.864 8  84169956.18047
      1117.551         870.815
  22677717.713    22677717.5584   22677723.2924  119172230.086 6  92861497.04744
      1739.260        1355.268
  23699954.042    23699953.6924   23699959.7214  124544104.019 5  97047376.01141
      1713.141        1334.922
  21001554.305    21001553.7024   21001559.6484  110363926.447 8  85997882.15946
     -1661.556       -1294.719
  21502525.049    21502524.4974   21502530.3944  112996532.897 8  88049260.56145
      1358.141        1058.291
  23215381.987    23215381.5094   23215386.2044  121997724.380 6  95063154.58343
     -2255.408       -1757.455
  22343696.926    22343696.331    22343703.720   119146488.348 6  92669541.988 5
     -2032.863       -1581.123
  20481685.243    20481684.989    20481690.072   109486369.804 8  85156086.500 6
     -1384.617       -1076.927
  21770374.539    21770373.954    21770377.388   116170901.713 7  90355172.564 5
      2660.093        2068.958
  22282805.718    22282804.349    22282814.448   118779966.564 6  92384446.561 3
     -2018.222       -1569.750
  20100551.247    20100551.114    20100555.169   107411279.366 8  83542145.773 6
       461.118         358.647
  22078024.639    22078025.094    22078030.015   117936857.892 7  91728693.698 5
      2732.429        2125.213
  22356842.919    22356841.078    22356845.738   119635985.769 6  93050243.425 4
      3801.322        2956.578
  22118801.253    22118800.832    22118805.357   118279202.456 7  91994965.108 6
       468.176         364.129
 11 10 10  4 27  0.0000000  0 17G05G09G12G15G17G18G26G27G28R03R05R06
                                R14R15R16R17R24
  24957489.972    24957489.7454   24957493.5174  131152489.810 5 102196764.34041
     -2967.472       -2312.305
  21880817.735    21880816.8344   21880822.8454  114984486.465 7  89598321.00744
      2828.871        2204.314
  24043921.069    24043921.8604   24043926.8354  126351661.956 5  98455864.62741
      3978.270        3099.955
  20548822.669    20548822.5064   20548827.2794  107984808.062 8  84144022.30647
      1101.241         858.108
  22667834.785    22667834.5424   22667840.0694  119120294.243 7  92821027.57944
      1723.054        1342.643
  23690223.538    23690222.6894   23690228.1204  124492965.855 5  97007528.08841
      1696.183        1321.728
  21011081.781    21011081.3774   21011087.3864  110413994.553 8  86036896.26246
     -1676.349       -1306.248
  21494785.706    21494785.1974   21494790.9994  112955863.213 8  88017569.89945
      1353.135        1054.392
  23228274.670    23228274.7834   23228279.0904  122065476.650 6  95115948.56043
     -2261.375       -1762.096
  22355139.221    22355139.523    22355146.663   119207504.031 6  92716998.593 5
     -2034.859       -1582.668
  20489525.771    20489525.364    20489529.944   109528278.072 8  85188681.807 6
     -1409.290       -1096.116
  21755484.906    21755484.969    21755488.424   116091450.498 7  90293377.204 6
      2636.594        2050.687
  22294169.690    22294169.106    22294170.796   118840543.262 6  92431561.748 3
     -2020.216       -1571.246
  20097985.618    20097985.671    20097989.552   107397569.981 8  83531482.920 6
       452.818         352.192
  22062695.998    22062696.549    22062701.704   117854975.252 7  91665007.275 5
      2726.472        2120.583
  22335569.174    22335568.157    22335572.280   119522148.192 6  92961703.114 4
      3787.822        2946.074
  22116249.187    22116248.616    22116252.431   118265554.769 7  91984350.253 5
       441.655         343.513
 11 10 10  4 27 30.0000000  0 17G05G09G12G15G17G18G26G27G28R03R05R06
                                R14R15R16R17R24
  24974425.344    24974422.5364   24974429.5864  131241482.349 5 102266109.18841
     -2965.253       -2310.615
  21864685.057    21864685.0644   21864690.6214  114899712.330 7  89532263.25744
      2822.798        2199.580
  24021229.144    24021228.1034   24021233.2474  126232409.467 5  98362940.64741
      3971.972        3095.046
  20542582.338    20542582.0864   20542586.6434  107952014.108 8  84118468.57147
      1085.108         845.538
  22658044.376    22658044.0614   22658049.1364  119068844.347 7  92780936.76944
      1706.995        1330.129
  23680589.253    23680589.3684   23680593.6204  124442335.272 5  96968075.72341
      1679.278        1308.514
  21020693.384    21020692.7634   21020698.7544  110464503.392 8  86076253.79446
     -1690.837       -1317.536
  21487074.597    21487074.0964   21487079.9344  112915340.767 8  87985993.97545
      1348.395        1050.696
  23241201.222    23241200.4164   23241204.7464  122133404.282 6  95168879.16843
     -2267.021       -1766.518
  22366593.438    22366592.562    22366599.021   119268576.490 6  92764499.366 5
     -2036.583       -1584.010
  20497503.486    20497502.975    20497507.262   109570923.297 8  85221850.318 6
     -1433.657       -1115.067
  21740727.825    21740727.404    21740730.548   116012702.570 7  90232128.834 5
      2613.264        2032.537
  22305545.559    22305543.643    22305547.112   118901177.372 6  92478721.629 3
     -2021.983       -1572.638
  20095466.682    20095466.588    20095470.719   107384108.774 8  83521013.108 6
       444.639         345.832
  22047400.494    22047400.514    22047404.915   117773268.564 7  91601457.661 5
      2720.712        2116.105
  22314371.500    22314370.283    22314373.964   119408715.088 6  92873477.381 4
      3774.372        2935.623
  22113844.507    22113844.392    22113848.074   118252699.233 7  91974351.506 5
       415.438         323.116
 11 10 10  4 28  0.0000000  0 17G05G09G12G15G17G18G26G27G28R03R05R06
                                R14R15R16R17R24
  24991345.024    24991346.6364   24991348.4264  131330408.070 4 102335401.96541
     -2963.103       -2308.899
  21848588.511    21848587.9854   21848593.8444  114815121.697 7  89466348.47544
      2816.566        2194.730
  23998571.582    23998571.7114   23998576.9304  126113347.670 5  98270165.22241
      3965.480        3089.975
  20536434.248    20536434.0374   20536438.5224  107919706.150 8  84093293.53547
      1068.772         832.813
  22648346.160    22648345.7854   22648350.9464  119017879.006 7  92741223.52244
      1690.655        1317.394
  23671050.015    23671050.5914   23671054.6594  124392209.310 5  96929016.52841
      1662.411        1295.391
  21030387.987    21030387.4664   21030393.2784  110515448.211 8  86115951.04746
     -1705.491       -1328.952
  21479390.946    21479390.2674   21479396.1804  112874961.904 8  87954529.93545
      1343.519        1046.898
  23254159.952    23254158.4114   23254163.3124  122201501.958 6  95221942.27043
     -2272.800       -1771.013
  22378055.928    22378055.860    22378062.330   119329702.744 6  92812041.961 5
     -2038.468       -1585.472
  20505616.957    20505616.987    20505621.879   109614299.091 8  85255587.052 6
     -1458.079       -1134.058
  21726101.952    21726101.983    21726105.345   115934657.553 7  90171427.181 6
      2589.686        2014.199
  22316930.483    22316928.409    22316941.371   118961864.854 6  92525923.012 3
     -2023.869       -1574.134
  20092992.745    20092992.853    20092996.996   107370891.278 8  83510732.837 6
       436.421         339.440
  22032135.908    22032136.012    22032141.785   117691733.405 7  91538041.447 5
      2714.958        2111.637
  22293249.945    22293248.517    22293252.245   119295687.265 6  92785566.877 4
      3760.717        2925.000
  22111587.920    22111587.130    22111591.135   118240632.567 6  91964966.326 5
       388.978         302.541
 11 10 10  4 28 30.0000000  0 17G05G09G12G15G17G18G26G27G28R03R05R06
                                R14R15R16R17R24
  25008255.879    25008256.0034   25008260.9344  131419272.025 5 102404646.59941
     -2961.097       -2307.348
  21832528.286    21832527.7624   21832533.4494  114730723.268 7  89400583.46344
      2810.071        2189.662
  23975953.504    23975953.0334   23975958.3874  125994486.299 5  98177545.97541
      3958.670        3084.680
  20530380.468    20530380.3464   20530384.9624  107887892.998 9  84068504.06147
      1052.173         819.876
  22638741.756    22638741.3764   22638746.8724  118967407.954 7  92701895.43144
      1674.123        1304.516
  23661609.364    23661608.7464   23661614.4614  124342596.855 5  96890357.53041
      1645.177        1281.945
  21040166.745    21040166.2864   21040172.0714  110566836.029 8  86155993.49146
     -1720.266       -1340.465
  21471735.812    21471735.2594   21471741.1064  112834734.388 7  87923183.81645
      1338.400        1042.911
  23267151.855    23267150.9504   23267155.9934  122269775.205 6  95275142.19443
     -2278.659       -1775.561
  22389530.869    22389530.608    22389537.647   119390889.716 6  92859631.764 5
     -2040.615       -1587.143
  20513869.796    20513869.021    20513873.678   109658410.123 8  85289895.621 6
     -1482.564       -1153.104
  21711610.799    21711610.465    21711613.066   115857326.119 7  90111280.526 5
      2565.828        1995.644
  22328324.470    22328323.438    22328342.714   119022613.522 6  92573172.027 3
     -2025.979       -1575.758
  20090566.287    20090566.519    20090570.522   107357925.313 8  83500648.198 6
       428.036         332.918
  22016905.107    22016905.466    22016912.500   117610378.004 7  91474765.073 6
      2708.881        2106.901
  22272206.563    22272204.747    22272208.628   119183077.585 6  92697981.592 4
      3746.596        2914.017
  22109480.238    22109480.419    22109484.220   118229363.513 6  91956201.517 5
       362.348         281.826
 11 10 10  4 29  0.0000000  0 17G05G09G12G15G17G18G26G27G28R03R05R06
                                R14R15R16R17R24
  25025152.435    25025150.8194   25025156.2214  131508059.918 4 102473832.01241
     -2958.200       -2305.099
  21816502.498    21816501.8314   21816507.3684  114646505.695 7  89334959.40844
      2804.215        2185.104
  23953371.627    23953371.0304   23953375.9444  125875815.062 5  98085074.87941
      3952.542        3079.906
  20524418.645    20524418.5704   20524423.3124  107856564.153 9  84044091.97347
      1036.174         807.406
  22629229.284    22629229.3934   22629234.3734  118917420.770 7  92662944.39744
      1658.121        1292.040
  23652265.476    23652264.2424   23652268.6734  124293487.243 6  96852090.30141
      1628.582        1269.014
  21050027.352    21050026.7344   21050032.7034  110618653.905 8  86196371.04946
     -1734.484       -1351.547
  21464107.517    21464106.7434   21464112.6464  112794646.267 8  87891946.33045
      1333.925        1039.422
  23280174.598    23280173.8524   23280179.0294  122338209.996 6  95328467.99643
     -2283.894       -1779.670
  22401014.415    22401014.371    22401020.413   119452124.845 6  92907259.056 5
     -2042.053       -1588.262
  20522256.029    20522255.891    20522260.414   109703241.665 8  85324764.589 6
     -1506.420       -1171.661
  21697250.465    21697250.367    21697253.042   115780699.383 7  90051681.956 5
      2542.448        1977.458
  22339730.559    22339729.612    22339741.326   119083410.613 6  92620458.460 3
     -2027.366       -1576.832
  20088184.513    20088184.527    20088188.880   107345196.966 8  83490748.374 6
       420.300         326.899
  22001707.546    22001707.757    22001713.670   117529190.164 7  91411619.041 6
      2703.475        2102.707
  22251238.457    22251237.450    22251242.052   119070879.116 6  92610716.131 4
      3732.983        2903.434
  22107520.544    22107520.180    22107523.605   118218880.257 6  91948047.883 5
       336.328         261.576
 11 10 10  4 29 30.0000000  0 17G05G09G12G15G17G18G26G27G28R03R05R06
                                R14R15R16R17R24
  25042032.026    25042031.8944   25042039.2114  131596770.910 4 102542957.46941
     -2955.625       -2303.083
  21800510.936    21800510.1174   21800516.4374  114562471.453 6  89269478.18744
      2798.087        2180.322
  23930825.461    23930825.0564   23930831.7454  125757337.044 5  97992754.36242
      3946.081        3074.854
  20518549.741    20518549.4794   20518554.4534  107825722.398 8  84020059.43547
      1019.910         794.735
  22619810.009    22619809.7734   22619814.7044  118867920.729 7  92624372.95644
      1641.875        1279.388
  23643014.989    23643015.0914   23643019.6094  124244882.927 5  96814216.81241
      1611.697        1255.879
  21059969.596    21059969.1104   21059975.0754  110670902.067 8  86237083.89646
     -1748.797       -1362.700
  21456505.608    21456504.9254   21456510.7574  112754698.959 8  87860818.56745
      1329.224        1035.759
  23293227.919    23293227.1914   23293231.8084  122406806.223 6  95381919.57543
     -2289.204       -1783.798
  22412506.571    22412506.861    22412513.691   119513409.919 6  92954925.189 5
     -2043.643       -1589.496
  20530777.118    20530776.979    20530781.561   109748792.342 8  85360192.892 6
     -1530.305       -1190.239
  21683023.107    21683023.242    21683026.755   115704781.521 7  89992634.765 6
      2518.735        1959.013
  22351146.612    22351145.322    22351163.604   119144257.635 6  92667783.811 3
     -2029.071       -1578.169
  20085847.549    20085847.361    20085851.472   107332708.101 8  83481034.817 6
       412.289         320.667
  21986540.444    21986540.612    21986545.308   117448170.997 7  91348604.154 5
      2697.822        2098.307
  22230350.279    22230348.320    22230352.548   118959097.475 6  92523774.875 4
      3719.040        2892.588
  22105707.326    22105706.805    22105709.477   118209184.570 6  91940506.803 5
       310.099         241.182
 11 10 10  4 30  0.0000000  0 17G05G09G12G15G17G18G26G27G28R03R05R06
                                R14R15R16R17R24
  25058898.697    25058896.6294   25058900.6734  131685399.863 4 102612019.00741
     -2952.723       -2300.796
  21784554.130    21784553.6954   21784559.6364  114478618.883 7  89204138.53344
      2792.306        2175.821
  23908316.067    23908315.3994   23908321.8564  125639051.723 5  97900584.01542
      3939.895        3070.047
  20512773.219    20512772.9664   20512777.7434  107795366.234 8  83996405.27847
      1004.006         782.345
  22610483.499    22610482.9734   22610487.8554  118818907.243 7  92586180.64944
      1625.879        1266.921
  23633861.089    23633860.3184   23633865.3014  124196781.744 5  96776735.40941
      1595.176        1242.967
  21069993.642    21069993.0794   21069999.1224  110723577.182 8  86278129.43546
     -1762.693       -1373.527
  21448930.304    21448929.6954   21448935.6374  112714890.076 8  87829798.66545
      1324.893        1032.386
  23306311.335    23306310.3204   23306315.0604  122475559.134 6  95435493.25442
     -2294.152       -1787.638
  22424007.725    22424008.208    22424015.154   119574742.000 6  93002627.848 5
     -2044.945       -1590.514
  20539431.915    20539431.369    20539436.400   109795056.301 8  85396175.965 6
     -1553.761       -1208.482
  21668928.997    21668929.046    21668932.253   115629572.886 7  89934139.177 5
      2495.329        1940.810
  22362570.008    22362568.840    22362586.779   119205151.484 6  92715145.607 3
     -2030.319       -1579.121
  20083554.665    20083554.433    20083558.443   107320454.870 8  83471504.536 6
       404.695         314.761
  21971404.539    21971404.717    21971409.223   117367318.139 7  91285718.626 5
      2692.573        2094.222
  22209539.116    22209537.270    22209541.954   118847734.146 6  92437158.984 4
      3705.341        2881.930
  22104040.315    22104040.273    22104043.036   118200274.234 6  91933576.531 5
       284.169         221.031
 11 10 10  4 30 30.0000000  0 17G05G09G12G15G17G18G26G27G28R03R05R06
                                R14R15R16R17R24
  25075746.728    25075749.8144   25075753.5334  131773944.045 4 102681014.48741
     -2950.125       -2298.822
  21768632.489    21768631.7274   21768637.2144  114394948.495 7  89138940.83044
      2785.949        2170.871
  23885842.891    23885843.7614   23885849.6374  125520960.168 5  97808564.63042
      3933.083        3064.739
  20507089.235    20507089.1034   20507093.8404  107765497.081 8  83973130.60747
       987.494         769.477
  22601248.902    22601248.7174   22601254.0284  118770382.276 7  92548368.99344
      1609.316        1254.010
  23624804.692    23624803.6984   23624807.7744  124149184.664 6  96739646.77341
      1578.105        1229.694
  21080098.380    21080097.8404   21080103.9064  110776677.954 8  86319506.64446
     -1777.132       -1384.776
  21441381.266    21441380.5214   21441386.6174  112675219.583 8  87798886.60845
      1320.022        1028.590
  23319424.213    23319422.6534   23319427.8554  122544466.850 6  95489187.56842
     -2299.475       -1791.789
  22435519.343    22435518.543    22435525.177   119636120.570 6  93050366.696 5
     -2046.729       -1591.900
  20548219.234    20548219.043    20548223.851   109842030.739 8  85432711.632 6
     -1577.649       -1227.060
  21654968.836    21654968.443    21654971.943   115555076.001 7  89876197.175 6
      2471.319        1922.136
  22374001.596    22374000.506    22374026.907   119266091.709 6  92762543.460 3
     -2032.138       -1580.522
  20081305.891    20081305.669    20081309.465   107308437.759 8  83462157.887 6
       396.697         308.543
  21956300.481    21956300.357    21956304.430   117286630.992 7  91222962.004 5
      2686.804        2089.743
  22188807.431    22188805.703    22188809.846   118736794.593 6  92350872.682 4
      3690.850        2870.665
  22102521.574    22102520.992    22102524.386   118192149.549 6  91927257.341 5
       257.690         200.427
 11 10 10  4 31  0.0000000  0 17G05G09G12G15G17G18G26G27G28R03R05R06
                                R14R15R16R17R24
  25092581.424    25092579.8974   25092586.1394  131862403.154 4 102749943.61941
     -2947.238       -2296.565
  21752745.131    21752744.7254   21752750.4524  114311462.968 7  89073887.18544
      2779.778        2166.058
  23863407.888    23863409.1764   23863415.4154  125403067.199 5  97716700.02541
      3926.452        3059.575
  20501498.592    20501498.4494   20501503.2104  107736118.296 8  83950238.04447
       971.128         756.721
  22592107.635    22592107.8854   22592113.6184  118722349.402 7  92510940.79344
      1592.895        1241.217
  23615842.781    23615842.8734   23615849.3844  124102095.016 5  96702953.55141
      1561.199        1216.524
  21090284.266    21090283.7964   21090289.8064  110830205.658 8  86361216.53146
     -1791.340       -1395.850
  21433858.921    21433858.2334   21433864.2114  112635689.573 7  87768084.00545
      1315.345        1024.943
  23332566.709    23332565.0624   23332569.1364  122613529.456 6  95543002.57142
     -2304.632       -1795.827
  22447037.718    22447038.405    22447045.117   119697547.821 6  93098143.392 5
     -2048.385       -1593.186
  20557139.747    20557139.268    20557143.858   109889714.958 8  85469799.345 6
     -1601.253       -1245.417
  21641142.929    21641142.379    21641145.433   115481295.706 7  89818812.528 6
      2447.413        1903.543
  22385441.880    22385441.428    22385469.366   119327080.380 6  92809979.148 3
     -2033.712       -1581.792
  20079101.121    20079101.139    20079104.901   107296657.192 8  83452995.231 6
       388.702         302.320
  21941226.762    21941226.990    21941231.139   117206111.925 7  91160336.103 5
      2681.206        2085.380
  22168155.609    22168154.632    22168158.349   118626285.560 6  92264921.233 4
      3676.427        2859.442
  22101149.784    22101149.007    22101152.714   118184812.934 6  91921551.093 5
       231.421         179.994
 11 10 10  4 31 30.0000000  0 17G05G09G12G15G17G18G26G27G28R03R05R06
                                R14R15R16R17R24
  25109396.289    25109393.8664   25109400.2124  131950764.959 4 102818797.03341
     -2943.652       -2293.813
  21736892.277    21736891.6964   21736897.5804  114228153.527 7  89008970.73844
      2774.035        2161.583
  23841010.410    23841011.2584   23841016.2384  125285364.049 5  97624983.31541
      3920.249        3054.717
  20495999.692    20495999.5634   20496004.3614  107707221.566 8  83927721.10847
       955.203         744.314
  22583060.324    22583060.0614   22583065.2654  118674800.925 7  92473890.04644
      1576.888        1228.740
  23606977.245    23606975.9644   23606981.1084  124055503.478 5  96666648.49641
      1544.701        1203.637
  21100549.412    21100549.0564   21100554.9804  110884149.518 8  86403250.69346
     -1805.039       -1406.525
  21426361.239    21426360.6474   21426366.9514  112596290.496 8  87737383.42645
      1311.126        1021.656
  23345735.360    23345734.2794   23345739.4124  122682735.325 6  95596929.20642
     -2309.254       -1799.411
  22458566.810    22458566.192    22458571.262   119759013.948 6  93145950.337 5
     -2049.470       -1594.030
  20566189.888    20566189.897    20566194.732   109938095.809 8  85507428.887 6
     -1624.284       -1263.331
  21627449.180    21627448.933    21627452.363   115408225.170 7  89761979.907 6
      2423.843        1885.212
  22396892.223    22396891.079    22396918.838   119388107.115 6  92857444.303 3
     -2034.790       -1582.608
  20076938.731    20076938.914    20076942.752   107285102.657 8  83444008.376 6
       381.403         296.642
  21926182.823    21926182.516    21926187.838   117125750.747 7  91097833.004 5
      2676.094        2081.406
  22147584.355    22147583.308    22147587.236   118516201.330 6  92179300.165 4
      3662.364        2848.508
  22099922.899    22099923.002    22099926.593   118178254.827 7  91916450.339 5
       205.589         159.906
 11 10 10  4 32  0.0000000  0 17G05G09G12G15G17G18G26G27G28R03R05R06
                                R14R15R16R17R24
  25126189.727    25126191.6084   25126195.3524  132039023.390 5 102887569.80141
     -2940.125       -2290.991
  21721072.079    21721071.3834   21721077.1724  114145016.991 7  88944189.02944
      2768.323        2157.133
  23818650.436    23818649.2814   23818654.1664  125167849.665 5  97533413.68941
      3913.959        3049.801
  20490592.101    20490591.8594   20490596.6704  107678803.975 9  83905577.52347
       939.237         731.874
  22574104.080    22574103.4334   22574108.6054  118627734.616 6  92437215.00244
      1560.800        1216.213
  23598203.933    23598204.3254   23598209.2914  124009407.179 5  96630729.29641
      1528.277        1190.868
  21110892.754    21110892.4774   21110898.1034  110938504.278 8  86445605.03646
     -1818.701       -1417.167
  21418888.217    21418887.4244   21418893.9064  112557018.506 8  87706781.87845
      1306.936        1018.394
  23358930.842    23358930.0954   23358934.8504  122752078.299 6  95650962.68342
     -2313.707       -1802.875
  22470099.299    22470099.430    22470104.346   119820514.046 6  93193783.723 5
     -2050.575       -1594.892
  20575370.374    20575369.603    20575374.340   109987166.046 8  85545594.611 6
     -1647.146       -1281.111
  21613888.625    21613888.202    21613890.964   115335862.817 7  89705698.112 6
      2400.250        1866.862
  22408346.346    22408345.540    22408378.273   119449167.713 6  92904935.970 3
     -2035.897       -1583.489
  20074817.919    20074817.966    20074822.247   107273769.990 8  83435194.074 6
       374.026         290.912
  21911168.603    21911168.629    21911172.464   117045543.475 7  91035449.587 5
      2670.989        2077.441
  22127091.233    22127090.595    22127094.485   118406543.037 6  92094010.387 4
      3648.135        2837.445
  22098841.813    22098841.603    22098844.741   118172471.406 7  91911952.121 5
       179.850         139.889
 11 10 10  4 32 30.0000000  0 17G05G09G12G15G17G18G26G27G28R03R05R06
                                R14R15R16R17R24
  25142967.919    25142966.3314   25142970.5054  132127182.976 4 102956265.58741
     -2937.135       -2288.711
  21705285.704    21705285.4314   21705291.4124  114062061.902 7  88879548.70344
      2761.950        2152.170
  23796325.287    23796324.9484   23796329.3764  125050532.476 5  97441997.70042
      3907.031        3044.454
  20485277.238    20485277.1134   20485281.7604  107650874.326 8  83883814.16047
       922.650         718.950
  22565240.943    22565240.9704   22565245.7234  118581159.831 7  92400922.97544
      1544.073        1203.175
  23589530.111    23589530.0024   23589533.3844  123963814.550 5  96595202.59241
      1511.175        1177.560
  21121315.907    21121315.3284   21121320.9874  110993276.576 8  86488284.74646
     -1832.899       -1428.232
  21411440.518    21411440.1104   21411446.0774  112517880.969 8  87676285.10045
      1302.156        1014.666
  23372153.514    23372153.0104   23372158.1204  122821564.506 6  95705107.75142
     -2318.737       -1806.798
  22481639.156    22481639.283    22481646.064   119882055.997 6  93241649.636 5
     -2052.267       -1596.210
  20584679.099    20584678.896    20584683.917   110036930.657 8  85584300.402 6
     -1670.566       -1299.329
  21600462.766    21600462.034    21600465.072   115264218.935 7  89649975.094 6
      2375.929        1847.946
  22419809.636    22419808.631    22419835.418   119510269.581 6  92952459.648 3
     -2037.645       -1584.837
  20072740.134    20072740.176    20072744.383   107262665.563 8  83426557.299 6
       366.072         284.724
  21896183.226    21896183.563    21896187.570   116965497.657 7  90973191.771 5
      2665.251        2072.971
  22106679.259    22106680.085    22106684.395   118297322.783 6  92009061.332 4
      3633.128        2825.770
  22097906.064    22097906.298    22097908.860   118167470.441 7  91908062.486 5
       153.436         119.324
 11 10 10  4 33  0.0000000  0 17G05G09G12G15G17G18G26G27G28R03R05R06
                                R14R15R16R17R24
  25159722.534    25159725.2084   25159730.6744  132215245.920 4 103024886.05241
     -2933.644       -2285.935
  21689535.537    21689534.9254   21689541.4284  113979292.778 7  88815053.28244
      2755.982        2147.523
  23774038.828    23774038.4524   23774044.5494  124933418.720 5  97350740.21942
      3900.504        3039.362
  20480056.370    20480056.2154   20480060.7934  107623438.125 9  83862435.30047
       906.414         706.298
  22556472.710    22556472.1384   22556477.4654  118535082.381 7  92365018.47644
      1527.693        1190.413
  23580949.999    23580950.3094   23580954.2434  123918730.395 5  96560072.04641
      1494.460        1164.536
  21131818.845    21131818.2874   21131823.9974  111048469.477 8  86531292.19246
     -1846.635       -1438.931
  21404019.574    21404018.8744   21404024.6574  112478882.044 8  87645896.34045
      1297.773        1011.250
  23385404.436    23385403.6434   23385408.4084  122891195.979 6  95759366.02242
     -2323.289       -1810.345
  22493188.573    22493188.591    22493195.070   119943643.724 6  93289551.158 5
     -2053.583       -1597.228
  20594119.136    20594118.498    20594123.590   110087390.404 8  85623546.857 6
     -1693.439       -1317.116
  21587171.160    21587171.300    21587175.386   115193300.655 7  89594816.429 6
      2351.968        1829.307
  22431279.689    22431278.880    22431309.199   119571416.503 6  93000018.298 3
     -2038.871       -1585.771
  20070705.475    20070705.490    20070709.800   107251793.938 8  83418101.594 6
       358.633         278.936
  21881229.957    21881229.813    21881233.626   116885617.160 7  90911062.534 5
      2660.025        2068.908
  22086354.421    22086353.362    22086357.681   118188549.232 6  91924459.704 4
      3618.428        2814.332
  22097118.010    22097117.911    22097121.540   118163256.096 7  91904784.641 5
       127.486          99.155
 11 10 10  4 33 30.0000000  0 17G05G09G12G15G17G18G26G27G28R03R05R06
                                R14R15R16R17R24
  25176461.950    25176461.2024   25176467.2874  132303202.118 5 103093423.34541
     -2930.092       -2283.176
  21673819.536    21673818.6344   21673824.5634  113896703.077 7  88750697.68344
      2749.955        2142.823
  23751789.515    23751789.1504   23751795.1704  124816502.467 5  97259636.64642
      3893.893        3034.201
  20474928.208    20474928.1084   20474932.5864  107596489.203 9  83841436.13547
       890.144         693.617
  22547798.277    22547798.1164   22547802.9704  118489496.723 7  92329497.19744
      1511.290        1177.630
  23572467.101    23572466.8844   23572471.2614  123874148.454 5  96525332.90441
      1477.621        1151.390
  21142399.811    21142399.2554   21142405.3614  111104074.137 8  86574620.48246
     -1860.365       -1449.636
  21396623.343    21396622.5394   21396628.3284  112440014.380 8  87615609.85345
      1293.396        1007.836
  23398680.517    23398679.9434   23398684.7364  122960963.681 6  95813730.43642
     -2327.871       -1813.924
  22504746.982    22504745.487    22504753.625   120005269.699 6  93337482.422 5
     -2054.787       -1598.172
  20603686.745    20603686.502    20603691.248   110138534.708 8  85663325.753 6
     -1716.192       -1334.816
  21574016.603    21574016.507    21574019.799   115123102.706 7  89540218.051 6
      2327.916        1810.603
  22442756.310    22442756.371    22442791.095   119632600.953 6  93047606.168 3
     -2040.149       -1586.771
  20068712.880    20068712.984    20068717.410   107241146.218 8  83409820.032 6
       351.184         273.142
  21866306.432    21866306.025    21866309.895   116805894.626 7  90849056.164 5
      2654.825        2064.867
  22066110.865    22066109.284    22066112.213   118080219.867 6  91840203.555 4
      3603.470        2802.698
  22096475.453    22096475.293    22096480.087   118159821.070 6  91902112.965 5
       101.465          78.905
 11 10 10  4 34  0.0000000  0 17G05G09G12G15G17G18G26G27G28R03R05R06
                                R14R15R16R17R24
  25193180.793    25193174.4224   25193185.2844  132391052.534 4 103161878.27341
     -2926.620       -2280.477
  21658138.651    21658137.3044   21658143.0954  113814296.793 7  88686485.01444
      2743.754        2137.987
  23729579.492    23729579.7744   23729584.5144  124699788.112 5  97168690.43142
      3887.149        3028.950
  20469893.488    20469893.2754   20469897.7504  107570031.498 9  83820819.73847
       873.667         680.780
  22539217.945    22539217.4964   22539222.8964  118444407.247 7  92294362.55844
      1494.645        1164.660
  23564080.194    23564079.3494   23564083.5834  123830072.049 6  96490987.64641
      1460.759        1138.249
  21153059.746    21153059.2124   21153065.3124  111160092.891 8  86618271.44445
     -1874.264       -1460.467
  21389252.579    21389251.6664   21389257.6814  112401281.220 8  87585428.17345
      1288.780        1004.245
  23411983.547    23411982.5774   23411987.1634  123030868.163 6  95868201.44542
     -2332.462       -1817.511
  22516309.969    22516310.041    22516317.922   120066935.865 6  93385444.943 5
     -2056.316       -1599.358
  20613381.533    20613381.834    20613386.949   110190363.541 8  85703637.058 6
     -1739.041       -1352.585
  21560997.484    21560997.349    21561001.088   115053630.845 7  89486184.373 6
      2303.556        1791.656
  22454242.968    22454242.035    22454280.744   119693825.591 6  93095225.233 3
     -2041.562       -1587.874
  20066762.641    20066762.691    20066767.047   107230725.098 8  83401714.715 6
       343.585         267.234
  21851409.684    21851410.391    21851416.906   116726332.734 7  90787174.756 6
      2649.277        2060.548
  22045951.195    22045949.248    22045953.557   117972342.548 6  91756298.999 4
      3588.302        2790.910
  22095979.881    22095979.666    22095983.271   118157168.467 6  91900049.828 5
        75.338          58.601
 11 10 10  4 34 30.0000000  0 17G05G09G12G15G17G18G26G27G28R03R05R06
                                R14R15R16R17R24
  25209876.385                                   132478804.465 3
     -2923.188
  21642493.456    21642492.5134   21642498.1014  113732082.321 7  88622421.81244
      2737.192        2132.870
  23707410.541    23707409.1864   23707415.4524  124583285.973 5  97077909.55942
      3879.737        3023.168
  20464953.620    20464953.6014   20464958.1314  107544073.906 9  83800593.04347
       856.798         667.633
  22530733.985    22530733.6344   22530739.1004  118399823.588 7  92259622.05344
      1477.572        1151.348
  23555789.687    23555787.9824   23555794.6094  123786509.944 5  96457043.17941
      1443.419        1124.731
  21163799.606    21163799.3214   21163805.1774  111216532.135 8  86662250.06645
     -1888.380       -1471.464
  21381908.893    21381908.2004   21381914.0524  112362690.446 8  87555357.45045
      1283.880        1000.426
  23425313.089    23425312.8674   23425316.9864  123100915.803 6  95922784.01742
     -2337.385       -1821.343
  22527883.233    22527883.896    22527890.030   120128651.259 6  93433445.758 5
     -2058.094       -1600.742
  20623206.527    20623206.192    20623211.718   110242881.171 8  85744484.090 6
     -1762.117       -1370.540
  21548117.901    21548116.797    21548119.862   114984895.548 7  89432723.612 6
      2278.794        1772.392
  22465739.245    22465737.424    22465780.936   119755097.884 6  93142881.453 3
     -2043.318       -1589.252
  20064855.878    20064856.249    20064860.281   107220537.884 8  83393791.328 6
       335.630         261.045
  21836548.252    21836548.566    21836553.890   116646939.416 7  90725424.438 6
      2643.589        2056.118
  22025877.428    22025876.236    22025880.773   117864929.227 6  91672755.326 4
      3572.599        2778.691
  22095631.913    22095631.432    22095634.512   118155306.141 6  91898601.337 5
        48.831          37.978
 11 10 10  4 35  0.0000000  0 16G09G12G15G17G18G26G27G28R03R05R06R14
                                R15R16R17R24
  21626885.468    21626884.7584   21626890.3794  113650062.458 7  88558510.24844
      2730.979        2128.031
  23685281.554    23685280.3904   23685287.3844  124466999.021 5  96987296.37342
      3872.812        3017.784
  20460110.092    20460109.8384   20460114.4424  107518619.626 9  83780758.53847
       840.324         654.795
  22522346.913    22522346.5154   22522351.8444  118355749.202 6  92225278.38044
      1460.893        1138.361
  23547597.359    23547597.2084   23547602.8434  123743464.549 5  96423501.33041
      1426.484        1111.543
  21174620.061    21174619.4394   21174625.2494  111273392.533 8  86706556.85945
     -1902.139       -1482.186
  21374592.680    21374592.2544   21374598.0304  112324243.897 8  87525399.10345
      1279.387         996.920
  23438669.802    23438668.9244   23438674.0504  123171106.459 6  95977478.01342
     -2341.778       -1824.781
  22539467.453    22539466.899    22539474.416   120190416.948 6  93481485.682 5
     -2059.404       -1601.757
  20633160.133    20633159.582    20633164.411   110296086.747 8  85785866.199 6
     -1784.676       -1388.085
  21535375.521    21535374.832    21535377.565   114916901.384 7  89379839.269 6
      2254.323        1753.359
  22477241.945    22477241.852    22477296.468   119816419.758 6  93190576.273 3
     -2044.647       -1590.291
  20062994.181    20062994.027    20062998.022   107210586.251 8  83386051.172 6
       328.041         255.142
  21821718.092    21821717.963    21821723.774   116567716.426 7  90663806.564 6
      2638.139        2051.881
  22005892.464    22005891.858    22005896.178   117757986.137 6  91589577.384 4
      3557.135        2766.660
  22095431.404    22095431.040    22095434.277   118154235.855 6  91897768.895 5
        22.752          17.703
 11 10 10  4 35 30.0000000  0 16G09G12G15G17G18G26G27G28R03R05R06R14
                                R15R16R17R24
  21611314.127    21611313.4094   21611319.2594  113568236.607 7  88494749.85444
      2724.255        2122.796
  23663194.249    23663193.7164   23663199.6654  124350928.341 5  96896851.67742
      3865.404        3012.008
  20455361.881    20455361.8694   20455366.4784  107493668.410 8  83761316.02947
       823.277         641.513
  22514056.571    22514056.2794   22514061.4214  118312184.518 7  92191331.88044
      1443.614        1124.892
  23539505.509    23539505.3114   23539510.1114  123700935.354 6  96390361.69341
      1408.950        1097.880
  21185519.824    21185519.5514   21185525.3484  111330671.542 8  86751189.84145
     -1916.297       -1493.221
  21367303.836    21367303.0854   21367309.0594  112285940.360 8  87495552.18645
      1274.367         993.011
  23452052.289    23452051.7624   23452057.3164  123241436.983 6  96032281.00742
     -2346.698       -1828.604
  22551060.188    22551060.007    22551066.901   120252231.268 6  93529563.396 5
     -2061.340       -1603.261
  20643241.071    20643240.749    20643245.617   110349975.111 8  85827779.350 6
     -1807.679       -1405.973
  21522772.531    21522772.341    21522774.587   114849649.251 7  89327532.061 6
      2229.304        1733.902
  22488754.794    22488754.554    22488802.616   119877789.682 6  93238308.305 3
     -2046.414       -1591.643
  20061175.808    20061175.682    20061179.182   107200867.932 8  83378492.479 6
       320.037         248.916
  21806917.557    21806918.370    21806924.489   116488662.647 7  90602320.330 6
      2632.234        2047.288
  21985996.734    21985995.691    21986000.006   117651518.013 6  91506768.863 4
      3540.974        2754.097
  22095379.422    22095378.694    22095382.766   118153956.277 6  91897551.421 5
        -3.906          -3.038
 11 10 10  4 36  0.0000000  0 16G09G12G15G17G18G26G27G28R03R05R06R14
                                R15R16R17R24
  21595781.134    21595780.6444   21595786.2174  113486610.446 7  88431145.05844
      2717.377        2117.429
  23641149.432    23641149.1124   23641154.8334  124235080.055 5  96806580.28942
      3857.735        3006.033
  20450710.857    20450710.6634   20450715.2864  107469226.222 8  83742270.16347
       806.087         628.120
  22505864.698    22505864.4324   22505869.6694  118269136.079 7  92157787.64744
      1426.163        1111.305
  23531511.319    23531510.1124   23531516.6864  123658927.873 5  96357628.60041
      1391.409        1084.213
  21196500.315    21196499.5764   21196505.7174  111388373.014 8  86796152.01545
     -1930.601       -1504.368
  21360042.885    21360042.2844   21360048.1394  112247784.784 7  87465820.57545
      1269.233         989.012
  23465463.421    23465462.8424   23465468.3124  123311910.372 6  96087195.32042
     -2351.612       -1832.428
  22562663.217    22562662.230    22562667.794   120314098.801 6  93577682.526 5
     -2063.265       -1604.753
  20653449.975    20653449.658    20653454.871   110404548.463 8  85870225.266 6
     -1830.647       -1423.836
  21510309.017    21510308.835    21510312.261   114783146.603 7  89275807.806 6
      2204.102        1714.296
  22500277.630    22500276.223    22500322.744   119939212.387 6  93286081.586 3
     -2048.477       -1593.284
  20059401.747    20059401.630    20059405.469   107191387.863 8  83371119.090 6
       311.931         242.612
  21792151.691    21792152.359    21792157.594   116409782.295 7  90540968.963 6
      2626.254        2042.634
  21966190.837    21966190.259    21966194.660   117545533.590 6  91424336.554 4
      3524.559        2741.323
  22095475.315    22095476.002    22095478.706   118154472.268 7  91897952.758 5
       -30.632         -23.823
 11 10 10  4 36 30.0000000  0 16G09G12G15G17G18G26G27G28R03R05R06R14
                                R15R16R17R24
  21580287.427    21580286.7904   21580292.4434  113405188.641 7  88367699.50744
      2710.721        2112.249
  23619148.304    23619147.2934   23619151.6374  124119459.374 5  96716486.25642
      3850.337        3000.263
  20446157.184    20446157.2414   20446161.8084  107445297.958 8  83723624.76247
       789.117         614.896
  22497772.047    22497771.9124   22497777.0594  118226608.807 6  92124649.52044
      1408.955        1097.887
  23523618.050    23523616.7054   23523620.6404  123617446.389 5  96325305.37241
      1374.013        1070.655
  21207561.442    21207560.7624   21207566.7004  111446499.491 8  86841445.36345
     -1944.529       -1515.221
  21352811.361    21352810.5364   21352816.2884  112209780.994 7  87436207.23445
      1264.362         985.215
  23478901.884    23478900.9224   23478905.9044  123382528.445 6  96142222.36942
     -2356.205       -1836.005
  22574274.716    22574275.160    22574280.635   120376023.744 6  93625846.329 5
     -2065.025       -1606.126
  20663787.259    20663786.830    20663792.366   110459807.085 8  85913204.178 6
     -1853.216       -1441.390
  21497988.603    21497988.205    21497991.468   114717399.813 7  89224671.414 6
      2179.054        1694.819
  22511809.661    22511809.610    22511855.178   120000691.205 6  93333898.453 4
     -2050.143       -1594.559
  20057672.172    20057672.445    20057676.487   107182148.371 8  83363932.815 6
       304.013         236.455
  21777419.901    21777420.032    21777423.817   116331079.658 7  90479755.831 5
      2620.622        2038.260
  21946478.108    21946476.524    21946480.457   117440040.297 6  91342286.229 4
      3508.249        2728.636
  22095721.547    22095721.445    22095724.283   118155787.146 6  91898975.443 5
       -57.050         -44.373
 11 10 10  4 37  0.0000000  0 16G09G12G15G17G18G26G27G28R03R05R06R14
                                R15R16R17R24
  21564831.214    21564830.3514   21564836.0834  113323965.482 7  88304408.73944
      2704.238        2107.199
  23597188.049    23597188.2064   23597193.7314  124004062.261 5  96626566.41842
      3842.913        2994.470
  20441700.662    20441700.6624   20441705.2754  107421878.566 8  83705375.88547
       772.267         601.768
  22489778.273    22489777.7674   22489782.9894  118184598.540 7  92091914.25744
      1391.826        1084.540
  23515822.892    23515822.3694   23515828.9754  123576485.524 6  96293387.82341
      1356.757        1057.204
  21218701.619    21218701.2394   21218707.0664  111505043.289 8  86887063.89045
     -1958.280       -1525.928
  21345606.933    21345606.3284   21345611.9714  112171922.882 8  87406707.41445
      1259.618         981.521
  23492366.140    23492364.9814   23492370.4624  123453283.078 6  96197355.83642
     -2360.593       -1839.430
  22585898.250    22585897.856    22585904.021   120438000.250 6  93674050.204 5
     -2066.640       -1607.383
  20674249.927    20674250.064    20674255.638   110515741.133 7  85956708.422 6
     -1875.556       -1458.763
  21485807.828    21485807.899    21485811.060   114652404.665 7  89174119.659 6
      2154.081        1675.396
  22523353.334    22523352.486    22523394.939   120062219.770 6  93381754.105 4
     -2051.637       -1595.729
  20055987.457    20055987.283    20055991.363   107173143.961 8  83356929.390 6
       296.335         230.486
  21762716.838    21762716.850    21762722.073   116252548.098 7  90418675.803 5
      2615.009        2033.899
  21926854.872    21926854.121    21926858.264   117335037.167 6  91260617.134 4
      3492.006        2716.000
  22096115.494    22096115.231    22096118.283   118157894.635 6  91900614.585 5
       -83.341         -64.818
 11 10 10  4 37 30.0000000  0 16G09G12G15G17G18G26G27G28R03R05R06R14
                                R15R16R17R24
  21549412.116    21549411.0834   21549416.8494  113242936.761 7  88241269.48844
      2697.940        2102.296
  23575271.125    23575269.9034   23575275.7964  123888884.672 5  96536817.64042
      3835.753        2988.903
  20437340.210    20437340.0294   20437344.8614  107398963.628 8  83687520.09147
       755.625         588.799
  22481881.329    22481880.9524   22481886.3914  118143101.584 7  92059578.97244
      1374.869        1071.327
  23508127.071    23508125.6204   23508132.1314  123536040.891 6  96261872.52442
      1339.741        1043.960
  21229920.483    21229920.1414   21229926.0314  111563998.576 8  86933003.06545
     -1971.808       -1536.474
  21338429.411    21338428.8494   21338434.8204  112134205.578 8  87377317.30445
      1255.111         978.016
  23505855.607    23505854.5394   23505859.3224  123524167.415 6  96252590.34742
     -2364.734       -1842.644
  22597529.754    22597528.979    22597534.989   120500022.134 6  93722289.375 5
     -2067.887       -1608.353
  20684839.381    20684839.017    20684844.016   110572342.107 8  86000731.367 6
     -1897.537       -1475.860
  21473769.279    21473768.628    21473771.302   114588158.356 7  89124150.307 6
      2129.238        1656.076
  22534904.691    22534903.727    22534954.810   120123792.885 6  93429644.296 3
     -2052.983       -1596.782
  20054345.085    20054345.131    20054348.981   107164368.434 8  83350103.982 6
       288.953         224.740
  21748047.712    21748047.979    21748052.085   116174182.344 7  90357724.730 5
      2609.652        2029.725
  21907324.745    21907323.251    21907327.023   117230523.946 6  91179329.078 4
      3475.781        2703.382
  22096656.597    22096656.435    22096660.122   118160789.063 6  91902865.811 5
      -109.360         -85.062
 11 10 10  4 38  0.0000000  0 16G09G12G15G17G18G26G27G28R03R05R06R14
                                R15R16R17R24
  21534030.137    21534029.4084   21534035.8004  113162107.242 7  88178285.44344
      2690.824        2096.748
  23553395.782    23553395.1674   23553401.9294  123773932.923 5  96447244.88842
      3827.773        2982.688
  20433076.657    20433076.5124   20433081.1744  107376558.605 8  83670061.63047
       738.175         575.203
  22474083.510    22474083.1924   22474088.1154  118102123.225 7  92027647.78444
      1357.123        1057.495
  23500530.204    23500529.7734   23500533.0384  123496116.831 5  96230762.88641
      1321.955        1030.072
  21241217.986    21241217.6294   21241223.6384  111623367.552 8  86979264.58545
     -1985.965       -1547.503
  21331279.772    21331279.0964   21331285.2734  112096633.168 8  87348040.10845
      1249.841         973.899
  23519368.809    23519369.0954   23519372.9084  123595183.672 6  96307927.66642
     -2369.490       -1846.335
  22609169.046    22609168.531    22609174.326   120562093.154 6  93770566.782 5
     -2070.055       -1610.037
  20695552.929    20695552.368    20695557.293   110629610.664 8  86045273.554 6
     -1920.163       -1493.457
  21461871.102    21461870.253    21461873.419   114524667.507 7  89074768.568 6
      2103.592        1636.132
  22546465.698    22546463.786    22546519.243   120185414.233 6  93477571.998 3
     -2054.993       -1598.369
  20052746.159    20052746.229    20052750.026   107155824.783 8  83343458.924 6
       280.777         218.384
  21733409.233    21733409.314    21733412.854   116095986.136 7  90296905.512 5
      2603.555        2024.985
  21887885.425    21887885.126    21887889.197   117126508.675 6  91098428.329 4
      3458.708        2690.099
  22097347.091    22097346.177    22097349.069   118164474.129 7  91905731.959 5
      -136.144        -105.886
 11 10 10  4 38 30.0000000  0 16G09G12G15G17G18G26G27G28R03R05R06R14
                                R15R16R17R24
  21518687.667    21518687.5054   21518693.5734  113081484.661 7  88115462.64844
      2684.286        2091.649
  23531564.855    23531565.4084   23531571.0914  123659215.418 5  96357854.63942
      3820.318        2976.872
  20428911.634    20428911.5204   20428916.2214  107354671.149 8  83653006.47147
       721.295         562.047
  22466385.400    22466385.3674   22466390.1104  118061671.862 7  91996127.24744
      1339.918        1044.094
  23493033.981    23493031.9424   23493035.6644  123456720.471 6  96200064.43841
      1304.775        1016.724
  21252595.972    21252595.1554   21252600.9104  111683156.031 8  87025852.99845
     -1999.568       -1558.106
  21324158.815    21324158.1994   21324164.2724  112059212.208 7  87318880.92745
      1245.182         970.270
  23532908.783    23532908.1914   23532913.1664  123666336.433 6  96363371.37542
     -2373.659       -1849.607
  22620821.171    22620819.659    22620824.679   120624219.893 6  93818887.506 5
     -2071.450       -1611.128
  20706391.623    20706391.288    20706395.807   110687549.953 8  86090337.431 6
     -1942.089       -1510.514
  21450115.549    21450115.607    21450117.846   114461940.552 7  89025980.931 6
      2078.501        1616.614
  22558033.937    22558033.933    22558089.655   120247090.108 6  93525542.127 3
     -2056.390       -1599.380
  20051191.918    20051192.004    20051195.373   107147518.942 8  83336998.832 6
       273.213         212.498
  21718802.523    21718803.186    21718807.313   116017966.274 7  90236223.428 5
      2598.063        2020.721
  21868543.828    21868542.581    21868546.451   117023002.276 6  91017923.364 4
      3442.026        2677.125
  22098184.665    22098184.216    22098188.418   118168956.265 6  91909218.044 6
      -162.325        -126.248
 11 10 10  4 39  0.0000000  0 16G09G12G15G17G18G26G27G28R03R05R06R14
                                R15R16R17R24
  21503382.233    21503381.3294   21503386.9914  113001048.996 7  88052785.51144
      2678.101        2086.832
  23509777.476    23509776.3354   23509781.5284  123544712.538 5  96268631.62842
      3813.177        2971.311
  20424841.186    20424841.1394   20424846.0314  107333281.408 9  83636339.12947
       704.722         549.137
  22458783.956    22458784.0054   22458789.4854  118021728.178 7  91965002.30244
      1323.032        1030.938
  23485633.958    23485631.5144   23485637.2354  123417831.915 5  96169761.65041
      1287.845        1003.516
  21264048.674    21264048.0384   21264053.7684  111743341.821 8  87072750.99745
     -2012.789       -1568.407
  21317062.715    21317062.0564   21317067.8154  112021922.264 8  87289823.83545
      1240.845         966.896
  23546470.667    23546469.5204   23546474.3264  123737603.191 5  96418903.89842
     -2377.436       -1852.550
  22632476.356    22632476.432    22632482.981   120686381.642 6  93867235.463 5
     -2072.596       -1612.024
  20717351.148    20717351.032    20717355.607   110746135.648 8  86135904.071 6
     -1963.542       -1527.197
  21438500.339    21438499.809    21438502.975   114399959.128 7  88977773.165 6
      2053.634        1597.272
  22569611.167    22569610.422    22569660.279   120308799.697 6  93573538.356 3
     -2057.494       -1600.245
  20049678.185    20049678.333    20049681.673   107139430.495 8  83330707.822 6
       266.013         206.900
  21704226.692    21704227.188    21704231.322   115940101.772 7  90175662.200 5
      2592.934        2016.731
  21849293.990    21849292.327    21849295.732   116919989.427 6  90937802.271 4
      3425.533        2664.304
  22099166.567    22099166.892    22099170.885   118174214.254 6  91913307.592 5
      -188.152        -146.335
 11 10 10  4 39 30.0000000  0 16G09G12G15G17G18G26G27G28R03R05R06R14
                                R15R16R17R24
  21488111.587    21488110.7864   21488116.9114  112920802.842 7  87990256.05244
      2671.938        2082.027
  23488028.406    23488028.3254   23488034.1864  123430428.083 5  96179578.83242
      3806.072        2965.761
  20420866.257    20420866.0134   20420870.9624  107312392.377 9  83620061.95647
       688.185         536.251
  22451280.594    22451280.4744   22451285.8114  117982295.612 7  91934275.63144
      1306.108        1017.745
  23478330.045    23478328.8974   23478334.4784  123379453.322 5  96139856.23642
      1270.998         990.406
  21275577.052    21275576.6444   21275582.7414  111803925.570 8  87119959.09745
     -2025.859       -1578.588
  21309992.088    21309991.3284   21309996.9544  111984765.304 8  87260870.36145
      1236.584         963.575
  23560053.729    23560053.1364   23560058.9694  123808983.976 6  96474525.22442
     -2381.036       -1855.347
  22644140.754    22644140.416    22644147.008   120748580.662 6  93915612.390 5
     -2073.667       -1612.844
  20728431.635    20728431.353    20728436.124   110805366.127 8  86181972.216 6
     -1984.822       -1543.749
  21427025.590    21427025.281    21427028.101   114338727.380 7  88930148.476 6
      2028.752        1577.918
  22581194.581    22581193.593    22581229.687   120370544.850 6  93621562.318 3
     -2058.494       -1601.028
  20048205.367    20048205.441    20048209.318   107131560.100 8  83324586.409 6
       258.970         201.423
  21689680.335    21689680.735    21689684.119   115862394.135 7  90115222.942 5
      2587.906        2012.819
  21830136.535    21830135.245    21830139.644   116817476.045 6  90858069.650 4
      3409.005        2651.451
  22100295.887    22100295.927    22100299.239   118180249.380 6  91918001.564 5
      -213.881        -166.353
 11 10 10  4 40  0.0000000  0 17G09G12G15G17G18G26G27G28R03R05R06R14
                                R15R16R17R18R24
  21472878.239    21472877.3724   21472883.2294  112840749.891 7  87927877.14244
      2664.880        2076.528
  23466323.782    23466323.9514   23466328.5654  123316366.749 6  96090699.88542
      3798.068        2959.536
  20416987.215    20416987.1064   20416991.7224  107292007.815 9  83604177.87947
       670.774         522.682
  22443875.061    22443874.8414   22443879.4484  117943378.251 7  91903950.42644
      1288.351        1003.904
  23471123.512    23471123.2824   23471128.0174  123341588.023 5  96110350.81742
      1253.376         976.650
  21287181.497    21287181.2184   21287187.2374  111864908.946 8  87167478.59845
     -2039.712       -1589.386
  21302947.158    21302946.4334   21302952.3594  111947744.125 8  87232022.69545
      1231.474         959.593
  23573658.927    23573657.8644   23573663.5704  123880480.013 6  96530236.39342
     -2385.413       -1858.761
  22655813.318    22655812.546    22655818.660   120810819.209 6  93964020.074 5
     -2075.552       -1614.314
  20739631.989    20739631.962    20739636.587   110865240.522 8  86228541.178 6
     -2006.816       -1560.858
  21415691.875    21415691.403    21415694.742   114278250.221 7  88883110.696 6
      2003.014        1557.902
  22592787.266    22592785.340    22592814.263   120432328.135 6  93669616.012 3
     -2060.384       -1602.479
  20046773.529    20046773.840    20046778.336   107123910.334 8  83318636.590 6
       251.051         195.264
  21675162.354    21675162.878    21675167.266   115784846.456 7  90054908.098 6
      2582.033        2008.250
  21811074.050    21811073.133    21811076.450   116715468.740 6  90778730.641 4
      3391.463        2637.798
  24195770.050    24195771.090    24195776.680   129158686.989 5 100456778.855 4
      4754.235        3697.738
  22101571.667    22101570.566    22101574.178   118187063.944 7  91923301.775 5
      -240.415        -186.990
 11 10 10  4 40 30.0000000  0 17G09G12G15G17G18G26G27G28R03R05R06R14
                                R15R16R17R18R24
  21457682.186    21457681.6414   21457687.6434  112760896.972 7  87865654.08344
      2658.635        2071.663
  23444662.896    23444661.9464   23444668.7864  123202535.745 6  96002000.38742
      3790.729        2953.838
  20413205.463    20413205.3654   20413210.0174  107272134.654 8  83588692.29047
       654.107         509.695
  22436568.949    22436568.4244   22436573.5104  117904983.661 7  91874032.55644
      1271.273         990.609
  23464017.417    23464015.2494   23464019.8844  123304242.699 5  96081250.53241
      1236.342         963.393
  21298863.508    21298863.1524   21298868.8534  111926296.553 7  87215313.08145
     -2052.778       -1599.567
  21295929.124    21295928.5074   21295934.7114  111910864.889 8  87203285.63445
      1227.143         956.212
  23587287.262    23587285.4524   23587292.5844  123952095.455 6  96586040.59642
     -2388.936       -1861.504
  22667491.394    22667492.301    22667499.161   120873103.801 6  94012463.564 5
     -2076.689       -1615.201
  20750953.603    20750953.745    20750958.236   110925761.639 8  86275613.146 6
     -2027.902       -1577.259
  21404501.639    21404501.280    21404504.600   114218535.647 7  88836666.013 6
      1977.926        1538.384
  22604384.559    22604384.085    22604411.369   120494155.026 6  93717703.503 3
     -2061.473       -1603.364
  20045384.759    20045384.629    20045388.733   107116487.000 8  83312862.884 6
       243.877         189.679
  21660676.392    21660676.762    21660681.316   115707464.524 7  89994722.197 6
      2576.844        2004.208
  21792108.062    21792106.934    21792110.388   116613978.893 6  90699794.084 4
      3374.555        2624.656
  24169040.839    24169041.712    24169047.304   129016002.269 5 100345801.852 4
      4757.989        3700.657
  22102992.091    22102991.684    22102995.209   118194663.471 7  91929212.499 5
      -266.203        -207.049
 11 10 10  4 41  0.0000000  0 17G09G12G15G17G18G26G27G28R03R05R06R14
                                R15R16R17R18R24
  21442523.889    21442523.1124   21442529.1024  112681238.282 7  87803582.38244
      2651.901        2066.413
  23423044.421    23423043.6764   23423049.3644  123088930.555 6  95913476.89042
      3782.986        2947.758
  20409520.013    20409519.8184   20409524.5654  107252766.798 9  83573600.45147
       637.033         496.389
  22429361.079    22429360.7574   22429366.0094  117867106.560 7  91844517.93244
      1253.809         976.991
  23457008.141    23457008.0324   23457013.1394  123267411.035 5  96052550.52941
      1219.036         949.888
  21310620.893    21310620.2664   21310625.8814  111988080.331 8  87263456.26645
     -2066.150       -1609.990
  21288937.052    21288936.4124   21288942.6854  111874121.132 8  87174654.13745
      1222.413         952.529
  23600936.270    23600935.4384   23600940.8694  124023821.678 6  96641931.11442
     -2392.774       -1864.520
  22679181.245    22679180.374    22679187.149   120935426.518 6  94060936.690 5
     -2078.192       -1616.375
  20762394.481    20762394.432    20762399.356   110986918.923 8  86323179.911 6
     -2049.233       -1593.849
  21393453.505    21393453.215    21393455.998   114159579.249 7  88790811.051 6
      1952.442        1518.566
  22615990.408    22615989.155    22616005.684   120556019.579 6  93765820.334 3
     -2062.883       -1604.485
  20044036.345    20044036.288    20044040.719   107109282.410 8  83307259.316 6
       236.453         183.908
  21646220.346    21646220.124    21646225.500   115630241.600 7  89934659.969 6
      2571.312        1999.907
  21773238.274    21773237.116    21773240.653   116513003.975 6  90621258.058 4
      3357.045        2611.036
  24142291.543    24142291.897    24142298.022   128873212.655 5 100234743.254 4
      4761.212        3703.166
  22104557.881    22104557.749    22104562.134   118203040.578 7  91935728.023 6
      -292.309        -227.351
 11 10 10  4 41 30.0000000  0 17G09G12G15G17G18G26G27G28R03R05R06R14
                                R15R16R17R18R24
  21427403.185    21427402.6284   21427408.7084  112601778.527 7  87741665.67245
      2645.267        2061.243
  23401470.001    23401470.2204   23401475.0514  122975556.184 5  95825133.24542
      3775.266        2941.768
  20405931.479    20405931.3404   20405936.1754  107233909.375 8  83558906.34747
       620.007         483.123
  22422252.299    22422252.1374   22422258.2734  117829752.014 6  91815410.48944
      1236.310         963.364
  23450098.183    23450097.0094   23450104.5354  123231097.252 5  96024254.09242
      1201.790         936.470
  21322453.446    21322453.2434   21322459.0764  112050262.960 8  87311910.24545
     -2079.449       -1620.351
  21281971.756    21281971.0034   21281976.8294  111837517.022 8  87146131.45745
      1217.744         948.889
  23614606.926    23614606.2084   23614610.4164  124095660.463 6  96697909.37242
     -2396.547       -1867.431
  22690877.216    22690876.626    22690882.484   120997792.034 6  94109443.090 5
     -2079.610       -1617.471
  20773953.978    20773953.859    20773959.207   111048712.677 8  86371241.715 6
     -2070.443       -1610.347
  21382548.459    21382548.032    21382550.958   114101386.814 7  88745550.277 6
      1926.906        1498.700
  22627602.722    22627601.541    22627628.530   120617924.861 6  93813968.798 3
     -2064.272       -1605.541
  20042729.399    20042729.497    20042733.818   107102300.216 8  83301828.726 6
       228.948         178.072
  21631793.468    21631794.227    21631798.575   115553181.392 7  89874724.304 6
      2565.902        1995.697
  21754466.787    21754465.367    21754469.375   116412551.956 6  90543128.734 4
      3339.577        2597.440
  24115522.634    24115523.716    24115530.322   128730326.326 5 100123609.412 4
      4764.375        3705.625
  22106270.743    22106270.585    22106274.704   118212198.790 7  91942851.055 6
      -318.361        -247.618
 11 10 10  4 42  0.0000000  0 17G09G12G15G17G18G26G27G28R03R05R06R14
                                R15R16R17R18R24
  21412321.046    21412320.1904   21412326.2254  112522519.510 7  87679905.40545
      2638.627        2056.071
  23379940.146    23379940.1644   23379945.3724  122862415.405 6  95736971.61042
      3767.475        2935.691
  20402440.454    20402440.3274   20402445.1214  107215564.370 9  83544611.53047
       602.965         469.844
  22415244.004    22415243.8264   22415249.6704  117792922.144 7  91786711.89844
      1219.007         949.873
  23443285.815    23443285.0024   23443289.8834  123195302.489 5  95996362.08741
      1184.538         922.997
  21334362.650    21334361.8304   21334367.9274  112112843.846 8  87360674.55745
     -2092.670       -1630.651
  21275032.733    21275032.2274   21275038.0534  111801053.481 8  87117718.30745
      1213.096         945.271
  23628298.534    23628297.7744   23628303.7604  124167611.288 6  96753974.91042
     -2400.190       -1870.272
  22702580.322    22702580.346    22702586.043   121060201.093 6  94157983.389 5
     -2081.001       -1618.548
  20785632.595    20785632.059    20785637.043   111111139.989 7  86419796.271 6
     -2091.424       -1626.660
  21371786.746    21371786.410    21371788.629   114043960.930 7  88700885.705 6
      1901.424        1478.883
  22639224.423    22639223.491    22639239.715   120679871.755 6  93862149.656 3
     -2065.628       -1606.580
  20041464.632    20041464.673    20041469.142   107095540.758 8  83296571.365 6
       221.587         172.349
  21617399.170    21617399.447    21617403.116   115476284.634 7  89814915.753 6
      2560.553        1991.543
  21735794.489    21735792.660    21735795.603   116312628.382 6  90465410.410 4
      3321.973        2583.757
  24088741.030    24088740.092    24088746.526   128587347.337 5 100012403.485 4
      4767.462        3708.039
  22108129.843    22108129.567    22108133.165   118222138.003 7  91950581.537 5
      -344.314        -267.797
 11 10 10  4 42 30.0000000  0 17G09G12G15G17G18G26G27G28R03R05R06R14
                                R15R16R17R18R24
  21397277.687    21397276.9964   21397282.8034  112443466.105 7  87618305.34345
      2631.722        2050.692
  23358455.664    23358455.6924   23358460.4664  122749513.481 6  95648996.13342
      3759.442        2929.425
  20399047.972    20399047.8404   20399052.6894  107197736.588 9  83530719.74347
       585.667         456.366
  22408336.673    22408336.7244   22408342.0404  117756622.926 6  91758426.79644
      1201.074         935.904
  23436574.430    23436573.8704   23436580.3924  123160031.429 5  95968878.15341
      1166.992         909.331
  21346347.493    21346347.0504   21346353.3164  112175825.756 8  87409751.34845
     -2106.031       -1641.063
  21268121.484    21268120.8024   21268126.8984  111764734.754 8  87089418.00345
      1208.263         941.506
  23642012.676    23642011.3534   23642017.1514  124239676.441 6  96810129.54242
     -2404.064       -1873.323
  22714293.661    22714292.828    22714298.820   121122657.429 6  94206560.469 5
     -2082.645       -1619.828
  20797429.666    20797429.509    20797434.034   111174201.589 8  86468844.174 6
     -2112.555       -1643.101
  21361170.083    21361169.679    21361172.302   113987308.503 7  88656822.715 6
      1875.568        1458.768
  22650854.296    22650853.176    22650868.140   120741864.295 6  93910366.074 3
     -2067.161       -1607.781
  20040242.211    20040242.254    20040246.383   107089007.986 8  83291490.324 6
       213.987         166.433
  21603035.767    21603035.993    21603040.347   115399555.606 7  89755237.655 6
      2554.905        1987.143
  21717220.481    21717219.447    21717222.967   116213241.649 6  90388109.643 4
      3303.908        2569.700
  24061941.527    24061940.579    24061946.171   128444284.021 5  99901131.990 4
      4770.081        3710.070
  22110135.291    22110135.029    22110138.529   118232861.807 7  91958922.258 5
      -370.526        -288.186
 11 10 10  4 43  0.0000000  0 17G09G12G15G17G18G26G27G28R03R05R06R14
                                R15R16R17R18R24
  21382273.710    21382272.9434   21382278.6104  112364618.351 7  87556865.55545
      2624.712        2045.230
  23337017.592    23337016.6464   23337021.2044  122636851.942 6  95561207.95442
      3751.240        2923.043
  20395754.097    20395753.8404   20395758.6034  107180426.216 9  83517231.13647
       568.267         442.808
  22401530.627    22401530.1384   22401535.0664  117720854.757 7  91730555.49844
      1183.322         922.067
  23429963.467    23429962.1034   23429967.4304  123125284.282 6  95941802.44042
      1149.385         895.642
  21358408.397    21358407.9844   21358414.3874  112239206.972 8  87459139.28445
     -2119.449       -1651.519
  21261237.770    21261237.0344   21261243.2524  111728560.464 8  87061230.24845
      1203.275         937.617
  23655747.075    23655745.5454   23655751.0624  124311853.430 6  96866371.32642
     -2407.806       -1876.220
  22726014.132    22726013.811    22726020.995   121185160.943 6  94255174.214 5
     -2084.327       -1621.143
  20809344.270    20809344.057    20809349.004   111237893.262 7  86518382.128 6
     -2133.621       -1659.481
  21350699.179    21350698.329    21350700.681   113931429.981 7  88613361.655 6
      1849.615        1438.590
  22662493.156    22662491.280    22662508.567   120803901.802 6  93958617.423 3
     -2068.822       -1609.062
  20039062.390    20039062.346    20039066.206   107082700.620 8  83286584.585 6
       206.365         160.507
  21588701.993    21588702.575    21588706.860   115322993.696 7  89695689.526 6
      2549.170        1982.690
  21698748.996    21698747.583    21698752.027   116114395.552 6  90311229.358 4
      3285.736        2555.566
  24035125.195    24035124.274    24035130.571   128301140.325 5  99789797.984 4
      4772.575        3711.997
  22112286.592    22112286.452    22112289.652   118244368.996 6  91967872.278 5
      -396.742        -308.572
 11 10 10  4 43 30.0000000  0 17G09G12G15G17G18G26G27G28R03R05R06R14
                                R15R16R17R18R24
  21367308.070    21367307.3944   21367313.5874  112285977.618 7  87495587.07345
      2617.819        2039.859
  23315623.712    23315623.2564   23315627.8634  122524432.395 6  95473608.32742
      3743.214        2916.792
  20392558.547    20392558.4014   20392563.2764  107163634.429 9  83504146.62347
       551.019         429.367
  22394825.193    22394824.8524   22394829.6384  117685618.951 7  91703099.02444
      1165.598         908.261
  23423451.655    23423450.5314   23423453.7104  123091061.334 6  95915135.21542
      1131.942         882.038
  21370544.991    21370544.7374   21370550.7094  112302986.194 7  87508837.36345
     -2132.683       -1661.829
  21254381.581    21254380.8274   21254387.1864  111692530.894 8  87033155.25345
      1198.485         933.887
  23669502.936    23669502.2934   23669506.6394  124384140.647 6  96922698.98242
     -2411.440       -1879.023
  22737745.390    22737744.126    22737751.440   121247711.878 6  94303824.831 5
     -2085.861       -1622.328
  20821376.232    20821376.306    20821381.158   111302211.271 8  86568407.237 6
     -2154.377       -1675.620
  21340372.138    21340372.107    21340374.496   113876328.271 7  88570504.759 6
      1823.675        1418.417
  22674137.968    22674136.530    22674154.665   120865984.396 6  94006903.919 3
     -2070.240       -1610.199
  20037923.871    20037923.976    20037927.809   107076618.482 8  83281854.038 6
       198.946         154.736
  21574401.099    21574401.056    21574405.131   115246598.783 7  89636271.273 6
      2543.665        1978.405
  21680379.706    21680377.843    21680382.520   116016094.791 6  90234773.219 4
      3267.495        2541.383
  24008294.004    24008294.160    24008301.312   128157920.186 5  99678404.510 4
      4775.243        3714.083
  22114585.047    22114584.914    22114588.816   118256658.835 6  91977431.033 5
      -422.752        -328.816
 11 10 10  4 44  0.0000000  0 17G09G12G15G17G18G26G27G28R03R05R06R14
                                R15R16R17R18R24
  21352384.099    21352382.8424   21352388.7084  112207547.869 7  87434472.99345
      2610.831        2034.420
  23294278.683    23294278.0234   23294283.0074  122412259.547 6  95386200.91842
      3734.984        2910.400
  20389462.570    20389462.4484   20389467.2874  107147365.184 9  83491469.28247
       533.627         415.817
  22388222.241    22388221.9494   22388227.0394  117650920.025 7  91676060.90144
      1147.705         894.314
  23417038.319    23417037.4414   23417041.7494  123057365.546 5  95888878.78242
      1114.460         868.423
  21382758.413    21382757.6744   21382763.5534  112367165.194 8  87558846.95845
     -2145.907       -1672.131
  21247553.612    21247553.0154   21247559.1614  111656649.462 8  87005195.69345
      1193.613         930.090
  23683280.340    23683279.1354   23683283.1124  124456539.394 6  96979113.57542
     -2415.062       -1881.859
  22749484.123    22749483.388    22749490.753   121310312.696 6  94352514.259 5
     -2087.499       -1623.600
  20833525.881    20833525.533    20833530.601   111367155.279 7  86618919.227 6
     -2175.164       -1691.792
  21330192.337    21330192.519    21330195.591   113822007.893 7  88528255.578 6
      1797.688        1398.202
  22685792.820    22685792.014    22685805.831   120928115.437 6  94055228.092 3
     -2071.787       -1611.405
  20036828.514    20036828.442    20036832.375   107070764.820 8  83277301.180 6
       191.314         148.803
  21560131.376    21560131.636    21560136.592   115170374.024 7  89576985.400 6
      2538.008        1974.003
  21662111.916    21662110.852    21662115.938   115918347.093 6  90158747.236 4
      3249.006        2527.013
  23981451.287    23981450.896    23981457.428   128014629.876 5  99566956.476 4
      4777.429        3715.782
  22117030.242    22117029.796    22117033.508   118269733.607 6  91987600.299 5
      -448.861        -349.105
 11 10 10  4 44 30.0000000  0 17G09G12G15G17G18G26G27G28R03R05R06R14
                                R15R16R17R18R24
  21337498.305    21337497.4014   21337502.8594  112129322.904 7  87373518.47345
      2603.951        2029.058
  23272977.715    23272976.9854   23272983.0524  122300328.157 6  95298981.66742
      3726.881        2904.050
  20386465.202    20386464.8904   20386469.6144  107131612.372 8  83479194.35847
       516.386         402.377
  22381720.483    22381720.1604   22381725.1204  117616752.207 7  91649436.62344
      1129.959         880.484
  23410726.697    23410725.6014   23410729.0384  123024190.497 5  95863028.09441
      1097.095         854.865
  21395045.253    21395044.8974   21395050.8954  112431735.392 7  87609161.37345
     -2158.961       -1682.306
  21240752.443    21240751.8724   21240757.9354  111620909.207 8  86977346.14146
      1188.888         926.408
  23697076.596    23697074.7804   23697079.8054  124529040.862 6  97035608.18342
     -2418.542       -1884.571
  22761231.640    22761230.853    22761237.805   121372956.481 6  94401237.120 5
     -2088.923       -1624.720
  20845790.134    20845789.432    20845794.526   111432713.859 7  86669909.214 6
     -2195.611       -1707.695
  21320158.389    21320157.964    21320160.309   113768463.629 7  88486610.049 6
      1771.764        1378.039
  22697456.966    22697455.833    22697475.563   120990287.310 6  94103583.986 3
     -2073.218       -1612.504
  20035773.993    20035773.907    20035778.050   107065130.977 8  83272919.297 6
       184.034         143.137
  21545892.883    21545892.916    21545897.489   115094312.163 7  89517826.174 6
      2532.609        1969.807
  21643948.852    21643947.408    21643951.704   115821148.891 6  90083148.643 4
      3230.633        2512.711
  23954593.917    23954594.816    23954600.666   127871267.593 5  99455452.466 4
      4779.705        3717.548
  22119620.974    22119620.298    22119624.318   118283585.393 6  91998373.893 5
      -474.756        -369.254
 11 10 10  4 45  0.0000000  0 17G09G12G15G17G18G26G27G28R03R05R06R14
                                R15R16R17R18R24
  21322653.608    21322652.8044   21322658.0774  112051313.189 7  87312731.69545
      2596.795        2023.477
  23251726.263    23251726.1184   23251731.1144  122188649.390 6  95211959.26142
      3718.448        2897.491
  20383567.639    20383567.4764   20383572.2614  107116386.163 9  83467329.77347
       498.822         388.693
  22375321.193    22375321.1524   22375326.7404  117583126.230 7  91623234.56544
      1111.907         866.418
  23404513.303    23404512.4504   23404517.9114  122991546.094 6  95837590.89241
      1079.413         841.118
  21407408.792    21407408.4074   21407414.4984  112496704.908 7  87659786.95145
     -2172.199       -1692.616
  21233979.966    21233979.4524   21233985.6174  111585319.954 8  86949614.26345
      1183.865         922.491
  23710894.314    23710893.8004   23710898.1104  124601652.953 6  97092189.00042
     -2422.124       -1887.374
  22772989.678    22772988.820    22772995.802   121435653.437 6  94450001.316 5
     -2090.708       -1626.103
  20858169.921    20858169.546    20858174.736   111498893.644 7  86721382.358 6
     -2216.228       -1723.731
  21310271.856    21310271.627    21310274.189   113715706.723 7  88445576.902 6
      1745.482        1357.601
  22709129.662    22709129.316    22709152.568   121052509.801 6  94151979.282 3
     -2074.880       -1613.834
  20034762.412    20034762.702    20034766.968   107059726.966 8  83268716.168 6
       176.435         137.229
  21531686.128    21531686.672    21531690.130   115018422.909 7  89458801.220 6
      2526.880        1965.349
  21625890.589    21625889.085    21625892.873   115724515.063 6  90007989.003 4
      3211.767        2498.040
  23927725.267    23927726.855    23927732.826   127727846.085 5  99343902.419 4
      4781.776        3719.161
  22122357.100    22122357.390    22122361.098   118298222.918 6  92009758.623 5
      -500.937        -389.617
 11 10 10  4 45 30.0000000  0 17G09G12G15G17G18G26G27G28R03R05R06R14
                                R15R16R17R18R24
  21307847.898    21307846.9144   21307852.6204  111973508.837 7  87252104.93845
      2590.318        2018.432
  23230520.303    23230520.5174   23230525.6194  122077213.662 6  95125126.23042
      3710.729        2891.457
  20380768.517    20380768.3414   20380773.2324  107101676.751 9  83455867.88147
       481.963         375.556
  22369024.216    22369023.5154   22369028.9994  117550032.669 7  91597447.37244
      1094.514         852.872
  23398400.806    23398400.5774   23398404.0494  122959421.811 5  95812558.98042
      1062.365         827.843
  21419845.859    21419845.4034   21419851.4614  112562061.845 7  87710714.41845
     -2184.732       -1702.389
  21227234.359    21227233.7194   21227239.5924  111549871.127 8  86921991.80045
      1179.544         919.125
  23724730.403    23724729.2854   23724734.1014  124674363.322 6  97148846.39242
     -2425.058       -1889.675
  22784754.211    22784754.796    22784761.633   121498391.685 6  94498797.635 5
     -2091.709       -1626.879
  20870664.187    20870663.457    20870668.442   111565679.432 7  86773326.852 6
     -2235.999       -1739.113
  21300531.228    21300530.368    21300533.479   113663728.521 7  88405149.429 6
      1719.843        1337.656
  22720809.953    22720809.227    22720845.780   121114771.965 6  94200405.400 3
     -2075.796       -1614.507
  20033792.398    20033792.378    20033796.387   107054541.401 8  83264682.950 6
       169.517         131.848
  21517509.621    21517509.891    21517514.593   114942695.283 7  89399901.985 6
      2521.828        1961.419
  21607936.252    21607935.189    21607938.196   115628438.812 6  89933263.034 4
      3193.445        2483.794
  23900848.463    23900847.772    23900852.334   127584359.037 5  99232301.370 4
      4784.205        3721.049
  22125240.866    22125240.136    22125242.836   118313634.508 7  92021745.405 5
      -526.344        -409.376
 11 10 10  4 46  0.0000000  0 17G09G12G15G17G18G26G27G28R03R05R06R14
                                R15R16R17R18R24
  21293080.643    21293079.7094   21293085.6984  111895907.703 7  87191636.54545
      2583.356        2013.000
  23209360.903    23209361.0014   23209366.7424  121966019.924 6  95038481.75242
      3702.430        2885.016
  20378067.380    20378067.2014   20378071.9804  107087481.836 9  83444806.89547
       464.655         362.069
  22362827.262    22362827.1814   22362832.4274  117517469.527 7  91572073.49544
      1076.652         838.955
  23392385.866    23392384.3324   23392390.1484  122927814.765 5  95787930.11041
      1045.027         814.309
  21432355.746    21432355.3264   21432361.3094  112627801.856 8  87761940.38745
     -2197.679       -1712.476
  21220515.173    21220514.2824   21220520.0344  111514559.845 8  86894476.51446
      1174.815         915.437
  23738583.827    23738583.8834   23738588.9894  124747167.044 6  97205576.52842
     -2428.263       -1892.149
  22796528.207    22796527.292    22796534.924   121561169.091 6  94547624.402 5
     -2093.164       -1628.008
  20883269.107    20883269.175    20883274.266   111633064.671 7  86825737.575 6
     -2256.036       -1754.696
  21290936.121    21290935.515    21290938.190   113612527.391 7  88365326.339 6
      1693.797        1317.396
  22732496.371    22732495.851    22732532.672   121177070.677 6  94248859.941 3
     -2077.189       -1615.600
  20032862.077    20032862.214    20032866.398   107049570.717 8  83260816.864 6
       162.224         126.174
  21503362.492    21503362.544    21503368.314   114867126.426 7  89341126.220 6
      2516.426        1957.221
  21590086.428    21590084.989    21590088.641   115532921.045 6  89858971.455 4
      3174.651        2469.167
  23873957.134    23873955.631    23873960.574   127440807.300 5  99120650.008 4
      4786.095        3722.519
  22128266.569    22128266.393    22128269.343   118329816.109 7  92034331.083 5
      -552.116        -429.429
 11 10 10  4 46 30.0000000  0 17G09G12G15G17G18G26G27G28R03R05R06R14
                                R15R16R17R18R24
  21278352.624    21278352.1454   21278357.7654  111818512.978 7  87131328.97345
      2576.679        2007.800
  23188247.870    23188248.6454   23188254.4684  121855071.887 6  94952028.77142
      3694.383        2878.725
  20375464.476    20375464.4314   20375469.2424  107073804.656 8  83434149.34347
       447.546         348.736
  22356732.686    22356732.5784   22356737.1224  117485440.619 7  91547115.90644
      1058.981         825.174
  23386469.866    23386468.9534   23386474.4244  122896727.898 5  95763706.58041
      1027.833         800.922
  21444938.433    21444938.1934   21444944.4684  112693925.727 7  87813465.46645
     -2210.226       -1722.254
  21213822.002    21213821.3644   21213827.6484  111479388.901 8  86867070.58845
      1170.295         911.916
  23752455.823    23752455.7424   23752461.2574  124820065.046 6  97262380.10642
     -2431.198       -1894.429
  22808308.537    22808307.920    22808315.133   121623987.779 6  94596483.276 5
     -2094.390       -1628.973
  20895987.511    20895986.841    20895992.309   111701047.862 7  86878613.377 6
     -2275.745       -1770.023
  21281487.017    21281486.809    21281489.926   113562107.422 7  88326110.817 6
      1667.900        1297.258
  22744191.977    22744190.416    22744229.044   121239408.364 6  94297344.826 3
     -2078.277       -1616.463
  20031972.719    20031972.717    20031976.742   107044817.177 8  83257119.661 6
       155.139         120.665
  21489246.167    21489246.124    21489251.594   114791718.563 7  89282475.683 6
      2511.191        1953.145
  21572342.420    21572341.118    21572344.679   115437968.277 6  89785119.312 4
      3155.872        2454.569
  23847052.719    23847052.382    23847057.506   127297197.328 5  99008953.367 4
      4788.240        3724.184
  22131436.529    22131436.420    22131439.591   118346768.961 7  92047516.601 5
      -577.689        -449.307
 11 10 10  4 47  0.0000000  0 17G09G12G15G17G18G26G27G28R03R05R06R14
                                R15R16R17R18R24
  21263662.893    21263662.5484   21263668.1214  111741319.512 7  87071178.22845
      2569.813        2002.453
  23167181.478    23167181.7224   23167187.5034  121744365.317 5  94865763.91042
      3686.209        2872.379
  20372959.446    20372959.2794   20372963.9684  107060640.006 9  83423891.16247
       430.328         335.323
  22350738.119    22350738.1154   22350742.8534  117453940.933 7  91522570.70144
      1041.199         811.318
  23380652.004    23380651.9644   23380655.6124  122866155.011 5  95739883.53641
      1010.597         787.469
  21457593.257    21457592.8384   21457599.1924  112760425.998 7  87865283.83145
     -2222.874       -1732.106
  21207154.647    21207154.1124   21207160.3554  111444352.371 8  86839769.39845
      1165.695         908.334
  23766345.161    23766343.9404   23766350.1354  124893049.332 6  97319250.92042
     -2434.171       -1896.765
  22820096.420    22820095.326    22820102.700   121686841.417 6  94645369.359 5
     -2095.676       -1629.967
  20908814.998    20908814.440    20908819.977   111769618.974 7  86931946.450 6
     -2295.444       -1785.342
  21272184.211    21272183.737    21272186.961   113512463.954 7  88287499.231 6
      1641.869        1277.014
  22755892.062    22755891.744    22755929.139   121301778.915 6  94345855.182 3
     -2079.543       -1617.433
  20031122.448    20031122.378    20031126.763   107040273.966 8  83253586.050 6
       147.962         115.082
  21475158.449    21475158.599    21475163.994   114716465.325 7  89223945.402 6
      2505.948        1949.067
  21554703.421    21554702.444    21554706.517   115343579.988 6  89711706.208 4
      3136.905        2439.817
  23820137.158    23820137.401    23820143.539   127153527.377 5  98897210.067 4
      4790.042        3725.584
  22134749.973    22134749.556    22134753.113   118364485.791 6  92061296.331 5
      -603.239        -469.180
 11 10 10  4 47 30.0000000  0 17G09G12G15G17G18G26G27G28R03R05R06R14
                                R15R16R17R18R24
  21249012.217    21249011.3174   21249017.0014  111664325.226 8  87011182.70145
      2563.303        1997.381
  23146160.867    23146159.7894   23146166.5124  121633898.762 6  94779686.10842
      3678.304        2866.201
  20370551.503    20370551.3144   20370555.9294  107047985.556 8  83414030.54047
       413.457         322.177
  22344844.697    22344844.5284   22344849.4374  117422968.745 7  91498436.53444
      1023.736         797.711
  23374931.818    23374929.6574   23374936.6184  122836093.631 6  95716459.07242
       993.662         774.269
  21470318.458    21470318.1834   21470324.5394  112827298.352 7  87917392.13445
     -2235.104       -1741.637
  21200512.452    21200511.8364   21200518.1204  111409447.523 8  86812570.81746
      1161.434         905.010
  23780249.032    23780248.4434   23780253.0854  124966115.017 6  97376185.17442
     -2436.740       -1898.751
  22831888.921    22831888.731    22831896.108   121749727.384 6  94694280.573 5
     -2096.590       -1630.675
  20921751.094    20921750.909    20921756.062   111838771.104 7  86985731.422 6
     -2314.543       -1800.199
  21263025.938    21263025.874    21263028.061   113463595.943 7  88249490.785 6
      1616.150        1257.004
  22767600.107    22767598.737    22767633.960   121364179.263 6  94394388.790 3
     -2080.377       -1618.112
  20030311.192    20030311.066    20030314.964   107035937.955 8  83250213.593 6
       141.265         109.873
  21461099.859    21461100.376    21461105.280   114641363.855 7  89165533.156 6
      2500.966        1945.191
  21537170.435    21537169.415    21537173.648   115249756.415 6  89638732.328 4
      3118.183        2425.253
  23793211.879    23793212.248    23793218.418   127009797.910 5  98785420.460 4
      4792.119        3727.209
  22138204.108    22138204.343    22138208.383   118382962.616 6  92075667.178 5
      -628.391        -488.750
 11 10 10  4 48  0.0000000  0 17G09G12G15G17G18G26G27G28R03R05R06R14
                                R15R16R17R18R24
  21234398.965    21234398.2254   21234404.0264  111587533.911 7  86951345.32445
      2556.322        1991.939
  23125186.271    23125185.4534   23125190.7364  121523676.334 6  94693798.52242
      3669.969        2859.718
  20368240.970    20368240.9164   20368245.6684  107035844.608 9  83404570.05447
       396.139         308.682
  22339052.027    22339051.6714   22339056.6654  117392527.826 7  91474716.33144
      1005.840         783.776
  23369309.368    23369307.3604   23369313.4314  122806546.729 6  95693435.50642
       976.281         760.747
  21483115.239    21483114.6664   21483120.7844  112894544.110 8  87969791.39845
     -2247.743       -1751.488
  21193896.146    21193895.6194   21193901.4994  111374677.626 8  86785477.40145
      1156.735         901.352
  23794167.988    23794167.7314   23794172.5554  125039263.301 6  97433183.79641
     -2439.606       -1900.989
  22843689.583    22843688.726    22843695.744   121812648.395 6  94743219.032 5
     -2097.952       -1631.735
  20934796.967    20934795.974    20934800.833   111908503.120 7  87039967.444 6
     -2334.008       -1815.338
  21254014.760    21254014.296    21254017.038   113415507.468 7  88212088.647 6
      1589.973        1236.645
  22779310.531    22779310.988    22779343.094   121426611.989 6  94442947.605 3
     -2081.642       -1619.108
  20029538.788    20029539.010    20029542.716   107031811.398 8  83247004.052 6
       134.052         104.265
  21447069.555    21447069.745    21447074.854   114566416.961 7  89107241.172 6
      2495.609        1941.032
  21519743.566    21519742.769    21519747.455   115156503.616 6  89566202.390 4
      3098.872        2410.240
  23766276.412    23766277.231    23766283.470   126866016.325 5  98673590.317 4
      4793.501        3728.278
  22141802.434    22141802.323    22141805.502   118402201.118 6  92090630.430 5
      -653.948        -508.621
 11 10 10  4 48 30.0000000  0 17G09G12G15G17G18G26G27G28R03R05R06R14
                                R15R16R17R18R24
  21219824.379    21219823.9624   21219830.1994  111510946.123 7  86891666.52745
      2549.357        1986.514
  23104257.739    23104257.9454   23104262.3234  121413699.261 6  94608102.12042
      3661.616        2853.205
  20366028.705    20366028.3704   20366033.2154  107024217.558 9  83395510.00047
       378.815         295.182
  22333360.266    22333360.0484   22333365.4164  117362618.764 7  91451410.56344
       987.921         769.800
  23363784.126    23363783.0224   23363788.5974  122777513.771 6  95670812.39741
       959.044         747.287
  21495982.257    21495981.8764   21495987.7034  112962161.305 8  88022480.09445
     -2260.248       -1761.231
  21187305.243    21187304.6364   21187310.5264  111340042.386 8  86758488.91046
      1152.094         897.734
  23808103.985    23808104.2364   23808108.1174  125112492.341 6  97490245.34842
     -2442.478       -1903.230
  22855496.410    22855495.595    22855501.725   121875603.978 6  94792184.401 5
     -2099.250       -1632.750
  20947948.598    20947948.267    20947953.523   111978810.759 7  87094651.162 6
     -2353.327       -1830.364
  21245148.721    21245148.616    21245151.113   113368199.699 7  88175293.705 6
      1563.750        1216.249
  22791029.507    22791028.649    22791064.361   121489077.058 6  94491531.411 3
     -2082.858       -1620.000
  20028805.644    20028805.625    20028809.545   107027893.794 8  83243957.024 6
       126.951          98.741
  21433068.142    21433068.385    21433073.153   114491624.115 7  89049068.981 6
      2490.294        1936.897
  21502424.723    21502424.121    21502428.145   115063827.047 6  89494120.630 4
      3079.402        2395.092
  23739333.615    23739333.612    23739339.191   126722186.303 5  98561722.514 4
      4794.901        3729.367
  22145543.094    22145542.291    22145545.040   118422199.690 6  92106184.868 5
      -679.436        -528.448
 11 10 10  4 49  0.0000000  0 17G09G12G15G17G18G26G27G28R03R05R06R14
                                R15R16R17R18R24
  21205291.918    21205291.0024   21205296.8354  111434574.516 7  86832156.18245
      2542.026        1980.800
  23083380.156    23083379.5554   23083383.9084  121303980.426 6  94522606.91842
      3652.921        2846.424
  20363916.142    20363915.9744   20363920.9074  107013116.770 9  83386860.02347
       361.189         281.445
  22327772.388    22327772.0004   22327777.7844  117333254.253 7  91428529.11944
       969.664         755.582
  23358359.692    23358359.3624   23358364.2564  122749006.655 6  95648599.03742
       941.449         733.593
  21508922.412    21508921.7054   21508927.5894  113030160.249 7  88075466.27045
     -2273.019       -1771.188
  21180742.185    21180741.5304   21180747.4784  111305553.534 8  86731614.48946
      1147.135         893.867
  23822056.374    23822055.6994   23822059.7824  125185811.952 6  97547377.45541
     -2445.533       -1905.620
  22867309.330    22867309.343    22867316.779   121938606.452 6  94841186.235 5
     -2100.908       -1634.037
  20961210.302    20961209.780    20961214.784   112049701.738 7  87149788.576 6
     -2372.756       -1845.477
  21236432.294    21236432.001    21236434.298   113321685.979 7  88139116.365 6
      1537.150        1195.560
  22802756.579    22802755.413    22802784.484   121551586.051 6  94540149.477 3
     -2084.375       -1621.196
  20028113.943    20028113.864    20028117.741   107024195.939 8  83241080.909 6
       119.517          92.957
  21419098.324    21419098.093    21419102.368   114416997.045 7  88991025.705 6
      2484.703        1932.540
  21485216.556    21485215.565    21485219.388   114971742.191 6  89422499.081 4
      3059.562        2379.652
  23712383.815    23712383.114    23712388.612   126578323.315 5  98449829.079 4
      4795.845        3730.100
  22149426.622    22149426.160    22149429.938   118442968.997 6  92122338.736 5
      -705.219        -548.503
 11 10 10  4 49 30.0000000  0 17G09G12G15G17G18G26G27G28R03R05R06R14
                                R15R16R17R18R24
  21190799.261    21190798.5934   21190804.8244  111358417.506 7  86772813.07345
      2535.015        1975.334
  23062549.435    23062549.8104   23062554.8474  121194519.747 6  94437312.88042
      3644.378        2839.781
  20361903.685    20361903.4234   20361908.4284  107002540.727 8  83378618.93847
       343.822         267.912
  22322288.057    22322287.7114   22322292.5464  117304433.148 7  91406071.11244
       951.659         741.553
  23353035.473    23353034.5064   23353038.7044  122721023.134 5  95626793.68142
       924.080         720.079
  21521933.771    21521933.3984   21521939.5184  113098537.054 7  88128746.87345
     -2285.469       -1780.885
  21174206.836    21174205.9044   21174212.0644  111271209.013 8  86704852.53045
      1142.448         890.217
  23836024.147    23836023.1344   23836028.6254  125259218.145 5  97604577.02441
     -2448.271       -1907.754
  22879131.770    22879132.047    22879139.841   122001652.871 6  94890222.242 5
     -2102.195       -1635.036
  20974580.278    20974579.806    20974584.795   112121169.805 7  87205374.832 6
     -2391.835       -1860.323
  21227864.763    21227864.058    21227866.393   113275965.250 7  88103555.813 6
      1510.824        1175.082
  22814490.567    22814489.938    22814521.884   121614136.538 6  94588799.870 3
     -2085.732       -1622.245
  20027462.620    20027462.583    20027466.549   107020716.158 8  83238374.412 6
       112.404          87.422
  21405157.915    21405158.508    21405162.850   114342533.403 7  88933109.535 6
      2479.427        1928.441
  21468118.910    21468118.165    21468121.981   114880249.965 6  89351338.465 4
      3039.824        2364.300
  23685426.860    23685427.191    23685432.562   126434430.081 5  98337912.112 4
      4796.967        3730.974
  22153453.367    22153453.262    22153456.253   118464505.084 6  92139089.021 5
      -730.568        -568.221
 11 10 10  4 50  0.0000000  0 17G09G12G15G17G18G26G27G28R03R05R06R14
                                R15R16R17R18R24
  21176349.424    21176348.4394   21176353.7094  111282478.730 7  86713640.01145
      2527.706        1969.641
  23041769.234    23041769.6714   23041774.2504  121085320.902 6  94352222.89542
      3635.641        2832.953
  20359991.553    20359991.3224   20359996.2284  106992492.478 9  83370789.12047
       326.216         254.196
  22316907.186    22316907.0944   22316912.6224  117276159.033 7  91384039.33244
       933.403         727.325
  23347809.991    23347809.2434   23347814.8344  122693565.676 5  95605398.24942
       906.608         706.434
  21535017.452    21535017.0794   21535023.2144  113167292.644 7  88182322.63745
     -2298.098       -1790.724
  21167699.272    21167698.6024   21167704.5634  111237011.585 8  86678205.17946
      1137.536         886.390
  23850009.412    23850007.4504   23850013.6634  125332711.661 5  97661844.65941
     -2451.148       -1909.989
  22890964.979    22890964.384    22890971.389   122064745.671 6  94939294.311 5
     -2103.778       -1636.272
  20988057.049    20988056.668    20988061.764   112193213.829 7  87261409.060 6
     -2410.950       -1875.184
  21219445.242    21219445.459    21219448.186   113231041.442 7  88068615.076 6
      1484.229        1154.404
  22826233.969    22826233.079    22826269.278   121676731.122 6  94637484.478 3
     -2087.162       -1623.351
  20026852.774    20026852.733    20026856.623   107017456.350 8  83235838.996 6
       105.118          81.755
  21391249.161    21391249.231    21391254.133   114268235.645 7  88875322.397 6
      2473.868        1924.119
  21451133.853    21451132.503    21451137.020   114789358.391 6  89280645.029 4
      3019.812        2348.737
  23658465.854    23658466.290    23658471.371   126290512.256 5  98225976.019 4
      4797.673        3731.521
  22157624.430    22157624.525    22157628.329   118486809.529 6  92156436.869 5
      -756.168        -588.129
 11 10 10  4 50 30.0000000  0 17G09G12G15G17G18G26G27G28R03R05R06R14
                                R15R16R17R18R24
  21161938.711    21161938.0964   21161943.6404  111206753.321 7  86654633.22145
      2520.346        1963.909
  23021039.309    23021039.0774   23021043.5134  120976379.635 6  94267333.60443
      3626.781        2826.061
  20358178.651    20358178.5044   20358183.5764  106982966.783 8  83363366.48847
       308.538         240.420
  22311630.240    22311630.0054   22311634.9794  117248426.934 7  91362429.89844
       915.084         713.055
  23342684.290    23342681.8794   23342687.0364  122666628.647 6  95584408.34442
       888.910         692.682
  21548172.323    21548171.7114   21548177.6884  113236419.906 7  88236188.01645
     -2310.684       -1800.532
  21161218.585    21161218.1174   21161224.0084  111202956.044 8  86651668.38946
      1132.546         882.506
  23864010.831    23864009.3924   23864014.2724  125406285.106 5  97719174.53741
     -2454.078       -1912.252
  22902804.648    22902804.482    22902811.511   122127880.224 6  94988398.855 5
     -2105.468       -1637.576
  21001640.222    21001640.229    21001644.984   112265823.922 7  87317883.561 6
     -2429.987       -1889.983
  21211174.708    21211174.783    21211178.034   113186910.134 7  88034290.716 6
      1457.524        1133.632
  22837983.583    22837981.709    22838016.674   121739364.207 6  94686199.033 3
     -2088.698       -1624.585
  20026282.238    20026282.444    20026286.265   107014409.746 8  83233469.414 6
        97.722          76.009
  21377370.388    21377370.593    21377375.345   114194098.211 7  88817659.933 6
      2468.339        1919.816
  21434260.413    21434259.291    21434263.118   114699064.765 6  89210416.663 4
      2999.478        2332.931
  23631501.620    23631500.440    23631506.935   126146568.559 5  98114019.782 4
      4798.304        3732.017
  22161938.196    22161937.661    22161941.448   118509875.028 6  92174376.695 5
      -781.820        -608.083
 11 10 10  4 51  0.0000000  0 17G09G12G15G17G18G26G27G28R03R05R06R14
                                R15R16R17R18R24
  21147570.838    21147570.2134   21147575.7634  111131249.108 7  86595798.78045
      2513.131        1958.286
  23000358.949    23000358.6344   23000363.2244  120867704.577 6  94182651.74443
      3618.086        2819.280
  20356467.206    20356466.9644   20356471.9364  106973971.675 9  83356357.29647
       291.012         226.765
  22306457.221    22306456.8564   22306462.6394  117221245.059 7  91341249.21844
       896.874         698.861
  23337658.275    23337657.4154   23337662.7374  122640219.578 6  95563829.85642
       871.503         679.095
  21561398.230    21561397.8194   21561404.2144  113305924.449 7  88290347.37045
     -2323.089       -1810.199
  21154766.285    21154765.7844   21154771.7534  111169049.551 8  86625247.73646
      1127.730         878.749
  23878027.654    23878026.8174   23878031.8994  125479944.212 5  97776571.19541
     -2456.664       -1914.285
  22914654.549    22914653.847    22914660.840   122191062.963 6  95037540.866 5
     -2106.931       -1638.714
  21015330.723    21015329.667    21015334.528   112339003.030 7  87374800.627 6
     -2448.727       -1904.567
  21203055.212    21203054.778    21203057.753   113143580.006 7  88000589.529 6
      1430.966        1112.972
  22849741.507    22849739.742    22849779.332   121802042.814 5  94734949.084 3
     -2090.007       -1625.558
  20025753.446    20025753.225    20025757.539   107011583.816 8  83231271.460 6
        90.549          70.428
  21363523.769    21363523.880    21363528.263   114120128.175 7  88760127.681 6
      2462.875        1915.570
  21417500.553    21417499.883    21417503.621   114609380.999 6  89140662.631 4
      2979.254        2317.197
  23604531.617    23604532.693    23604538.603   126002610.791 5  98002052.602 4
      4798.686        3732.318
  22166395.094    22166395.032    22166398.404   118533707.555 6  92192913.076 5
      -807.167        -627.795
 11 10 10  4 51 30.0000000  0 17G09G12G15G17G18G26G27G28R03R05R06R14
                                R15R16R17R18R24
  21133243.227    21133242.5404   21133248.0244  111055957.388 7  86537129.91945
      2506.319        1952.973
  22979727.866    22979726.8834   22979732.7714  120759287.347 6  94098170.78843
      3609.735        2812.784
  20354854.682    20354854.4904   20354859.4304  106965497.751 8  83349754.22947
       273.909         213.436
  22301388.103    22301387.9514   22301393.4254  117194604.818 7  91320490.59444
       879.123         685.030
  23332731.312    23332730.8244   23332735.2144  122614328.534 6  95543655.03941
       854.517         665.853
  21574694.078    21574693.7854   21574700.0574  113375795.138 7  88344792.03245
     -2334.954       -1819.445
  21148340.926    21148340.3614   21148346.3114  111135282.744 8  86598935.94146
      1123.376         875.359
  23892057.284    23892057.6584   23892063.4244  125553677.556 5  97834025.68441
     -2458.883       -1916.005
  22926509.559    22926509.551    22926516.800   122254284.059 5  95086712.691 5
     -2107.864       -1639.441
  21029122.913    21029123.013    21029128.103   112412737.640 7  87432149.764 6
     -2466.907       -1918.705
  21195084.439    21195083.881    21195085.985   113101042.559 7  87967504.850 6
      1404.830        1092.644
  22861506.532    22861506.244    22861539.127   121864757.482 6  94783727.181 3
     -2090.942       -1626.252
  20025263.872    20025263.833    20025268.313   107008968.976 8  83229237.686 6
        83.825          65.194
  21349705.642    21349706.007    21349710.086   114046315.737 7  88702718.023 6
      2457.968        1911.753
  21400854.996    21400853.025    21400856.996   114520301.454 6  89071378.552 4
      2959.368        2301.737
  23577559.638    23577560.002    23577565.713   125858633.036 5  97890069.866 4
      4799.713        3733.115
  22170993.525    22170992.823    22170996.430   118558296.087 6  92212037.460 5
      -832.034        -647.136
 11 10 10  4 52  0.0000000  0 17G09G12G15G17G18G26G27G28R03R05R06R14
                                R15R16R17R18R24
  21118956.031    21118955.3544   21118961.0214  110980878.949 7  86478627.24545
      2499.173        1947.407
  22959146.043    22959145.6034   22959150.4524  120651129.518 6  94013891.96443
      3601.044        2805.998
  20353341.325    20353341.1904   20353346.0784  106957545.561 9  83343557.70647
       256.492         199.866
  22296421.930    22296421.6814   22296426.8404  117168506.578 7  91300154.29544
       861.026         670.930
  23327903.129    23327903.1264   23327907.0114  122588955.044 6  95523883.46142
       837.267         652.421
  21588059.406    21588059.1854   21588065.2934  113446030.078 7  88399520.52245
     -2347.100       -1828.905
  21141942.243    21141941.3874   21141947.4084  111101655.746 8  86572733.08146
      1118.700         871.716
  23906103.202    23906102.5194   23906107.2534  125627482.936 5  97891536.33541
     -2461.238       -1917.855
  22938373.592    22938372.773    22938379.472   122317543.753 6  95135914.547 5
     -2109.146       -1640.442
  21043020.473    21043019.787    21043024.823   112487023.151 7  87489927.375 6
     -2485.181       -1932.918
  21187260.493    21187260.431    21187263.226   113059298.545 7  87935037.302 6
      1378.353        1072.056
  22873279.535    22873277.968    22873305.633   121927507.599 6  94832532.820 3
     -2092.107       -1627.204
  20024813.999    20024813.722    20024818.319   107006563.275 8  83227366.578 6
        76.811          59.743
  21335917.196    21335917.411    21335921.705   113972660.754 7  88645430.815 6
      2452.662        1907.627
  21384321.417    21384320.010    21384323.766   114431829.163 6  89002566.792 4
      2939.028        2285.910
  23550586.575    23550585.135    23550591.095   125714639.201 5  97778074.617 4
      4800.251        3733.533
  22175731.523    22175731.902    22175736.552   118583638.512 6  92231748.205 5
      -857.192        -666.700
 11 10 10  4 52 30.0000000  0 17G09G12G15G17G18G26G27G28R03R05R06R14
                                R15R16R17R18R24
  21104709.842    21104709.1764   21104714.7644  110906013.057 7  86420290.19645
      2491.972        1941.798
  22938612.455    22938612.9214   22938618.4254  120543230.832 6  93929815.06043
      3592.291        2799.192
  20351927.245    20351926.9594   20351931.9544  106950113.698 8  83337766.63247
       239.027         186.255
  22291558.473    22291558.0694   22291563.4624  117142949.397 7  91280239.60144
       842.859         656.779
  23323171.789    23323171.9124   23323176.6854  122564097.355 6  95504513.85442
       819.966         638.942
  21601493.491    21601493.1574   21601499.0704  113516625.942 7  88454530.25545
     -2359.211       -1838.345
  21135569.304    21135568.7244   21135574.6004  111068167.048 8  86546637.98546
      1113.970         868.025
  23920160.713    23920160.4184   23920164.7534  125701356.981 5  97949100.46841
     -2463.680       -1919.754
  22950244.160    22950243.269    22950249.477   122380840.209 6  95185144.990 5
     -2110.509       -1641.500
  21057018.562    21057018.386    21057023.830   112561853.776 7  87548128.963 6
     -2503.428       -1947.109
  21179586.804    21179586.299    21179589.004   113018347.050 7  87903186.139 6
      1351.804        1051.405
  22885055.560    22885055.295    22885079.535   121990291.592 5  94881364.747 3
     -2093.424       -1628.201
  20024403.067    20024402.757    20024406.950   107004365.939 8  83225657.528 6
        69.800          54.289
  21322157.942    21322158.718    21322161.773   113899161.211 7  88588264.502 6
      2447.392        1903.527
  21367901.745    21367900.531    21367904.358   114343966.358 7  88934229.060 4
      2918.517        2269.963
  23523609.000    23523608.703    23523613.425   125570631.933 5  97666068.931 4
      4800.375        3733.629
  22180611.004    22180611.108    22180615.501   118609731.464 6  92252042.684 5
      -882.277        -686.215
 11 10 10  4 53  0.0000000  0 17G09G12G15G17G18G26G27G28R03R05R06R14
                                R15R16R17R18R24
  21090503.313    21090502.6024   21090508.5264  110831356.986 8  86362116.64245
      2484.969        1936.341
  22918129.519    22918129.5854   22918134.0184  120435588.693 6  93845938.07043
      3583.644        2792.446
  20350611.260    20350611.1204   20350616.3654  106943199.204 8  83332378.69747
       221.796         172.831
  22286797.559    22286797.0684   22286802.4474  117117931.028 7  91260744.75844
       824.916         642.796
  23318539.992    23318539.2934   23318545.5434  122539752.031 6  95485543.47942
       802.920         625.656
  21614995.319    21614994.6894   21615000.9034  113587577.816 7  88509817.41045
     -2371.084       -1847.596
  21129222.203    21129221.5494   21129227.4284  111034813.262 8  86520648.02046
      1109.476         864.526
  23934230.819    23934229.5644   23934234.8834  125775294.849 5  98006714.33541
     -2465.726       -1921.347
  22962121.433    22962120.485    22962126.714   122444170.325 6  95234401.620 5
     -2111.629       -1642.370
  21071118.514    21071117.831    21071123.123   112637221.806 7  87606748.529 6
     -2521.223       -1960.952
  21172061.304    21172060.817    21172063.348   112978186.021 7  87871949.789 6
      1325.489        1030.935
  22896840.142    22896839.268    22896859.346   122053106.044 5  94930220.441 3
     -2094.396       -1628.955
  20024029.594    20024029.730    20024033.696   107002372.176 8  83224106.818 6
        62.960          48.969
  21308427.423    21308427.471    21308431.427   113825813.541 7  88531216.309 6
      2442.324        1899.587
  21351596.638    21351595.709    21351599.394   114256714.029 7  88866366.147 4
      2898.117        2254.087
  23496629.747    23496629.378    23496634.297   125426611.745 5  97554053.219 5
      4800.700        3733.879
  22185630.814    22185630.943    22185634.718   118636569.955 6  92272917.048 5
      -907.048        -705.480
 11 10 10  4 53 30.0000000  0 17G09G12G15G17G18G26G27G28R03R05R06R14
                                R15R16R17R18R24
  21076337.988    21076337.3074   21076343.0904  110756918.288 7  86304112.46945
      2477.926        1930.849
  22897697.008    22897696.3634   22897701.3014  120328211.536 6  93762267.56243
      3575.069        2785.759
  20349395.390    20349395.1904   20349400.1854  106936809.142 9  83327399.41047
       204.515         159.361
  22282140.880    22282140.4044   22282145.6104  117093458.684 7  91241675.38844
       806.902         628.749
  23314006.177    23314005.2364   23314009.6114  122515925.767 6  95466977.56342
       785.808         612.311
  21628565.881    21628565.2064   21628571.3504  113658890.688 7  88565385.85245
     -2382.832       -1856.751
  21122902.150    21122901.4144   21122907.6264  111001601.550 8  86494768.75446
      1104.955         861.004
  23948313.738    23948311.8364   23948317.6694  125849301.596 5  98064381.86241
     -2467.760       -1922.911
  22974003.374    22974003.917    22974011.152   122507540.969 5  95283689.745 5
     -2112.688       -1643.199
  21085318.582    21085318.284    21085323.856   112713130.105 7  87665788.297 6
     -2538.969       -1974.755
  21164683.271    21164683.366    21164687.102   112938823.154 7  87841334.226 6
      1299.049        1010.372
  22908631.004    22908630.553    22908650.792   122115957.655 6  94979105.036 3
     -2095.427       -1629.768
  20023696.341    20023696.287    20023700.160   107000589.601 8  83222720.363 6
        56.208          43.717
  21294725.798    21294726.063    21294730.716   113752624.753 7  88474291.703 6
      2437.231        1895.620
  21335408.109    21335406.918    21335410.166   114170082.873 7  88798986.363 5
      2877.597        2238.136
  23469646.921    23469648.457    23469653.778   125282589.189 5  97442035.660 4
      4800.956        3734.073
  22190789.629    22190789.737    22190793.922   118664159.345 6  92294375.424 5
      -931.861        -724.781
 11 10 10  4 54  0.0000000  0 17G09G12G15G17G18G26G27G28R03R05R06R14
                                R15R16R17R18R24
  21062213.961    21062213.0464   21062218.6394  110682693.966 7  86246275.34545
      2470.526        1925.082
  22877313.824    22877313.6024   22877317.8634  120221096.697 6  93678801.46243
      3566.095        2778.770
  20348278.420    20348278.2744   20348283.2604  106930939.890 8  83322825.95747
       186.940         145.669
  22277586.933    22277586.6834   22277591.7264  117069528.727 7  91223028.66144
       788.595         614.492
  23309569.682    23309567.7084   23309573.2714  122492613.870 6  95448812.42842
       768.484         598.832
  21642203.652    21642203.4334   21642209.4184  113730558.649 7  88621230.99545
     -2394.836       -1866.103
  21116608.487    21116607.7624   21116614.0124  110968528.061 8  86468997.19146
      1100.142         857.257
  23962409.741    23962408.7044   23962412.5544  125923370.961 5  98122098.18141
     -2470.039       -1924.708
  22985894.118    22985894.339    22985900.804   122570947.091 5  95333005.471 5
     -2114.167       -1644.349
  21099617.333    21099617.827    21099622.697   112789570.061 7  87725241.595 6
     -2556.811       -1988.630
  21157455.691    21157455.713    21157458.585   112900255.220 7  87811336.957 6
      1272.317         989.578
  22920428.774    22920427.751    22920444.126   122178842.058 6  95028015.056 3
     -2096.701       -1630.774
  20023401.112    20023400.911    20023404.939   106999012.674 8  83221493.859 6
        49.128          38.212
  21281053.983    21281053.828    21281058.460   113679590.194 7  88417487.030 6
      2431.873        1891.459
  21319334.663    21319333.290    21319337.363   114084071.986 7  88732089.015 5
      2856.639        2221.831
  23442668.448    23442667.581    23442673.190   125138565.546 5  97330017.240 5
      4800.797        3733.960
  22196089.049    22196088.180    22196092.165   118692493.654 6  92316413.213 5
      -956.898        -744.253
 11 10 10  4 54 30.0000000  0 17G09G12G15G17G18G26G27G28R03R05R06R14
                                R15R16R17R18R24
  21048130.753    21048129.9184   21048135.8704  110608687.775 7  86188608.18245
      2463.338        1919.482
  22856981.079    22856980.8294   22856985.8244  120114248.583 6  93595543.21643
      3557.281        2771.903
  20347261.229    20347261.1234   20347266.1814  106925594.832 8  83318660.96347
       169.543         132.108
  22273137.131    22273136.9084   22273141.9664  117046145.366 7  91204807.85844
       770.426         600.326
  23305232.275    23305231.5814   23305237.2454  122469819.316 6  95431050.44642
       751.301         585.407
  21655909.708    21655909.0554   21655915.2844  113802583.242 7  88677354.02945
     -2406.643       -1875.305
  21110341.734    21110341.0834   21110347.2424  110935596.038 8  86443335.86646
      1095.485         853.623
  23976515.805    23976513.6054   23976519.9074  125997504.428 5  98179864.43841
     -2471.998       -1926.239
  22997792.776    22997792.665    22997799.102   122634392.374 5  95382351.663 5
     -2115.369       -1645.281
  21114016.731    21114016.494    21114021.393   112866540.431 7  87785107.438 6
     -2574.364       -2002.285
  21150378.437    21150377.947    21150380.407   112862486.562 7  87781961.326 6
      1245.725         968.901
  22932234.177    22932231.275    22932244.385   122241762.389 5  95076953.094 3
     -2097.825       -1631.649
  20023144.880    20023144.963    20023148.960   106997643.907 8  83220429.250 6
        42.236          32.850
  21267411.014    21267411.224    21267415.035   113606712.916 7  88360804.730 6
      2426.730        1887.454
  21303378.244    21303377.535    21303380.877   113998689.157 7  88665680.148 5
      2835.729        2205.569
  23415688.394    23415687.670    23415693.850   124994546.406 5  97218002.343 5
      4800.599        3733.795
  22201526.195    22201525.765    22201529.834   118721573.937 6  92339031.193 5
      -981.656        -763.512
 11 10 10  4 55  0.0000000  0 17G09G12G15G17G18G26G27G28R03R05R06R14
                                R15R16R17R18R24
  21034087.630    21034086.9384   21034092.5944  110534891.194 8  86131104.35345
      2456.353        1914.041
  22836697.291    22836696.9294   22836702.2554  120007658.794 6  93512486.25543
      3548.631        2765.177
  20346342.288    20346342.0684   20346347.1094  106920765.216 9  83314897.61047
       152.374         118.736
  22268789.722    22268789.1814   22268794.6584  117023299.661 7  91187006.00744
       752.514         586.383
  23300990.128    23300990.1974   23300995.5364  122447532.611 6  95413684.18342
       734.401         572.240
  21669681.307    21669680.6604   21669686.8834  113874953.415 7  88733746.33745
     -2418.137       -1884.264
  21104100.151    21104099.6434   21104105.4454  110902796.344 8  86417777.65846
      1091.084         850.197
  23990633.315    23990632.8394   23990637.9764  126071691.086 5  98237672.15841
     -2473.761       -1927.599
  23009697.443    23009696.301    23009703.421   122697867.075 5  95431720.736 5
     -2116.303       -1646.004
  21128512.286    21128511.822    21128517.037   112944027.551 7  87845375.192 6
     -2591.520       -2015.630
  21143448.171    21143447.988    21143450.840   112825507.924 7  87753200.164 6
      1219.428         948.440
  22944041.764    22944039.843    22944054.839   122304709.088 6  95125911.630 3
     -2098.711       -1632.329
  20022926.265    20022926.124    20022930.118   106996474.181 8  83219519.455 6
        35.698          27.767
  21253795.977    21253796.378    21253800.329   113533983.382 7  88304237.328 6
      2421.830        1883.647
  21287538.534    21287537.314    21287541.454   113913927.510 7  88599754.430 4
      2814.994        2189.437
  23388708.556    23388708.612    23388714.728   124850527.971 5  97105987.981 5
      4800.529        3733.749
  22207101.597    22207101.361    22207104.822   118751389.022 6  92362220.678 5
     -1006.069        -782.498
 11 10 10  4 55 30.0000000  0 17G09G12G15G17G18G26G27G28R03R05R06R14
                                R15R16R17R18R24
  21020086.585    21020085.7374   21020091.6114  110461315.785 8  86073772.86145
      2448.710        1908.088
  22816464.549    22816465.5794   22816470.3414  119901339.325 6  93429639.94043
      3539.338        2757.936
  20345523.374    20345523.2064   20345528.1134  106916461.256 8  83311543.86147
       134.573         104.863
  22264546.904    22264546.5044   22264551.8864  117001002.453 7  91169631.56144
       733.970         571.922
  23296848.437    23296847.8134   23296854.5274  122425763.698 6  95396721.36942
       716.919         558.640
  21683520.168    21683519.7544   21683525.6684  113947677.570 7  88790414.48245
     -2430.138       -1893.613
  21097885.854    21097885.1624   21097891.0874  110870139.425 8  86392330.70546
      1086.044         846.269
  24004762.939    24004760.8504   24004767.3754  126145939.430 5  98295527.95141
     -2476.132       -1929.452
  23021607.877    23021606.824    23021614.565   122761382.044 5  95481121.137 5
     -2117.926       -1647.274
  21143105.874    21143105.803    21143110.699   113022037.682 7  87906049.719 6
     -2609.123       -2029.314
  21136669.320    21136669.165    21136671.290   112789330.900 7  87725062.486 6
      1192.411         927.430
  22955856.733    22955856.220    22955869.442   122367692.493 6  95174898.791 3
     -2100.160       -1633.435
  20022746.154    20022746.179    20022750.383   106995513.440 8  83218772.209 6
        28.482          22.152
  21240210.461    21240210.573    21240214.741   113461412.218 7  88247793.099 6
      2416.316        1879.355
  21271818.115    21271816.878    21271820.273   113829802.402 6  88534323.794 4
      2793.390        2172.643
  23361731.596    23361731.606    23361738.092   124706523.722 5  96993984.650 5
      4799.680        3733.078
  22212816.867    22212816.443    22212820.241   118781947.786 6  92385988.570 5
     -1031.087        -801.949
 11 10 10  4 56  0.0000000  0 17G09G12G15G17G18G26G27G28R03R05R06R14
                                R15R16R17R18R24
  21006128.462    21006127.6244   21006132.9634  110387963.095 7  86016614.92345
      2441.198        1902.234
  22796285.665    22796284.9624   22796289.9854  119795292.391 6  93347005.96843
      3530.158        2750.777
  20344804.568    20344804.3534   20344809.3974  106912683.988 8  83308600.52247
       116.962          91.143
  22260408.591    22260407.9704   22260413.5024  116979255.551 7  91152685.91544
       715.565         557.586
  23292803.002    23292803.3524   23292809.9354  122404512.952 5  95380162.33742
       699.525         545.093
  21697426.152    21697425.9404   21697431.8644  114020754.999 7  88847357.90345
     -2441.965       -1902.832
  21091698.654    21091698.0784   21091704.0914  110837626.226 8  86366995.74346
      1081.200         842.495
  24018903.500    24018902.7414   24018908.2414  126220248.734 5  98353431.23341
     -2478.213       -1931.080
  23033526.177    23033525.796    23033533.716   122824937.516 5  95530553.009 5
     -2119.338       -1648.365
  21157796.662    21157796.183    21157800.746   113100567.486 7  87967128.450 6
     -2626.434       -2042.784
  21130040.407    21130040.307    21130042.148   112753956.846 7  87697549.336 6
      1165.557         906.543
  22967679.457    22967678.875    22967681.460   122430713.832 6  95223915.346 3
     -2101.490       -1634.475
  20022605.479    20022605.652    20022609.887   106994761.941 8  83218187.698 6
        21.381          16.629
  21226654.712    21226654.945    21226659.138   113388999.951 7  88191472.450 6
      2410.928        1875.165
  21256216.797    21256215.782    21256219.611   113746318.119 7  88469391.580 4
      2771.899        2155.919
  23334758.284    23334758.712    23334765.340   124562538.723 5  96881996.306 5
      4799.020        3732.572
  22218670.168    22218669.981    22218674.414   118813248.861 6  92410333.826 5
     -1055.903        -821.250
 11 10 10  4 56 30.0000000  0 17G09G12G15G17G18G26G27G28R03R05R06R14
                                R15R16R17R18R24
  20992212.641    20992211.8044   20992217.1384  110314834.331 7  85959631.47645
      2433.964        1896.595
  22776157.656    22776157.2834   22776162.3824  119689519.515 6  93264585.56543
      3521.215        2743.816
  20344186.079    20344186.0644   20344191.0424  106909434.669 8  83306068.57047
        99.589          77.604
  22256375.052    22256374.6694   22256379.9664  116958060.044 7  91136169.92144
       697.389         543.425
  23288859.553    23288859.1924   23288862.9954  122383780.511 6  95364007.17242
       682.565         531.873
  21711399.798    21711399.1224   21711405.2414  114094184.260 7  88904575.47645
     -2453.409       -1911.747
  21085539.326    21085538.5114   21085544.4864  110805257.650 8  86341773.46546
      1076.606         838.915
  24033055.846    24033053.7944   24033058.5934  126294617.436 5  98411380.78341
     -2479.798       -1932.309
  23045454.416    23045453.319    23045459.951   122888534.735 6  95580017.381 5
     -2120.575       -1649.327
  21172583.769    21172583.443    21172588.159   113179613.005 7  88028608.288 6
     -2643.307       -2055.906
  21123562.150    21123561.853    21123563.403   112719387.437 7  87670662.029 6
      1138.968         885.867
  22979509.156    22979508.172    22979517.532   122493773.213 5  95272961.569 3
     -2102.550       -1635.322
  20022503.832    20022503.931    20022508.408   106994220.291 8  83217766.404 6
        14.665          11.409
  21213128.989    21213129.358    21213133.412   113316747.227 7  88135275.884 6
      2405.821        1871.192
  21240736.438    21240735.292    21240739.537   113663478.860 7  88404961.042 5
      2750.582        2139.351
  23307788.569    23307789.905    23307796.438   124418578.737 5  96770027.397 5
      4798.264        3731.986
  22224662.526    22224662.694    22224665.722   118845291.050 6  92435255.487 5
     -1080.336        -840.260
 11 10 10  4 57  0.0000000  0 17G09G12G15G17G18G26G27G28R03R05R06R14
                                R15R16R17R18R24
  20978339.696    20978338.8784   20978344.5164  110241933.007 8  85902825.26145
      2426.192        1890.540
  22756082.503    22756082.8094   22756087.5414  119584024.501 6  93182381.65743
      3511.814        2736.477
  20343668.852    20343668.5824   20343673.6944  106906716.082 9  83303950.17047
        81.712          63.676
  22252447.724    22252447.2364   22252452.1784  116937418.767 7  91120085.78644
       678.744         528.895
  23285014.371    23285012.9834   23285017.6124  122363568.990 6  95348257.92242
       664.998         518.164
  21725439.837    21725439.4354   21725445.5544  114167966.506 7  88962068.09845
     -2465.293       -1921.004
  21079407.788    21079407.0344   21079412.9094  110773036.425 8  86316666.01246
      1071.548         834.974
  24047219.248    24047218.4984   24047223.2484  126369046.720 5  98469377.57041
     -2482.004       -1934.029
  23057387.946    23057387.713    23057395.366   122952175.833 5  95629515.861 5
     -2122.101       -1650.518
  21187467.408    21187466.606    21187471.368   113259172.640 7  88090488.005 6
     -2660.571       -2069.328
  21117234.954    21117234.624    21117237.660   112685625.746 7  87644402.945 6
      1111.883         864.802
  22991344.832    22991345.341    22991351.068   122556873.304 5  95322039.405 3
     -2104.076       -1636.482
  20022442.206    20022442.364    20022446.398   106993890.724 8  83217510.055 6
         7.412           5.767
  21199633.174    21199633.482    21199637.687   113244656.297 7  88079205.160 6
      2400.333        1866.929
  21225376.688    21225376.211    21225379.927   113581290.196 6  88341036.540 5
      2728.708        2122.328
  23280828.084    23280827.027    23280833.582   124274649.265 5  96658082.217 5
      4796.934        3730.944
  22230793.784    22230793.236    22230797.068   118878074.988 6  92460754.092 5
     -1105.235        -859.625
 11 10 10  4 57 30.0000000  0 17G09G12G15G17G18G26G27G28R03R05R06R14
                                R15R16R17R18R24
  20964511.260    20964510.5624   20964515.9924  110169264.206 7  85846200.23645
      2418.572        1884.603
  22736062.528    22736061.8554   22736066.9964  119478813.021 6  93100398.69543
      3502.484        2729.206
  20343253.391    20343253.1914   20343258.0924  106904532.580 8  83302248.72847
        64.020          49.887
  22248625.667    22248625.7304   22248630.7534  116917336.598 7  91104437.32944
       660.238         514.476
  23281267.145    23281266.4754   23281271.6944  122343882.008 6  95332917.39942
       647.643         504.662
  21739547.960    21739547.1614   21739553.7274  114242104.264 7  89019837.74945
     -2476.997       -1930.125
  21073305.100    21073304.3674   21073310.3334  110740967.185 8  86291676.99046
      1066.588         831.102
  24061393.955    24061392.9454   24061397.3904  126443539.260 5  98527423.63141
     -2483.910       -1935.504
  23069332.221    23069330.930    23069338.598   123015865.756 5  95679052.313 4
     -2123.671       -1651.743
  21202445.810    21202445.978    21202450.996   113339246.422 7  88152767.615 6
     -2677.500       -2082.498
  21111060.027    21111060.057    21111063.284   112652676.956 7  87618776.120 6
      1084.925         843.832
  23003193.263    23003192.017    23003193.792   122620018.885 5  95371152.612 3
     -2105.437       -1637.573
  20022421.237    20022421.246    20022425.078   106993776.697 8  83217421.354 6
         0.410           0.320
  21186168.622    21186168.903    21186173.060   113172731.758 7  88023263.858 6
      2394.904        1862.703
  21210141.938    21210140.340    21210144.281   113499760.983 7  88277624.938 5
      2706.775        2105.265
  23253871.221    23253871.702    23253878.128   124130759.751 5  96546168.124 5
      4795.750        3730.030
  22237062.875    22237063.029    22237067.407   118911603.274 6  92486831.585 5
     -1129.837        -878.766
 11 10 10  4 58  0.0000000  0 17G09G12G15G17G18G26G27G28R03R05R06R14
                                R15R16R17R18R24
  20950725.875    20950725.2264   20950730.6684  110096822.902 7  85789752.46745
      2410.702        1878.474
  22716093.976    22716093.7334   22716098.7654  119373880.520 6  93018633.12543
      3492.867        2721.725
  20342938.910    20342938.5634   20342943.6574  106902878.764 9  83300960.02247
        46.102          35.925
  22244909.598    22244909.1454   22244914.5864  116897808.863 7  91089220.91244
       641.499         499.876
  23277619.444    23277618.8474   23277623.4554  122324713.518 6  95317980.93142
       630.112         490.985
  21753722.295    21753721.3774   21753727.7274  114316589.882 7  89077878.45045
     -2488.792       -1939.310
  21067230.346    21067229.7174   21067235.6634  110709044.445 8  86266802.12746
      1061.482         827.134
  24075580.691    24075579.3154   24075585.7974  126518087.623 5  98585513.17941
     -2486.047       -1937.215
  23081284.593    23081283.931    23081290.252   123079598.501 5  95728622.076 4
     -2125.334       -1653.030
  21217520.306    21217519.515    21217524.574   113419824.155 7  88215439.171 6
     -2694.480       -2095.707
  21105036.654    21105036.387    21105039.255   112620535.651 7  87593777.332 6
      1057.713         822.667
  23015045.754    23015044.810    23015059.517   122683203.529 5  95420296.368 3
     -2107.011       -1638.807
  20022439.052    20022439.240    20022443.228   106993872.566 8  83217495.907 6
        -6.865          -5.335
  21172733.748    21172734.122    21172738.699   113100967.624 7  87967447.311 6
      2389.242        1858.299
  21195029.451    21195027.522    21195032.009   113418889.132 6  88214724.610 4
      2684.562        2087.988
  23226924.395    23226924.094    23226929.544   123986908.478 6  96434283.767 4
      4794.224        3728.843
  22243471.862    22243470.916    22243474.291   118945867.842 6  92513481.800 5
     -1154.613        -898.030
 11 10 10  4 58 30.0000000  0 17G09G12G15G17G18G26G27G28R03R05R06R14
                                R15R16R17R18R24
  20936985.238    20936984.3354   20936990.1174  110024615.108 7  85733486.66545
      2402.979        1872.453
  22696179.677    22696179.0774   22696184.3654  119269233.196 6  92937089.77243
      3483.453        2714.372
  20342725.833    20342725.6244   20342730.7554  106901759.628 8  83300087.95347
        28.344          22.086
  22241300.030    22241300.0634   22241305.0564  116878840.256 7  91074440.17944
       622.929         485.401
  23274071.267    23274070.1624   23274075.6444  122306067.978 5  95303451.94442
       612.768         477.484
  21767962.947    21767962.4624   21767968.9394  114391426.318 7  89136192.52244
     -2500.416       -1948.379
  21061184.603    21061184.0894   21061189.8484  110677273.269 8  86242045.35946
      1056.458         823.212
  24089777.895    24089777.3554   24089782.3504  126592695.114 5  98643648.79341
     -2487.982       -1938.653
  23093243.512    23093244.887    23093251.640   123143378.979 6  95778228.975 5
     -2126.833       -1654.199
  21232688.124    21232687.692    21232692.806   113500906.353 7  88278503.105 6
     -2711.170       -2108.686
  21099166.521    21099166.146    21099168.440   112589207.279 7  87569410.824 6
      1030.630         801.604
  23026907.669    23026907.281    23026916.186   122746432.617 5  95469474.383 3
     -2108.411       -1639.849
  20022497.140    20022497.121    20022501.322   106994183.011 8  83217737.354 6
       -13.940         -10.840
  21159330.396    21159331.047    21159335.500   113029368.833 7  87911759.364 6
      2383.815        1854.080
  21180040.388    21180039.285    21180043.290   113338682.615 7  88152341.766 5
      2662.402        2070.758
  23199984.339    23199984.672    23199990.377   123843104.832 6  96322436.457 4
      4792.630        3727.601
  22250017.428    22250017.200    22250020.281   118980871.641 6  92540706.931 5
     -1179.139        -917.108
 11 10 10  4 59  0.0000000  0 17G09G12G15G17G18G26G27G28R03R05R06R14
                                R15R16R17R18R24
  20923289.531    20923288.7994   20923294.7334  109952645.304 7  85677406.31545
      2395.280        1866.450
  22676322.034    22676320.9244   22676325.7114  119164875.944 6  92855772.44743
      3474.031        2707.043
  20342615.452    20342615.0914   20342620.1474  106901178.645 8  83299635.22147
        10.662           8.311
  22237797.715    22237797.5334   22237802.4414  116860434.707 7  91060098.18044
       604.393         470.953
  23270623.179    23270622.1544   23270627.9074  122287948.393 6  95289332.76342
       595.481         464.000
  21782270.915    21782270.3094   21782276.6004  114466615.529 7  89194781.48044
     -2511.889       -1957.317
  21055168.572    21055167.7054   21055173.3994  110645657.179 8  86217409.44246
      1051.555         819.394
  24103987.049    24103985.8384   24103992.0434  126667363.205 5  98701831.65041
     -2489.742       -1940.039
  23105215.009    23105214.726    23105222.547   123207210.323 6  95827875.425 5
     -2128.265       -1655.305
  21247950.780    21247950.219    21247955.160   113582492.273 7  88341958.801 6
     -2727.590       -2121.453
  21093447.818    21093447.387    21093450.413   112558695.809 7  87545679.678 6
      1003.706         780.660
  23038776.621    23038776.941    23038791.875   122809709.213 5  95518689.556 3
     -2109.740       -1640.890
  20022596.037    20022595.902    20022600.432   106994711.159 8  83218148.116 6
       -20.939         -16.284
  21145959.109    21145959.097    21145963.996   112957938.662 7  87856202.545 6
      2378.426        1849.885
  21165177.175    21165176.284    21165179.887   113259148.476 7  88090481.871 4
      2640.136        2053.440
  23173056.505    23173056.336    23173061.633   123699356.026 6  96210631.798 5
      4790.909        3726.259
  22256702.071    22256701.513    22256704.623   119016615.993 6  92568508.060 5
     -1203.492        -936.045
 11 10 10  4 59 30.0000000  0 17G09G12G15G17G18G26G27G28R03R05R06R14
                                R15R16R17R18R24
  20909638.945    20909638.3824   20909644.1044  109880910.204 8  85621508.86445
      2387.104        1860.084
  22656516.605    22656517.0844   22656521.8204  119060804.937 6  92774678.14143
      3464.122        2699.318
  20342606.383    20342606.2474   20342611.1584  106901132.300 9  83299599.09147
        -7.509          -5.853
  22234401.864    22234401.3394   22234406.3094  116842588.820 7  91046192.28444
       585.422         456.172
  23267274.956    23267273.8354   23267278.6504  122270349.735 6  95275619.50342
       577.783         450.218
  21796644.929    21796644.4864   21796650.5564  114542151.362 7  89253640.53844
     -2523.804       -1966.603
  21049180.774    21049180.1624   21049185.8304  110614192.279 8  86192891.33846
      1046.166         815.193
  24118206.527    24118206.3104   24118210.3304  126742086.261 5  98760057.33041
     -2491.809       -1941.666
  23117195.359    23117194.384    23117201.488   123271088.946 5  95877558.657 4
     -2130.217       -1656.833
  21263306.118    21263305.294    21263310.053   113664573.207 7  88405799.509 6
     -2744.383       -2134.518
  21087882.794    21087882.513    21087885.086   112528997.536 7  87522581.024 6
       976.276         759.328
  23050658.425    23050657.296    23050671.081   122873029.261 5  95567938.520 3
     -2111.568       -1642.335
  20022734.451    20022734.699    20022739.237   106995452.339 8  83218724.576 6
       -28.457         -22.130
  21132618.611    21132618.557    21132622.556   112886672.837 7  87800773.571 6
      2372.630        1845.380
  21150440.778    21150439.209    21150443.055   113180286.849 7  88029145.044 5
      2617.348        2035.721
  23146137.186    23146137.308    23146142.745   123555662.350 6  96098870.023 4
      4788.611        3724.472
  22263522.345    22263522.201    22263526.353   119053094.417 6  92596880.155 5
     -1228.329        -955.366
 11 10 10  5  0  0.0000000  1 17G09G12G15G17G18G26G27G28R03R05R06R14
                                R15R16R17R18R24
  20896032.899    20896032.2454   20896037.7374  109809407.883 8  85565792.79645
      2379.773        1854.365
  22636768.237    22636767.3684   22636772.3734  118957020.362 6  92693807.05943
      3454.930        2692.151
  20342698.852    20342698.6504   20342703.4884  106901617.914 8  83299977.47547
       -24.816         -19.336
  22231112.261    22231111.8604   22231116.7254  116825300.742 7  91032721.04144
       567.212         441.981
  23264023.773    23264022.2864   23264028.1504  122253269.675 6  95262310.37241
       560.920         437.076
  21811084.262    21811083.8554   21811089.6114  114618029.737 7  89312766.51644
     -2534.734       -1975.110
  21043221.405    21043220.8564   21043226.7474  110582876.360 8  86168489.32346
      1041.621         811.652
  24132435.583    24132433.6384   24132439.9524  126816860.045 5  98818322.55841
     -2493.042       -1942.632
  23129181.376    23129181.608    23129189.127   123335011.905 5  95927276.349 4
     -2131.270       -1657.644
  21278751.296    21278751.557    21278756.142   113747142.041 7  88470019.704 6
     -2760.137       -2146.772
  21082469.323    21082469.165    21082471.400   112500109.903 7  87500112.865 6
       949.656         738.619
  23062543.812    23062543.246    23062554.363   122936390.456 5  95617219.519 3
     -2112.421       -1642.975
  20022913.030    20022913.203    20022917.167   106996404.408 8  83219465.063 6
       -34.967         -27.196
  21119307.007    21119307.254    21119312.012   112815568.860 7  87745470.468 6
      2367.730        1841.563
  21135828.804    21135827.654    21135831.245   113102097.686 7  87968331.259 5
      2595.279        2018.549
  23119228.884    23119228.989    23119234.749   123412025.792 6  95987152.658 5
      4787.179        3723.359
  22270481.223    22270481.237    22270484.846   119090302.497 6  92625819.740 5
     -1252.198        -973.938
 11 10 10  5  0 30.0000000  0 17G09G12G15G17G18G26G27G28R03R05R06R14
                                R15R16R17R18R24
  20882469.448    20882468.8434   20882474.3894  109738133.141 7  85510254.04745
      2372.025        1848.334
  22617071.226    22617071.2764   22617075.7304  118853516.460 6  92613154.67943
      3445.445        2684.752
  20342891.217    20342891.1214   20342895.9224  106902629.240 8  83300765.50747
       -42.459         -33.087
  22227927.328    22227926.9254   22227932.0144  116808563.954 7  91019679.36944
       548.695         427.555
  23260870.719    23260869.9094   23260875.8004  122236700.869 6  95249399.60642
       543.795         423.724
  21825587.037    21825586.7294   21825592.6074  114694242.414 7  89372152.99044
     -2546.001       -1983.903
  21037289.569    21037288.7524   21037294.8804  110551703.558 8  86144198.82246
      1036.697         807.812
  24146672.188    24146671.0884   24146676.0434  126891676.663 5  98876621.14541
     -2494.559       -1943.835
  23141177.380    23141176.288    23141184.669   123398973.250 6  95977023.919 4
     -2132.617       -1658.708
  21294287.808    21294286.680    21294291.621   113830188.114 7  88534611.081 6
     -2776.058       -2159.157
  21077207.199    21077206.915    21077209.270   112472027.739 7  87478271.172 6
       922.644         717.614
  23074438.297    23074436.090    23074446.891   122999786.114 5  95666527.229 3
     -2113.781       -1644.065
  20023128.960    20023129.187    20023133.287   106997560.047 8  83220363.884 6
       -41.871         -32.569
  21106025.212    21106025.357    21106029.602   112744620.267 7  87690288.248 6
      2362.404        1837.421
  21121342.436    21121341.406    21121345.221   113024578.459 7  87908038.527 5
      2572.797        2001.057
  23092331.920    23092331.369    23092337.063   123268444.001 6  95875477.895 5
      4785.137        3721.774
  22277574.549    22277574.773    22277578.025   119128231.565 6  92655320.077 5
     -1276.313        -992.688
 11 10 10  5  1  0.0000000  0 17G09G12G15G17G18G26G27G28R03R05R06R14
                                R15R16R17R18R24
  20868949.463    20868948.6524   20868954.4614  109667083.584 8  85454890.76645
      2364.557        1842.509
  22597428.676    22597428.2374   22597432.6364  118750291.109 6  92532719.33643
      3436.181        2677.548
  20343183.271    20343182.9524   20343187.8344  106904163.011 8  83301960.63947
       -59.852         -46.637
  22224846.939    22224846.6814   22224851.5094  116792375.910 7  91007065.29044
       530.443         413.335
  23257814.300    23257813.6324   23257819.9574  122220640.106 6  95236884.71542
       526.880         410.547
  21840152.264    21840152.1084   21840157.8944  114770784.265 7  89431795.95144
     -2556.861       -1992.355
  21031384.127    21031383.4384   21031389.4314  110520670.933 8  86120017.54846
      1032.082         804.219
  24160916.629    24160916.8154   24160923.4404  126966531.424 5  98934949.43541
     -2495.748       -1944.700
  23153177.740    23153177.550    23153185.497   123462969.428 5  96026798.556 4
     -2133.737       -1659.561
  21309910.522    21309910.032    21309915.572   113913703.759 7  88599567.671 6
     -2791.606       -2171.246
  21072094.080    21072093.854    21072097.341   112444747.316 7  87457053.058 6
       895.955         696.852
  23086336.829    23086335.474    23086346.894   123063213.183 5  95715859.466 3
     -2114.763       -1644.833
  20023382.800    20023382.643    20023387.030   106998915.529 8  83221418.133 6
       -48.575         -37.780
  21092771.248    21092772.053    21092776.929   112673823.886 7  87635224.395 6
      2357.410        1833.540
  21106981.654    21106980.453    21106984.157   112947729.446 7  87848267.064 5
      2550.409        1983.651
  23065445.481    23065443.807    23065449.500   123124917.722 6  95763846.321 5
      4783.280        3720.337
  22284800.844    22284801.200    22284804.716   119166875.806 6  92685376.667 5
     -1300.064       -1011.161
 11 10 10  5  1 30.0000000  0 17G09G12G15G17G18G26G27G28R03R05R06R14
                                R15R16R17R18R24
  20855472.599    20855471.6994   20855477.5694  109596263.004 8  85399705.89845
      2356.850        1836.509
  22577839.286    22577838.8094   22577843.3554  118647348.207 6  92452504.08343
      3426.671        2670.128
  20343575.026    20343574.8554   20343579.8704  106906222.412 9  83303565.34747
       -77.405         -60.318
  22221871.090    22221870.7004   22221876.2954  116776739.778 7  90994881.27644
       511.990         398.957
  23254855.229    23254854.6254   23254860.1804  122205089.194 6  95224767.12642
       509.852         397.284
  21854780.658    21854780.0684   21854786.4724  114847656.373 7  89491696.26544
     -2567.897       -2000.959
  21025506.386    21025505.5444   21025511.3384  110489781.493 8  86095947.84346
      1027.244         800.447
  24175168.732    24175167.4884   24175173.2404  127041425.273 5  98993308.20841
     -2497.106       -1945.778
  23165186.210    23165186.619    23165194.583   123527003.635 6  96076602.761 4
     -2135.096       -1660.627
  21325621.295    21325621.001    21325626.351   113997687.313 7  88664888.195 6
     -2807.233       -2183.400
  21067132.831    21067132.716    21067136.068   112418272.414 7  87436461.477 6
       869.064         675.940
  23098240.249    23098239.927    23098246.139   123126674.578 5  95765218.479 3
     -2116.010       -1645.773
  20023674.347    20023674.318    20023678.752   107000473.600 8  83222629.953 6
       -55.365         -43.058
  21079547.847    21079547.954    21079552.567   112603182.347 7  87580280.969 6
      2352.142        1829.448
  21092746.742    21092745.501    21092749.561   112871557.072 7  87789021.885 5
      2527.732        1966.014
  23038567.380    23038568.163    23038574.276   122981454.623 5  95652263.904 5
      4781.028        3718.581
  22292160.553    22292160.995    22292164.693   119206236.069 6  92715990.160 5
     -1323.904       -1029.698
 11 10 10  5  2  0.0000000  0 17G09G12G15G17G18G26G27G28R03R05R06R14
                                R15R16R17R18R24
  20842040.047    20842039.1034   20842044.9364  109525674.273 8  85344701.68445
      2348.980        1830.376
  22558303.854    22558303.8834   22558308.5554  118544691.149 6  92372511.56743
      3417.017        2662.607
  20344067.147    20344067.1234   20344072.0844  106908809.278 8  83305581.06747
       -95.121         -74.121
  22219001.140    22219000.6774   22219006.6144  116761657.970 7  90983129.20844
       493.388         384.458
  23251993.078    23251992.6214   23251996.4064  122190049.490 6  95213047.87341
       492.726         383.967
  21869472.163    21869471.4254   21869477.8294  114924858.945 7  89551854.06644
     -2579.057       -2009.649
  21019655.856    21019655.1364   21019661.0594  110459037.588 8  86071991.54946
      1022.279         796.581
  24189428.862    24189428.2664   24189434.0944  127116358.820 5  99051697.89741
     -2498.539       -1946.890
  23177203.864    23177202.291    23177210.657   123591077.631 5  96126437.909 4
     -2136.590       -1661.792
  21341419.754    21341418.944    21341424.111   114082136.396 7  88730570.802 6
     -2822.749       -2195.472
  21062323.565    21062323.115    21062324.767   112392604.916 8  87416497.864 6
       842.016         654.903
  23110153.824    23110152.275    23110159.546   123190172.324 5  95814605.568 3
     -2117.318       -1646.786
  20024004.623    20024004.584    20024008.552   107002236.031 8  83224000.713 6
       -62.261         -48.423
  21066352.760    21066353.427    21066357.914   112532697.673 7  87525459.559 6
      2346.702        1825.217
  21078639.752    21078638.258    21078642.085   112796066.204 7  87730306.758 5
      2504.844        1948.218
  23011706.580    23011706.084    23011711.977   122838060.156 6  95540734.841 5
      4778.572        3716.661
  22299655.791    22299655.794    22299659.272   119246312.195 6  92747160.414 5
     -1347.868       -1048.338
 11 10 10  5  2 30.0000000  0 17G09G12G15G17G18G26G27G28R03R05R06R14
                                R15R16R17R18R24
  20828651.105    20828650.4264   20828656.3204  109455316.226 7  85289877.23145
      2341.400        1824.469
  22538823.040    22538822.0254   22538827.7034  118442318.795 6  92292740.90543
      3407.658        2655.318
  20344659.471    20344659.4354   20344664.3524  106911921.499 9  83308006.15947
      -112.512         -87.666
  22216236.747    22216236.3974   22216241.2634  116747128.854 7  90971807.80644
       475.041         370.169
  23249228.408    23249228.5364   23249232.4714  122175518.826 5  95201725.25641
       475.896         370.811
  21884225.486    21884224.8414   21884231.1754  115002388.182 7  89612266.42244
     -2589.762       -2017.995
  21013832.928    21013832.0744   21013837.9584  110428437.504 8  86048147.32246
      1017.593         792.928
  24203695.171    24203694.3434   24203698.4924  127191328.218 5  99110115.53441
     -2499.525       -1947.692
  23189226.507    23189226.169    23189233.915   123655189.788 6  96176302.745 4
     -2137.664       -1662.622
  21357302.708    21357302.292    21357307.874   114167044.509 7  88796610.450 6
     -2837.869       -2207.226
  21057663.738    21057663.395    21057665.968   112367742.909 7  87397160.753 6
       815.290         634.115
  23122071.945    23122070.476    23122067.530   123253704.228 5  95864019.255 3
     -2118.333       -1647.569
  20024371.990    20024372.098    20024376.290   107004200.454 8  83225528.587 6
       -68.865         -53.558
  21053187.015    21053187.233    21053191.542   112462367.824 7  87470758.581 6
      2341.738        1821.350
  21064659.663    21064658.534    21064662.722   112721258.997 7  87672123.370 5
      2482.148        1930.568
  22984857.016    22984856.926    22984862.733   122694737.413 5  95429261.580 5
      4776.076        3714.726
  22307284.200    22307284.039    22307287.321   119287099.561 6  92778883.915 5
     -1371.458       -1066.693
 11 10 10  5  3  0.0000000  0 17G09G12G15G17G18G26G27G28R03R05R06R14
                                R15R16R17R18R24
  20815308.691    20815307.8804   20815313.8444  109385200.027 8  85235241.22645
      2333.343        1818.192
  22519398.634    22519397.9194   22519403.5244  118340243.171 6  92213201.43743
      3397.683        2647.542
  20345353.889    20345353.7444   20345358.8004  106915569.772 8  83310848.94747
      -130.390        -101.600
  22213579.118    22213578.8214   22213583.4414  116733162.801 7  90960925.15144
       456.303         355.557
  23246561.407    23246559.7994   23246565.1994  122161506.633 6  95190806.65641
       458.569         357.302
  21899042.222    21899041.7444   21899048.1684  115080252.113 7  89672939.56944
     -2600.833       -2026.625
  21008039.170    21008038.6364   21008044.4394  110397991.913 8  86024423.46846
      1012.438         788.916
  24217968.819    24217969.5714   24217973.4434  127266342.344 5  99168568.00841
     -2501.046       -1948.840
  23201258.646    23201258.154    23201266.254   123719350.562 5  96226205.392 4
     -2139.294       -1663.888
  21373274.611    21373273.765    21373278.606   114252417.627 7  88863011.745 6
     -2853.318       -2219.249
  21053157.428    21053157.447    21053159.795   112343696.979 7  87378458.362 6
       788.123         612.985
  23133997.784    23133997.414    23133989.087   123317281.076 5  95913467.775 3
     -2119.867       -1648.787
  20024779.437    20024779.554    20024783.550   107006378.016 8  83227222.231 6
       -75.910         -59.037
  21040052.345    21040052.347    21040056.952   112392203.107 7  87416186.003 6
      2336.266        1817.097
  21050810.943    21050809.606    21050813.789   112647148.619 7  87614481.963 5
      2458.881        1912.465
  22958025.162    22958024.076    22958029.488   122551500.591 6  95317855.140 5
      4773.150        3712.457
  22315046.863    22315045.941    22315048.922   119328606.515 6  92811167.028 5
     -1395.393       -1085.301
 11 10 10  5  3 30.0000000  0 17G09G12G15G17G18G26G27G28R03R05R06R14
                                R15R16R17R18R24
  20802011.430    20802010.7884   20802016.6274  109315322.180 7  85180790.95445
      2325.147        1811.802
  22500029.575    22500029.7204   22500034.8664  118238460.791 6  92133890.49543
      3387.701        2639.785
  20346149.365    20346149.3204   20346154.3124  106919749.628 8  83314105.95747
      -148.316        -115.573
  22211027.622    22211026.9574   22211031.9334  116719755.487 7  90950477.87044
       437.468         340.891
  23243994.536    23243992.0834   23243997.0144  122148007.407 6  95180287.77941
       441.287         343.850
  21913921.846    21913921.4284   21913927.7314  115158444.816 7  89733868.89844
     -2612.043       -2035.358
  21002274.436    21002273.6714   21002279.6064  110367696.573 8  86000816.69746
      1007.214         784.844
  24232251.443    24232251.2544   24232256.3794  127341395.137 5  99227050.63141
     -2502.510       -1949.993
  23213299.126    23213298.793    23213306.579   123783555.712 5  96276142.561 4
     -2141.074       -1665.275
  21389330.789    21389330.156    21389334.944   114338246.556 7  88929767.564 6
     -2868.674       -2231.189
  21048803.344    21048803.257    21048805.144   112320462.865 7  87360387.379 6
       760.829         591.761
  23145932.261    23145932.551    23145920.485   123380898.000 5  95962947.395 3
     -2121.343       -1649.932
  20025225.614    20025225.710    20025229.739   107008762.812 8  83229077.057 6
       -83.136         -64.658
  21026947.249    21026947.579    21026951.483   112322199.166 7  87361738.497 6
      2330.655        1812.732
  21037091.430    21037090.685    21037094.143   112573734.251 7  87557381.902 5
      2435.389        1894.189
  22931207.780    22931207.056    22931212.329   122408350.151 6  95206515.884 5
      4770.068        3710.059
  22322939.772    22322940.013    22322944.510   119370825.737 6  92844004.157 5
     -1419.284       -1103.886
 11 10 10  5  4  0.0000000  0 17G09G12G15G17G18G26G27G28R03R05R06R14
                                R15R16R17R18R24
  20788759.851    20788759.1414   20788764.9334  109245684.993 8  85126528.21345
      2317.366        1805.740
  22480717.315    22480717.4934   22480722.5204  118136973.876 6  92054809.77743
      3378.149        2632.321
  20347046.153    20347046.0604   20347050.9254  106924462.431 8  83317778.25547
      -165.830        -129.216
  22208582.484    22208582.4494   22208587.6604  116706908.654 7  90940467.33144
       419.019         326.513
  23241522.388    23241521.7054   23241524.8934  122135022.416 6  95170169.61141
       424.382         330.689
  21928864.133    21928863.2904   21928869.3334  115236965.741 7  89795053.99244
     -2622.672       -2043.638
  20996538.323    20996537.4974   20996543.5864  110337553.086 8  85977328.25546
      1002.384         781.077
  24246540.876    24246539.9404   24246545.7554  127416486.396 5  99285563.20141
     -2503.568       -1950.805
  23225348.879    23225348.432    23225355.871   123847806.268 5  96326115.046 4
     -2142.310       -1666.234
  21405471.709    21405470.564    21405475.482   114424528.515 7  88996875.740 6
     -2883.440       -2242.674
  21044601.850    21044601.795    21044603.924   112298041.941 7  87342948.876 6
       733.930         570.839
  23157875.169    23157874.815    23157874.330   123444556.841 5  96012459.916 3
     -2122.574       -1650.901
  20025711.386    20025711.156    20025715.224   107011356.434 8  83231094.304 6
       -89.805         -69.848
  21013872.780    21013873.287    21013876.858   112252357.315 8  87307417.072 6
      2325.525        1808.743
  21023503.094    21023502.031    21023505.827   112501019.870 7  87500826.280 5
      2412.256        1876.203
  22904407.856    22904407.556    22904413.179   122265291.679 6  95095248.165 5
      4767.184        3707.812
  22330969.323    22330968.686    22330973.178   119413756.464 6  92877394.713 5
     -1442.701       -1122.091
 11 10 10  5  4 30.0000000  0 17G09G12G15G17G18G26G27G28R03R05R06R14
                                R15R16R17R18R24
  20775553.861    20775553.0944   20775558.3774  109176286.233 8  85072451.25045
      2309.265        1799.428
  22461461.155    22461461.0054   22461465.5984  118035780.658 6  91975957.91043
      3368.150        2624.521
  20348043.606    20348043.5074   20348048.5154  106929704.592 8  83321863.03947
      -183.603        -143.063
  22206243.742    22206243.8904   22206249.2544  116694619.410 7  90930891.28244
       400.334         311.945
  23239148.313    23239147.2844   23239151.8414  122122547.333 5  95160448.73841
       407.257         317.370
  21943867.515    21943867.3774   21943873.2584  115315809.894 7  89856490.95144
     -2633.520       -2052.096
  20990830.215    20990829.5014   20990835.5464  110307558.615 8  85953955.92846
       997.272         777.092
  24260836.160    24260834.6304   24260842.6304  127491611.365 5  99344102.03341
     -2504.787       -1951.772
  23237404.559    23237404.393    23237413.234   123912099.534 5  96376120.759 4
     -2143.861       -1667.439
  21421695.398    21421694.824    21421700.155   114511255.705 7  89064330.198 6
     -2898.353       -2254.270
  21040552.296    21040551.627    21040554.349   112276430.952 7  87326140.315 6
       706.826         549.751
  23169825.901    23169823.815    23169834.943   123508254.233 5  96062002.266 3
     -2123.921       -1651.904
  20026235.113    20026234.929    20026239.194   107014156.177 8  83233271.871 6
       -96.781         -75.274
  21000827.416    21000828.155    21000833.029   112182674.567 8  87253219.375 6
      2320.093        1804.519
  21010045.369    21010044.400    21010048.186   112429005.721 7  87444815.276 5
      2388.688        1857.869
  22877625.431    22877625.158    22877631.063   122122325.949 6  94984052.575 5
      4763.829        3705.197
  22339129.599    22339129.067    22339133.215   119457393.020 6  92911334.171 5
     -1466.298       -1140.456
 11 10 10  5  5  0.0000000  0 17G09G12G15G17G18G26G27G28R03R05R06R14
                                R15R16R17R18R24
  20762394.216    20762393.2624   20762398.5424  109107132.200 8  85018564.98845
      2301.042        1793.018
  22442261.998    22442261.6094   22442266.3814  117934887.313 6  91897339.71243
      3358.116        2616.708
  20349142.866    20349142.7724   20349147.8014  106935481.486 8  83326364.49247
      -201.477        -156.997
  22204012.805    22204012.3754   22204017.9664  116682892.918 7  90921753.73444
       381.536         297.301
  23236872.398    23236871.1104   23236877.5564  122110587.042 5  95151129.03841
       390.106         303.982
  21958933.124    21958932.7454   21958939.0464  115394980.462 7  89918182.25344
     -2644.457       -2060.607
  20985151.783    20985151.1224   20985157.3814  110277718.751 8  85930704.06746
       992.091         773.058
  24275138.971    24275138.1154   24275145.2614  127566773.432 5  99402669.77541
     -2505.975       -1952.693
  23249471.896    23249470.254    23249478.627   123976440.796 5  96426163.819 4
     -2145.483       -1668.699
  21438002.668    21438002.351    21438007.621   114598428.927 7  89132131.568 6
     -2913.093       -2265.738
  21036655.099    21036654.634    21036657.001   112255635.186 7  87309965.817 6
       679.627         528.594
  23181784.717    23181782.377    23181791.460   123571995.447 5  96111578.662 3
     -2125.373       -1653.067
  20026798.162    20026797.987    20026802.425   107017165.293 8  83235612.280 6
      -103.835         -80.762
  20987814.689    20987814.425    20987818.939   112113155.871 8  87199149.273 6
      2314.582        1800.228
  20996719.817    20996719.024    20996723.189   112357700.517 7  87389355.672 5
      2365.027        1839.465
  22850860.885    22850861.334    22850868.082   121979463.028 6  94872936.948 5
      4760.387        3702.523
  22347422.125    22347421.869    22347426.022   119501737.957 6  92945824.641 5
     -1489.936       -1158.836
 11 10 10  5  5 30.0000000  0 18G09G12G15G17G18G22G26G27G28R03R05R06
                                R14R15R16R17R18R24
  20749280.106    20749279.6164   20749285.4044  109038220.092 7  84964867.24645
      2292.976        1786.734
  22423118.783    22423119.1984   22423123.8114  117834291.404 6  91818953.28043
      3348.180        2608.974
  20350343.274    20350343.1744   20350348.1524  106941789.414 8  83331279.73547
      -219.153        -170.765
  22201888.137    22201887.7164   22201893.0804  116671725.802 7  90913052.06944
       362.866         282.753
  23234692.666    23234691.5864   23234698.0324  122099136.944 6  95142206.85541
       373.116         290.762
  24986481.624                                   131304851.089 4
      2060.394
  21974060.056    21974059.7254   21974065.8334  115474472.112 7  89980123.75444
     -2655.090       -2068.895
  20979502.383    20979501.7604   20979508.0404  110248030.328 8  85907570.21946
       987.039         769.122
  24289448.111    24289448.5074   24289453.5424  127641967.812 5  99461262.70741
     -2506.976       -1953.469
  23261544.704    23261544.738    23261553.207   124040826.324 5  96476241.270 4
     -2146.969       -1669.862
  21454392.854    21454392.415    21454397.046   114686039.915 7  89200273.435 6
     -2927.625       -2277.037
  21032909.338    21032909.216    21032911.483   112235651.058 7  87294422.625 6
       652.588         507.570
  23193749.056    23193748.366    23193755.453   123635777.042 5  96161186.620 3
     -2126.797       -1654.155
  20027400.557    20027400.215    20027404.581   107020382.060 8  83238114.186 6
      -110.719         -86.113
  20974829.877    20974830.164    20974834.594   112043797.797 8  87145204.099 6
      2309.245        1796.077
  20983528.265    20983526.604    20983530.473   112287103.859 7  87334447.147 5
      2341.294        1821.010
  22824118.422    22824118.009    22824124.063   121836703.618 6  94761901.817 5
      4756.746        3699.693
  22355845.986    22355845.625    22355849.390   119546785.353 6  92980861.430 5
     -1513.343       -1177.042
 11 10 10  5  6  0.0000000  0 18G09G12G15G17G18G22G26G27G28R03R05R06
                                R14R15R16R17R18R24
  20736214.078    20736213.4554   20736219.4794  108969556.861 8  84911363.42745
      2284.669        1780.258
  22404034.685    22404034.7654   22404039.0784  117733999.981 7  91740804.13543
      3337.958        2601.009
  20351645.850    20351645.6724   20351650.6844  106948634.445 8  83336613.50747
      -237.045        -184.708
  22199870.529    22199870.3764   22199875.8214  116661124.184 7  90904791.05244
       344.036         268.085
  23232611.840    23232610.8984   23232617.8474  122088202.175 5  95133686.26841
       355.931         277.334
  24974763.202                                   131243266.977 4
      2045.342
  21989249.130    21989248.3774   21989254.8944  115554288.604 7  90042318.38144
     -2665.887       -2077.317
  20973883.162    20973882.3274   20973888.4114  110218499.620 8  85884559.26746
       981.771         765.017
  24303764.210    24303764.0984   24303768.8594  127717198.675 5  99519884.07241
     -2508.218       -1954.471
  23273630.302    23273629.004    23273637.887   124105261.936 5  96526357.705 4
     -2148.668       -1671.182
  21470864.118    21470863.805    21470868.363   114774090.054 7  89268756.864 6
     -2942.218       -2288.395
  21029317.960    21029317.857    21029320.653   112216483.905 7  87279514.832 6
       625.305         486.345
  23205723.515    23205722.200    23205718.959   123699604.961 5  96210830.530 3
     -2128.318       -1655.376
  20028041.958    20028041.955    20028046.111   107023810.479 8  83240780.723 6
      -117.814         -91.636
  20961877.529    20961877.719    20961881.623   111974606.285 8  87091388.501 6
      2303.666        1791.738
  20970469.622    20970468.289    20970472.090   112217224.228 7  87280096.326 5
      2317.370        1802.400
  22797397.756    22797396.393    22797401.495   121694057.189 6  94650954.572 5
      4752.968        3696.752
  22364402.741    22364402.534    22364405.862   119592538.389 6  93016447.065 5
     -1536.786       -1195.279
 11 10 10  5  6 30.0000000  0 18G09G12G15G17G18G22G26G27G28R03R05R06
                                R14R15R16R17R18R24
  20723195.174    20723194.4384   20723200.4544  108901140.525 8  84858051.98245
      2276.244        1773.702
  22385007.715    22385007.6054   22385011.9044  117634011.375 7  91662890.95343
      3327.729        2593.036
  20353050.008    20353049.9174   20353054.7084  106956013.379 9  83342363.30747
      -255.040        -198.729
  22197960.018    22197959.6884   22197965.2014  116651085.174 7  90896968.42744
       325.059         253.293
  23230628.853    23230628.5194   23230633.8444  122077779.503 6  95125564.68042
       338.778         263.978
  24963128.493                                   131182132.058 4
      2030.133
  22004498.041    22004497.9564   22004503.9924  115634425.394 7  90104762.58244
     -2676.758       -2085.783
  20968292.812    20968292.3564   20968298.4374  110189124.122 8  85861669.25946
       976.427         760.857
  24318086.508    24318085.4454   24318092.4744  127792461.770 5  99578530.52641
     -2509.431       -1955.402
  23285722.783    23285722.815    23285730.114   124169744.871 5  96576510.907 4
     -2150.467       -1672.575
  21487416.179    21487415.808    21487420.570   114862572.115 7  89337576.240 6
     -2956.746       -2299.687
  21025879.054    21025878.596    21025881.914   112198131.479 7  87265240.713 6
       597.977         465.101
  23217704.793    23217703.672    23217698.635   123763476.496 5  96260508.430 3
     -2130.021       -1656.698
  20028722.265    20028722.509    20028727.015   107027448.850 8  83243610.544 6
      -124.960         -97.185
  20948955.050    20948955.328    20948959.447   111905578.648 8  87037700.340 6
      2297.997        1787.336
  20957544.624    20957543.443    20957547.515   112148062.566 7  87226303.922 5
      2293.216        1783.613
  22770695.468    22770695.410    22770700.859   121551526.592 6  94540097.415 5
      4748.929        3693.614
  22373089.884    22373089.194    22373093.142   119638991.971 6  93052577.583 5
     -1560.301       -1213.559
 11 10 10  5  7  0.0000000  0 18G09G12G15G17G18G22G26G27G28R03R05R06
                                R14R15R16R17R18R24
  20710224.129    20710223.5014   20710229.0644  108832977.309 8  84804937.78445
      2268.090        1767.341
  22366038.742    22366038.8204   22366043.3454  117534331.831 6  91585218.59743
      3317.703        2585.223
  20354556.686    20354556.7464   20354561.5304  106963931.185 8  83348533.00947
      -272.704        -212.498
  22196157.575    22196157.5844   22196162.8284  116641614.549 7  90889588.70544
       306.432         238.784
  23228744.580    23228743.5214   23228747.8424  122067873.032 6  95117845.34342
       321.862         250.799
  24951581.215                                   131121452.282 4
      2015.214
  22019809.635    22019808.9954   22019815.1364  115714885.878 7  90167459.01744
     -2687.178       -2093.903
  20962733.470    20962732.9494   20962739.0724  110159909.262 7  85838904.42746
       971.341         756.888
  24332416.179    24332414.6934   24332420.8364  127867760.579 5  99637204.79141
     -2510.290       -1956.031
  23297825.818    23297824.783    23297832.856   124234281.221 5  96626705.684 4
     -2151.867       -1673.668
  21504049.492    21504049.174    21504053.950   114951486.778 7  89406732.082 6
     -2970.796       -2310.615
  21022593.384    21022592.824    21022595.796   112180598.104 7  87251603.654 6
       571.009         444.118
  23229697.984    23229695.803    23229689.641   123827396.829 5  96310224.257 3
     -2131.234       -1657.614
  20029443.564    20029443.610    20029447.833   107031301.332 8  83246606.904 6
      -131.789        -102.499
  20936064.095    20936064.375    20936069.205   111836720.014 8  86984143.629 6
      2292.709        1783.216
  20944756.047    20944754.630    20944758.576   112079627.093 7  87173076.346 5
      2269.254        1764.974
  22744017.868    22744018.190    22744023.643   121409120.140 6  94429336.844 5
      4744.878        3690.467
  22381907.546    22381907.331    22381912.267   119686148.536 6  93089254.856 5
     -1583.397       -1231.526
 11 10 10  5  7 30.0000000  0 18G09G12G15G17G18G22G26G27G28R03R05R06
                                R14R15R16R17R18R24
  20697300.729    20697299.8174   20697305.4374  108765063.240 8  84752017.73145
      2259.997        1761.036
  22347128.139    22347128.1304   22347132.7594  117434957.542 6  91507784.08043
      3307.750        2577.476
  20356165.047    20356164.8294   20356169.8474  106972382.554 8  83355118.46947
      -290.238        -226.159
  22194462.583    22194462.3684   22194467.9244  116632706.960 7  90882647.72344
       287.966         224.393
  23226955.972    23226954.7224   23226960.5054  122058476.279 5  95110523.16942
       305.108         237.763
  24940122.243                                   131061224.071 4
      2000.484
  22035181.122    22035180.5214   22035186.5274  115795662.813 7  90230402.02944
     -2697.431       -2101.889
  20957203.770    20957203.1314   20957209.3414  110130850.203 8  85816260.98746
       966.418         753.051
  24346750.858    24346749.5254   24346756.2364  127943088.602 5  99695901.84541
     -2511.007       -1956.587
  23309938.136    23309936.423    23309944.546   124298865.775 5  96676937.922 4
     -2153.292       -1674.771
  21520761.090    21520760.974    21520766.211   115040824.318 7  89476216.806 6
     -2984.523       -2321.295
  21019459.441    21019459.195    21019463.012   112163878.637 7  87238599.631 6
       544.126         423.210
  23241697.543    23241695.957    23241683.481   123891361.337 6  96359974.517 3
     -2132.483       -1658.584
  20030203.983    20030204.095    20030207.934   107035363.880 8  83249766.641 6
      -138.496        -107.719
  20923203.999    20923204.503    20923209.169   111768025.219 8  86930714.357 6
      2287.472        1779.149
  20932101.935    20932101.311    20932105.396   112011915.874 7  87120412.070 5
      2245.331        1746.377
  22717363.375    22717363.516    22717369.641   121266838.065 6  94318673.002 5
      4741.053        3687.488
  22390856.986    22390856.391    22390859.493   119734000.181 6  93126472.779 5
     -1606.224       -1249.286
 11 10 10  5  8  0.0000000  0 18G09G12G15G17G18G22G26G27G28R03R05R06
                                R14R15R16R17R18R24
  20684424.142    20684423.2924   20684428.7514  108697396.335 8  84699290.27245
      2251.430        1754.363
  22328275.797    22328275.8074   22328280.3454  117335886.531 6  91430585.90143
      3297.206        2569.247
  20357874.286    20357874.1034   20357879.1994  106981364.781 8  83362117.58747
      -308.276        -240.216
  22192874.661    22192874.3344   22192879.4544  116624359.661 7  90876143.31944
       268.837         209.483
  23225264.598    23225263.5814   23225268.8444  122049586.452 5  95103596.02142
       287.884         224.330
  24928746.110                                   131001445.727 4
      1985.111
  22050611.599    22050611.1204   22050617.3274  115876751.496 7  90293587.96944
     -2708.165       -2110.256
  20951703.096    20951702.7284   20951708.6464  110101944.594 8  85793737.13046
       960.916         748.760
  24361090.114    24361089.9204   24361094.0934  128018441.512 5  99754618.24241
     -2512.156       -1957.531
  23322056.377    23322056.811    23322066.049   124363495.331 5  96727205.146 5
     -2155.101       -1676.183
  21537552.013    21537551.460    21537556.724   115130577.230 7  89546024.600 6
     -2998.683       -2332.308
  21016478.417    21016477.606    21016481.078   112147970.209 7  87226226.407 6
       516.742         401.908
  23253701.595    23253701.674    23253693.332   123955366.825 5  96409756.563 3
     -2134.217       -1659.933
  20031002.841    20031002.709    20031006.537   107039631.525 8  83253085.900 6
      -145.728        -113.342
  20910375.310    20910375.429    20910379.491   111699491.385 8  86877410.261 6
      2281.755        1774.698
  20919585.886    20919583.476    20919586.520   111944928.544 7  87068310.809 5
      2220.781        1727.275
  22690732.104    22690732.659    22690737.905   121124681.617 6  94208106.883 5
      4736.406        3683.869
  22399933.596    22399933.766    22399938.589   119782541.338 6  93164226.962 5
     -1629.533       -1267.413
 11 10 10  5  8 30.0000000  0 18G09G12G15G17G18G22G26G27G28R03R05R06
                                R14R15R16R17R18R24
  20671593.524    20671592.8104   20671598.9974  108629973.842 8  84646753.25945
      2243.519        1748.193
  22309480.978    22309480.6364   22309485.3874  117237116.498 7  91353622.23943
      3287.530        2561.710
  20359683.922    20359683.7574   20359688.7564  106990874.072 8  83369527.40447
      -325.567        -253.691
  22191392.224    22191392.0214   22191397.1874  116616569.246 7  90870072.85544
       250.605         195.271
  23223668.958    23223668.0964   23223672.9544  122041199.047 6  95097060.37741
       271.363         211.444
  24917454.822                                   130942114.969 4
      1970.422
  22066100.262    22066100.0704   22066106.3794  115958146.543 7  90357012.63344
     -2718.025       -2117.942
  20946231.521    20946230.7904   20946236.5564  110073189.376 8  85771330.45746
       956.193         745.084
  24375433.270    24375431.0504   24375436.8824  128093814.237 5  99813350.10941
     -2512.553       -1957.803
  23334186.338    23334184.915    23334193.352   124428166.829 5  96777505.012 5
     -2156.185       -1677.032
  21554418.079    21554417.647    21554423.520   115220737.496 7  89616149.235 6
     -3011.921       -2342.602
  21013648.311    21013647.991    21013651.083   112132868.502 7  87214480.646 6
       490.099         381.188
  23265718.071    23265716.768    23265702.236   124019409.887 5  96459567.798 3
     -2135.173       -1660.686
  20031839.368    20031839.293    20031843.120   107044102.223 8  83256563.090 6
      -152.173        -118.360
  20897575.071    20897575.320    20897579.506   111631115.148 8  86824228.740 6
      2276.761        1770.809
  20907201.615    20907200.249    20907203.746   111878664.859 7  87016772.389 5
      2196.890        1708.691
  22664126.970    22664126.062    22664130.816   120982651.549 6  94097639.029 5
      4732.341        3680.703
  22409138.534    22409138.864    22409143.284   119831765.913 6  93202512.666 5
     -1651.984       -1284.875
 11 10 10  5  9  0.0000000  0 18G09G12G15G17G18G22G26G27G28R03R05R06
                                R14R15R16R17R18R24
  20658807.645    20658806.8874   20658813.0734  108562783.330 7  84594397.00245
      2235.821        1742.198
  22290740.156    22290740.3184   22290744.7254  117138634.291 7  91276882.86944
      3277.893        2554.210
  20361591.273    20361591.0084   20361596.0684  107000896.422 8  83377337.00747
      -342.631        -266.986
  22190013.090    22190012.6714   22190018.3594  116609321.865 7  90864425.53444
       232.535         181.203
  23222165.570    23222164.6614   23222169.3064  122033299.463 6  95090904.84041
       255.266         198.910
  24906246.274    24906247.0894   24906252.0654  130883219.348 4 101986940.40841
      1955.993        1524.121
  22081644.539    22081644.6584   22081650.8054  116039832.480 7  90420663.96044
     -2727.695       -2125.471
  20940785.633    20940784.8924   20940790.9054  110044571.306 8  85749030.65446
       951.650         741.550
  24389775.943    24389776.5474   24389782.3164  128169191.732 5  99872085.71441
     -2512.645       -1957.896
  23346319.363    23346318.234    23346326.746   124492866.363 5  96827826.696 5
     -2157.077       -1677.724
  21571357.295    21571357.011    21571362.666   115311287.019 7  89686576.619 6
     -3024.731       -2352.569
  21010967.345    21010967.085    21010969.276   112118559.568 7  87203351.454 6
       463.790         360.721
  23277737.553    23277735.592    23277716.733   124083476.938 5  96509397.670 3
     -2135.988       -1661.329
  20032711.050    20032711.132    20032715.220   107048761.407 8  83260186.870 6
      -158.413        -123.207
  20884801.713    20884802.050    20884806.066   111562882.738 8  86771159.084 6
      2272.011        1767.122
  20894951.069    20894950.065    20894954.143   111813114.101 7  86965788.474 5
      2173.143        1690.222
  22637540.340    22637540.241    22637545.708   120840738.575 6  93987262.238 5
      4728.395        3677.642
  22418469.271    22418468.760    22418473.514   119881657.327 6  93241317.058 5
     -1674.127       -1302.101
 11 10 10  5  9 30.0000000  0 18G09G12G15G17G18G22G26G27G28R03R05R06
                                R14R15R16R17R18R24
  20646067.068    20646066.3124   20646071.9514  108495830.019 8  84542225.58245
      2227.674        1735.851
  22272055.985    22272055.6014   22272060.0504  117040446.102 7  91200372.60544
      3267.884        2546.389
  20363596.692    20363596.5694   20363601.8884  107011436.060 8  83385549.68847
      -360.108        -280.606
  22188738.211    22188737.8514   22188743.3544  116602622.055 7  90859204.88744
       214.010         166.764
  23220755.568    23220755.2404   23220759.5954  122025891.173 5  95085132.14941
       238.609         185.909
  24895123.106    24895122.9594   24895127.5094  130824764.021 4 101941390.74441
      1941.119        1512.556
  22097245.026    22097244.4584   22097251.2374  116121811.589 7  90484543.72744
     -2737.681       -2133.254
  20935366.778    20935366.1334   20935371.9934  110016095.142 8  85726841.43046
       946.662         737.657
  24404120.631    24404120.2804   24404127.3764  128244576.610 5  99930827.04341
     -2513.121       -1958.282
  23358458.085    23358457.060    23358465.857   124557598.323 5  96878173.568 5
     -2158.476       -1678.806
  21588369.711    21588369.380    21588373.712   115402225.051 7  89757306.174 5
     -3037.814       -2362.745
  21008434.428    21008434.310    21008437.088   112105047.243 7  87192841.854 6
       436.979         339.872
  23289760.482    23289760.374    23289743.725   124147572.180 5  96559249.498 3
     -2137.169       -1662.234
  20033619.366    20033619.124    20033623.118   107053613.233 8  83263960.494 6
      -165.130        -128.434
  20872056.222    20872056.231    20872061.216   111494798.740 8  86718204.855 6
      2266.832        1763.091
  20882835.850    20882834.840    20882838.696   111748282.397 7  86915363.824 5
      2148.831        1671.305
  22610979.935    22610979.027    22610984.195   120698951.917 6  93876983.700 5
      4723.852        3674.106
  22427924.691    22427924.548    22427928.142   119932216.967 6  93280641.173 5
     -1696.605       -1319.583
 11 10 10  5 10  0.0000000  0 18G09G12G15G17G18G22G26G27G28R03R05R06
                                R14R15R16R17R18R24
  20633374.163    20633373.5714   20633379.1994  108429128.690 8  84490250.51045
      2219.160        1729.213
  22253429.646    22253429.5694   22253433.9554  116942566.643 6  91124102.88244
      3257.478        2538.289
  20365703.503    20365703.2834   20365708.5634  107022506.773 8  83394176.19447
      -377.858        -294.435
  22187570.390    22187569.9094   22187574.8304  116596483.453 7  90854421.54744
       195.255         152.150
  23219440.586    23219439.9054   23219445.7734  122018986.340 5  95079751.75341
       221.818         172.857
  24884087.867    24884088.5454   24884091.1224  130766764.298 4 101896196.15441
      1925.740        1500.613
  22112902.893    22112902.7054   22112909.4554  116204095.772 7  90548661.22044
     -2747.842       -2141.179
  20929977.623    20929976.9334   20929983.1024  109987775.127 8  85704773.86846
       941.404         733.562
  24418471.026    24418471.2294   24418475.1514  128319981.590 5  99989584.04841
     -2513.832       -1958.835
  23370606.036    23370604.519    23370614.873   124622377.250 5  96928556.985 5
     -2160.093       -1680.063
  21605455.873    21605455.347    21605460.334   115493561.310 7  89828345.453 5
     -3051.138       -2373.105
  21006054.488    21006053.990    21006056.567   112092345.020 7  87182962.332 6
       409.924         318.831
  23301794.829    23301792.998    23301776.094   124211710.440 5  96609134.791 3
     -2138.635       -1663.404
  20034565.472    20034565.542    20034569.906   107058671.789 8  83267894.908 6
      -172.109        -133.862
  20859340.673    20859340.890    20859345.696   111426877.270 8  86665377.036 6
      2261.344        1758.819
  20870858.407    20870857.397    20870861.386   111684188.153 7  86865512.756 5
      2124.103        1652.074
  22584445.832    22584445.026    22584449.991   120557309.383 6  93766817.245 5
      4718.992        3670.326
  22437506.860    22437506.325    22437510.672   119983456.452 6  93320494.046 5
     -1719.254       -1337.200
 11 10 10  5 10 30.0000000  0 18G09G12G15G17G18G22G26G27G28R03R05R06
                                R14R15R16R17R18R24
  20620728.892    20620728.2364   20620733.5714  108362676.293 8  84438469.42245
      2210.850        1722.738
  22234861.828    22234862.1914   22234866.2484  116844992.217 6  91048070.86644
      3247.333        2530.391
  20367910.250    20367910.1424   20367915.2974  107034103.806 8  83403212.81847
      -395.387        -308.091
  22186507.948    22186507.6934   22186512.6774  116590901.881 7  90850072.26244
       176.721         137.706
  23218223.500    23218221.0834   23218225.7094  122012580.652 5  95074760.30741
       205.146         159.850
  24873136.611    24873136.7594   24873140.1914  130709217.120 4 101851354.21741
      1910.800        1488.934
  22128618.598    22128617.9294   22128624.4704  116286679.165 7  90613011.86244
     -2757.793       -2148.923
  20924617.458    20924616.8054   20924622.8874  109959607.391 8  85682824.96646
       936.320         729.597
  24432824.038    24432822.1844   24432828.0434  128395401.012 5 100048352.31041
     -2514.255       -1959.131
  23382761.736    23382762.487    23382770.906   124687199.277 5  96978973.914 5
     -2161.500       -1681.159
  21622614.777    21622614.499    21622619.521   115585287.191 7  89899687.795 5
     -3064.034       -2383.138
  21003824.840    21003824.845    21003826.781   112080448.153 7  87173709.232 6
       383.067         297.941
  23313831.819    23313831.550    23313828.210   124275886.771 5  96659049.751 3
     -2139.889       -1664.390
  20035550.480    20035550.453    20035554.184   107063933.074 8  83271986.991 6
      -178.814        -139.076
  20846655.198    20846655.624    20846660.356   111359113.880 8  86612672.181 6
      2256.052        1754.703
  20859018.285    20859017.373    20859021.563   111620829.499 7  86816233.798 5
      2099.647        1633.057
  22557938.559    22557937.750    22557942.750   120415811.659 6  93656763.433 5
      4714.036        3666.474
  22447214.079    22447213.898    22447217.689   120035368.274 6  93360869.846 5
     -1741.628       -1354.602
 11 10 10  5 11  0.0000000  0 18G09G12G15G17G18G22G26G27G28R03R05R06
                                R14R15R16R17R18R24
  20608132.979    20608131.9644   20608137.6024  108296481.274 8  84386888.87646
      2202.084        1715.908
  22216354.213    22216354.0124   22216358.8904  116747732.192 6  90972283.82944
      3236.660        2522.076
  20370218.457    20370218.4414   20370223.7124  107046234.430 8  83412665.22647
      -413.342        -322.083
  22185553.214    22185552.9134   22185557.5874  116585884.619 7  90846162.69444
       157.725         122.901
  23217099.764    23217097.7874   23217104.3354  122006680.723 6  95070162.92642
       188.149         146.616
  24862272.986    24862270.7264   24862278.4124  130652130.858 4 101806871.40741
      1895.113        1476.712
  22144391.041    22144390.7884   22144397.2714  116369566.981 7  90677599.71144
     -2768.102       -2156.962
  20919288.001    20919287.0874   20919293.2054  109931599.875 8  85661000.91446
       930.810         725.306
  24447178.133    24447177.3684   24447184.1844  128470840.893 5 100107136.49841
     -2515.178       -1959.886
  23394928.172    23394927.754    23394936.247   124752071.135 5  97029429.650 5
     -2163.324       -1682.577
  21639847.532    21639847.286    21639852.156   115677405.566 7  89971335.396 5
     -3077.212       -2393.388
  21001747.515    21001747.155    21001750.131   112069363.638 7  87165087.941 6
       355.816         276.747
  23325880.973    23325879.709    23325880.090   124340109.486 5  96709000.661 3
     -2141.625       -1665.691
  20036574.382    20036574.153    20036578.553   107069404.701 8  83276242.679 6
      -185.977        -144.650
  20834001.335    20834001.519    20834006.008   111291516.436 8  86560096.393 6
      2250.389        1750.306
  20847318.122    20847316.732    20847321.251   111558216.319 7  86767534.652 5
      2074.552        1613.541
  22531458.780    22531459.140    22531465.139   120274470.396 6  93546831.322 5
      4708.613        3662.256
  22457049.513    22457048.812    22457051.812   120087957.659 6  93401772.663 5
     -1764.350       -1372.272
 11 10 10  5 11 30.0000000  0 18G09G12G15G17G18G22G26G27G28R03R05R06
                                R14R15R16R17R18R24
  20595586.527    20595585.5284   20595591.7894  108230551.108 8  84335514.69846
      2193.284        1709.054
  22197907.402    22197907.1404   22197912.1904  116650793.803 7  90896747.42844
      3225.935        2513.715
  20372629.907    20372629.7284   20372634.7304  107058904.927 8  83422538.31547
      -431.300        -336.078
  22184706.765    22184706.7574   22184711.2244  116581438.250 7  90842697.97044
       138.738         108.106
  23216074.279    23216073.2144   23216078.3544  122001291.703 6  95065963.68542
       171.160         133.389
  24851498.969    24851497.0394   24851500.8254  130595513.354 4 101762753.86541
      1879.446        1464.507
  22160222.880    22160222.6234   22160229.1274  116452763.900 7  90742428.42844
     -2778.308       -2164.912
  20913990.058    20913989.2854   20913995.0754  109903759.626 8  85639307.20046
       925.274         720.993
  24461539.573    24461539.4144   24461543.0614  128546306.064 5 100165940.38541
     -2515.938       -1960.470
  23407102.988    23407103.912    23407112.414   124817000.326 5  97079929.948 5
     -2165.237       -1684.063
  21657153.429    21657153.339    21657158.957   115769918.358 7  90043289.762 6
     -3090.207       -2403.490
  20999823.885    20999823.577    20999826.058   112059097.832 7  87157103.425 6
       328.590         255.569
  23337938.122    23337937.922    23337944.558   124404385.126 5  96758992.762 3
     -2143.289       -1667.028
  20037638.773    20037638.656    20037642.781   107075092.485 8  83280666.482 6
      -193.154        -150.227
  20821379.580    20821379.743    20821384.083   111224091.875 8  86507655.063 6
      2244.620        1745.818
  20835757.889    20835756.915    20835760.570   111496358.458 7  86719422.968 5
      2049.372        1593.959
  22505012.138    22505012.814    22505018.327   120133296.578 6  93437029.429 5
      4703.033        3657.916
  22467010.845    22467011.001    22467013.499   120141228.120 6  93443205.175 5
     -1786.958       -1389.862
 11 10 10  5 12  0.0000000  0 18G09G12G15G17G18G22G26G27G28R03R05R06
                                R14R15R16R17R18R24
  20583087.467    20583087.0214   20583092.9474  108164870.987 8  84284335.36546
      2185.180        1702.738
  22179518.571    22179518.4394   22179523.3574  116554161.930 6  90821449.87744
      3215.930        2505.926
  20375140.867    20375140.5754   20375145.5344  107072099.126 8  83432819.48947
      -448.507        -349.486
  22183966.253    22183965.8684   22183970.7684  116577546.901 7  90839665.74244
       120.482          93.885
  23215144.661    23215141.6484   23215146.9454  121996396.865 6  95062149.53241
       154.938         120.727
  24840811.033    24840811.4704   24840816.0934  130539349.581 4 101718989.85941
      1864.615        1452.947
  22176110.542    22176109.7104   22176116.4804  116536251.926 6  90807483.98244
     -2787.729       -2172.255
  20908720.667    20908720.3114   20908726.2624  109876070.837 8  85617731.50546
       920.446         717.232
  24475901.958    24475900.8114   24475906.7284  128621779.230 5 100224750.50541
     -2515.936       -1960.432
  23419287.965    23419288.095    23419297.471   124881970.866 5  97130462.397 4
     -2166.310       -1684.909
  21674530.494    21674530.231    21674535.760   115862805.232 6  90115535.074 6
     -3102.422       -2412.996
  20998050.641    20998049.984    20998052.221   112049633.709 7  87149742.435 6
       302.171         235.018
  23350002.476    23350002.131    23350002.559   124468697.403 5  96809013.272 3
     -2144.307       -1667.790
  20038740.199    20038740.329    20038744.500   107080980.325 8  83285245.887 6
      -199.590        -155.234
  20808786.681    20808786.721    20808791.412   111156823.837 8  86455335.476 6
      2239.668        1741.971
  20824337.075    20824335.896    20824339.419   111435242.207 7  86671888.109 5
      2024.813        1574.863
  22478595.463    22478595.576    22478601.341   119992279.448 6  93327349.419 5
      4697.899        3653.927
  22477096.797    22477096.521    22477099.811   120195160.626 6  93485152.628 5
     -1808.744       -1406.806
 11 10 10  5 12 30.0000000  0 18G09G12G15G17G18G22G26G27G28R03R05R06
                                R14R15R16R17R18R24
  20570636.915    20570636.2894   20570642.0424  108099442.096 8  84233351.79645
      2176.653        1696.094
  22161189.115    22161188.8564   22161193.2124  116457837.809 6  90746392.13944
      3205.521        2497.808
  20377751.083    20377750.9494   20377756.0754  107085816.564 8  83443508.36947
      -466.097        -363.192
  22183331.160    22183330.8374   22183335.8874  116574210.185 7  90837065.68744
       101.823          79.338
  23214305.590    23214304.1164   23214309.9984  121991995.313 5  95058719.72242
       138.371         107.840
  24830210.774    24830208.5864   24830214.7694  130483640.569 4 101675580.23041
      1849.252        1440.951
  22192053.096    22192052.2244   22192059.0724  116620029.317 7  90872765.01244
     -2797.521       -2179.892
  20903481.137    20903480.2894   20903486.2974  109848534.252 8  85596274.40946
       915.220         713.155
  24490265.253    24490263.5854   24490270.9344  128697258.920 5 100283565.72441
     -2516.190       -1960.639
  23431479.978    23431479.851    23431488.630   124946982.876 5  97181027.118 4
     -2167.930       -1686.166
  21691976.715    21691976.367    21691981.002   115956061.308 7  90188067.543 5
     -3114.740       -2422.571
  20996426.825    20996426.494    20996429.718   112040970.498 7  87143004.378 6
       275.315         214.132
  23362076.157    23362074.011    23362069.093   124533047.067 5  96859063.055 3
     -2145.724       -1668.904
  20039879.827    20039879.670    20039884.171   107087068.316 8  83289980.967 6
      -206.427        -160.552
  20796222.890    20796222.987    20796228.125   111089712.820 7  86403138.020 6
      2234.268        1737.763
  20813055.281    20813054.122    20813057.707   111374870.837 7  86624932.600 5
      1999.781        1555.388
  22452208.809    22452208.641    22452214.509   119851423.153 6  93217794.512 5
      4692.451        3649.689
  22487305.473    22487305.119    22487308.910   120249752.241 6  93527612.714 5
     -1830.746       -1423.910
 11 10 10  5 13  0.0000000  0 18G09G12G15G17G18G22G26G27G28R03R05R06
                                R14R15R16R17R18R24
  20558235.212    20558234.4054   20558240.0054  108034269.264 8  84182567.76646
      2168.248        1689.541
  22142918.284    22142918.3504   22142923.3964  116361826.556 7  90671578.18744
      3195.254        2489.810
  20380461.664    20380461.6064   20380466.7154  107100061.260 8  83454608.09947
      -483.486        -376.743
  22182802.611    22182802.3024   22182807.6904  116571432.152 7  90834900.97144
        83.403          64.984
  23213561.333    23213561.4184   23213566.3114  121988089.948 5  95055676.54641
       122.055          95.101
  24819698.677    24819695.1464   24819702.6954  130428391.670 4 101632529.15441
      1834.037        1429.122
  22208050.625    22208050.1674   22208056.5134  116704098.261 7  90938273.21644
     -2807.040       -2187.299
  20898270.958    20898270.1784   20898276.1684  109821154.320 8  85574939.37446
       910.161         709.220
  24504630.926    24504629.7024   24504637.2564  128772748.621 5 100342388.72141
     -2516.274       -1960.701
  23443682.518    23443681.166    23443689.089   125012040.794 5  97231627.552 4
     -2169.241       -1687.178
  21709490.976    21709490.220    21709495.341   116049686.097 7  90260886.792 5
     -3126.817       -2431.964
  20994954.684    20994954.697    20994957.018   112033112.007 8  87136892.223 6
       248.645         193.386
  23374154.711    23374154.348    23374152.499   124597438.015 5  96909144.721 3
     -2146.964       -1669.856
  20041057.324    20041057.264    20041061.564   107093360.493 8  83294874.856 6
      -212.966        -165.639
  20783689.390    20783690.085    20783695.220   111022762.974 8  86351065.903 6
      2229.061        1733.714
  20801913.837    20801912.868    20801916.205   111315251.281 7  86578561.823 5
      1974.890        1536.029
  22425852.515    22425853.019    22425859.126   119710735.972 6  93108371.139 5
      4686.783        3645.275
  22497636.846    22497637.257    22497641.785   120305004.495 6  93570586.615 5
     -1852.642       -1440.945
 11 10 10  5 13 30.0000000  0 18G09G12G15G17G18G22G26G27G28R03R05R06
                                R14R15R16R17R18R24
  20545882.151    20545881.3944   20545886.6994  107969352.320 8  84131983.11546
      2159.551        1682.766
  22124708.331    22124707.8344   22124712.6284  116266127.852 6  90597007.77044
      3184.704        2481.591
  20383272.222    20383272.2094   20383277.2554  107114831.114 8  83466117.04847
      -501.141        -390.493
  22182379.862    22182379.9324   22182385.3394  116569211.003 7  90833170.18444
        64.702          50.417
  23212912.123    23212912.0424   23212917.1354  121984678.146 6  95053018.00342
       105.502          82.216
  24809271.373    24809267.3454   24809274.1494  130373602.334 4 101589836.13541
      1818.615        1417.117
  22224103.095    22224103.0454   22224109.4424  116788455.178 7  91004005.82744
     -2816.727       -2194.848
  20893090.314    20893089.6224   20893095.6054  109793930.045 8  85553725.63746
       904.821         705.053
  24518997.820    24518994.9624   24519004.4784  128848245.038 5 100401216.93341
     -2516.723       -1961.095
  23455891.519    23455890.336    23455898.728   125077143.242 6  97282262.588 5
     -2170.887       -1688.464
  21727072.832    21727072.522    21727078.104   116143674.052 7  90333988.508 5
     -3139.022       -2441.461
  20993631.882    20993631.606    20993634.884   112026055.915 7  87131404.139 6
       221.775         172.492
  23386243.716    23386242.329    23386233.595   124661868.960 5  96959257.587 3
     -2148.389       -1670.916
  20042272.883    20042273.004    20042277.114   107099855.904 8  83299926.827 6
      -219.997        -171.109
  20771187.130    20771187.214    20771191.607   110955973.192 8  86299118.294 6
      2223.631        1729.490
  20790913.429    20790912.284    20790915.295   111256384.274 7  86532776.372 5
      1949.611        1516.363
  22399530.623    22399529.911    22399536.148   119570221.350 6  92999081.971 5
      4680.787        3640.611
  22508092.721    22508092.609    22508096.480   120360912.694 6  93614070.704 5
     -1874.522       -1457.964
 11 10 10  5 14  0.0000000  0 18G09G12G15G17G18G22G26G27G28R03R05R06
                                R14R15R16R17R18R24
  20533579.085    20533578.2604   20533583.7464  107904699.205 8  84081604.05946
      2150.792        1675.938
  22106558.080    22106557.2004   22106562.5604  116170749.384 7  90522686.87344
      3174.050        2473.283
  20386184.136    20386183.9404   20386189.2444  107130132.900 8  83478040.49147
      -518.814        -404.272
  22182064.543    22182064.4734   22182070.1434  116567553.720 7  90831878.77744
        45.982          35.830
  23212359.074    23212357.5634   23212362.5704  121981765.984 6  95050748.78442
        88.814          69.216
  24798934.445    24798933.0184   24798936.8874  130319280.522 4 101547507.46841
      1803.038        1404.971
  22240211.787    22240211.3164   22240218.0014  116873105.228 7  91069966.83844
     -2826.464       -2202.437
  20887940.749    20887939.9914   20887945.8704  109766868.800 8  85532638.93746
       899.425         700.855
  24533364.716    24533364.5944   24533371.4184  128923753.479 5 100460054.53141
     -2517.063       -1961.336
  23468107.680    23468108.345    23468116.974   125142297.307 5  97332937.785 5
     -2172.621       -1689.809
  21744724.308    21744723.536    21744728.706   116238027.221 7  90407374.271 5
     -3151.075       -2450.836
  20992461.211    20992460.970    20992463.372   112019808.200 7  87126544.794 6
       194.895         151.582
  23398340.001    23398338.191    23398322.805   124726347.446 5  97009407.565 3
     -2149.951       -1672.175
  20043527.484    20043527.639    20043531.932   107106561.354 8  83305142.154 6
      -226.973        -176.535
  20758715.186    20758715.332    20758719.993   110889350.274 8  86247300.454 6
      2218.052        1725.153
  20780054.986    20780053.733    20780057.443   111198279.024 7  86487583.399 5
      1924.204        1496.603
  22373242.083    22373241.256    22373247.707   119429890.823 6  92889936.003 5
      4674.706        3635.883
  22518670.872    22518670.632    22518675.395   120417480.889 6  93658068.129 5
     -1896.447       -1475.016
