     2.11           OBSERVATION DATA    M (MIXED)           RINEX VERSION / TYPE
teqc  2012Jun6                          20151118 02:01:20UTCPGM / RUN BY / DATE
OSX ker:10.8.0|Core 2 Duo|gcc 4.2 -m64|OSX ker:10.8.0+|=+   COMMENT
     2              OBSERVATION DATA    M (MIXED)           COMMENT
CCRINEXO V2.3.3 UX  BKG Frankfurt       11-OCT-11 00:16     COMMENT
Concatenated RINEX hourly files (24/24)                     COMMENT
JPS2RIN 1.40 lnx    SAC                 10-OCT-11 01:01     COMMENT
build Feb  6 2004 (c) Javad Navigation Systems              COMMENT
Stazione Astronomica Cagliari                               COMMENT
/home/srv/htdocs/glonass/hdata/CAGZ.tps                     COMMENT
SE TPS 8b1daea3                                             COMMENT
CAGZ                                                        MARKER NAME
12725M004                                                   MARKER NUMBER
SAC                 SAC-DIST                                OBSERVER / AGENCY
AGNV7TGA2O0         TPS E_GGD           3.3 Jul,10,2008 p4  REC # / TYPE / VERS
RRA052              JPSREGANT_DD_E  NONE                    ANT # / TYPE
  4893378.7999   772650.4734  4004179.0402                  APPROX POSITION XYZ
        0.0945        0.0000        0.0000                  ANTENNA: DELTA H/E/N
     1     1                                                WAVELENGTH FACT L1/2
     7    C1    P1    P2    L1    L2    D1    D2            # / TYPES OF OBSERV
    30.0000                                                 INTERVAL
teqc windowed: start @ 2011 Oct 10 12:00:00.000             COMMENT
teqc windowed: delta = 14400.000 sec                        COMMENT
  2011    10    10    12     0    0.0000000     GPS         TIME OF FIRST OBS
    15                                                      LEAP SECONDS
                                                            END OF HEADER
 11 10 10 12  0  0.0000000  1 18G03G05G06G16G18G21G25G29G30G31R05R06
                                R10R11R12R20R21R22
  23757719.115    23757720.0654   23757731.2294  124847675.845 5  97283920.98441
      3500.724        2727.800
  25183417.659                                   132339795.715 3
     -1465.186
  22868209.096    22868208.0854   22868218.4634  120173304.372 6  93641568.10742
      2751.494        2144.016
  22979503.856    22979504.4604   22979513.2444  120758151.231 6  94097282.39542
      3433.197        2675.205
  23637146.099    23637146.0024   23637157.9044  124214206.794 5  96790251.27341
      3166.166        2467.098
  20816208.973    20816208.2954   20816214.9514  109390054.180 8  85239002.15246
       661.905         515.769
  23828348.321    23828348.4994   23828365.4564  125218681.434 6  97572977.35042
     -2796.662       -2179.221
  22223967.573    22223967.5614   22223976.6674  116787746.575 7  91003456.34444
     -1680.782       -1309.697
  20595834.702    20595834.1014   20595843.1464  108231845.478 8  84336528.14746
     -1405.336       -1095.068
  22302162.786    22302162.6484   22302171.7824  117198632.750 7  91323624.54244
     -1992.768       -1552.807
  22244641.506    22244641.097    22244651.382   118910455.908 6  92485954.871 5
      1806.028        1404.685
  23204317.333    23204317.653    23204330.884   123822778.176 5  96306662.449 5
      4217.396        3280.192
  21908037.602    21908036.167    21908049.614   116782139.996 7  90830547.498 4
     -3759.488       -2924.044
  19986970.749    19986970.516    19986976.922   106804357.063 8  83070091.908 5
      -394.526        -306.853
  22314195.805    22314195.633    22314202.727   119198446.774 6  92709932.057 5
      3759.392        2923.967
  21357167.851    21357167.720    21357174.521   114206394.742 6  88827243.022 6
     -1906.984       -1483.210
  19964071.410    19964071.030    19964075.241   106831868.495 8  83091518.535 6
       723.557         562.763
  22472024.774    22472025.553    22472034.088   119957245.404 6  93300114.612 5
      2984.523        2321.287
 11 10 10 12  0 30.0000000  0 18G03G05G06G16G18G21G25G29G30G31R05R06
                                R10R11R12R20R21R22
  23737742.226    23737740.1554   23737751.4564  124742690.789 5  97202114.60941
      3498.298        2725.931
  25191824.492                                   132383969.882 3
     -1480.030
  22852513.191    22852513.2854   22852524.3234  120090825.786 6  93577299.15642
      2747.032        2140.545
  22959919.662    22959918.9724   22959926.3574  120655229.805 6  94017083.95242
      3428.148        2671.272
  23619084.443    23619083.3394   23619095.2264  124119289.282 5  96716289.88241
      3161.615        2463.560
  20812472.223    20812471.5704   20812478.2224  109370417.243 8  85223700.66446
       647.239         504.343
  23844332.923    23844331.9304   23844350.5194  125302676.161 6  97638427.50042
     -2803.001       -2184.146
  22233573.850    22233573.6504   22233582.9284  116838227.493 7  91042792.08744
     -1684.620       -1312.687
  20603903.374    20603902.4154   20603911.6404  108274244.959 8  84369566.65846
     -1421.297       -1107.503
  22313573.656    22313573.0914   22313582.4824  117258595.250 7  91370348.47444
     -2004.690       -1562.089
  22234569.631    22234569.686    22234580.033   118856621.042 6  92444083.391 5
      1782.945        1386.734
  23180622.613    23180622.027    23180634.257   123696333.861 5  96208317.187 5
      4212.179        3276.133
  21929223.585    21929221.584    21929235.682   116895073.363 7  90918384.297 4
     -3769.376       -2931.725
  19989262.277    19989262.050    19989269.136   106816604.786 8  83079617.894 5
      -421.947        -328.184
  22293131.494    22293130.754    22293140.018   119085929.928 6  92622419.030 5
      3741.629        2910.151
  21367876.106    21367875.567    21367882.295   114263653.133 6  88871777.261 6
     -1910.267       -1485.764
  19960042.508    19960042.162    19960046.365   106810307.349 8  83074748.767 7
       713.852         555.214
  22455271.640    22455270.996    22455278.849   119867809.034 6  93230553.145 5
      2977.916        2316.146
 11 10 10 12  1  0.0000000  0 17G03G06G16G18G21G25G29G30G31R05R06R10
                                R11R12R20R21R22
  23717776.776    23717776.7564   23717789.9464  124637779.663 5  97120365.79741
      3495.575        2723.856
  22836843.732    22836843.4164   22836854.2584  120008481.024 6  93513134.47942
      2742.377        2136.913
  22940363.989    22940363.1074   22940371.3424  120552462.916 6  93937005.90142
      3422.752        2667.075
  23601046.558    23601045.7164   23601057.7654  124024507.473 5  96642434.17041
      3156.894        2459.928
  20808818.837    20808818.1304   20808825.1714  109351219.609 8  85208741.48946
       632.404         492.781
  23860353.392    23860353.0954   23860369.6384  125386861.995 5  97704026.55542
     -2809.638       -2189.335
  22243202.111    22243201.8084   22243210.9244  116888824.801 7  91082218.52844
     -1688.719       -1315.887
  20612062.332    20612061.7764   20612070.9434  108317122.536 8  84402977.71346
     -1437.427       -1120.078
  22325051.246    22325051.5434   22325061.1314  117318914.237 7  91417350.17744
     -2016.772       -1571.503
  22224629.624    22224628.708    22224637.893   118803478.964 6  92402750.780 5
      1759.636        1368.598
  23156955.887    23156955.351    23156967.782   123570047.254 6  96110094.569 4
      4206.618        3271.809
  21950466.022    21950463.438    21950476.792   117008300.096 7  91006449.260 4
     -3779.250       -2939.402
  19991708.286    19991708.048    19991715.095   106829674.392 7  83089783.110 5
      -449.555        -349.654
  22272169.268    22272169.138    22272176.792   118973948.157 6  92535322.166 5
      3723.522        2896.072
  21378601.303    21378600.903    21378608.710   114321009.425 6  88916387.653 6
     -1913.673       -1488.408
  19956066.709    19956066.400    19956071.060   106789035.449 8  83058203.965 6
       704.043         547.586
  22438553.469    22438553.483    22438561.543   119778569.393 6  93161144.711 5
      2971.191        2310.925
 11 10 10 12  1 30.0000000  0 17G03G06G16G18G21G25G29G30G31R05R06R10
                                R11R12R20R21R22
  23697827.435    23697826.8144   23697837.6984  124532945.898 5  97038677.35641
      3493.206        2721.966
  22821200.500    22821200.3994   22821210.1264  119926272.898 6  93449076.28442
      2738.074        2133.562
  22920838.495    22920837.1354   22920844.9824  120449855.132 6  93857051.86142
      3417.701        2663.153
  23583037.853    23583036.8584   23583049.2424  123929866.329 5  96568688.09641
      3152.470        2456.466
  20805249.384    20805248.9534   20805256.0904  109332463.248 8  85194126.16746
       617.948         481.517
  23876409.343    23876409.5814   23876425.8834  125471240.056 5  97769775.37342
     -2815.734       -2194.092
  22252852.693    22252852.5334   22252861.9424  116939540.542 7  91121737.25444
     -1692.389       -1318.737
  20620313.694    20620312.5924   20620321.5144  108360479.965 8  84436762.67446
     -1453.139       -1132.312
  22336597.795    22336597.7014   22336607.2964  117379589.447 7  91464629.46344
     -2028.339       -1580.520
  22214818.177    22214818.277    22214828.023   118751035.064 6  92361961.216 5
      1736.572        1350.658
  23133319.551    23133320.215    23133332.394   123443926.347 6  96012000.787 4
      4201.329        3267.704
  21971760.967    21971759.738    21971773.317   117121818.523 7  91094741.089 4
     -3788.656       -2946.726
  19994308.254    19994307.742    19994314.615   106843567.175 8  83100588.590 5
      -476.690        -370.761
  22251305.639    22251306.216    22251314.185   118862508.016 6  92448646.563 5
      3705.677        2882.194
  21389345.126    21389345.335    21389353.167   114378465.258 6  88961075.458 6
     -1916.730       -1490.787
  19952145.925    19952145.695    19952150.222   106768054.865 8  83041885.742 7
       694.635         540.276
  22421874.312    22421872.448    22421881.909   119689529.235 6  93091891.418 5
      2964.801        2305.955
 11 10 10 12  2  0.0000000  0 17G03G06G16G18G21G25G29G30G31R05R06R10
                                R11R12R20R21R22
  23677892.788    23677891.1244   23677903.3264  124428186.323 5  96957046.70641
      3490.869        2720.180
  22805581.903    22805581.8814   22805592.6214  119844197.942 6  93385121.84442
      2733.704        2130.171
  22901342.174    22901341.8844   22901350.1734  120347404.792 6  93777220.48242
      3412.447        2659.062
  23565053.536    23565052.6194   23565064.7244  123835364.921 5  96495050.90441
      3147.764        2452.812
  20801763.396    20801762.7644   20801770.1154  109314143.789 8  85179851.29046
       603.446         470.220
  23892502.589    23892502.3384   23892519.1974  125555805.356 6  97835670.10042
     -2821.897       -2198.876
  22262525.544    22262525.3564   22262534.7814  116990370.310 6  91161344.82844
     -1696.133       -1321.657
  20628654.527    20628653.6094   20628662.8274  108404312.639 8  84470917.95546
     -1468.912       -1144.602
  22348210.557    22348210.9574   22348220.0134  117440614.593 7  91512181.41944
     -2039.899       -1589.530
  22205137.747    22205137.446    22205147.493   118699288.318 6  92321713.870 5
      1713.295        1332.558
  23109716.727    23109716.093    23109729.391   123317971.770 6  95914036.358 4
      4195.721        3263.334
  21993110.344    21993109.061    21993124.135   117235620.909 7  91183253.780 4
     -3798.011       -2953.987
  19997061.741    19997060.968    19997067.683   106858278.271 8  83112030.521 5
      -503.923        -391.938
  22230546.592    22230546.365    22230555.553   118751609.751 6  92362392.427 5
      3687.660        2868.177
  21400107.891    21400107.658    21400115.343   114436015.315 6  89005836.552 6
     -1919.794       -1493.171
  19948278.602    19948278.253    19948283.078   106747360.703 8  83025790.293 6
       685.146         532.890
  22405230.787    22405230.161    22405236.223   119600684.509 6  93022790.135 5
      2958.326        2300.907
 11 10 10 12  2 30.0000000  0 17G03G06G16G18G21G25G29G30G31R05R06R10
                                R11R12R20R21R22
  23657973.018    23657973.3504   23657983.9844  124323503.105 5  96875475.52841
      3487.997        2717.878
  22789990.182    22789989.2074   22789998.1754  119762258.034 6  93321272.65342
      2728.927        2126.417
  22881877.480    22881876.6634   22881884.0964  120245115.585 6  93697514.65842
      3406.780        2654.633
  23547097.218    23547096.9664   23547110.5434  123741008.020 5  96421526.31941
      3142.650        2448.802
  20798360.944    20798360.2614   20798367.2514  109296262.691 8  85165917.99446
       588.595         458.644
  23908630.792    23908630.7254   23908646.3314  125640558.150 5  97901710.94142
     -2828.335       -2203.896
  22272220.230    22272219.9924   22272229.1604  117041315.605 7  91201042.42544
     -1700.274       -1324.891
  20637086.009    20637085.1564   20637094.5374  108448621.142 8  84505444.01146
     -1485.003       -1157.146
  22359889.704    22359890.1864   22359899.4754  117501988.855 6  91560005.42644
     -2051.737       -1598.752
  22195588.943    22195588.055    22195598.459   118648242.786 6  92282011.913 5
      1689.677        1314.185
  23086145.277    23086144.760    23086157.163   123192189.816 6  95816206.176 4
      4189.673        3258.631
  22014512.700    22014510.744    22014524.806   117349703.971 7  91271984.783 4
     -3807.562       -2961.431
  19999967.754    19999966.900    19999973.851   106873807.727 8  83124108.958 5
      -531.421        -413.329
  22209887.159    22209886.984    22209896.717   118641259.294 6  92276564.386 5
      3669.006        2853.665
  21410888.720    21410887.955    21410895.298   114493660.928 6  89050671.976 6
     -1923.238       -1495.854
  19944465.396    19944465.197    19944469.795   106726953.790 8  83009918.266 7
       675.306         525.235
  22388621.241    22388622.260    22388629.230   119512036.650 6  92953841.960 5
      2951.522        2295.623
 11 10 10 12  3  0.0000000  0 17G03G06G16G18G21G25G29G30G31R05R06R10
                                R11R12R20R21R22
  23638068.712    23638068.0114   23638080.2414  124218905.993 5  96793971.42741
      3485.343        2715.872
  22774424.361    22774423.9614   22774433.0284  119680462.342 6  93257535.82842
      2724.289        2122.801
  22862445.361    22862444.5584   22862452.7664  120142998.955 6  93617943.33542
      3401.124        2650.223
  23529171.605    23529170.9454   23529183.2924  123646807.366 5  96348123.47641
      3137.538        2444.839
  20795043.141    20795042.5854   20795049.4544  109278828.177 8  85152332.68646
       573.863         447.166
  23924796.201    23924794.9594   23924812.0754  125725506.214 6  97967903.94142
     -2834.719       -2208.859
  22281938.234    22281938.2094   22281947.8884  117092384.924 7  91240836.64644
     -1704.224       -1327.963
  20645610.062    20645609.1194   20645618.1014  108493413.685 8  84540347.24546
     -1500.998       -1169.604
  22371636.776    22371636.7254   22371646.0564  117563718.408 7  91608106.27244
     -2063.382       -1607.828
  22186174.285    22186173.118    22186182.788   118597910.241 6  92242864.511 5
      1666.003        1295.774
  23062607.468    23062607.696    23062621.606   123066594.099 6  95718520.825 4
      4183.527        3253.853
  22035967.015    22035965.676    22035979.886   117464072.830 7  91360938.059 4
     -3816.896       -2968.697
  20003028.241    20003027.803    20003034.624   106890163.454 8  83136830.044 5
      -558.794        -434.613
  22189336.604    22189336.275    22189343.351   118531469.940 6  92191172.708 5
      3650.366        2839.174
  21421686.702    21421687.271    21421694.822   114551409.271 6  89095587.312 6
     -1926.535       -1498.413
  19940707.036    19940706.795    19940711.125   106706842.657 8  82994276.294 7
       665.607         517.694
  22372056.427    22372055.348    22372061.339   119423595.267 6  92885054.387 5
      2944.748        2290.357
 11 10 10 12  3 30.0000000  0 17G03G06G16G18G21G25G29G30G31R05R06R10
                                R11R12R20R21R22
  23618178.184    23618177.0594   23618187.6554  124114384.092 5  96712525.92541
      3482.930        2713.993
  22758883.102    22758883.5444   22758894.0054  119598800.224 6  93193903.09342
      2720.000        2119.476
  22843043.962    22843043.4424   22843050.8404  120041045.577 6  93538499.20542
      3395.806        2646.079
  23511274.231    23511273.4694   23511286.1354  123552754.638 5  96274835.92941
      3132.750        2441.108
  20791808.454    20791807.8264   20791814.5624  109261829.010 8  85139086.61146
       559.526         435.993
  23940995.863    23940994.8264   23941012.8684  125810636.902 6  98034239.20441
     -2840.614       -2213.453
  22291678.082    22291677.9464   22291686.9444  117143566.861 7  91280718.63044
     -1707.808       -1330.753
  20654223.373    20654222.5184   20654231.8634  108538678.020 8  84575618.10546
     -1516.540       -1181.715
  22383448.775    22383448.8964   22383457.9934  117625789.559 7  91656473.29744
     -2074.558       -1616.542
  22176889.278    22176889.064    22176897.921   118548281.680 6  92204264.650 5
      1642.657        1277.620
  23039105.477    23039104.767    23039118.230   122941177.998 6  95620975.169 4
      4177.578        3249.221
  22057473.595    22057471.798    22057486.040   117578711.668 6  91450101.300 4
     -3825.631       -2975.488
  20006241.325    20006240.973    20006247.778   106907332.777 8  83150183.935 5
      -585.743        -455.577
  22168885.324    22168885.397    22168894.823   118422234.270 6  92106211.697 5
      3632.007        2824.889
  21432503.638    21432503.511    21432511.201   114609249.647 6  89140574.213 6
     -1929.416       -1500.658
  19937002.005    19937001.542    19937006.271   106687014.996 8  82978854.798 7
       656.323         510.474
  22355524.206    22355523.509    22355530.313   119335348.556 6  92816418.187 5
      2938.408        2285.423
 11 10 10 12  4  0.0000000  0 17G03G06G16G18G21G25G29G30G31R05R06R10
                                R11R12R20R21R22
  23598303.591    23598303.8224   23598314.7314  124009940.845 5  96631141.77741
      3479.887        2711.587
  22743370.096    22743370.0464   22743379.2414  119517274.317 6  93130376.48242
      2715.045        2115.628
  22823675.062    22823674.0274   22823682.2724  119939259.997 6  93459185.82542
      3389.823        2641.411
  23493405.389    23493405.0914   23493418.4764  123458855.165 5  96201667.79741
      3127.211        2436.749
  20788656.685    20788655.9094   20788662.5754  109245266.388 8  85126180.70246
       544.608         424.368
  23957231.202    23957229.9034   23957247.4294  125895951.458 5  98100717.77741
     -2847.115       -2218.509
  22301439.604    22301439.5444   22301448.6504  117194863.393 6  91320689.92144
     -1711.998       -1334.031
  20662927.170    20662926.3544   20662935.3574  108584415.741 8  84611257.84146
     -1532.675       -1194.294
  22395325.902    22395325.9654   22395334.9444  117688201.820 7  91705106.11344
     -2086.278       -1625.668
  22167737.523    22167737.039    22167746.451   118499362.438 6  92166216.458 5
      1618.640        1258.940
  23015637.387    23015636.884    23015649.092   122815948.513 6  95523574.675 4
      4170.964        3244.071
  22079029.705    22079028.238    22079043.046   117693618.773 7  91539473.191 4
     -3834.881       -2982.682
  20009606.600    20009606.314    20009612.933   106925316.677 8  83164171.386 5
      -613.237        -476.968
  22148542.706    22148542.643    22148549.780   118313558.804 6  92021686.408 5
      3612.917        2810.049
  21443337.203    21443337.252    21443344.268   114667182.518 6  89185633.064 5
     -1932.825       -1503.306
  19933349.668    19933349.509    19933353.879   106667472.768 8  82963655.306 6
       646.452         502.795
  22339027.646    22339027.898    22339035.126   119247299.119 6  92747935.461 5
      2931.506        2280.057
 11 10 10 12  4 30.0000000  0 17G03G06G16G18G21G25G29G30G31R05R06R10
                                R11R12R20R21R22
  23578443.896    23578444.6944   23578456.6744  123905577.923 5  96549820.17341
      3477.543        2709.759
  22727882.753    22727882.5764   22727891.6994  119435886.200 6  93066957.27442
      2710.703        2112.228
  22804338.180    22804337.6124   22804345.8834  119837646.010 6  93380006.15642
      3384.321        2637.133
  23475567.086    23475566.9194   23475578.9704  123365112.964 5  96128622.21841
      3122.193        2432.873
  20785588.220    20785587.4234   20785594.3054  109229141.630 8  85113615.98546
       530.281         413.204
  23973500.991    23973500.5864   23973516.5234  125981449.885 5  98167339.60341
     -2852.933       -2223.056
  22311222.861    22311223.1734   22311231.8134  117246275.218 7  91360751.02644
     -1715.557       -1336.797
  20671721.131    20671720.1354   20671729.2394  108630627.130 8  84647266.65946
     -1548.197       -1206.387
  22407266.881    22407267.0714   22407276.2434  117750953.812 7  91754003.65444
     -2097.293       -1634.254
  22158719.601    22158718.612    22158728.423   118451156.132 6  92128722.751 5
      1595.021        1240.566
  22992203.333    22992204.738    22992216.919   122690912.016 5  95426324.294 4
      4164.713        3239.213
  22100635.174    22100634.722    22100649.527   117808791.040 6  91629051.327 4
     -3843.362       -2989.279
  20013124.394    20013124.096    20013130.790   106944115.036 8  83178792.305 5
      -640.086        -497.844
  22128302.992    22128302.925    22128311.905   118205449.155 6  91937601.180 5
      3594.299        2795.557
  21454188.715    21454188.799    21454195.671   114725207.957 6  89230763.918 5
     -1935.703       -1505.544
  19929751.299    19929750.905    19929755.416   106648216.112 8  82948677.931 7
       637.210         495.607
  22322571.451    22322571.007    22322577.110   119159448.133 6  92679607.059 5
      2925.168        2275.125
 11 10 10 12  5  0.0000000  0 17G03G06G16G18G21G25G29G30G31R05R06R10
                                R11R12R20R21R22
  23558599.045    23558597.7944   23558610.3824  123801295.077 5  96468560.95241
      3474.847        2707.680
  22712420.894    22712421.2944   22712429.8594  119354635.144 6  93003644.83942
      2706.209        2108.744
  22785033.535    22785033.6294   22785041.9254  119736204.591 6  93300960.95142
      3378.568        2632.646
  23457758.752    23457757.9794   23457769.6224  123271529.579 5  96055700.39241
      3116.885        2428.726
  20782602.618    20782602.0324   20782608.9024  109213453.176 8  85101391.24346
       515.788         401.912
  23989805.706    23989804.3614   23989821.6734  126067129.720 5  98234102.80041
     -2858.939       -2227.769
  22321028.100    22321028.1224   22321037.1244  117297801.190 7  91400901.08244
     -1719.330       -1339.741
  20680604.385    20680603.6004   20680612.7454  108677310.213 8  84683643.03246
     -1563.870       -1218.599
  22419272.223    22419272.2434   22419282.0904  117814041.761 7  91803162.97944
     -2108.402       -1642.900
  22149834.832    22149834.754    22149844.582   118403664.021 6  92091784.562 5
      1571.195        1222.037
  22968811.200    22968809.619    22968821.208   122566071.878 6  95329226.656 4
      4158.155        3234.108
  22122290.914    22122290.524    22122304.548   117924223.232 6  91718831.627 4
     -3851.890       -2995.908
  20016793.990    20016793.742    20016800.883   106963725.164 8  83194044.589 5
      -667.090        -518.848
  22108171.163    22108170.958    22108179.208   118097907.989 6  91853958.100 5
      3575.291        2780.781
  21465056.777    21465057.167    21465064.268   114783325.286 6  89275966.241 6
     -1938.694       -1507.871
  19926205.879    19926205.526    19926209.709   106629243.417 8  82933921.403 7
       627.772         488.271
  22306150.782    22306149.929    22306156.824   119071794.618 6  92611432.232 5
      2918.627        2270.042
 11 10 10 12  5 30.0000000  0 17G03G06G16G18G21G25G29G30G31R05R06R10
                                R11R12R20R21R22
  23538767.929    23538766.3154   23538779.2894  123697087.200 5  96387360.13341
      3472.296        2705.697
  22696985.111    22696984.4224   22696993.7654  119273515.522 6  92940434.83942
      2701.818        2105.307
  22765762.508    22765762.9534   22765769.9084  119634931.949 6  93222047.25542
      3372.935        2628.256
  23439979.257    23439979.0324   23439990.0004  123178102.294 5  95982900.18341
      3111.580        2424.607
  20779698.939    20779698.2594   20779705.2294  109198194.509 8  85089501.39946
       501.503         390.786
  24006144.215    24006142.4774   24006161.7584  126152983.732 5  98301001.67941
     -2864.654       -2232.193
  22330853.442    22330853.5814   22330862.5624  117349435.173 7  91441135.29944
     -1722.874       -1342.506
  20689576.305    20689575.5244   20689584.6164  108724458.050 8  84720381.55245
     -1579.316       -1230.636
  22431339.601    22431340.1584   22431349.0664  117877457.240 6  91852577.53144
     -2119.278       -1651.377
  22141083.397    22141082.913    22141092.867   118356882.822 6  92055399.311 5
      1547.538        1203.639
  22945450.458    22945450.547    22945462.061   122441426.495 5  95232280.522 4
      4151.534        3228.964
  22143994.510    22143991.944    22144006.457   118039905.007 6  91808806.003 4
     -3860.150       -3002.330
  20020615.094    20020614.322    20020621.337   106984139.466 8  83209922.341 5
      -693.821        -539.637
  22088145.423    22088145.316    22088154.786   117990933.666 6  91770755.908 5
      3556.292        2766.004
  21475941.196    21475941.066    21475948.735   114841526.912 6  89321234.125 6
     -1941.439       -1510.009
  19922711.969    19922711.817    19922715.811   106610547.836 8  82919380.420 6
       618.599         481.130
  22289765.320    22289764.578    22289772.489   118984332.393 6  92543406.187 5
      2912.222        2265.057
 11 10 10 12  6  0.0000000  0 17G03G06G16G18G21G25G29G30G31R05R06R10
                                R11R12R20R21R22
  23518952.546    23518952.2624   23518964.0084  123592954.093 5  96306217.63041
      3469.867        2703.758
  22681573.514    22681572.6694   22681582.3434  119192526.827 6  92877326.86143
      2697.542        2101.974
  22746523.972    22746523.1284   22746530.4704  119533829.545 6  93143266.20842
      3367.325        2623.882
  23422230.150    23422230.0514   23422241.9424  123084832.738 5  95910222.90641
      3106.456        2420.613
  20776876.851    20776876.1954   20776883.1884  109183364.243 8  85077945.37346
       487.337         379.745
  24022513.586    24022513.0744   24022531.5134  126239009.804 5  98368034.64341
     -2870.264       -2236.559
  22340699.468    22340699.2784   22340708.2894  117401175.575 7  91481452.43444
     -1726.354       -1345.205
  20698636.650    20698635.7374   20698644.7674  108772068.891 8  84757480.85145
     -1594.618       -1242.555
  22443469.193    22443469.1654   22443478.7034  117941196.515 7  91902244.38344
     -2129.908       -1659.658
  22132464.501    22132464.270    22132473.863   118310813.987 6  92019568.070 5
      1523.805        1185.185
  22922129.671    22922128.769    22922140.744   122316979.712 6  95135488.879 4
      4144.976        3223.857
  22165739.451    22165739.250    22165753.877   118155831.234 6  91898970.518 4
     -3868.121       -3008.519
  20024584.813    20024584.578    20024591.485   107005355.834 8  83226423.923 5
      -720.449        -560.346
  22068226.605    22068226.069    22068234.883   117884529.309 6  91687997.032 5
      3537.437        2751.345
  21486840.254    21486840.132    21486847.919   114899811.763 6  89366566.740 6
     -1944.036       -1512.025
  19919269.801    19919269.404    19919274.018   106592127.804 8  82905053.752 7
       609.532         474.079
  22273417.523    22273416.664    22273422.940   118897060.850 6  92475528.447 5
      2905.952        2260.181
 11 10 10 12  6 30.0000000  0 17G03G06G16G18G21G25G29G30G31R05R06R10
                                R11R12R20R21R22
  23499150.091    23499149.6534   23499162.6834  123488893.125 5  96225131.25941
      3467.447        2701.912
  22666185.180    22666185.3704   22666195.0074  119111665.885 6  92814318.42243
      2693.200        2098.604
  22727316.360    22727316.8704   22727323.8164  119432896.288 6  93064616.95742
      3361.566        2619.408
  23404511.536    23404510.7224   23404522.9104  122991720.987 5  95837668.58041
      3101.046        2416.388
  20774135.606    20774134.8794   20774141.8914  109168958.455 8  85066720.10246
       473.053         368.613
  24038915.330    24038915.4664   24038934.1654  126325203.238 5  98435198.00241
     -2875.952       -2241.004
  22350564.812    22350564.6604   22350573.8974  117453018.913 7  91521849.76444
     -1729.901       -1347.963
  20707783.987    20707783.1684   20707792.3884  108820138.429 8  84794937.58146
     -1610.009       -1254.552
  22455658.844    22455658.7014   22455668.5394  118005253.807 7  91952159.05043
     -2140.578       -1667.982
  22123979.462    22123979.233    22123988.686   118265456.371 6  91984289.990 5
      1499.940        1166.618
  22898845.872    22898845.490    22898857.458   122192733.382 6  95038853.185 4
      4138.153        3218.549
  22187532.926    22187531.894    22187546.624   118271994.551 7  91989319.446 4
     -3876.070       -3014.713
  20028704.312    20028704.052    20028711.293   107027369.080 8  83243545.296 5
      -747.111        -581.089
  22048413.739    22048413.321    22048422.426   117778695.598 6  91605681.949 5
      3518.194        2736.371
  21497754.763    21497754.794    21497761.980   114958174.650 6  89411960.045 6
     -1946.788       -1514.165
  19915878.342    19915877.926    19915882.298   106573979.204 8  82890938.187 6
       600.383         466.963
  22257103.533    22257103.034    22257109.062   118809976.331 6  92407796.166 5
      2899.655        2255.278
 11 10 10 12  7  0.0000000  0 17G03G06G16G18G21G25G29G30G31R05R06R10
                                R11R12R20R21R22
  23479361.069    23479361.5504   23479375.2264  123384906.645 5  96144102.99541
      3464.730        2699.794
  22650823.457    22650822.4644   22650831.9984  119030934.875 6  92751411.22643
      2688.686        2095.085
  22708142.184    22708141.8294   22708149.6314  119332135.963 6  92986102.48243
      3355.574        2614.727
  23386824.307    23386823.2894   23386835.6564  122898771.278 5  95765240.50441
      3095.450        2412.042
  20771475.252    20771474.5154   20771481.5004  109154978.423 8  85055826.59646
       458.691         357.419
  24055350.945    24055350.9124   24055368.4164  126411564.486 5  98502492.14942
     -2881.736       -2245.490
  22360450.411    22360450.4894   22360459.7034  117504967.054 7  91562328.77544
     -1733.568       -1350.827
  20717018.692    20717017.7964   20717027.0514  108868667.359 8  84832752.28446
     -1625.491       -1266.614
  22467908.861    22467909.0384   22467918.4144  118069628.263 7  92002320.85844
     -2151.284       -1676.325
  22115627.877    22115627.592    22115637.403   118220814.082 6  91949568.284 5
      1475.896        1147.913
  22875599.803    22875600.498    22875612.570   122068693.736 6  94942378.252 5
      4130.980        3212.968
  22209369.099    22209367.788    22209382.912   118388391.850 6  92079850.326 4
     -3883.987       -3020.858
  20032973.532    20032972.810    20032979.850   107050179.389 8  83261286.612 5
      -773.840        -601.874
  22028710.621    22028709.997    22028718.610   117673438.173 6  91523815.107 5
      3498.707        2721.218
  21508683.416    21508683.132    21508691.330   115016617.358 5  89457415.445 6
     -1949.581       -1516.340
  19912537.760    19912537.526    19912541.773   106556102.985 8  82877034.478 7
       591.112         459.751
  22240823.538    22240823.588    22240831.455   118723080.700 6  92340210.778 5
      2893.176        2250.244
 11 10 10 12  7 30.0000000  0 17G03G06G16G18G21G25G29G30G31R05R06R10
                                R11R12R20R21R22
  23459588.422    23459589.1324   23459602.7804  123281001.276 5  96063137.92841
      3462.245        2697.865
  22635485.636    22635484.7154   22635495.5474  118950340.198 6  92688610.26643
      2684.238        2091.600
  22689003.264    22689002.6024   22689010.2034  119231556.766 6  92907729.13242
      3349.642        2610.118
  23369168.657    23369167.8884   23369180.8694  122805992.437 5  95692945.58942
      3089.765        2407.592
  20768897.214    20768896.3484   20768903.2084  109141429.526 8  85045269.03446
       444.471         346.338
  24071817.299    24071816.4394   24071835.6334  126498098.136 5  98569920.61242
     -2887.259       -2249.797
  22370356.603    22370356.9424   22370365.6874  117557025.258 7  91602893.55344
     -1737.068       -1353.547
  20726341.835    20726341.0904   20726350.0604  108917660.583 8  84870928.77346
     -1640.827       -1278.566
  22480219.586    22480220.5024   22480230.0334  118134323.251 6  92052732.41944
     -2161.750       -1684.482
  22107411.830    22107411.919    22107421.191   118176895.487 6  91915409.486 5
      1451.918        1129.266
  22852397.344    22852395.869    22852407.982   121944871.324 6  94846072.317 5
      4123.755        3207.357
  22231249.338    22231248.523    22231263.532   118505025.285 6  92170564.865 4
     -3891.661       -3026.834
  20037392.017    20037391.398    20037398.141   107073790.970 8  83279651.137 5
      -800.344        -622.492
  22009115.395    22009114.701    22009123.123   117568767.412 7  91442404.563 5
      3479.205        2706.042
  21519629.014    21519628.578    21519636.478   115075144.224 5  89502936.286 6
     -1952.202       -1518.380
  19909248.946    19909248.608    19909253.056   106538504.709 8  82863346.951 7
       581.984         452.651
  22224581.032    22224581.336    22224589.376   118636379.967 6  92272776.988 5
      2886.773        2245.262
 11 10 10 12  8  0.0000000  0 17G03G06G16G18G21G25G29G30G31R05R06R10
                                R11R12R20R21R22
  23439831.170    23439830.6904   23439844.0174  123177175.053 5  95982234.53041
      3459.684        2695.871
  22620173.442    22620173.7604   22620184.5714  118869879.400 6  92625913.61743
      2679.933        2088.257
  22669897.258    22669896.3664   22669905.2414  119131158.247 6  92829496.56743
      3343.694        2605.451
  23351545.075    23351545.1754   23351557.4974  122713384.457 5  95620783.79242
      3084.211        2403.251
  20766400.286    20766399.5474   20766406.2144  109128308.437 8  85035044.83246
       430.405         335.376
  24088316.054    24088316.6264   24088334.9944  126584800.293 5  98637480.37641
     -2892.744       -2254.070
  22380283.580    22380282.9234   22380292.0174  117609190.228 6  91643541.52344
     -1740.457       -1356.197
  20735752.642    20735751.7394   20735760.9144  108967114.406 8  84909464.17346
     -1655.958       -1290.359
  22492591.200    22492591.4774   22492601.1744  118199332.479 6  92103388.84344
     -2172.074       -1692.518
  22099331.185    22099331.123    22099340.637   118133700.314 6  91881813.336 5
      1427.880        1110.572
  22829233.715    22829232.378    22829244.729   121821268.246 6  94749936.995 5
      4116.602        3201.784
  22253173.117    22253171.656    22253186.089   118621888.038 6  92261457.746 4
     -3899.093       -3032.619
  20041959.362    20041959.107    20041966.270   107098199.447 8  83298635.463 5
      -826.757        -643.034
  21989630.586    21989630.341    21989639.373   117464684.384 6  91361451.151 5
      3459.798        2690.951
  21530589.601    21530589.204    21530596.146   115133752.926 6  89548520.789 6
     -1954.785       -1520.384
  19906011.837    19906011.351    19906015.522   106521180.588 8  82849872.652 6
       573.053         445.705
  22208376.258    22208375.160    22208382.449   118549871.265 6  92205492.555 5
      2880.564        2240.435
 11 10 10 12  8 30.0000000  0 17G03G06G16G18G21G25G29G30G31R05R06R10
                                R11R12R20R21R22
  23420088.718    23420089.5264   23420099.4714  123073423.888 5  95901389.64341
      3456.939        2693.720
  22604888.153    22604887.4334   22604897.3714  118789547.952 6  92563317.76943
      2675.365        2084.702
  22650826.309    22650825.9854   22650833.4624  119030937.924 6  92751402.85843
      3337.538        2600.678
  23333954.853    23333953.9844   23333966.4294  122620945.551 5  95548753.71742
      3078.368        2398.733
  20763983.742    20763982.9224   20763989.6414  109115609.746 8  85025149.76346
       416.069         324.210
  24104847.254    24104846.2604   24104863.8724  126671664.614 5  98705166.51341
     -2898.311       -2258.427
  22390229.369    22390228.6784   22390238.6234  117661457.247 6  91684269.01044
     -1744.092       -1359.023
  20745250.050    20745248.9644   20745258.2564  109017022.953 8  84948353.90245
     -1671.351       -1302.347
  22505021.009    22505020.9974   22505030.5984  118264649.063 6  92154284.76444
     -2182.477       -1700.635
  22091386.366    22091385.948    22091394.238   118091225.420 6  91848777.392 5
      1403.630        1091.709
  22806110.218    22806109.677    22806121.988   121697884.270 6  94653972.113 5
      4108.896        3195.791
  22275137.788    22275136.222    22275151.460   118738970.669 6  92352521.643 4
     -3906.518       -3038.401
  20046675.149    20046674.661    20046681.934   107123398.118 8  83318234.391 5
      -853.251        -663.637
  21970255.917    21970255.268    21970264.160   117361188.136 6  91280954.114 5
      3439.895        2675.475
  21541562.648    21541562.769    21541570.227   115192436.871 5  89594163.825 6
     -1957.567       -1522.550
  19902824.058    19902823.902    19902828.357   106504124.969 8  82836607.186 7
       563.872         438.564
  22192202.914    22192203.793    22192213.025   118463549.715 6  92138353.664 5
      2874.111        2235.418
 11 10 10 12  9  0.0000000  0 17G03G06G16G18G21G25G29G30G31R05R06R10
                                R11R12R20R21R22
  23400360.704    23400360.6084   23400373.7704  122969754.419 5  95820608.41141
      3454.238        2691.573
  22589628.265    22589627.7884   22589636.2744  118709351.990 6  92500827.50343
      2670.961        2081.261
  22631790.670    22631789.8124   22631797.0214  118930903.804 6  92673454.23743
      3331.381        2595.885
  23316398.678    23316396.5324   23316409.5294  122528684.345 5  95476862.10642
      3072.296        2394.009
  20761648.613    20761647.7604   20761654.5264  109103338.838 8  85015588.02846
       401.888         313.163
  24121407.813    24121407.8484   24121426.3284  126758695.625 5  98772982.51141
     -2903.819       -2262.726
  22400196.087    22400195.9304   22400204.8324  117713831.944 6  91725080.39443
     -1747.629       -1361.783
  20754834.633    20754833.8104   20754842.8064  109067390.892 8  84987601.59246
     -1686.598       -1314.226
  22517508.986    22517509.2114   22517519.3704  118330276.058 7  92205422.55944
     -2192.722       -1708.614
  22083577.580    22083576.523    22083584.652   118049479.202 6  91816308.206 5
      1379.381        1072.849
  22783029.840    22783030.277    22783042.228   121574729.767 6  94558185.727 5
      4101.236        3189.834
  22297142.639    22297142.646    22297157.941   118856275.061 6  92443757.985 4
     -3913.811       -3044.057
  20051539.453    20051539.028    20051546.333   107149391.063 8  83338451.082 5
      -879.660        -684.177
  21950992.258    21950992.571    21951001.366   117258288.503 6  91200921.124 6
      3420.025        2660.020
  21552552.662    21552552.387    21552559.640   115251202.061 5  89639870.040 5
     -1960.221       -1524.613
  19899688.127    19899687.740    19899691.879   106487343.255 8  82823554.754 6
       554.807         431.516
  22176069.550    22176069.271    22176077.486   118377421.361 6  92071365.043 5
      2867.698        2230.432
 11 10 10 12  9 30.0000000  0 17G03G06G16G18G21G25G29G30G31R05R06R10
                                R11R12R20R21R22
  23380649.434    23380649.6924   23380660.4414  122866165.078 5  95739889.62541
      3451.826        2689.721
  22574391.629    22574391.3244   22574400.9974  118629289.703 6  92438441.39243
      2666.690        2077.937
  22612789.884    22612789.2214   22612797.3764  118831055.714 6  92595650.57643
      3325.360        2591.171
  23298875.137    23298874.7134   23298885.8904  122436601.199 5  95405109.21141
      3066.682        2389.646
  20759394.250    20759393.5234   20759400.1994  109091492.637 8  85006357.23946
       388.006         302.340
  24138000.548    24137999.3904   24138018.8574  126845889.539 5  98840925.43141
     -2908.929       -2266.686
  22410183.346    22410183.2664   22410191.8644  117766311.482 6  91765973.46944
     -1750.856       -1364.299
  20764506.135    20764505.2734   20764514.3504  109118214.798 8  85027204.58745
     -1701.506       -1325.847
  22530055.585    22530055.8534   22530065.6964  118396208.195 6  92256798.12543
     -2202.609       -1716.301
  22075903.176    22075902.872    22075911.906   118008461.357 6  91784405.543 5
      1355.308        1054.123
  22759995.542    22759993.895    22760006.196   121451807.375 6  94462579.878 5
      4093.723        3183.996
  22319189.560    22319188.753    22319204.124   118973794.053 6  92535161.264 4
     -3920.598       -3049.343
  20056551.509    20056550.905    20056558.172   107176173.949 8  83359282.180 5
      -905.703        -704.435
  21931841.364    21931841.166    21931850.274   117155987.194 6  91121353.501 5
      3400.194        2644.594
  21563556.868    21563556.415    21563563.475   115310043.805 6  89685635.803 5
     -1962.437       -1526.339
  19896602.901    19896602.583    19896606.928   106470832.333 8  82810712.936 6
       546.075         424.724
  22159969.785    22159970.096    22159978.052   118291483.580 6  92004524.666 5
      2861.634        2225.710
 11 10 10 12 10  0.0000000  0 17G03G06G16G18G21G25G29G30G31R05R06R10
                                R11R12R20R21R22
  23360953.383    23360951.1724   23360962.3824  122762654.928 5  95659232.54241
      3448.872        2687.430
  22559181.618    22559181.6374   22559190.8224  118549359.729 6  92376158.38043
      2662.009        2074.276
  22593825.273    22593824.4324   22593831.6734  118731394.775 6  92517992.77243
      3318.825        2586.081
  23281386.761    23281386.0724   23281395.9694  122344697.878 5  95333496.43941
      3060.222        2384.587
  20757220.473    20757219.6904   20757226.5144  109080069.002 8  84997455.71546
       373.648         291.151
  24154624.701    24154625.6144   24154641.7344  126933243.625 5  98908993.18041
     -2914.566       -2271.071
  22420188.935    22420188.8894   22420197.4854  117818894.069 6  91806946.83843
     -1754.549       -1367.178
  20774263.578    20774263.0434   20774272.3504  109169492.078 8  85067160.86245
     -1716.901       -1337.842
  22542659.286    22542659.6514   22542669.3094  118462441.507 6  92308408.37943
     -2212.889       -1724.331
  22068365.858    22068366.007    22068376.003   117968172.507 6  91753069.880 5
      1330.642        1034.941
  22737003.881    22737002.906    22737013.514   121329120.299 6  94367157.053 5
      4085.484        3177.583
  22341276.231    22341274.614    22341290.183   119091522.076 6  92626727.100 4
     -3927.803       -3054.930
  20061710.536    20061710.508    20061717.375   107203743.363 8  83380725.015 5
      -932.202        -725.046
  21912802.905    21912802.911    21912811.386   117054286.579 6  91042253.071 5
      3379.848        2628.767
  21574574.597    21574574.164    21574581.397   115368960.790 5  89731460.080 5
     -1965.182       -1528.472
  19893567.636    19893567.082    19893571.965   106454589.860 8  82798079.903 7
       536.864         417.559
  22143906.555    22143906.810    22143914.723   118205734.812 6  91937831.324 5
      2854.993        2220.541
 11 10 10 12 10 30.0000000  0 17G03G06G16G18G21G25G29G30G31R05R06R10
                                R11R12R20R21R22
  23341270.727    23341269.6654   23341282.0504  122659231.916 5  95578643.36441
      3445.892        2685.102
  22543997.466    22543997.8454   22544007.0624  118469569.810 6  92313984.50343
      2657.278        2070.597
  22574897.767    22574896.5644   22574904.6424  118631929.987 6  92440487.78743
      3312.103        2580.843
  23263934.061    23263933.2684   23263944.1584  122252984.005 5  95262031.26041
      3053.862        2379.628
  20755128.178    20755127.5044   20755134.1844  109069074.490 8  84988888.57446
       359.277         279.958
  24171280.339    24171279.4854   24171296.7714  127020763.725 5  98977190.25841
     -2920.152       -2275.427
  22430216.021    22430215.6274   22430224.8704  117871586.717 6  91848005.96243
     -1758.316       -1370.109
  20784109.054    20784108.1124   20784117.7844  109221228.985 8  85107475.28645
     -1732.281       -1349.830
  22555321.855    22555321.9074   22555330.8534  118528980.528 6  92360256.86243
     -2223.090       -1732.278
  22060966.646    22060966.711    22060977.785   117928622.151 6  91722308.582 6
      1305.896        1015.693
  22714056.261    22714056.478    22714069.080   121206680.479 6  94271926.530 5
      4077.088        3171.054
  22363400.991    22363400.054    22363416.531   119209462.518 6  92718458.135 4
     -3934.867       -3060.438
  20067018.518    20067017.837    20067025.064   107232104.809 7  83402783.877 5
      -958.624        -745.600
  21893879.449    21893879.297    21893887.641   116953198.121 7  90963628.741 5
      3359.312        2612.798
  21585607.155    21585607.437    21585615.125   115427959.338 5  89777347.812 6
     -1968.051       -1530.703
  19890583.497    19890583.211    19890588.092   106438622.599 8  82785660.922 7
       527.572         410.336
  22127880.207    22127879.466    22127887.452   118120182.496 6  91871290.749 5
      2848.415        2215.428
 11 10 10 12 11  0.0000000  0 17G03G06G16G18G21G25G29G30G31R05R06R10
                                R11R12R20R21R22
  23321604.424    23321604.3314   23321616.0844  122555891.012 5  95498118.13241
      3443.478        2683.247
  22528839.641    22528839.6454   22528849.9574  118389914.373 6  92251915.39443
      2653.025        2067.275
  22556006.933    22556006.8024   22556014.3094  118532658.153 6  92363133.15943
      3305.907        2576.034
  23246516.191    23246514.8674   23246528.0784  122161456.680 5  95190711.43342
      3047.948        2375.022
  20753116.550    20753115.7584   20753122.4374  109058502.909 8  84980650.98946
       345.466         269.200
  24187963.342    24187963.8624   24187982.3994  127108442.622 5  99045511.07741
     -2925.220       -2279.375
  22440263.277    22440263.5374   22440271.7114  117924383.512 7  91889146.23243
     -1761.545       -1372.622
  20794040.109    20794039.5264   20794048.8004  109273418.445 8  85148142.34745
     -1747.105       -1361.380
  22568039.825    22568040.4864   22568049.8654  118595816.500 6  92412336.71643
     -2232.681       -1739.742
  22053706.476    22053705.566    22053715.635   117889806.229 6  91692118.508 5
      1281.652         996.841
  22691157.632    22691157.669    22691169.502   121084486.598 6  94176887.266 5
      4069.080        3164.827
  22385565.555    22385563.712    22385580.515   119327605.183 6  92810346.440 4
     -3941.284       -3065.424
  20072472.756    20072472.086    20072479.415   107261250.222 8  83425452.499 5
      -984.489        -765.713
  21875069.232    21875069.245    21875077.637   116852719.540 6  90885478.797 5
      3339.143        2597.109
  21596653.555    21596653.902    21596662.362   115487033.190 5  89823294.085 6
     -1970.250       -1532.411
  19887649.929    19887649.594    19887654.101   106422923.780 8  82773450.732 7
       518.907         403.599
  22111888.767    22111888.784    22111896.243   118034820.598 6  91804898.288 5
      2842.353        2210.714
 11 10 10 12 11 30.0000000  0 17G03G06G16G18G21G25G29G30G31R05R06R10
                                R11R12R20R21R22
  23301955.645    23301956.1114   23301967.3984  122452632.594 5  95417657.19941
      3440.552        2680.941
  22513707.316    22513706.8694   22513717.0404  118310393.500 6  92189951.15843
      2648.438        2063.712
  22537152.931    22537152.1794   22537159.4154  118433581.085 6  92285930.31643
      3299.319        2570.899
  23229134.302    23229133.7454   23229147.4074  122070118.389 5  95119538.89142
      3041.419        2369.944
  20751185.031    20751184.2354   20751190.9514  109048352.785 8  84972741.81646
       331.327         258.177
  24204678.280    24204677.9814   24204696.4294  127196278.770 5  99113954.44341
     -2930.471       -2283.471
  22450329.761    22450329.7994   22450338.0894  117977283.574 7  91930366.99443
     -1765.047       -1375.354
  20804057.560    20804056.8184   20804066.0034  109326059.075 8  85189160.97145
     -1762.191       -1373.133
  22580814.733    22580814.2924   22580824.0984  118662946.159 6  92464645.42143
     -2242.531       -1747.417
  22046583.280    22046581.880    22046591.458   117851726.538 6  91662501.079 5
      1256.990         977.659
  22668306.436    22668305.614    22668317.134   120962543.372 6  94082042.954 5
      4060.548        3158.196
  22407765.726    22407764.561    22407781.600   119445945.241 6  92902388.262 4
     -3947.863       -3070.545
  20078073.096    20078072.708    20078079.777   107291177.495 8  83448729.226 5
     -1010.597        -786.022
  21856373.494    21856374.096    21856382.628   116752854.507 6  90807806.025 5
      3318.548        2581.092
  21607714.860    21607715.411    21607723.225   115546181.979 5  89869298.658 6
     -1972.802       -1534.395
  19884766.123    19884765.990    19884770.299   106407492.491 8  82761448.626 6
       509.936         396.619
  22095933.330    22095933.516    22095939.889   117949648.809 6  91738653.723 5
      2835.886        2205.683
 11 10 10 12 12  0.0000000  0 17G03G06G16G18G21G25G29G30G31R05R06R10
                                R11R12R20R21R22
  23282322.853    23282322.8734   23282332.9044  122349461.908 5  95337264.61041
      3437.484        2678.583
  22498602.050    22498600.9724   22498610.9174  118231012.128 6  92128095.61343
      2643.642        2059.963
  22518337.389    22518336.9734   22518344.4224  118334705.874 6  92208884.72443
      3292.367        2565.483
  23211790.517    23211789.9314   23211803.5444  121978977.082 5  95048519.83241
      3034.583        2364.603
  20749334.599    20749333.8724   20749340.5314  109038628.796 8  84965164.69746
       316.956         246.975
  24221424.558    24221423.9094   24221443.0014  127284275.242 5  99182522.70942
     -2935.929       -2287.713
  22460416.941    22460416.6564   22460425.5754  118030291.712 7  91971671.95343
     -1768.844       -1378.317
  20814161.474    20814160.4334   20814170.0294  109379154.320 8  85230533.84045
     -1777.496       -1385.062
  22593645.397    22593645.1024   22593654.3674  118730371.894 6  92517184.83943
     -2252.512       -1755.201
  22039598.471    22039598.191    22039606.603   117814389.911 6  91633461.564 5
      1232.051         958.255
  22645501.831    22645501.499    22645513.377   120840860.089 6  93987400.774 5
      4051.600        3151.226
  22430002.482    22430002.807    22430019.132   119564483.355 6  92994584.115 4
     -3954.604       -3075.787
  20083820.344    20083819.855    20083827.173   107321888.996 8  83472615.897 5
     -1036.859        -806.443
  21837795.669    21837795.556    21837803.547   116653611.448 6  90730617.045 5
      3297.557        2564.764
  21618790.833    21618791.092    21618798.633   115605409.112 5  89915364.185 5
     -1975.603       -1536.583
  19881933.050    19881932.768    19881937.161   106392332.848 8  82749657.792 6
       500.704         389.436
  22080014.844    22080014.365    22080020.155   117864671.731 6  91672560.562 5
      2829.194        2200.478
 11 10 10 12 12 30.0000000  0 18G03G06G16G18G21G22G25G29G30G31R05R06
                                R10R11R12R20R21R22
  23262706.010    23262706.2254   23262719.3814  122246382.912 5  95256943.47941
      3434.207        2675.996
  22483523.596    22483523.0114   22483532.4384  118151773.720 6  92066351.45043
      2638.695        2056.132
  22499560.909    22499560.8004   22499568.9794  118236037.685 6  92132000.48643
      3285.211        2559.909
  23194486.065    23194484.1394   23194497.8404  121888038.160 5  94977658.47941
      3027.590        2359.156
  20747565.538    20747564.7474   20747571.7534  109029332.559 8  84957920.88346
       302.531         235.742
  25011214.887                                   131434829.625 4
      3702.760
  24238201.153    24238200.5884   24238220.0774  127372433.702 5  99251217.19242
     -2941.471       -2292.040
  22470525.245    22470525.1344   22470534.1164  118083410.331 7  92013063.00043
     -1772.716       -1381.330
  20824352.138    20824351.1534   20824360.5694  109432705.928 8  85272262.31045
     -1792.867       -1397.034
  22606532.112    22606532.4094   22606541.6274  118798093.427 6  92569954.73243
     -2262.479       -1762.969
  22032753.246    22032753.416    22032761.584   117777801.003 6  91605003.609 5
      1206.924         938.711
  22622747.991    22622748.356    22622759.536   120719444.343 6  93892966.650 5
      4042.487        3144.153
  22452277.208    22452277.101    22452293.805   119683218.276 6  93086933.009 4
     -3961.294       -3080.984
  20089714.556    20089714.258    20089721.220   107353385.716 8  83497113.310 5
     -1063.187        -826.922
  21819334.806    21819334.460    21819342.775   116554997.418 6  90653917.276 5
      3276.435        2548.346
  21629881.071    21629881.516    21629889.102   115664716.632 5  89961492.197 5
     -1978.445       -1538.787
  19879151.394    19879151.134    19879155.287   106377446.983 8  82738079.892 7
       491.420         382.215
  22064132.157    22064131.743    22064137.579   117779892.295 6  91606621.132 5
      2822.433        2195.231
 11 10 10 12 13  0.0000000  0 18G03G06G16G18G21G22G25G29G30G31R05R06
                                R10R11R12R20R21R22
  23243108.277    23243108.5824   23243120.9894  122143397.675 5  95176695.39641
      3430.898        2673.414
  22468471.925    22468471.5634   22468481.6474  118072679.950 6  92004719.99843
      2633.671        2052.192
  22480825.660    22480825.4734   22480831.8944  118137580.179 6  92055280.39343
      3277.969        2554.262
  23177220.617    23177219.4134   23177230.9004  121797306.063 5  94906958.30941
      3020.576        2353.684
  20745878.362    20745877.3544   20745884.2054  109020465.121 8  84951011.20546
       288.052         224.456
  24990064.672                                   131323687.760 4
      3706.200
  24255008.669    24255008.1424   24255026.2854  127460754.287 6  99320037.99442
     -2947.075       -2296.394
  22480654.511    22480654.4094   22480663.3814  118136640.762 6  92054541.17043
     -1776.600       -1384.368
  20834629.701    20834628.7004   20834638.1304  109486714.293 8  85314346.69345
     -1808.230       -1409.007
  22619475.931    22619475.6854   22619485.2994  118866109.588 6  92622954.19843
     -2272.449       -1770.731
  22026048.746    22026048.314    22026058.247   117741963.444 6  91577130.042 5
      1181.687         919.083
  22600044.491    22600045.511    22600056.934   120598302.620 6  93798745.653 5
      4033.004        3136.767
  22474590.351    22474588.680    22474605.049   119802147.459 6  93179433.013 4
     -3967.866       -3086.105
  20095755.494    20095755.280    20095762.217   107385667.349 7  83522221.204 5
     -1089.490        -847.377
  21800993.168    21800993.201    21801001.513   116457017.688 6  90577710.865 5
      3255.004        2531.668
  21640988.642    21640988.081    21640995.462   115724105.384 5  90007683.432 5
     -1981.384       -1541.079
  19876420.792    19876420.742    19876424.961   106362835.811 8  82726715.648 7
       482.099         374.969
  22048288.557    22048287.685    22048293.775   117695312.018 6  91540836.600 5
      2815.660        2189.952
 11 10 10 12 13 30.0000000  0 18G03G06G16G18G21G22G25G29G30G31R05R06
                                R10R11R12R20R21R22
  23223537.102    23223537.2004   23223547.5484  122040542.822 5  95096548.89641
      3426.682        2670.135
  22453455.845    22453455.1844   22453463.7744  117993767.049 6  91943229.47943
      2627.844        2047.658
  22462137.364    22462136.5394   22462144.4474  118039371.394 6  91978754.11643
      3269.902        2547.985
  23160000.832    23160001.6164   23160010.8314  121706819.207 5  94836449.19341
      3012.600        2347.482
  20744278.872    20744278.3204   20744285.0534  109012061.844 8  84944463.21246
       272.798         212.571
  24968898.283                                   131212474.998 4
      3708.542
  24271852.245    24271851.3974   24271871.2434  127549271.266 5  99389011.86142
     -2953.341       -2301.292
  22490812.079    22490812.1494   22490821.3434  118190018.482 6  92096134.10943
     -1781.293       -1388.014
  20845000.205    20844999.6154   20845008.9034  109541213.915 8  85356813.87445
     -1824.378       -1421.588
  22632481.083    22632481.4594   22632490.1434  118934453.508 6  92676209.06543
     -2283.136       -1779.058
  22019490.793    22019490.824    22019500.777   117706914.984 6  91549870.223 5
      1155.605         898.802
  22577402.564    22577402.686    22577413.225   120477475.658 6  93704769.431 5
      4022.703        3128.762
  22496944.387    22496941.892    22496957.949   119921302.508 6  93272108.665 4
     -3975.175       -3091.792
  20101949.739    20101949.481    20101956.470   107418767.880 8  83547966.015 5
     -1116.550        -868.428
  21782777.873    21782777.403    21782785.666   116359712.526 7  90502029.128 5
      3232.664        2514.292
  21652115.563    21652115.625    21652123.586   115783611.544 5  90053965.956 5
     -1985.073       -1543.942
  19873748.616    19873748.185    19873752.860   106348535.088 8  82715592.866 7
       471.972         367.091
  22032486.095    22032485.849    22032494.052   117610967.002 6  91475235.031 5
      2808.006        2184.007
 11 10 10 12 14  0.0000000  0 18G03G06G16G18G21G22G25G29G30G31R05R06
                                R10R11R12R20R21R22
  23203985.015    23203984.0704   23203996.2654  121937794.689 5  95016485.55241
      3423.283        2667.492
  22438469.081    22438468.4694   22438477.1254  117915011.196 6  91881861.35143
      2622.648        2043.621
  22443492.010    22443490.8824   22443498.8704  117941389.641 6  91902404.75443
      3262.313        2542.051
  23142824.674    23142822.8414   23142834.4694  121616556.301 5  94766114.60241
      3005.101        2341.602
  20742763.603    20742762.8564   20742769.5704  109004097.386 8  84938257.15746
       258.281         201.253
  24947717.114                                   131101169.812 4
      3711.906
  24288728.748    24288728.8694   24288748.7084  127637959.124 5  99458118.84941
     -2959.004       -2305.743
  22500993.399    22500993.5454   22501002.6134  118243518.870 6  92137822.63244
     -1785.284       -1391.139
  20855460.022    20855459.1774   20855468.5754  109596179.304 8  85399643.98645
     -1839.830       -1433.634
  22645544.304    22645543.7264   22645553.8424  119003098.200 6  92729698.29043
     -2293.032       -1786.768
  22013077.954    22013077.819    22013087.148   117672633.134 6  91523206.663 5
      1130.005         878.889
  22554815.019    22554814.844    22554825.837   120356943.750 6  93611022.670 5
      4012.861        3121.101
  22519332.909    22519331.756    22519348.040   120040654.885 6  93364937.785 4
     -3981.575       -3096.772
  20108292.196    20108291.824    20108298.521   107452660.118 7  83574326.605 5
     -1142.810        -888.863
  21764682.844    21764682.974    21764693.107   116263060.825 6  90426855.614 5
      3210.841        2497.313
  21663261.563    21663260.667    21663268.855   115843209.481 5  90100319.853 5
     -1987.998       -1546.226
  19871129.117    19871129.061    19871133.521   106334519.390 8  82704691.762 7
       462.551         359.760
  22016724.207    22016724.216    22016732.275   117526832.881 6  91409797.547 5
      2801.010        2178.555
 11 10 10 12 14 30.0000000  0 18G03G06G16G18G21G22G25G29G30G31R05R06
                                R10R11R12R20R21R22
  23184449.880    23184449.5904   23184462.7054  121835143.450 5  94936497.67841
      3420.229        2665.122
  22423509.898    22423509.2114   22423518.3974  117836401.855 6  91820607.36543
      2617.927        2039.950
  22424888.385    22424887.5474   22424895.0224  117843626.389 6  91826225.64643
      3255.190        2536.507
  23125688.859    23125688.5884   23125699.6164  121526509.339 5  94695948.27141
      2998.057        2336.138
  20741329.028    20741328.4924   20741335.2464  108996560.330 8  84932384.14146
       244.205         190.288
  24926515.193                                   130989764.113 4
      3715.258
  24305637.034    24305635.9514   24305657.0534  127726805.657 5  99527349.45141
     -2964.086       -2309.665
  22511195.505    22511195.2864   22511204.6224  118297131.065 6  92179598.27844
     -1788.884       -1393.939
  20866006.117    20866005.3754   20866014.7364  109651598.624 8  85442827.81445
     -1854.755       -1445.263
  22658661.127    22658661.0444   22658670.9464  119072029.941 6  92783411.19543
     -2302.364       -1794.052
  22006807.750    22006806.912    22006816.425   117639108.795 6  91497132.262 5
      1104.964         859.412
  22532282.041    22532281.239    22532291.632   120236700.879 6  93517500.694 5
      4003.354        3113.708
  22541759.696    22541757.390    22541774.244   120160189.572 6  93457908.671 4
     -3987.413       -3101.300
  20114780.959    20114780.322    20114787.038   107487331.269 7  83601293.005 5
     -1168.575        -908.891
  21746711.638    21746711.546    21746719.875   116167055.689 7  90352184.995 5
      3189.512        2480.731
  21674422.256    21674421.259    21674428.610   115902887.476 5  90146736.024 5
     -1990.484       -1548.150
  19868561.465    19868561.093    19868565.202   106320777.300 8  82694003.469 7
       453.637         352.827
  22001000.758    22001000.986    22001008.209   117442898.454 6  91344515.359 5
      2794.587        2173.560
 11 10 10 12 15  0.0000000  0 18G03G06G16G18G21G22G25G29G30G31R05R06
                                R10R11R12R20R21R22
  23164933.941    23164933.2254   23164945.7374  121732588.395 5  94856584.79641
      3417.008        2662.595
  22408578.273    22408578.0784   22408586.9454  117757937.904 6  91759466.67043
      2613.178        2036.236
  22406325.832    22406325.5234   22406333.6884  117746082.238 6  91750217.26743
      3247.927        2530.837
  23108594.290    23108594.4234   23108605.2554  121436679.783 5  94625951.34542
      2990.823        2330.499
  20739975.691    20739975.1304   20739982.0754  108989448.670 8  84926842.60446
       230.117         179.311
  24905296.755                                   130878258.849 4
      3718.488
  24322573.775    24322573.5574   24322591.8284  127815807.915 5  99596701.39941
     -2969.196       -2313.622
  22521418.397    22521418.5604   22521427.8464  118350853.606 6  92221459.91844
     -1792.486       -1396.739
  20876638.103    20876637.3494   20876646.4664  109707469.019 8  85486363.13145
     -1869.725       -1456.929
  22671832.357    22671832.2934   22671842.4604  119141244.453 6  92837344.43343
     -2311.725       -1801.336
  22000678.292    22000677.767    22000686.832   117606341.938 6  91471647.002 5
      1079.713         839.772
  22509802.761    22509802.403    22509812.595   120116749.984 6  93424205.800 5
      3993.574        3106.104
  22564218.179    22564215.630    22564231.363   120279900.808 6  93551016.863 4
     -3993.122       -3105.746
  20121414.018    20121413.512    20121420.421   107522777.402 7  83628862.163 5
     -1194.277        -928.881
  21728860.183    21728860.275    21728869.167   116071699.328 7  90278018.979 5
      3167.799        2463.846
  21685596.345    21685595.672    21685603.332   115962643.994 5  90193213.278 5
     -1993.034       -1550.141
  19866044.148    19866043.620    19866048.109   106307306.388 8  82683526.094 6
       444.642         345.828
  21985314.086    21985313.776    21985320.795   117359162.078 6  91279387.200 5
      2788.033        2168.465
 11 10 10 12 15 30.0000000  0 18G03G06G16G18G21G22G25G29G30G31R05R06
                                R10R11R12R20R21R22
  23145436.192    23145435.6854   23145446.3254  121630119.933 5  94776739.34641
      3414.263        2660.486
  22393672.838    22393672.7424   22393681.5754  117679609.878 6  91698431.88243
      2608.702        2032.741
  22387804.597    22387803.7804   22387811.2654  117648749.796 6  91674373.85543
      3240.933        2525.393
  23091541.134    23091540.3544   23091551.9914  121347060.418 5  94556118.22442
      2983.799        2325.028
  20738701.502    20738700.7794   20738707.5634  108982751.509 8  84921624.05846
       216.383         168.609
  24884053.346                                   130766646.738 4
      3722.269
  24339537.715    24339538.3464   24339556.5174  127904954.584 5  99666165.86841
     -2973.888       -2317.274
  22531659.887    22531659.8134   22531670.1594  118404675.880 6  92263399.27243
     -1795.646       -1399.211
  20887353.393    20887352.7564   20887362.1264  109763779.297 8  85530241.21245
     -1884.270       -1468.263
  22685054.436    22685054.9284   22685064.9484  119210729.307 6  92891488.33443
     -2320.562       -1808.221
  21994688.769    21994687.616    21994696.986   117574324.131 6  91446744.358 5
      1054.779         820.377
  22487378.220    22487377.410    22487387.346   119997085.616 6  93331133.754 5
      3984.029        3098.683
  22586704.620    22586703.658    22586719.458   120399774.194 6  93644251.151 4
     -3998.382       -3109.842
  20128189.518    20128189.463    20128196.266   107558985.981 7  83657024.329 5
     -1219.576        -948.560
  21711129.541    21711129.336    21711137.475   115976985.087 7  90204352.394 5
      3146.492        2447.267
  21696783.922    21696783.566    21696790.433   116022467.682 5  90239742.762 5
     -1995.289       -1551.893
  19863575.325    19863575.064    19863579.772   106294095.985 8  82673251.340 7
       436.070         339.162
  21969662.749    21969662.595    21969669.520   117275613.888 6  91214405.372 5
      2781.853        2163.658
 11 10 10 12 16  0.0000000  0 18G03G06G16G18G21G22G25G29G30G31R05R06
                                R10R11R12R20R21R22
  23125953.361    23125952.6874   23125963.2384  121527738.939 5  94696962.09041
      3411.073        2657.969
  22378794.331    22378793.6104   22378801.9504  117601417.995 6  91637503.19243
      2603.971        2029.062
  22369323.051    22369322.2594   22369330.4394  117551631.136 6  91598697.02043
      3233.513        2519.601
  23074527.713    23074526.8124   23074538.3744  121257654.210 5  94486451.19342
      2976.481        2319.329
  20737505.683    20737504.9344   20737511.7534  108976467.883 8  84916727.74446
       202.431         157.740
  24862794.108                                   130654929.908 4
      3725.368
  24356528.874    24356530.9924   24356546.7884  127994244.108 5  99735741.65041
     -2978.841       -2321.156
  22541921.484    22541921.3544   22541930.4104  118458597.690 6  92305416.17443
     -1799.213       -1401.974
  20898152.385    20898151.4274   20898161.1274  109820528.034 8  85574460.95245
     -1899.054       -1479.782
  22698328.146    22698328.8264   22698338.5434  119280481.232 6  92945840.34443
     -2329.656       -1815.306
  21988839.139    21988839.019    21988847.358   117543056.869 6  91422425.483 5
      1029.576         800.780
  22465007.362    22465006.664    22465017.549   119877712.556 6  93238288.245 5
      3974.022        3090.898
  22609223.271    22609221.902    22609237.983   120519805.450 6  93737608.188 4
     -4003.765       -3114.018
  20135107.909    20135107.799    20135115.079   107595954.423 7  83685777.502 5
     -1245.070        -968.381
  21693520.399    21693520.351    21693527.625   115882916.983 7  90131188.360 5
      3124.688        2430.311
  21707983.404    21707983.388    21707991.285   116082358.437 5  90286324.415 5
     -1997.590       -1553.676
  19861155.173    19861154.908    19861159.593   106281145.149 8  82663178.470 7
       427.228         332.289
  21954046.671    21954045.732    21954052.183   117192253.507 6  91149569.649 5
      2775.414        2158.649
 11 10 10 12 16 30.0000000  0 18G03G06G16G18G21G22G25G29G30G31R05R06
                                R10R11R12R20R21R22
  23106487.848    23106486.9034   23106498.7124  121425448.242 5  94617255.16941
      3408.153        2655.702
  22363940.790    22363940.0634   22363949.1194  117523364.497 6  91576682.33543
      2599.463        2025.550
  22350883.636    22350882.8234   22350890.0024  117454730.650 6  91523190.20343
      3226.338        2514.028
  23057555.884    23057554.1914   23057565.2284  121168465.578 5  94416953.71242
      2969.330        2313.762
  20736388.995    20736388.2044   20736394.8354  108970598.989 8  84912154.60046
       188.708         147.042
  24841514.118                                   130543112.990 4
      3728.884
  24373548.498    24373548.0624   24373567.0934  128083676.948 5  99805429.11641
     -2983.446       -2324.762
  22552201.548    22552201.6524   22552211.1884  118512620.807 6  92347512.03443
     -1802.452       -1404.507
  20909034.950    20909034.0544   20909043.5394  109877715.830 8  85619022.81745
     -1913.573       -1491.100
  22711653.066    22711652.5724   22711662.2164  119350499.479 6  93000399.87043
     -2338.355       -1822.086
  21983131.638    21983131.166    21983138.608   117512544.083 6  91398693.402 5
      1004.559         781.317
  22442692.213    22442691.792    22442702.374   119758637.494 6  93145674.504 5
      3964.159        3083.225
  22631770.352    22631768.882    22631785.529   120639992.226 6  93831086.161 4
     -4008.779       -3117.917
  20142168.314    20142168.036    20142174.965   107633682.327 7  83715121.379 5
     -1270.229        -987.956
  21676032.523    21676032.347    21676040.397   115789500.112 7  90058530.830 5
      3102.988        2413.435
  21719194.980    21719195.279    21719203.897   116142316.959 5  90332958.768 5
     -1999.755       -1555.360
  19858783.363    19858783.318    19858787.704   106268455.255 8  82653308.552 7
       418.653         325.620
  21938464.549    21938464.563    21938471.445   117109082.526 6  91084881.221 5
      2769.244        2153.847
 11 10 10 12 17  0.0000000  0 18G03G06G16G18G21G22G25G29G30G31R05R06
                                R10R11R12R20R21R22
  23087038.314    23087038.8614   23087049.1404  121323243.656 5  94537615.38041
      3405.132        2653.335
  22349112.967    22349112.4634   22349121.4804  117445445.004 6  91515965.90643
      2594.860        2021.966
  22332484.632    22332484.3774   22332491.7394  117358045.756 6  91447851.35843
      3218.972        2508.290
  23040623.967    23040622.8944   23040634.6714  121079492.520 5  94347624.21842
      2961.907        2307.973
  20735350.006    20735349.2094   20735355.8134  108965139.014 8  84907900.09246
       174.966         136.336
  24820216.319                                   130431193.679 4
      3732.146
  24390594.975    24390593.5284   24390613.4624  128173246.839 5  99875223.29241
     -2988.122       -2328.387
  22562500.129    22562500.2444   22562510.4424  118566740.070 6  92389682.81243
     -1805.864       -1407.168
  20919999.863    20919999.0024   20920008.5684  109935336.607 8  85663922.06445
     -1928.137       -1502.442
  22725025.630    22725026.4654   22725035.4344  119420775.995 6  93055160.65043
     -2347.044       -1828.863
  21977563.235    21977563.186    21977571.436   117482781.972 6  91375545.166 5
       979.281         761.659
  22420432.587    22420432.939    22420442.800   119639860.141 6  93053292.290 5
      3954.027        3075.354
  22654344.218    22654343.433    22654360.341   120760325.301 6  93924677.911 4
     -4013.681       -3121.743
  20149368.950    20149368.962    20149376.467   107672162.385 7  83745050.263 5
     -1295.405       -1007.529
  21658664.982    21658664.913    21658674.678   115696733.496 7  89986379.079 6
      3081.109        2396.415
  21730420.127    21730419.874    21730427.914   116202337.772 5  90379641.572 5
     -2002.026       -1557.132
  19856459.870    19856459.806    19856464.189   106256020.675 8  82643637.215 6
       410.017         318.900
  21922919.406    21922919.356    21922926.689   117026096.063 6  91020336.277 5
      2762.916        2148.925
 11 10 10 12 17 30.0000000  0 18G03G06G16G18G21G22G25G29G30G31R05R06
                                R10R11R12R20R21R22
  23067606.964    23067607.2934   23067618.2284  121221131.854 5  94458047.85641
      3402.366        2651.182
  22334312.391    22334312.1854   22334320.8604  117367665.729 6  91455358.73443
      2590.514        2018.581
  22314129.479    22314128.5044   22314135.8144  117261584.523 6  91372686.81243
      3211.813        2502.712
  23023734.017    23023734.6024   23023745.7944  120990743.627 5  94278469.39242
      2954.673        2302.344
  20734389.730    20734389.0574   20734395.6234  108960093.442 8  84903968.49946
       161.475         125.825
  24798899.849                                   130319180.177 4
      3735.506
  24407665.215    24407665.0104   24407684.8124  128262958.260 5  99945127.80741
     -2992.540       -2331.887
  22572818.457    22572818.2894   22572828.2224  118620961.358 6  92431933.09643
     -1808.918       -1409.527
  20931047.969    20931047.1834   20931056.8624  109993394.882 8  85709162.21445
     -1942.369       -1513.531
  22738448.589    22738449.4644   22738459.0104  119491314.243 6  93110125.37643
     -2355.401       -1835.368
  21972136.947    21972136.678    21972145.772   117453778.224 6  91352986.747 5
       954.331         742.258
  22398231.287    22398231.539    22398241.908   119521391.178 6  92961149.950 5
      3943.937        3067.500
  22676946.820    22676945.862    22676963.430   120880806.751 6  94018385.041 4
     -4018.286       -3125.306
  20156712.174    20156711.665    20156718.580   107711398.134 7  83775566.908 5
     -1320.256       -1026.866
  21641423.525    21641423.264    21641432.000   115604626.769 7  89914740.522 5
      3059.352        2379.497
  21741657.119    21741657.210    21741664.820   116262426.751 5  90426377.403 5
     -2003.941       -1558.622
  19854184.758    19854184.527    19854189.289   106243846.798 8  82634168.651 7
       401.664         312.408
  21907409.639    21907408.670    21907415.497   116943300.320 6  90955939.678 5
      2756.877        2144.233
 11 10 10 12 18  0.0000000  0 18G03G06G16G18G21G22G25G29G30G31R05R06
                                R10R11R12R20R21R22
  23048193.364    23048192.2774   23048202.3724  121119108.134 5  94378549.00341
      3399.263        2648.777
  22319537.061    22319536.0584   22319545.0734  117290021.374 6  91394856.69843
      2585.790        2014.897
  22295814.719    22295814.5224   22295821.6214  117165343.844 6  91297694.12043
      3204.228        2496.791
  23006889.193    23006889.2264   23006899.5254  120902216.261 5  94209487.18442
      2947.092        2296.446
  20733507.178    20733506.4314   20733513.0304  108955455.548 8  84900354.57546
       147.732         115.118
  24777564.032                                   130207069.701 4
      3738.483
  24424762.258    24424762.6004   24424781.8014  128352804.050 5 100015136.96041
     -2997.160       -2335.420
  22583154.277    22583154.7404   22583164.3794  118675278.783 6  92474258.29643
     -1812.217       -1412.105
  20942178.264    20942177.5244   20942186.8194  110051883.642 8  85754737.81845
     -1956.883       -1524.840
  22751920.738    22751920.3364   22751930.3974  119562105.755 6  93165287.44143
     -2363.988       -1842.064
  21966852.198    21966851.604    21966861.429   117425528.372 6  91331014.715 5
       928.941         722.509
  22376088.432    22376087.900    22376098.553   119403230.065 6  92869247.038 5
      3933.419        3059.323
  22699574.632    22699574.754    22699591.422   121001426.538 6  94112199.754 4
     -4023.015       -3128.983
  20164194.484    20164193.868    20164200.797   107751380.896 8  83806664.556 5
     -1345.281       -1046.326
  21624304.690    21624304.445    21624312.770   115513177.571 7  89843613.420 6
      3037.194        2362.260
  21752905.752    21752905.418    21752912.841   116322577.575 5  90473161.320 5
     -2006.169       -1560.349
  19851957.693    19851957.524    19851961.699   106231927.259 8  82624897.903 7
       392.978         305.655
  21891934.107    21891933.387    21891939.684   116860689.142 6  90891686.659 5
      2750.507        2139.281
 11 10 10 12 18 30.0000000  0 18G03G06G16G18G21G22G25G29G30G31R05R06
                                R10R11R12R20R21R22
  23028795.353    23028793.9484   23028805.6824  121017179.138 5  94299123.92441
      3396.381        2646.544
  22304788.032    22304787.5064   22304796.8124  117212518.123 6  91334464.61243
      2581.425        2011.486
  22277544.274    22277543.4354   22277551.2254  117069331.633 6  91222879.45943
      3196.913        2491.100
  22990087.219    22990085.6714   22990097.1384  120813918.860 5  94140684.20042
      2939.738        2290.693
  20732702.937    20732702.3044   20732709.2094  108951230.552 8  84897062.39546
       134.314         104.661
  24756210.753                                   130094870.267 4
      3741.777
  24441886.901    24441884.9894   24441908.1154  128442788.705 5 100085254.31541
     -3001.493       -2338.806
  22593509.990    22593510.0344   22593519.6024  118729697.538 6  92516662.43943
     -1815.334       -1414.536
  20953391.208    20953390.3634   20953399.5424  110110807.489 8  85800652.45245
     -1971.024       -1535.860
  22765439.853    22765440.8824   22765450.8794  119633153.284 6  93220649.01543
     -2372.160       -1848.429
  21961709.437    21961709.122    21961719.111   117398040.104 6  91309635.026 5
       903.876         703.012
  22354004.371    22354004.178    22354014.664   119285386.873 6  92777591.392 5
      3923.121        3051.308
  22722230.200    22722229.418    22722246.329   121122186.307 6  94206123.311 4
     -4027.293       -3132.309
  20171817.209    20171816.623    20171823.482   107792114.398 7  83838346.111 5
     -1369.906       -1065.482
  21607308.992    21607309.073    21607317.589   115422395.825 7  89773005.450 5
      3015.246        2345.194
  21764166.998    21764165.985    21764173.704   116382794.841 5  90519996.925 5
     -2007.931       -1561.722
  19849778.468    19849778.323    19849782.827   106220267.453 8  82615829.174 7
       384.693         299.205
  21876493.168    21876492.613    21876498.802   116778268.745 6  90827582.000 5
      2744.522        2134.626
 11 10 10 12 19  0.0000000  0 18G03G06G16G18G21G22G25G29G30G31R05R06
                                R10R11R12R20R21R22
  23009416.164    23009416.3364   23009428.9514  120915337.430 5  94219766.89741
      3393.124        2644.016
  22290065.332    22290064.8684   22290073.9134  117135148.526 6  91274176.67143
      2576.603        2007.732
  22259316.280    22259315.2484   22259323.4174  116973542.589 6  91148238.70043
      3189.040        2484.957
  22973326.526    22973326.1194   22973337.7914  120725846.096 5  94072056.24742
      2931.792        2284.515
  20731976.146    20731975.2534   20731981.8704  108947409.579 8  84894085.03246
       120.465          93.869
  24734843.566                                   129982576.975 4
      3744.520
  24459034.517    24459033.1684   24459053.7554  128532902.757 5 100155472.51241
     -3006.178       -2342.468
  22603883.642    22603883.7314   22603893.3164  118784209.966 6  92559139.58243
     -1818.837       -1417.275
  20964684.670    20964683.9794   20964693.4684  110170157.058 8  85846898.81745
     -1985.573       -1547.199
  22779006.379    22779007.0064   22779017.6504  119704446.319 6  93276201.87543
     -2380.673       -1855.052
  21956709.166    21956708.827    21956717.885   117371306.524 6  91288842.287 5
       878.379         683.181
  22331979.533    22331979.822    22331989.010   119167858.708 6  92686180.783 5
      3912.137        3042.765
  22744910.381    22744908.098    22744924.863   121243074.480 6  94300146.715 4
     -4031.856       -3135.875
  20179579.003    20179577.891    20179584.586   107833587.871 7  83870603.202 5
     -1394.954       -1084.958
  21590439.168    21590438.513    21590447.248   115332276.879 7  89702912.960 5
      2992.676        2327.636
  21775437.846    21775437.804    21775446.661   116443070.842 5  90566878.206 5
     -2010.330       -1563.588
  19847646.626    19847646.505    19847651.076   106208858.576 8  82606955.610 7
       375.945         292.404
  21861087.830    21861087.150    21861093.266   116696030.740 6  90763619.180 5
      2738.073        2129.614
 11 10 10 12 19 30.0000000  0 18G03G06G16G18G21G22G25G29G30G31R05R06
                                R10R11R12R20R21R22
  22990054.916    22990054.4244   22990065.1024  120813588.863 5  94140482.44141
      3389.991        2641.536
  22275368.449    22275368.4014   22275377.4714  117057918.090 6  91213997.15043
      2571.902        2004.083
  22241131.826    22241131.1364   22241138.6474  116877984.059 6  91073777.55943
      3181.301        2478.924
  22956611.109    22956610.8984   22956621.4014  120638006.264 5  94003609.79442
      2923.938        2278.385
  20731326.845    20731325.8454   20731332.4664  108943996.536 8  84891425.53746
       106.837          83.248
  24713453.995                                   129870197.212 4
      3747.267
  24476209.950    24476208.6774   24476228.5174  128623149.852 5 100225794.37441
     -3010.543       -2345.852
  22614275.777    22614276.2884   22614285.2994  118838820.887 6  92601693.47943
     -1822.104       -1419.832
  20976060.772    20976059.6674   20976069.1564  110229936.094 8  85893479.82645
     -1999.884       -1558.350
  22792621.873    22792620.8914   22792630.7844  119775987.087 6  93331947.77843
     -2388.901       -1861.473
  21951849.917    21951849.809    21951858.587   117345334.039 6  91268641.529 5
       852.953         663.407
  22310014.718    22310015.127    22310025.341   119050655.431 6  92595022.876 5
      3901.169        3034.240
  22767614.360    22767611.165    22767628.299   121364091.339 6  94394270.177 4
     -4036.090       -3139.164
  20187478.265    20187477.819    20187484.690   107875803.714 7  83903437.682 5
     -1419.635       -1104.159
  21573693.158    21573693.458    21573701.812   115242829.351 7  89633342.709 5
      2970.196        2310.150
  21786723.420    21786722.119    21786730.196   116503410.071 5  90613808.654 5
     -2012.566       -1565.325
  19845562.588    19845562.277    19845566.591   106197705.106 8  82598280.696 6
       367.430         285.777
  21845716.387    21845715.584    21845721.790   116613980.343 6  90699802.293 5
      2731.771        2124.708
 11 10 10 12 20  0.0000000  0 18G03G06G16G18G21G22G25G29G30G31R05R06
                                R10R11R12R20R21R22
  22970710.970    22970710.3584   22970720.4484  120711934.590 5  94061271.44341
      3386.919        2639.125
  22260698.890    22260698.3134   22260707.8964  116980827.658 6  91153926.75543
      2567.412        2000.570
  22222991.861    22222991.3954   22222999.3104  116782658.838 6  90999498.20943
      3173.644        2472.963
  22939940.453    22939939.3424   22939951.5754  120550402.769 5  93935347.48742
      2916.194        2272.359
  20730754.657    20730754.0964   20730760.5284  108940991.554 8  84889084.01746
        93.398          72.775
  24692052.965                                   129757733.893 4
      3750.112
  24493408.682    24493407.5254   24493428.5534  128713529.153 5 100296219.16541
     -3014.777       -2349.143
  22624687.265    22624686.8384   22624695.7114  118893530.584 6  92644324.35043
     -1825.272       -1422.284
  20987517.714    20987517.0344   20987526.1364  110290143.691 8  85940394.77945
     -2013.992       -1569.341
  22806281.059    22806281.8594   22806291.2524  119847773.214 6  93387884.87043
     -2396.889       -1867.693
  21947133.583    21947133.547    21947142.150   117320124.685 6  91249034.327 5
       827.581         643.666
  22288112.812    22288112.997    22288122.766   118933782.041 6  92504121.542 5
      3890.269        3025.752
  22790338.011    22790337.600    22790355.442   121485233.437 6  94488491.026 4
     -4040.023       -3142.226
  20195517.536    20195516.789    20195523.916   107918759.946 7  83936848.023 5
     -1444.149       -1123.227
  21557076.187    21557075.895    21557083.738   115154057.391 7  89564297.886 5
      2947.797        2292.730
  21798018.304    21798018.165    21798025.605   116563812.038 5  90660787.915 5
     -2014.433       -1566.777
  19843525.818    19843525.644    19843529.681   106186807.085 8  82589804.468 6
       359.062         279.274
  21830379.235    21830378.941    21830385.454   116532118.063 6  90636131.716 5
      2725.634        2119.930
 11 10 10 12 20 30.0000000  0 18G03G06G16G18G21G22G25G29G30G31R05R06
                                R10R11R12R20R21R22
  22951384.743    22951383.5224   22951394.9294  120610375.294 5  93982134.43441
      3383.642        2636.613
  22246055.169    22246055.2294   22246064.6854  116903877.025 6  91093965.27243
      2562.567        1996.798
  22204896.953    22204896.1794   22204904.0064  116687568.657 7  90925402.01243
      3165.631        2466.718
  22923315.287    22923315.1614   22923326.6384  120463037.475 5  93867270.81642
      2908.077        2266.030
  20730260.123    20730259.4664   20730266.1784  108938392.982 8  84887059.18046
        79.736          62.128
  24670634.554                                   129645189.204 4
      3752.680
  24510632.095    24510632.7884   24510651.1684  128804038.472 5 100366745.28041
     -3019.285       -2352.687
  22635116.125    22635116.1884   22635126.1054  118948338.379 6  92687031.65343
     -1828.655       -1424.928
  20999055.773    20999055.2304   20999064.6444  110350777.850 8  85987642.11845
     -2028.339       -1580.520
  22819987.359    22819987.8884   22819997.8544  119919801.195 6  93444010.43843
     -2405.031       -1874.060
  21942560.260    21942560.232    21942569.408   117295679.104 6  91230021.184 5
       801.972         623.753
  22266273.702    22266273.364    22266283.744   118817242.770 6  92413480.114 5
      3878.881        3016.893
  22813086.867    22813087.092    22813104.788   121606496.199 6  94582805.666 4
     -4044.097       -3145.386
  20203693.833    20203693.191    20203700.318   107962453.329 7  83970831.711 5
     -1468.818       -1142.416
  21540583.454    21540583.968    21540592.292   115065963.690 7  89495780.609 6
      2924.977        2274.978
  21809325.499    21809324.996    21809332.649   116624275.464 5  90707814.948 5
     -2016.540       -1568.421
  19841536.667    19841536.335    19841540.868   106176163.104 8  82581525.833 7
       350.471         272.585
  21815079.809    21815079.260    21815085.572   116450443.002 6  90572606.717 5
      2719.271        2114.990
 11 10 10 12 21  0.0000000  0 18G03G06G16G18G21G22G25G29G30G31R05R06
                                R10R11R12R20R21R22
  22932074.524    22932073.5624   22932086.3684  120508906.330 5  93903067.85141
      3381.243        2634.738
  22231437.280    22231437.0504   22231446.7404  116827061.312 6  91034108.92543
      2558.730        1993.812
  22186846.495    22186845.6184   22186853.3404  116592710.779 6  90851486.82943
      3158.487        2461.153
  22906734.844    22906734.5374   22906746.2494  120375907.835 5  93799377.74642
      2900.767        2260.341
  20729841.772    20729841.0794   20729847.7544  108936194.653 8  84885346.22446
        67.033          52.230
  24649199.421                                   129532560.212 4
      3756.141
  24527880.078    24527878.4664   24527899.9214  128894671.112 5 100437367.50341
     -3022.722       -2355.351
  22645562.877    22645563.4464   22645574.3524  119003238.687 6  92729811.03143
     -1831.115       -1426.849
  21010674.142    21010673.4124   21010683.2074  110411831.888 8  86035216.63645
     -2041.687       -1590.923
  22833739.228    22833739.4644   22833749.6474  119992062.895 6  93500318.10243
     -2412.165       -1879.602
  21938130.468    21938130.037    21938138.972   117271993.009 6  91211598.744 5
       777.309         604.569
  22244496.525    22244496.610    22244506.991   118701037.130 6  92323098.176 5
      3868.352        3008.708
  22835856.003    22835856.961    22835875.490   121727869.856 6  94677206.559 4
     -4047.202       -3147.795
  20212006.680    20212006.270    20212013.498   108006875.563 7  84005382.272 5
     -1492.414       -1160.761
  21524219.448    21524219.933    21524227.326   114978546.600 7  89427789.561 5
      2903.031        2257.906
  21820642.590    21820642.274    21820650.444   116684795.214 5  90754885.808 5
     -2017.812       -1569.410
  19839593.786    19839593.604    19839598.068   106165767.189 8  82573440.126 7
       342.832         266.644
  21799814.366    21799813.100    21799818.977   116368949.611 7  90509223.038 5
      2713.835        2110.754
 11 10 10 12 21 30.0000000  0 18G03G06G16G18G21G22G25G29G30G31R05R06
                                R10R11R12R20R21R22
  22912778.467    22912777.4134   22912787.4694  120407500.639 5  93824050.55841
      3378.952        2632.930
  22216841.086    22216840.6064   22216849.6064  116750352.964 7  90974336.23543
      2554.955        1990.867
  22168834.800    22168833.9044   22168841.6184  116498059.549 7  90777732.66943
      3151.320        2455.570
  22890195.030    22890194.5734   22890204.9504  120288988.583 5  93731648.65342
      2893.520        2254.668
  20729494.114    20729493.5364   20729500.2014  108934367.918 8  84883922.82646
        54.499          42.459
  24627745.233                                   129419821.693 4
      3759.507
  24545144.197    24545140.6124   24545165.0334  128985397.669 4 100508062.83741
     -3026.052       -2357.950
  22656023.885    22656023.1634   22656033.4544  119058203.387 6  92772640.58843
     -1833.468       -1428.675
  21022366.567    21022366.0044   21022375.5504  110473276.476 7  86083095.47045
     -2054.863       -1601.193
  22847529.231    22847528.9084   22847539.4144  120064527.799 6  93556784.10543
     -2419.080       -1884.991
  21933836.373    21933835.818    21933844.136   117249039.460 6  91193746.096 5
       752.713         585.438
  22222776.981    22222777.619    22222787.692   118585141.004 6  92232957.003 5
      3857.796        3000.493
  22858642.868    22858642.124    22858660.268   121849322.128 6  94771668.558 4
     -4049.851       -3149.849
  20220450.740    20220449.975    20220457.428   108051995.413 7  84040475.434 5
     -1515.842       -1178.992
  21507977.495    21507976.899    21507985.268   114891780.975 7  89360305.237 6
      2881.005        2240.775
  21831966.569    21831965.151    21831972.359   116745342.783 5  90801978.295 5
     -2018.936       -1570.288
  19837691.902    19837691.828    19837696.147   106155590.581 8  82565525.001 6
       335.339         260.816
  21784575.341    21784575.461    21784582.564   116287609.689 7  90445958.700 5
      2708.541        2106.645
 11 10 10 12 22  0.0000000  0 18G03G06G16G18G21G22G25G29G30G31R05R06
                                R10R11R12R20R21R22
  22893495.863    22893496.4994   22893506.4964  120306176.264 5  93745096.62241
      3375.799        2630.482
  22202267.997    22202267.3324   22202275.9774  116673769.761 6  90914661.06643
      2550.355        1987.296
  22150865.952    22150865.6414   22150873.2604  116403634.816 7  90704154.97843
      3143.363        2449.378
  22873699.598    22873698.0564   22873708.2404  120202300.249 6  93664099.46042
      2885.407        2248.368
  20729220.338    20729219.6474   20729226.4284  108932929.116 8  84882801.70946
        41.175          32.086
  24606272.259                                   129306993.563 4
      3762.133
  24562430.319    24562428.3974   24562448.8044  129076233.880 5 100578843.60341
     -3030.006       -2361.017
  22666498.659    22666498.1294   22666508.2834  119113249.652 6  92815533.71943
     -1836.551       -1431.072
  21034136.457    21034135.7704   21034145.5534  110535127.446 8  86131290.97045
     -2068.793       -1612.041
  22861359.914    22861360.2274   22861370.8074  120137210.039 6  93613419.45743
     -2426.724       -1890.946
  21929682.226    21929681.419    21929690.356   117226837.143 6  91176477.713 5
       727.195         565.591
  22201121.851    22201121.001    22201131.028   118469577.055 6  92143074.179 5
      3846.233        2991.513
  22881445.513    22881444.145    22881463.029   121970866.734 6  94866202.348 4
     -4053.285       -3152.532
  20229027.600    20229026.802    20229034.007   108097827.997 7  84076122.941 5
     -1539.956       -1197.740
  21491859.857    21491860.140    21491867.522   114805687.873 7  89293343.959 5
      2858.152        2223.007
  21843299.040    21843295.843    21843302.912   116805933.976 5  90849104.742 5
     -2020.736       -1571.683
  19835834.321    19835834.223    19835838.689   106145650.037 8  82557793.480 6
       327.105         254.415
  21769370.157    21769370.077    21769376.768   116206440.623 6  90382827.269 5
      2702.473        2101.925
 11 10 10 12 22 30.0000000  0 18G03G06G16G18G21G22G25G29G30G31R05R06
                                R10R11R12R20R21R22
  22874234.439    22874233.7664   22874243.1034  120204952.006 5  93666220.66141
      3372.513        2627.941
  22187721.770    22187721.4514   22187730.1574  116597329.987 6  90855097.64843
      2545.650        1983.625
  22132944.683    22132943.8034   22132951.5954  116309456.426 7  90630769.27943
      3135.164        2442.984
  22857250.814    22857250.0934   22857260.3844  120115863.037 5  93596745.96942
      2877.029        2241.838
  20729023.767    20729022.9424   20729029.5594  108931895.221 8  84881996.11146
        27.748          21.621
  24584786.269                                   129194096.088 5
      3764.393
  24579740.775    24579741.1464   24579764.0644  129167196.204 4 100649722.61541
     -3034.075       -2364.202
  22676991.464    22676991.7224   22677001.1044  119168395.041 6  92858504.08343
     -1839.830       -1433.628
  21045987.139    21045986.1454   21045995.8314  110597401.102 7  86179815.84245
     -2082.803       -1622.964
  22875235.805    22875235.6304   22875245.9304  120210124.864 6  93670236.05843
     -2434.329       -1896.891
  21925673.247    21925672.042    21925681.270   117205404.966 6  91159808.344 5
       701.610         545.693
  22179530.482    22179530.575    22179540.499   118354368.152 6  92053467.522 5
      3834.358        2982.270
  22904267.544    22904265.905    22904285.282   122092516.903 6  94960818.230 4
     -4056.779       -3155.245
  20237740.936    20237740.119    20237747.166   108144388.120 7  84112336.324 5
     -1564.096       -1216.513
  21475872.425    21475872.499    21475881.634   114720288.684 7  89226922.408 6
      2835.064        2205.053
  21854637.468    21854638.322    21854647.046   116866587.309 5  90896279.490 5
     -2022.775       -1573.268
  19834024.136    19834023.971    19834028.451   106135963.066 8  82550259.179 7
       318.700         247.880
  21754200.098    21754199.511    21754207.102   116125460.402 7  90319842.717 5
      2696.202        2097.043
 11 10 10 12 23  0.0000000  0 18G03G06G16G18G21G22G25G29G30G31R05R06
                                R10R11R12R20R21R22
  22854990.743    22854990.4524   22854999.9494  120103829.511 5  93587424.04841
      3369.005        2625.199
  22173203.671    22173202.9044   22173211.6174  116521034.735 7  90795646.86243
      2540.711        1979.775
  22115069.957    22115069.4854   22115077.4494  116215527.527 7  90557577.95643
      3126.789        2436.461
  22840850.372    22840849.1704   22840860.3434  120029680.584 6  93529590.98742
      2868.462        2235.154
  20728903.698    20728903.0804   20728909.7154  108931266.118 8  84881505.92846
        14.223          11.082
  24563290.836    24563288.7034   24563314.8274  129081132.853 5 100582589.79141
      3766.487        2934.857
  24597075.725    24597074.8554   24597093.8624  129258284.034 4 100720699.36041
     -3038.355       -2367.521
  22687504.689    22687504.8914   22687514.4234  119223640.240 6  92901552.21343
     -1843.218       -1436.260
  21057917.706    21057916.8654   21057926.5644  110660096.961 7  86228669.69345
     -2096.909       -1633.948
  22889154.221    22889154.0904   22889165.1504  120283270.242 6  93727232.29943
     -2442.008       -1902.869
  21921808.753    21921808.331    21921816.668   117184744.931 6  91143739.520 5
       675.750         525.587
  22158008.048    22158007.862    22158017.113   118239519.542 6  91964141.105 5
      3822.199        2972.812
  22927108.371    22927107.016    22927126.272   122214269.856 6  95055514.008 4
     -4060.118       -3157.844
  20246589.368    20246589.022    20246596.224   108191673.992 7  84149114.169 5
     -1588.270       -1235.318
  21460016.818    21460017.000    21460024.347   114635587.817 7  89161044.008 5
      2811.654        2186.846
  21865994.038    21865993.318    21866000.805   116927302.933 5  90943502.678 5
     -2024.887       -1574.904
  19832261.132    19832261.048    19832265.482   106126530.020 8  82542922.376 6
       310.184         241.253
  21739065.060    21739064.414    21739071.757   116044669.892 6  90257005.704 5
      2689.829        2092.088
 11 10 10 12 23 30.0000000  0 18G03G06G16G18G21G22G25G29G30G31R05R06
                                R10R11R12R20R21R22
  22835767.354    22835766.6184   22835776.8904  120002807.166 5  93508705.46641
      3365.656        2622.597
  22158711.978    22158711.2574   22158720.6924  116444882.932 7  90736307.85343
      2535.958        1976.075
  22097243.506    22097243.2924   22097251.2934  116121849.398 7  90484582.05343
      3118.382        2429.911
  22824498.409    22824497.6554   22824509.7154  119943754.145 6  93462635.49142
      2859.932        2228.508
  20728860.552    20728859.8114   20728866.4464  108931039.027 8  84881329.00646
         0.836           0.657
  24541781.207    24541778.7374   24541804.9534  128968105.088 4 100494517.77341
      3768.612        2936.531
  24614431.542    24614434.3804   24614455.0864  129349494.276 4 100791771.45241
     -3042.403       -2370.673
  22698035.888    22698036.2294   22698045.7704  119278983.553 6  92944676.80243
     -1846.455       -1438.789
  21069928.223    21069927.1814   21069936.8724  110723211.908 8  86277850.10845
     -2110.836       -1644.800
  22903116.576    22903116.1514   22903127.1434  120356641.457 6  93784404.52443
     -2449.478       -1908.676
  21918087.545    21918087.630    21918095.900   117164856.782 6  91128271.038 5
       650.047         505.593
  22136552.832    22136552.532    22136562.757   118125034.485 6  91875097.451 5
      3810.019        2963.339
  22949966.386    22949966.274    22949985.723   122336119.992 6  95150285.332 4
     -4063.256       -3160.268
  20255573.593    20255573.052    20255580.291   108239681.147 7  84186453.017 5
     -1612.273       -1253.987
  21444291.918    21444291.299    21444299.218   114551586.973 7  89095710.048 5
      2788.240        2168.634
  21877358.291    21877358.307    21877366.548   116988078.763 5  90990772.709 5
     -2026.848       -1576.430
  19830545.570    19830545.313    19830549.809   106117348.831 8  82535781.459 7
       301.829         234.756
  21723965.674    21723964.966    21723973.003   115964067.265 6  90194314.853 5
      2683.617        2087.258
 11 10 10 12 24  0.0000000  0 18G03G06G16G18G21G22G25G29G30G31R05R06
                                R10R11R12R20R21R22
  22816563.360    22816561.2724   22816570.9874  119901885.872 6  93430065.61341
      3362.478        2620.093
  22144247.896    22144247.6084   22144257.2144  116368874.483 6  90677080.55243
      2531.321        1972.448
  22079465.667    22079465.2544   22079472.2464  116028423.857 7  90411782.97643
      3110.060        2423.431
  22808195.971    22808195.8184   22808206.6494  119858085.889 6  93395881.16742
      2851.371        2221.827
  20728893.346    20728892.9494   20728899.4984  108931212.901 8  84881464.52546
       -12.383          -9.655
  24520256.132    24520255.8474   24520280.3844  128855014.678 4 100406396.86341
      3770.820        2938.269
  24631813.583    24631811.0844   24631835.2504  129440824.844 4 100862937.35941
     -3046.143       -2373.613
  22708585.836    22708585.9494   22708596.1174  119334424.467 6  92987877.43743
     -1849.559       -1441.213
  21082017.591    21082017.0804   21082026.6354  110786743.883 8  86327355.48345
     -2124.570       -1655.509
  22917120.740    22917121.1384   22917131.8824  120430235.144 6  93841750.10143
     -2456.675       -1914.299
  21914511.382    21914511.262    21914519.916   117145740.652 6  91113403.046 5
       624.449         485.683
  22115168.321    22115167.636    22115176.800   118010917.060 6  91786339.748 5
      3797.854        2953.875
  22972843.101    22972843.118    22972862.679   122458062.522 5  95245128.518 4
     -4066.104       -3162.510
  20264692.122    20264691.178    20264698.089   108288406.003 7  84224350.084 5
     -1635.999       -1272.443
  21428697.549    21428697.597    21428705.949   114468288.859 7  89030922.647 5
      2764.964        2150.524
  21888733.879    21888733.810    21888742.371   117048913.723 5  91038088.734 5
     -2028.636       -1577.827
  19828877.332    19828876.854    19828880.889   106108418.351 8  82528835.546 7
       293.630         228.376
  21708900.261    21708899.793    21708907.213   115883652.046 6  90131769.747 5
      2677.468        2082.467
 11 10 10 12 24 30.0000000  0 18G03G06G16G18G21G22G25G29G30G31R05R06
                                R10R11R12R20R21R22
  22797377.407    22797377.9524   22797387.2114  119801067.929 5  93351506.30841
      3359.084        2617.459
  22129811.694    22129811.3134   22129820.5574  116293011.137 7  90617966.30043
      2526.548        1968.743
  22061735.839    22061735.3014   22061743.4004  115935254.446 7  90339183.47243
      3101.541        2416.800
  22791943.414    22791942.6194   22791954.1734  119772679.655 6  93329331.02242
      2842.692        2215.073
  20729002.959    20729002.3654   20729009.0154  108931788.114 8  84881912.77146
       -25.650         -19.986
  24498724.257    24498723.9364   24498754.7844  128741865.844 4 100318230.35941
      3772.726        2939.699
  24649215.881    24649214.4784   24649235.2074  129532275.642 4 100934196.90141
     -3050.151       -2376.680
  22719155.631    22719155.1644   22719165.2824  119389964.297 6  93031155.14543
     -1852.755       -1443.692
  21094187.037    21094186.3664   21094195.6884  110850692.780 7  86377185.73545
     -2138.368       -1666.257
  22931166.865    22931167.5334   22931178.6694  120504049.975 6  93899267.98543
     -2463.966       -1919.967
  21911079.491    21911079.367    21911088.731   117127399.079 6  91099137.483 5
       598.655         465.617
  22093852.143    22093851.814    22093860.714   117897173.648 6  91697872.925 5
      3785.408        2944.197
  22995737.589    22995736.703    22995756.075   122580094.740 6  95340041.389 4
     -4068.967       -3164.709
  20273943.806    20273943.317    20273950.120   108337846.918 7  84262804.075 5
     -1659.719       -1290.892
  21413236.977    21413236.719    21413244.744   114385698.114 7  88966685.438 5
      2741.451        2132.241
  21900122.639    21900122.527    21900129.610   117109809.287 5  91085451.912 5
     -2030.672       -1579.409
  19827255.082    19827254.784    19827258.916   106099739.121 8  82522085.046 6
       285.315         221.910
  21693870.260    21693869.881    21693877.754   115803425.598 6  90069371.480 5
      2671.275        2077.659
 11 10 10 12 25  0.0000000  0 18G03G06G16G18G21G22G25G29G30G31R05R06
                                R10R11R12R20R21R22
  22778209.318    22778209.0444   22778221.0354  119700342.857 5  93273019.36242
      3355.840        2614.931
  22115400.971    22115400.4554   22115409.2554  116217281.958 7  90558956.60743
      2521.910        1965.124
  22044053.600    22044053.1534   22044060.7614  115842332.130 7  90266776.52644
      3093.136        2410.243
  22775739.917    22775738.7914   22775749.6494  119687527.352 6  93262978.73542
      2834.031        2208.333
  20729186.539    20729185.8074   20729192.5694  108932751.937 8  84882663.82946
       -38.718         -30.168
  24477179.051    24477180.1294   24477204.0344  128628649.531 4 100230011.12741
      3774.856        2941.439
  24666638.039    24666639.2444   24666657.3304  129623833.751 4 101005540.01941
     -3053.715       -2379.516
  22729741.484    22729740.6264   22729750.6454  119445591.224 6  93074500.72043
     -1855.803       -1446.072
  21106433.025    21106432.3344   21106441.8334  110915045.721 8  86427330.81845
     -2151.959       -1676.846
  22945253.510    22945253.6054   22945264.5024  120578071.702 6  93956947.08043
     -2470.912       -1925.379
  21907791.111    21907791.247    21907800.034   117109821.324 6  91085465.984 5
       573.060         445.715
  22072605.485    22072604.940    22072613.857   117783797.129 6  91609691.462 5
      3772.971        2934.527
  23018647.910    23018644.731    23018664.299   122702200.898 6  95435011.784 4
     -4071.483       -3166.664
  20283326.830    20283326.511    20283333.728   108387989.450 7  84301803.765 5
     -1683.196       -1309.151
  21397906.309    21397906.262    21397915.251   114303806.430 7  88902991.944 6
      2717.916        2113.937
  21911517.298    21911519.124    21911526.814   117170752.980 5  91132852.506 5
     -2032.425       -1580.776
  19825677.948    19825677.645    19825682.018   106091299.503 8  82515520.911 7
       277.234         215.626
  21678873.882    21678874.121    21678881.803   115723376.128 6  90007110.861 5
      2665.248        2072.973
 11 10 10 12 25 30.0000000  0 18G03G06G16G18G21G22G25G29G30G31R05R06
                                R10R11R12R20R21R22
  22759061.039    22759060.0584   22759071.1094  119599715.467 5  93194608.51342
      3352.717        2612.500
  22101016.633    22101015.7954   22101024.9324  116141691.869 7  90500055.29943
      2517.468        1961.658
  22026419.115    22026418.2554   22026426.7474  115749663.555 7  90194567.30344
      3084.829        2403.757
  22759584.698    22759584.9194   22759594.6644  119602635.693 6  93196829.54842
      2825.521        2201.705
  20729444.596    20729443.8554   20729450.5404  108934108.275 8  84883720.73846
       -51.603         -40.213
  24455622.925    24455621.5194   24455645.9504  128515372.639 4 100141744.59341
      3777.087        2943.143
  24684082.873                                   129715502.087 4
     -3057.292
  22740344.297    22740343.7284   22740354.0304  119501309.467 6  93117917.44943
     -1858.650       -1448.299
  21118756.109    21118755.5154   21118765.3394  110979805.495 7  86477792.91845
     -2165.288       -1687.236
  22959379.098    22959379.1024   22959390.6894  120652301.656 6  94014788.43043
     -2477.657       -1930.644
  21904647.412    21904647.021    21904656.247   117093012.503 6  91072392.558 5
       547.625         425.927
  22051428.740    22051428.614    22051437.685   117670796.371 6  91521802.231 5
      3760.509        2924.828
  23041568.747    23041566.596    23041585.344   122824381.699 6  95530040.172 4
     -4073.710       -3168.402
  20292842.314    20292841.935    20292849.536   108438834.883 7  84341350.150 5
     -1706.398       -1327.200
  21382708.267    21382708.090    21382716.165   114222621.497 7  88839848.135 5
      2694.478        2095.702
  21922926.354    21922925.978    21922933.872   117231748.838 5  91180293.671 5
     -2033.921       -1581.936
  19824145.923    19824145.832    19824150.128   106083102.865 8  82509145.754 6
       269.311         209.462
  21663912.549    21663912.343    21663920.946   115643508.004 6  89944991.300 5
      2659.383        2068.404
 11 10 10 12 26  0.0000000  0 18G03G06G16G18G21G22G25G29G30G31R05R06
                                R10R11R12R20R21R22
  22739929.591    22739928.8334   22739940.6654  119499184.172 5  93116272.50341
      3349.247        2609.803
  22086658.449    22086657.7604   22086666.5184  116066238.027 7  90441260.15743
      2512.628        1957.897
  22008833.785    22008832.8824   22008840.3684  115657248.526 7  90122555.63344
      3076.088        2396.955
  22743479.933    22743479.7064   22743488.8474  119518004.205 5  93130883.08742
      2816.477        2194.654
  20729776.599    20729775.8044   20729782.2944  108935852.954 8  84885080.24646
       -64.794         -50.489
  24434054.215    24434054.1154   24434080.4614  128402035.134 4 100053430.83041
      3778.737        2944.425
  24701549.517                                   129807271.162 4
     -3061.022
  22750963.841    22750963.5164   22750973.6834  119557115.869 6  93161402.87443
     -1861.852       -1450.798
  21131156.779    21131155.7554   21131165.3884  111044967.593 7  86528568.51445
     -2178.927       -1697.858
  22973543.248    22973543.7254   22973554.2514  120726734.176 6  94072787.61342
     -2484.608       -1936.046
  21901646.184    21901646.112    21901654.744   117076970.641 6  91059915.650 5
       521.800         405.848
  22030322.381    22030322.369    22030332.031   117558173.493 6  91434206.882 5
      3747.591        2914.788
  23064501.352    23064500.666    23064520.737   122946629.673 6  95625120.766 4
     -4076.198       -3170.342
  20302487.606    20302487.506    20302494.953   108490376.985 7  84381438.387 5
     -1729.841       -1345.432
  21367643.005    21367642.704    21367651.260   114142143.472 7  88777254.142 6
      2670.614        2077.143
  21934340.854    21934341.599    21934349.767   117292793.410 5  91227772.733 5
     -2035.811       -1583.405
  19822659.108    19822658.844    19822662.918   106075145.892 8  82502957.003 6
       261.085         203.070
  21648984.055    21648983.478    21648992.247   115563817.963 6  89883010.255 5
      2653.162        2063.570
 11 10 10 12 26 30.0000000  0 18G03G06G16G18G21G22G25G29G30G31R05R06
                                R10R11R12R20R21R22
  22720818.457    22720818.0654   22720828.6734  119398753.702 5  93038015.08742
      3346.005        2607.282
  22072326.703    22072325.9454   22072335.1004  115990925.479 7  90382575.11143
      2508.046        1954.330
  21991296.461    21991296.4564   21991304.1544  115565093.431 7  90050746.52044
      3067.442        2390.218
  22727426.261    22727424.9644   22727435.5024  119433640.371 6  93065145.17442
      2807.626        2187.754
  20730182.836    20730182.3754   20730188.9114  108937989.161 8  84886744.84346
       -77.722         -60.560
  24412475.650    24412475.9334   24412500.5044  128288644.196 4  99965075.38241
      3780.547        2945.868
  24719031.762                                   129899153.876 4
     -3064.557
  22761599.947    22761600.2104   22761610.8194  119613014.782 6  93204960.37743
     -1864.817       -1453.101
  21143633.703    21143632.6034   21143642.5414  111110534.830 7  86579659.80445
     -2192.325       -1708.303
  22987746.939    22987746.0304   22987757.3664  120801370.632 6  94130945.69542
     -2491.289       -1941.267
  21898788.500    21898789.045    21898797.968   117061700.753 6  91048039.153 5
       496.142         385.883
  22009289.210    22009289.354    22009299.019   117445937.043 6  91346912.090 5
      3734.776        2904.817
  23087450.337    23087447.883    23087468.197   123068945.746 6  95720254.287 4
     -4078.281       -3171.938
  20312263.363    20312263.465    20312270.668   108542617.325 7  84422069.709 5
     -1752.948       -1363.399
  21352711.113    21352710.906    21352718.774   114062380.164 7  88715216.048 6
      2646.804        2058.626
  21945766.339    21945766.675    21945775.278   117353891.185 5  91275293.153 5
     -2037.550       -1584.759
  19821217.757    19821217.475    19821221.891   106067432.591 8  82496957.778 7
       253.052         196.816
  21634090.116    21634089.622    21634096.012   115484310.611 7  89821171.301 5
      2647.185        2058.920
 11 10 10 12 27  0.0000000  0 18G03G06G16G18G21G22G25G29G30G31R05R06
                                R10R11R12R20R21R22
  22701725.455    22701725.3834   22701735.5084  119298419.918 6  92959833.01041
      3342.510        2604.558
  22058020.475    22058020.3584   22058029.3334  115915749.196 7  90323996.24243
      2503.277        1950.600
  21973809.177    21973808.5294   21973816.1244  115473195.443 7  89979137.74744
      3058.659        2383.371
  22711422.688    22711421.7534   22711432.9894  119349541.266 6  92999613.53342
      2798.566        2180.699
  20730662.772    20730662.1744   20730668.8894  108940510.865 8  84888709.82346
       -90.772         -70.734
  24390887.695    24390886.2134   24390911.6484  128175196.967 4  99876676.04241
      3782.127        2947.104
  24736538.112                                   129991138.327 4
     -3068.147
  22772254.001    22772254.2074   22772263.6644  119669000.608 6  93248585.62343
     -1867.942       -1455.532
  21156186.352    21156185.4914   21156195.4554  111176500.283 7  86631061.39645
     -2205.781       -1718.793
  23001987.100    23001986.3204   23001997.5954  120876202.902 6  94189256.36642
     -2497.949       -1946.462
  21896076.602    21896075.937    21896084.638   117047198.024 6  91036759.335 5
       470.264         365.755
  21988328.694    21988328.301    21988337.504   117334086.603 6  91259917.489 5
      3721.601        2894.573
  23110406.352    23110406.173    23110427.409   123191319.921 6  95815432.954 4
     -4080.392       -3173.588
  20322169.565    20322168.726    20322175.541   108595547.087 7  84463237.235 5
     -1776.052       -1381.378
  21337912.467    21337912.078    21337920.297   113983328.915 7  88653731.764 6
      2622.803        2039.956
  21957200.708    21957201.718    21957208.864   117415036.158 5  91322850.281 5
     -2039.275       -1586.101
  19819820.612    19819820.530    19819824.847   106059956.648 8  82491143.159 7
       244.929         190.501
  21619227.727    21619227.539    21619234.912   115404980.293 6  89759470.058 5
      2641.051        2054.143
 11 10 10 12 27 30.0000000  0 18G03G06G16G18G21G22G25G29G30G31R05R06
                                R10R11R12R20R21R22
  22682652.865    22682652.4694   22682662.6154  119198189.320 6  92881731.32442
      3339.276        2602.023
  22043741.824    22043741.8434   22043750.7734  115840715.356 6  90265528.36543
      2498.717        1947.051
  21956371.528    21956371.0634   21956378.4944  115381562.821 7  89907735.76244
      3049.929        2376.575
  22695471.173    22695470.3194   22695481.1464  119265715.493 6  92934294.88042
      2789.591        2173.694
  20731216.771    20731216.1724   20731222.8674  108943422.587 8  84890978.70946
      -103.560         -80.695
  24369290.579    24369287.8384   24369311.0194  128061701.745 4  99788239.21741
      3783.941        2948.480
  24754064.887                                   130083228.560 4
     -3071.533
  22782925.387    22782926.0334   22782936.1804  119725078.895 6  93292282.89243
     -1870.842       -1457.792
  21168815.693    21168814.7514   21168824.8674  111242868.076 7  86682776.49645
     -2218.978       -1729.066
  23016265.253    23016264.6094   23016275.6084  120951233.665 6  94247721.70442
     -2504.307       -1951.400
  21893507.577    21893507.565    21893517.098   117033469.229 6  91026081.447 5
       444.706         345.884
  21967442.155    21967441.532    21967451.185   117222632.598 6  91173231.210 5
      3708.423        2884.328
  23133376.126    23133375.725    23133395.922   123313754.142 6  95910658.293 4
     -4082.145       -3174.959
  20332204.018    20332203.465    20332210.675   108649169.089 7  84504943.174 5
     -1798.925       -1399.160
  21323249.083    21323248.944    21323256.485   113904998.730 7  88592808.317 6
      2598.915        2021.381
  21968646.444    21968645.766    21968653.074   117476233.543 5  91370448.177 5
     -2040.866       -1587.337
  19818468.745    19818468.750    19818473.181   106052723.600 8  82485517.468 7
       237.032         184.357
  21604401.040    21604401.353    21604408.591   115325832.569 7  89697910.822 5
      2635.216        2049.604
 11 10 10 12 28  0.0000000  0 18G03G06G16G18G21G22G25G29G30G31R05R06
                                R10R11R12R20R21R22
  22663597.067    22663596.9164   22663607.8184  119098055.659 5  92803705.16542
      3336.156        2599.593
  22029489.639    22029489.3314   22029497.7334  115765817.374 7  90207166.35143
      2494.352        1943.658
  21938984.203    21938983.8924   21938991.3834  115290190.659 7  89836536.72044
      3041.401        2369.927
  22679571.051    22679570.1564   22679580.9424  119182158.807 6  92869185.91042
      2780.727        2166.802
  20731843.554    20731842.9654   20731849.7024  108946716.344 8  84893545.27946
      -116.122         -90.484
  24347682.144    24347681.7444   24347705.0864  127948154.553 4  99699761.86041
      3785.776        2949.945
  24771608.072                                   130175416.142 4
     -3074.515
  22793614.040    22793613.5324   22793623.8834  119781242.446 6  93336046.58643
     -1873.536       -1459.887
  21181520.182    21181519.2444   21181529.3374  111309629.504 7  86734798.32545
     -2231.880       -1739.124
  23030578.942    23030578.8204   23030589.3224  121026452.933 6  94306333.93042
     -2510.411       -1956.157
  21891082.487    21891082.678    21891092.006   117020507.422 6  91016000.129 5
       419.290         326.115
  21946628.804    21946628.879    21946638.096   117111572.664 6  91086851.412 5
      3695.360        2874.159
  23156354.830    23156353.437    23156374.899   123436237.194 6  96005921.583 4
     -4083.521       -3176.027
  20342365.616    20342365.554    20342372.846   108703472.674 7  84547179.232 5
     -1821.393       -1416.636
  21308719.797    21308719.685    21308727.409   113827385.543 7  88532442.520 6
      2575.138        2002.886
  21980098.938    21980098.520    21980106.448   117537475.657 5  91418080.864 5
     -2042.088       -1588.288
  19817161.572    19817160.696    19817165.417   106045725.432 8  82480074.455 6
       229.405         178.428
  21589607.018    21589606.526    21589613.125   115246860.252 6  89636487.995 5
      2629.507        2045.167
 11 10 10 12 28 30.0000000  0 18G03G06G16G18G21G22G25G29G30G31R05R06
                                R10R11R12R20R21R22
  22644563.522    22644564.2474   22644573.6764  118998027.237 6  92725761.01442
      3332.402        2596.678
  22015264.283    22015264.1014   22015272.2924  115691063.348 7  90148916.51043
      2489.282        1939.703
  21921648.126    21921647.7884   21921655.0284  115199089.157 7  89765548.59944
      3032.094        2362.667
  22663723.458    22663722.9654   22663733.2594  119098881.191 6  92804294.39342
      2771.135        2159.314
  20732544.515    20732543.6054   20732550.4194  108950398.894 8  84896414.80646
      -129.304        -100.754
  24326066.794    24326065.0674   24326089.3944  127834565.248 5  99611251.69041
      3786.925        2950.807
  24789172.732                                   130267707.275 4
     -3078.178
  22804319.301    22804319.2514   22804329.3174  119837498.951 6  93379882.73643
     -1876.845       -1462.481
  21194300.534    21194299.4654   21194309.4964  111376790.709 7  86787131.66145
     -2245.453       -1749.701
  23044928.934    23044929.4214   23044940.0924  121101865.672 6  94365096.89042
     -2517.009       -1961.275
  21888803.408    21888803.557    21888811.968   117008321.203 6  91006522.023 5
       393.182         305.803
  21925892.663    21925892.259    21925901.779   117000919.088 6  91000787.663 5
      3681.488        2863.378
  23179341.867    23179340.974    23179364.378   123558772.741 5  96101225.644 4
     -4085.487       -3177.555
  20352657.107    20352656.520    20352663.272   108758462.522 7  84589949.047 5
     -1844.504       -1434.609
  21294326.195    21294325.947    21294334.609   113750500.047 7  88472642.707 6
      2550.579        1983.785
  21991559.331    21991560.789    21991568.850   117598770.113 5  91465754.266 5
     -2044.176       -1589.907
  19815898.481    19815898.551    19815903.115   106038969.643 8  82474819.952 7
       221.068         171.945
  21574846.520    21574847.017    21574853.478   115168071.201 7  89575207.718 5
      2623.162        2040.234
 11 10 10 12 29  0.0000000  0 18G03G06G16G18G21G22G25G29G30G31R05R06
                                R10R11R12R20R21R22
  22625547.435    22625547.1264   22625558.8114  118898104.601 5  92647899.31842
      3329.211        2594.180
  22001067.074    22001066.1004   22001075.0054  115616453.221 7  90090778.80843
      2484.816        1936.222
  21904363.940    21904363.1644   21904371.0744  115108260.431 7  89694773.00544
      3023.253        2355.782
  22647929.932    22647929.4904   22647939.4574  119015885.268 6  92739622.35942
      2762.004        2152.236
  20733318.998    20733318.2084   20733324.8314  108954468.549 8  84899585.97746
      -141.892        -110.568
  24304442.097    24304441.7084   24304463.2874  127720936.431 4  99522710.67641
      3788.438        2951.990
  24806751.000                                   130360100.048 3
     -3081.347
  22815042.512    22815042.0424   22815051.8154  119893848.286 6  93423791.19543
     -1879.658       -1464.667
  21207156.608    21207155.6124   21207165.6364  111444349.644 7  86839774.92545
     -2258.365       -1759.763
  23059316.286    23059316.2134   23059327.4564  121177468.607 6  94424008.06842
     -2523.007       -1965.974
  21886669.305    21886668.759    21886677.301   116996911.177 6  90997647.605 5
       367.587         285.902
  21905233.863    21905232.902    21905242.234   116890675.892 6  90915043.083 5
      3668.073        2852.946
  23202341.309    23202338.712    23202360.736   123681356.602 5  96196567.241 4
     -4086.716       -3178.524
  20363075.087    20363074.812    20363081.734   108814135.123 7  84633249.903 5
     -1866.889       -1452.022
  21280070.064    21280070.065    21280077.018   113674345.095 7  88413411.113 5
      2526.521        1965.073
  22003032.767    22003032.767    22003041.511   117660116.176 5  91513467.791 5
     -2045.405       -1590.863
  19814681.311    19814680.937    19814685.399   106032455.224 8  82469753.185 7
       213.359         165.947
  21560122.373    21560122.192    21560127.961   115089464.921 7  89514069.603 5
      2617.361        2035.727
 11 10 10 12 29 30.0000000  0 18G03G06G16G18G21G22G25G29G30G31R05R06
                                R10R11R12R20R21R22
  22606553.310    22606553.1564   22606563.6184  118798287.695 6  92570119.98842
      3325.384        2591.209
  21986895.606    21986895.4334   21986904.1064  115541986.374 7  90032752.75043
      2479.758        1932.281
  21887132.130    21887131.4714   21887139.2684  115017705.655 7  89624210.88344
      3013.796        2348.412
  22632190.494    22632189.6594   22632198.9574  118933172.351 6  92675170.85642
      2752.267        2144.626
  20734166.516    20734165.8784   20734172.5294  108958923.217 8  84903057.15646
      -154.986        -120.768
  24282810.787    24282811.1494   24282833.3204  127607269.725 4  99434140.20041
      3789.392        2952.725
  24824353.350                                   130452591.586 4
     -3084.720
  22825782.717    22825782.4584   22825792.3334  119950288.449 6  93467770.43843
     -1882.950       -1467.228
  21220087.676    21220086.8814   21220097.0134  111512303.508 7  86892725.91945
     -2271.781       -1770.220
  23073738.764    23073738.7774   23073750.0314  121253257.459 6  94483064.11142
     -2529.398       -1970.958
  21884679.563    21884679.570    21884688.472   116986276.084 6  90989375.916 5
       341.478         265.587
  21884650.937    21884650.810    21884660.114   116780846.585 6  90829620.418 5
      3653.900        2841.923
  23225345.420    23225344.457    23225366.859   123803983.480 5  96291942.248 4
     -4088.354       -3179.788
  20373620.147    20373619.838    20373627.093   108870485.962 7  84677078.271 5
     -1889.714       -1469.780
  21265950.492    21265950.266    21265958.572   113598922.419 7  88354749.035 6
      2501.724        1945.779
  22014514.858    22014514.082    22014522.834   117721512.376 5  91561220.295 5
     -2047.566       -1592.547
  19813508.705    19813508.511    19813512.719   106026180.419 8  82464872.782 6
       205.083         159.509
  21545430.561    21545429.896    21545436.203   115011039.816 7  89453072.397 5
      2611.042        2030.804
 11 10 10 12 30  0.0000000  0 18G03G06G16G18G21G22G25G29G30G31R05R06
                                R10R11R12R20R21R22
  22587579.960    22587579.5074   22587590.0804  118698582.201 5  92492427.47142
      3321.652        2588.318
  21972753.671    21972753.1344   21972761.4284  115467668.292 7  89974842.61243
      2474.790        1928.406
  21869953.512    21869952.5344   21869960.8604  114927432.022 7  89553867.83844
      3004.418        2341.098
  22616505.378    22616504.7334   22616514.5424  118850750.182 6  92610945.89842
      2742.525        2137.015
  20735088.201    20735087.5344   20735094.2584  108963767.009 8  84906831.54946
      -167.927        -130.849
  24261175.701    24261174.2224   24261196.2674  127493572.817 5  99345546.16641
      3790.488        2953.582
  24841977.094                                   130545185.500 3
     -3088.208
  22836540.504    22836540.6944   22836550.5204  120006824.762 6  93511824.60843
     -1886.137       -1469.719
  21233094.786    21233093.9274   21233103.6404  111580655.648 7  86945987.26145
     -2285.013       -1780.522
  23088196.355    23088196.3924   23088207.8694  121329234.637 6  94542266.87742
     -2535.664       -1975.844
  21882836.436    21882836.068    21882844.239   116976421.659 6  90981711.438 5
       315.422         245.325
  21864148.587    21864148.634    21864157.859   116671441.055 7  90744527.333 5
      3639.741        2830.908
  23248358.563    23248358.344    23248380.417   123926654.260 5  96387351.332 4
     -4089.683       -3180.796
  20384292.773    20384292.493    20384299.674   108927516.506 7  84721435.289 5
     -1912.316       -1487.352
  21251969.876    21251969.780    21251977.609   113524239.819 7  88296662.598 6
      2477.000        1926.561
  22026007.156    22026006.963    22026014.201   117782963.773 5  91609015.745 5
     -2049.259       -1593.861
  19812382.018    19812381.629    19812385.794   106020150.044 8  82460182.493 7
       196.953         153.189
  21530773.274    21530773.199    21530779.891   114932801.211 7  89392220.219 5
      2604.827        2025.979
 11 10 10 12 30 30.0000000  0 18G03G06G16G18G21G22G25G29G30G31R05R06
                                R10R11R12R20R21R22
  22568628.368    22568628.0274   22568640.0524  118598991.319 6  92414824.26142
      3317.634        2585.166
  21958640.562    21958639.8204   21958647.8794  115393501.691 7  89917050.51544
      2469.529        1924.312
  21852829.397    21852828.7434   21852836.0164  114837444.274 7  89483747.54744
      2994.588        2333.444
  22600877.096    22600876.8894   22600886.4534  118768623.475 6  92546951.16342
      2732.413        2129.135
  20736084.324    20736083.6534   20736090.3374  108969000.862 8  84910909.88746
      -181.122        -141.133
  24239533.620    24239533.2914   24239553.6604  127379850.408 5  99256932.23141
      3790.930        2953.941
  24859615.836                                   130637882.438 3
     -3091.855
  22847318.089    22847318.4534   22847328.1614  120063459.190 6  93555955.24243
     -1889.650       -1472.455
  21246177.727    21246176.8354   21246186.5274  111649406.652 7  86999559.40545
     -2298.505       -1791.038
  23102690.990    23102691.1574   23102701.6894  121405399.310 6  94601615.75442
     -2542.067       -1980.829
  21881139.488    21881139.384    21881147.112   116967350.497 6  90974656.134 5
       289.105         224.857
  21843726.359    21843726.189    21843735.266   116562465.868 7  90659768.959 5
      3625.102        2819.523
  23271383.042    23271380.471    23271402.813   124049367.152 5  96482793.159 4
     -4091.245       -3182.040
  20395092.447    20395091.918    20395099.310   108985225.889 7  84766320.298 5
     -1935.091       -1505.074
  21238129.020    21238128.797    21238136.336   113450302.587 7  88239155.883 6
      2451.923        1907.049
  22037510.469    22037508.891    22037517.264   117844471.742 5  91656855.210 5
     -2051.355       -1595.496
  19811301.218    19811300.812    19811304.853   106014365.786 8  82455683.626 6
       188.547         146.652
  21516151.139    21516151.205    21516158.308   114854751.088 7  89331514.647 5
      2598.345        2020.939
 11 10 10 12 31  0.0000000  0 18G03G06G16G18G21G22G25G29G30G31R05R06
                                R10R11R12R20R21R22
  22549700.005    22549698.7404   22549709.0554  118499512.889 6  92337308.67142
      3314.139        2582.448
  21944554.854    21944554.6004   21944563.5614  115319484.311 7  89859374.70444
      2464.836        1920.653
  21835759.828    21835759.0884   21835766.7604  114747742.306 7  89413849.96144
      2985.341        2326.238
  22585305.471    22585304.6474   22585315.0064  118686792.538 6  92483186.91342
      2722.809        2121.673
  20737153.507    20737152.9694   20737159.4884  108974621.101 8  84915289.30046
      -193.702        -150.933
  24217889.162    24217886.9694   24217907.6314  127266102.702 5  99168298.60641
      3792.082        2954.833
  24877276.305                                   130730678.263 4
     -3094.859
  22858113.796    22858113.6014   22858123.7294  120120188.942 6  93600160.16343
     -1892.461       -1474.638
  21259335.827    21259335.1484   21259344.7054  111718552.241 7  87053439.01845
     -2311.353       -1801.042
  23117219.467    23117220.1394   23117229.5904  121481745.876 6  94661106.36542
     -2547.783       -1985.287
  21879589.183    21879588.700    21879596.522   116959060.425 6  90968208.317 5
       263.389         204.855
  21823385.573    21823385.072    21823395.063   116453923.629 6  90575347.332 5
      3610.884        2808.463
  23294410.221    23294408.760    23294432.770   124172115.976 5  96578262.861 4
     -4092.105       -3182.713
  20406017.804    20406017.379    20406024.598   109043607.794 7  84811728.384 5
     -1957.159       -1522.237
  21224426.920    21224426.833    21224434.776   113377111.012 7  88182229.137 6
      2427.360        1887.949
  22049021.165    22049021.596    22049029.609   117906033.470 5  91704736.465 5
     -2052.907       -1596.697
  19810265.578    19810265.139    19810269.606   106008824.600 8  82451373.816 6
       180.737         140.573
  21501564.408    21501564.039    21501572.244   114776886.663 7  89270953.505 5
      2592.447        2016.344
 11 10 10 12 31 30.0000000  0 18G03G06G16G18G21G22G25G29G30G31R05R06
                                R10R11R12R20R21R22
  22830585.255    22830583.7194   22830593.1034  119975575.151 6  93487487.12742
      3310.161        2579.355
  22230291.942    22230291.3644   22230300.2604  116821042.694 7  91029420.25744
      2459.648        1916.609
  22118538.396    22118537.9024   22118545.4074  116233755.232 7  90571782.13944
      2975.523        2318.599
  22869583.100    22869582.8874   22869593.3704  120180686.256 6  93647260.04943
      2712.647        2113.753
  21038089.692    21038088.8594   21038095.6094  110556050.279 8  86147571.78546
      -206.721        -161.079
  24496030.179    24496030.9244   24496049.4194  128727760.032 5 100307253.26641
      3792.604        2955.248
  25194745.813                                   132398991.900 4
     -3098.043
  23168719.367    23168719.7574   23168729.5964  121752435.695 6  94872040.65243
     -1895.838       -1477.266
  21572361.386    21572360.3954   21572370.4224  113363512.095 7  88335225.84545
     -2324.596       -1811.370
  23431575.041    23431574.8354   23431585.2384  123133692.862 6  95948337.56242
     -2553.987       -1990.114
  22177977.479    22177976.763    22177984.829   118554118.175 6  92208808.825 5
       237.145         184.444
  22102919.684    22102919.701    22102929.591   117945575.546 6  91735521.174 5
      3596.073        2796.942
  23617238.708    23617236.240    23617260.479   125892958.542 5  97916694.289 4
     -4093.322       -3183.643
  20716861.520    20716860.911    20716868.685   110704660.957 7  86103658.550 5
     -1979.612       -1539.691
  21510658.932    21510659.005    21510666.474   114906111.346 7  89371451.641 6
      2402.159        1868.350
  22360337.525    22360336.032    22360344.767   119570775.588 5  92999535.794 5
     -2054.757       -1598.141
  20109068.499    20109068.111    20109072.490   107607779.486 8  83695005.395 6
       172.480         134.155
  21786806.665    21786805.909    21786814.261   116299526.674 7  90455229.119 5
      2586.095        2011.407
 11 10 10 12 32  0.0000000  0 18G03G06G16G18G21G22G25G29G30G31R05R06
                                R10R11R12R20R21R22
  22811697.570    22811697.2244   22811707.4144  119876327.886 5  93410151.67942
      3306.532        2576.529
  22216264.598    22216263.8074   22216272.7234  116747328.021 7  90971980.32244
      2454.912        1912.914
  22101579.938    22101578.9944   22101586.2054  116144635.033 7  90502337.88444
      2966.059        2311.220
  22854126.296    22854125.3784   22854135.2854  120099457.153 6  93583964.76543
      2702.827        2106.109
  21039306.201    21039305.5204   21039312.0014  110562443.069 8  86152553.19146
      -219.206        -170.810
  24474377.477    24474377.9714   24474397.8534  128613972.969 5 100218588.89941
      3793.490        2955.958
  25212441.767                                   132491983.584 4
     -3101.040
  23179551.768    23179551.8864   23179562.6174  121809358.784 6  94916396.20243
     -1898.738       -1479.528
  21585668.994    21585668.3034   21585678.2014  113433444.556 7  88389718.60045
     -2337.321       -1821.283
  23446171.816    23446171.1204   23446181.2274  123210397.687 6  96008107.33542
     -2559.423       -1994.351
  22176719.083    22176718.349    22176726.134   118547393.930 6  92203578.880 5
       211.383         164.407
  22082745.428    22082744.839    22082753.755   117837914.904 7  91651785.261 5
      3581.590        2785.674
  23640278.998    23640276.456    23640299.373   126015769.636 5  98012212.301 4
     -4093.906       -3184.099
  20728037.150    20728036.961    20728043.898   110764381.047 7  86150107.439 5
     -2001.448       -1556.679
  21497239.361    21497238.865    21497246.816   114834422.121 7  89315693.385 6
      2377.364        1849.060
  22371870.675    22371868.875    22371877.191   119632446.861 5  93047502.249 5
     -2056.276       -1599.324
  20108123.771    20108123.508    20108127.906   107602725.254 8  83691074.322 6
       164.722         128.117
  21772289.585    21772289.352    21772297.977   116222036.440 7  90394959.004 5
      2580.139        2006.769
 11 10 10 12 32 30.0000000  0 18G03G06G16G18G21G22G25G29G30G31R05R06
                                R10R11R12R20R21R22
  22792833.266    22792832.8324   22792843.2804  119777197.195 6  93332907.07342
      3302.343        2573.260
  22202265.530    22202264.8614   22202274.5754  116673765.070 7  90914658.60044
      2449.552        1908.735
  22084676.028    22084675.8234   22084683.5194  116055808.884 7  90433122.74744
      2955.930        2303.316
  22838726.870    22838726.1054   22838735.6754  120018532.558 6  93520906.77142
      2692.345        2097.926
  21040595.774    21040595.1054   21040601.5964  110569220.180 8  86157834.06946
      -232.338        -181.045
  24452721.746    24452719.9884   24452741.0214  128500169.423 5 100129911.72241
      3793.575        2955.963
  25230157.480                                   132585070.576 4
     -3104.594
  23190402.593    23190402.1124   23190413.0374  121866378.042 6  94960826.69043
     -1902.252       -1482.268
  21599051.534    21599050.3164   21599060.4624  113503767.646 7  88444515.74044
     -2350.625       -1831.659
  23460801.625    23460801.4754   23460812.0034  123287276.916 6  96068013.00642
     -2565.523       -1999.099
  22175607.545    22175606.986    22175614.760   118541452.824 6  92198958.037 5
       185.003         143.888
  22062653.101    22062652.813    22062661.942   117730701.307 6  91568397.051 5
      3566.247        2773.743
  23663321.950    23663320.570    23663346.026   126138605.619 5  98107749.620 4
     -4094.935       -3184.895
  20739337.408    20739337.167    20739344.171   110824764.663 7  86197072.406 5
     -2023.825       -1574.084
  21483959.246    21483959.542    21483966.899   114763488.312 7  89260522.676 6
      2351.800        1829.175
  22383412.862    22383412.655    22383420.245   119694172.752 5  93095511.177 5
     -2058.462       -1601.027
  20107224.487    20107224.295    20107228.527   107597913.693 8  83687331.993 7
       156.309         121.571
  21757808.682    21757808.136    21757815.851   116144732.759 7  90334833.991 5
      2573.669        2001.737
 11 10 10 12 33  0.0000000  0 18G03G06G16G18G21G22G25G29G30G31R05R06
                                R10R11R12R20R21R22
  22773991.275    22773989.8024   22774001.8344  119678179.435 6  93255750.46342
      3298.653        2570.380
  22188295.188    22188294.5334   22188304.0574  116600350.043 7  90857452.15844
      2444.709        1904.970
  22067828.999    22067828.1844   22067835.6074  115967274.793 7  90364135.18644
      2946.258        2295.789
  22823384.651    22823383.7264   22823393.3974  119937910.925 6  93458084.85242
      2682.312        2090.111
  21041957.514    21041956.8364   21041963.5664  110576376.377 8  86163410.34146
      -244.824        -190.774
  24431060.932    24431059.8954   24431080.3724  128386348.172 4 100041220.68441
      3794.265        2956.538
  25247886.698                                   132678246.863 3
     -3107.431
  23201269.514    23201269.8084   23201280.7134  121923488.961 6  95005328.62043
     -1905.200       -1484.571
  21612506.602    21612505.5594   21612515.4254  113574475.268 7  88499612.51144
     -2363.326       -1841.547
  23475463.013    23475462.6854   23475474.0494  123364323.388 6  96128049.00042
     -2570.928       -2003.311
  22174641.400    22174641.245    22174650.016   118536290.513 6  92194942.942 5
       159.110         123.750
  22042643.922    22042644.517    22042653.386   117623935.349 7  91485357.036 5
      3551.430        2762.219
  23686369.056    23686368.585    23686393.773   126261458.123 5  98203299.730 4
     -4095.358       -3185.208
  20750760.220    20750759.878    20750766.527   110885803.861 7  86244547.282 5
     -2045.509       -1590.945
  21470821.747    21470821.299    21470829.557   114693307.890 7  89205937.931 6
      2326.744        1809.691
  22394964.809    22394965.028    22394972.767   119755947.943 5  93143558.456 5
     -2059.980       -1602.198
  20106369.892    20106369.795    20106373.825   107593339.890 8  83683774.591 6
       148.525         115.518
  21743362.566    21743361.913    21743367.886   116067611.177 7  90274850.609 5
      2567.697        1997.090
 11 10 10 12 33 30.0000000  0 18G03G06G16G18G21G22G25G29G30G31R05R06
                                R10R11R12R20R21R22
  22755169.744    22755169.2044   22755180.7104  119579275.653 6  93178682.67442
      3294.721        2567.318
  22174353.433    22174352.9124   22174361.4194  116527083.298 7  90800361.24944
      2439.606        1900.989
  22051037.477    22051036.7784   22051044.2594  115879035.141 7  90295377.07044
      2936.253        2287.979
  22808100.599    22808100.1564   22808109.9964  119857595.210 6  93395501.30143
      2671.915        2082.009
  21043391.310    21043390.6234   21043397.3234  110583910.272 8  86169280.92446
      -257.558        -200.694
  24409396.687    24409397.4834   24409416.9854  128272512.142 4  99952518.14541
      3794.657        2956.850
  25265637.920                                   132771510.852 3
     -3110.299
  23212155.646    23212155.4614   23212165.3674  121980691.459 6  95049901.91242
     -1908.430       -1487.080
  21626034.434    21626033.7054   21626043.7024  113645565.682 7  88555007.56245
     -2376.177       -1851.562
  23490154.647    23490155.2464   23490167.0324  123441534.118 6  96188212.95142
     -2576.512       -2007.673
  22173822.198    22173821.589    22173829.575   118531907.294 6  92191533.810 5
       132.958         103.409
  22022722.396    22022721.515    22022730.518   117517621.528 7  91402668.663 5
      3536.096        2750.288
  23709422.522    23709419.756    23709444.938   126384323.214 5  98298859.600 4
     -4095.823       -3185.577
  20762304.710    20762304.209    20762311.758   110947495.146 7  86292529.332 5
     -2067.333       -1607.927
  21457825.538    21457825.489    21457833.300   114623883.521 7  89151941.222 6
      2301.442        1790.014
  22406527.518    22406526.633    22406534.637   119817771.921 5  93191643.678 5
     -2061.772       -1603.593
  20105559.691    20105559.355    20105563.828   107589003.129 8  83680401.552 6
       140.468         109.250
  21728947.241    21728946.697    21728953.570   115990671.556 7  90215008.752 5
      2561.514        1992.287
 11 10 10 12 34  0.0000000  0 18G03G06G16G18G21G22G25G29G30G31R05R06
                                R10R11R12R20R21R22
  22736372.065    22736370.8764   22736381.1674  119480491.133 5  93101707.80142
      3291.002        2564.418
  22160439.842    22160439.3914   22160448.2954  116453969.433 7  90743389.46944
      2434.702        1897.168
  22034303.427    22034302.6794   22034309.6354  115791096.632 7  90226853.60244
      2926.354        2280.269
  22792876.497    22792876.0244   22792886.4364  119777591.427 6  93333160.81143
      2661.694        2074.050
  21044897.358    21044896.5134   21044903.4794  110591824.889 8  86175448.16746
      -270.028        -210.414
  24387734.207    24387733.6744   24387752.3184  128158668.009 5  99863809.28941
      3794.927        2957.034
  25283402.772                                   132864864.600 3
     -3112.347
  23223059.889    23223059.6284   23223069.0974  122037989.684 6  95094549.79642
     -1911.367       -1489.378
  21639636.168    21639635.2554   21639645.0344  113717041.234 7  88610702.71845
     -2388.783       -1861.387
  23504878.746    23504879.5964   23504891.4524  123518910.272 5  96248505.83842
     -2581.808       -2011.793
  22173148.880    22173148.718    22173156.245   118528307.380 7  92188733.892 5
       107.070          83.275
  22002884.545    22002884.477    22002893.563   117411768.749 7  91320338.886 5
      3520.823        2738.410
  23732476.251    23732473.239    23732497.747   126507201.234 5  98394429.423 4
     -4095.916       -3185.640
  20773971.741    20773971.298    20773978.499   111009839.070 7  86341018.978 5
     -2088.823       -1624.638
  21444971.789    21444971.623    21444979.567   114555222.094 7  89098537.922 6
      2276.097        1770.296
  22418096.399    22418097.669    22418106.076   119879648.905 5  93239770.108 5
     -2063.319       -1604.805
  20104794.044    20104793.915    20104798.385   107584907.404 8  83677215.976 6
       132.641         103.164
  21714568.786    21714568.846    21714574.745   115913917.998 7  90155311.601 5
      2555.473        1987.587
 11 10 10 12 34 30.0000000  0 17G03G06G16G18G21G22G29G30G31R05R06R10
                                R11R12R20R21R22
  22717594.622    22717593.8694   22717604.9824  119381815.711 6  93024817.95542
      3287.288        2561.510
  22146553.784    22146553.3404   22146562.4864  116380998.390 7  90686528.97244
      2429.938        1893.459
  22017624.676    22017624.0084   22017631.4644  115703450.893 7  90158558.27344
      2916.572        2272.650
  22777709.736    22777710.0264   22777720.0994  119697891.714 6  93271057.27043
      2651.543        2066.127
  21046473.457    21046473.0404   21046479.9474  110600108.534 8  86181902.96546
      -282.301        -219.975
  24366065.765    24366064.7674   24366083.7644  128044807.723 5  99775087.78641
      3795.438        2957.479
  23233979.225    23233979.1074   23233988.1324  122095372.693 6  95139263.74542
     -1914.236       -1491.611
  21653308.233    21653307.3564   21653317.5004  113788889.580 7  88666688.36144
     -2401.205       -1871.068
  23519632.136    23519632.6204   23519644.3184  123596438.432 6  96308917.14742
     -2586.793       -2015.661
  22172619.814    22172619.027    22172627.139   118525479.960 6  92186534.804 5
        81.373          63.293
  21983133.191    21983132.716    21983141.847   117306370.293 7  91238362.489 5
      3505.649        2726.612
  23755527.080    23755526.581    23755551.256   126630077.301 5  98489997.647 4
     -4095.813       -3185.556
  20785758.199    20785757.450    20785764.591   111072821.321 7  86390005.112 5
     -2110.006       -1641.114
  21432259.783    21432259.409    21432267.513   114487315.475 7  89045721.694 6
      2250.915        1750.708
  22429677.187    22429677.195    22429684.812   119941568.178 5  93287929.435 5
     -2064.692       -1605.867
  20104071.848    20104071.706    20104075.909   107581041.237 8  83674208.949 7
       125.045          97.255
  21700223.679    21700223.232    21700229.156   115837339.563 7  90095750.654 5
      2549.673        1983.072
 11 10 10 12 35  0.0000000  0 17G03G06G16G18G21G22G29G30G31R05R06R10
                                R11R12R20R21R22
  22698837.498    22698837.4994   22698848.0094  119283251.624 6  92948014.83742
      3283.646        2558.675
  22132694.905    22132694.8384   22132704.0874  116308171.336 7  90629780.67844
      2425.200        1889.766
  22001002.357    22001002.3044   22001009.2684  115616101.172 7  90090493.59244
      2906.720        2264.967
  22762602.145    22762601.6964   22762612.4004  119618499.546 6  93209193.37943
      2641.322        2058.168
  21048120.102    21048119.4974   21048126.2174  110608760.832 8  86188645.02446
      -294.504        -229.486
  24344397.263    24344395.3344   24344414.8284  127930935.325 5  99686356.89641
      3795.888        2957.785
  23244914.805    23244915.0174   23244924.9214  122152841.306 6  95184044.38842
     -1917.011       -1493.771
  21667051.075    21667050.7394   21667060.6434  113861109.781 7  88722963.76944
     -2413.476       -1880.631
  23534415.295    23534414.8154   23534426.7614  123674116.610 6  96369445.35042
     -2591.647       -2019.469
  22172235.475    22172234.714    22172242.800   118523426.007 6  92184937.319 5
        55.594          43.229
  21963467.144    21963467.390    21963476.214   117201431.445 7  91156743.566 5
      3490.324        2714.687
  23778581.040    23778578.255    23778602.518   126752948.381 5  98585561.928 4
     -4095.561       -3185.367
  20797662.908    20797662.589    20797669.793   111136438.967 7  86439485.446 5
     -2131.054       -1657.483
  21419688.924    21419688.974    21419696.869   114420167.314 7  88993495.368 6
      2225.652        1731.063
  22441263.592    22441264.178    22441272.346   120003530.386 5  93336122.178 5
     -2065.996       -1606.883
  20103392.380    20103391.966    20103396.217   107577405.080 8  83671380.820 7
       117.416          91.322
  21685910.619    21685910.007    21685916.627   115760936.982 7  90036326.483 5
      2543.849        1978.550
 11 10 10 12 35 30.0000000  0 17G03G06G16G18G21G22G29G30G31R05R06R10
                                R11R12R20R21R22
  22680103.216    22680103.2764   22680113.9644  119184802.162 6  92871301.05942
      3279.593        2555.509
  22118864.546    22118864.2404   22118873.7854  116235491.867 7  90573147.38144
      2420.064        1885.768
  21984437.867    21984437.1234   21984444.8044  115529052.985 7  90022663.87344
      2896.421        2256.950
  22747554.092    22747553.1594   22747562.9934  119539420.358 6  93147573.37543
      2630.622        2049.831
  21049837.142    21049836.5094   21049843.2164  110617783.549 8  86195675.72046
      -307.051        -239.271
  24322724.761    24322722.0074   24322744.2414  127817055.939 5  99597620.52541
      3795.905        2957.842
  23255867.642    23255867.2944   23255878.2194  122210398.219 6  95228893.83142
     -1920.161       -1496.215
  21680865.488    21680864.5784   21680874.7534  113933702.937 7  88779529.78544
     -2426.081       -1890.448
  23549225.595    23549225.6994   23549237.6244  123751944.504 6  96430090.20042
     -2596.929       -2023.573
  22171995.574    22171995.549    22172004.893   118522148.305 6  92183943.596 5
        29.513          22.952
  21943890.374    21943889.936    21943898.504   117096960.131 7  91075488.287 5
      3474.423        2702.322
  23801631.621    23801628.946    23801655.873   126875813.525 5  98681121.562 4
     -4095.442       -3185.286
  20809687.397    20809686.653    20809693.915   111200691.557 7  86489459.621 5
     -2152.450       -1674.125
  21407261.555    21407261.429    21407269.783   114353782.632 7  88941862.881 6
      2199.958        1711.076
  22452860.141    22452859.830    22452867.882   120065537.232 5  93384349.615 5
     -2067.769       -1608.265
  20102755.909    20102755.784    20102760.106   107574001.462 8  83668733.558 6
       109.438          85.120
  21671631.328    21671631.097    21671637.353   115684713.167 7  89977041.360 5
      2537.714        1973.776
 11 10 10 12 36  0.0000000  0 17G03G06G16G18G21G22G29G30G31R05R06R10
                                R11R12R20R21R22
  22661392.421    22661391.8584   22661402.1024  119086471.072 6  92794679.52342
      3275.624        2552.435
  22105062.688    22105062.8274   22105071.5494  116162962.607 7  90516631.12844
      2415.063        1881.867
  21967931.280    21967930.9704   21967938.0264  115442310.715 7  89955072.53544
      2886.203        2248.988
  22732566.423    22732565.8764   22732574.7654  119460658.868 6  93086200.92843
      2620.004        2041.565
  21051624.790    21051624.1214   21051630.7654  110627177.911 8  86202996.01546
      -319.392        -248.875
  24301053.205    24301052.5874   24301070.5854  127703174.982 5  99508882.96541
      3795.911        2957.813
  23266838.146    23266837.6374   23266848.1594  122268046.083 6  95273814.14243
     -1923.201       -1498.610
  21694750.464    21694749.6924   21694759.8374  114006669.603 7  88836386.84544
     -2438.486       -1900.118
  23564063.883    23564063.6904   23564075.9784  123829921.686 6  96490851.38742
     -2601.800       -2027.367
  22171902.341    22171902.736    22171910.724   118521649.299 6  92183555.523 5
         3.562           2.767
  21924401.249    21924400.467    21924408.290   116992962.727 7  90994601.603 5
      3458.618        2690.029
  23824677.305    23824678.011    23824705.962   126998671.119 5  98776675.200 4
     -4095.099       -3184.996
  20821828.971    20821829.051    20821837.022   111265577.644 7  86539926.524 5
     -2173.458       -1690.460
  21394978.411    21394978.498    21394985.272   114288166.551 7  88890828.187 6
      2174.322        1691.141
  22464465.742    22464463.945    22464472.697   120127591.888 5  93432614.249 5
     -2069.368       -1609.503
  20102163.753    20102163.646    20102167.973   107570832.266 8  83666268.621 6
       101.683          79.087
  21657386.259    21657385.784    21657391.812   115608670.378 7  89917897.045 5
      2531.664        1969.068
 11 10 10 12 36 30.0000000  0 17G03G06G16G18G21G22G29G30G31R05R06R10
                                R11R12R20R21R22
  22642702.023    22642701.5824   22642712.7394  118988255.056 6  92718147.65442
      3271.896        2549.526
  22091289.153    22091288.7504   22091297.7554  116090580.245 7  90460229.34244
      2410.222        1878.093
  21951482.528    21951482.1364   21951489.7444  115355873.331 7  89887718.75844
      2876.067        2241.092
  22717638.770    22717637.8404   22717647.2114  119382213.967 6  93025075.17443
      2609.445        2033.336
  21053482.389    21053481.6644   21053488.1284  110636938.890 8  86210601.98546
      -331.527        -258.329
  24279382.155    24279380.5674   24279400.2444  127589291.167 5  99420143.14641
      3796.086        2957.957
  23277823.733    23277824.6204   23277835.4514  122325780.521 6  95318801.90742
     -1925.988       -1500.755
  21708705.920    21708705.2814   21708715.2284  114080004.184 7  88893530.60044
     -2450.691       -1909.629
  23578929.849    23578930.0394   23578941.3754  123908041.698 6  96551723.85842
     -2606.406       -2030.947
  22171954.383    22171954.428    22171961.394   118521924.985 6  92183769.965 5
       -22.199         -17.265
  21904999.281    21904999.748    21905007.967   116889440.090 7  90914084.190 5
      3442.734        2677.682
  23847726.004    23847724.672    23847753.113   127121513.598 5  98872217.051 4
     -4094.583       -3184.607
  20834089.389    20834088.949    20834096.627   111331089.508 7  86590880.125 5
     -2194.175       -1706.573
  21382838.948    21382838.663    21382846.674   114223317.788 7  88840390.283 6
      2148.694        1671.207
  22476078.172    22476076.725    22476086.179   120189689.847 5  93480912.579 5
     -2070.717       -1610.554
  20101614.377    20101614.219    20101618.815   107567893.392 8  83663982.824 6
        94.051          73.155
  21643174.183    21643173.353    21643180.103   115532804.628 7  89858890.418 5
      2525.829        1964.536
 11 10 10 12 37  0.0000000  0 17G03G06G16G18G21G22G29G30G31R05R06R10
                                R11R12R20R21R22
  22624033.500    22624032.9774   22624043.5124  118890152.514 6  92641704.20942
      3268.187        2546.618
  22077542.889    22077542.5764   22077551.1444  116018343.055 7  90403940.67544
      2405.436        1874.372
  21935091.746    21935091.4164   21935099.0114  115269741.139 7  89820602.79444
      2865.940        2233.194
  22702770.450    22702769.8754   22702779.9014  119304085.870 6  92964196.26943
      2598.930        2025.143
  21055408.707    21055408.1234   21055414.7964  110647062.931 8  86218490.86046
      -343.544        -267.699
  24257710.220    24257707.9984   24257726.0524  127475405.189 5  99331401.68841
      3796.105        2957.965
  23288826.774    23288826.5874   23288837.0714  122383599.342 6  95363855.45242
     -1928.714       -1502.887
  21722729.961    21722729.2664   21722739.4504  114153702.557 7  88950957.82444
     -2462.684       -1918.980
  23593822.242    23593820.8374   23593834.0614  123986299.170 6  96612703.44342
     -2610.840       -2034.403
  22172150.220    22172149.689    22172157.677   118522972.785 6  92184584.947 5
       -47.813         -37.188
  21885689.076    21885688.665    21885696.613   116786394.429 7  90833937.766 5
      3426.827        2665.302
  23870768.132    23870767.500    23870796.121   127244334.576 5  98967742.003 4
     -4093.670       -3183.886
  20846465.293    20846464.929    20846472.739   111397221.359 7  86642315.937 5
     -2214.728       -1722.556
  21370842.396    21370842.271    21370849.208   114159236.295 7  88790549.151 6
      2123.239        1651.411
  22487697.886    22487697.156    22487705.864   120251828.575 5  93529242.589 5
     -2071.978       -1611.533
  20101107.804    20101107.461    20101112.052   107565181.636 8  83661873.669 7
        86.579          67.342
  21628994.450    21628994.146    21629000.601   115457113.601 7  89800019.690 5
      2520.068        1960.050
 11 10 10 12 37 30.0000000  0 17G03G06G16G18G21G22G29G30G31R05R06R10
                                R11R12R20R21R22
  22605388.734    22605388.1834   22605398.4804  118792171.881 6  92565355.76842
      3263.771        2543.189
  22063825.552    22063824.9764   22063833.9054  115946258.424 7  90347770.88944
      2400.053        1870.169
  21918761.347    21918760.9654   21918768.4044  115183922.774 7  89753731.38244
      2855.173        2224.804
  22687965.394    22687964.9154   22687974.7364  119226284.346 6  92903571.85443
      2587.701        2016.381
  21057405.461    21057404.8004   21057411.5014  110657555.989 8  86226667.28146
      -356.092        -277.481
  24236038.954    24236037.9644   24236054.4194  127361526.497 5  99242665.87941
      3795.685        2957.674
  23299846.002    23299845.7894   23299857.1284  122441509.562 6  95408980.23142
     -1932.114       -1505.559
  21736824.336    21736823.7894   21736834.2264  114227769.767 7  89008672.45544
     -2475.234       -1928.753
  23608741.151    23608741.5324   23608752.9734  124064697.785 6  96673792.98442
     -2615.776       -2038.262
  22172491.188    22172491.345    22172500.165   118524799.520 6  92186005.758 5
       -74.096         -57.629
  21866469.888    21866469.796    21866478.128   116683837.038 7  90754171.091 5
      3410.189        2652.363
  23893806.986    23893806.924    23893835.447   127367137.471 5  99063252.855 4
     -4093.307       -3183.618
  20858957.929    20858956.981    20858964.765   111463976.254 7  86694236.354 5
     -2235.721       -1738.895
  21358992.393    21358991.976    21358999.544   114095931.651 7  88741312.229 6
      2097.003        1631.001
  22499327.735    22499326.421    22499334.856   120314014.735 5  93577609.509 5
     -2073.855       -1612.999
  20100644.866    20100644.754    20100648.813   107562704.019 8  83659946.632 6
        78.482          61.041
  21614848.158    21614847.503    21614854.834   115381604.038 7  89741290.101 5
      2513.756        1955.134
 11 10 10 12 38  0.0000000  0 17G03G06G16G18G21G22G29G30G31R05R06R10
                                R11R12R20R21R22
  22586767.728    22586767.0034   22586776.1404  118694317.537 6  92489105.74442
      3259.764        2540.089
  22050138.109    22050137.5754   22050146.5224  115874330.657 7  90291723.32944
      2395.025        1866.250
  21902491.522    21902491.0504   21902498.6194  115098424.611 7  89687109.46444
      2844.655        2216.607
  22673223.809    22673223.2584   22673233.0014  119148815.449 6  92843206.62143
      2576.784        2007.887
  21059472.914    21059472.3634   21059479.0954  110668420.721 8  86235133.31446
      -368.281        -286.969
  24214369.096    24214367.8644   24214384.5574  127247661.622 5  99153940.81841
      3795.278        2957.306
  23310884.302    23310883.8394   23310896.1424  122499514.810 5  95454179.03842
     -1935.046       -1507.819
  21750989.750    21750988.8454   21750999.1254  114302207.883 7  89066676.09644
     -2487.374       -1938.204
  23623687.988    23623687.5784   23623698.1714  124143238.572 6  96734993.32242
     -2620.329       -2041.808
  22172980.591    22172980.598    22172987.791   118527409.207 6  92188035.551 5
       -99.963         -77.748
  21847342.844    21847343.351    21847351.735   116581776.375 7  90674790.758 5
      3393.799        2639.618
  23916845.573    23916842.523    23916871.714   127489921.998 5  99158749.281 4
     -4092.372       -3182.860
  20871566.399    20871566.266    20871573.621   111531354.552 7  86746641.629 5
     -2256.208       -1754.824
  21347287.605    21347287.202    21347295.199   114033409.760 7  88692684.118 6
      2071.024        1610.800
  22510966.770    22510965.840    22510974.405   120376252.161 5  93626016.273 5
     -2075.398       -1614.193
  20100226.478    20100226.314    20100230.144   107560463.860 8  83658204.283 6
        70.806          55.073
  21600737.953    21600737.179    21600743.536   115306279.786 7  89682704.650 5
      2507.811        1950.524
 11 10 10 12 38 30.0000000  0 17G03G06G16G18G21G22G29G30G31R05R06R10
                                R11R12R20R21R22
  22568169.534    22568168.7274   22568179.0564  118596582.225 6  92412948.44242
      3255.646        2536.874
  22036478.650    22036478.1974   22036487.5014  115802552.049 7  90235791.98644
      2389.958        1862.302
  21886281.999    21886281.3194   21886288.3044  115013240.916 7  89620732.60044
      2833.992        2208.301
  22658544.142    22658543.2074   22658553.2524  119071673.209 6  92783095.92843
      2565.705        1999.252
  21061609.468    21061608.7454   21061615.4764  110679647.362 8  86243881.35746
      -380.415        -296.426
  24192703.399    24192701.1264   24192721.0484  127133805.124 5  99065222.28441
      3794.831        2956.991
  23321938.923    23321939.5574   23321949.6704  122557606.539 6  95499445.22242
     -1938.067       -1510.176
  21765224.031    21765222.9834   21765233.1344  114377006.680 7  89124960.79544
     -2499.468       -1947.627
  23638658.560    23638658.8884   23638670.4164  124221910.506 6  96796295.84842
     -2624.736       -2045.249
  22173613.331    22173612.971    22173620.477   118530792.775 6  92190667.242 5
      -125.888         -97.913
  21828309.580    21828309.165    21828318.271   116480208.239 7  90595793.500 5
      3377.128        2626.645
  23939872.218    23939872.186    23939902.880   127612676.180 5  99254222.028 4
     -4091.432       -3182.129
  20884290.223    20884289.349    20884297.079   111599343.884 7  86799522.151 5
     -2276.640       -1770.712
  21335728.140    21335728.171    21335736.314   113971664.784 7  88644660.281 6
      2045.031        1590.576
  22522613.141    22522612.831    22522620.239   120438532.355 5  93674456.305 5
     -2076.887       -1615.354
  20099850.378    20099850.297    20099854.629   107558452.351 8  83656639.776 7
        63.069          49.054
  21586659.238    21586659.561    21586666.189   115231132.558 7  89624256.901 5
      2501.799        1945.843
 11 10 10 12 39  0.0000000  0 17G03G06G16G18G21G22G29G30G31R05R06R10
                                R11R12R20R21R22
  22549594.626    22549594.3774   22549603.8954  118498971.128 6  92336887.93542
      3251.605        2533.719
  22022849.313    22022849.0234   22022858.0244  115730927.169 7  90179980.42944
      2384.888        1858.351
  21870133.091    21870132.5794   21870140.2874  114928378.559 7  89554606.12644
      2823.310        2199.986
  22643927.888    22643927.2004   22643937.4004  118994864.948 6  92723245.48443
      2554.646        1990.631
  21063815.122    21063814.5404   21063821.1204  110691239.103 8  86252913.89546
      -392.510        -305.846
  24171040.147    24171036.9054   24171055.7304  127019964.066 5  98976515.70641
      3794.397        2956.670
  23333011.214    23333011.8224   23333021.5434  122615788.858 6  95544781.97742
     -1941.001       -1512.462
  21779526.626    21779526.0204   21779535.7794  114452168.663 7  89183528.48644
     -2511.469       -1956.979
  23653654.894    23653653.9304   23653666.3244  124300714.973 5  96857701.61342
     -2629.025       -2048.573
  22174392.163    22174391.354    22174398.740   118534954.100 6  92193903.838 5
      -151.680        -117.969
  21809369.198    21809369.274    21809378.105   116379141.369 7  90517186.108 5
      3360.456        2613.688
  23962899.075    23962897.036    23962929.433   127735400.331 5  99349671.372 4
     -4090.317       -3181.250
  20897127.386    20897127.115    20897135.202   111667944.851 7  86852878.375 5
     -2296.922       -1786.487
  21324316.061    21324315.981    21324323.940   113910703.334 7  88597245.842 6
      2018.909        1570.270
  22534268.725    22534267.781    22534275.543   120500859.179 5  93722932.640 5
     -2078.344       -1616.475
  20099518.159    20099517.821    20099522.465   107556673.445 8  83655256.172 6
        55.409          43.103
  21572616.930    21572616.290    21572622.804   115156166.385 7  89565949.958 5
      2495.804        1941.183
 11 10 10 12 39 30.0000000  0 17G03G06G16G18G21G22G29G30G31R05R06R10
                                R11R12R20R21R22
  22531043.504    22531042.8454   22531053.6834  118401485.261 6  92260925.00842
      3247.453        2530.485
  22009248.726    22009248.1774   22009257.3484  115659456.822 7  90124289.29444
      2379.756        1854.351
  21854045.567    21854045.4584   21854052.1914  114843839.876 7  89488731.86544
      2812.554        2191.603
  22629375.404    22629374.7884   22629384.5154  118918392.734 6  92663656.89743
      2543.427        1981.891
  21066090.299    21066089.6864   21066096.2194  110703194.826 8  86262230.05846
      -404.549        -315.236
  24149377.865    24149377.9974   24149393.7114  126906141.363 5  98887823.40841
      3793.788        2956.174
  23344100.914    23344100.8464   23344111.0414  122674061.985 6  95590189.53242
     -1943.935       -1514.745
  21793898.320    21793897.4834   21793907.6894  114527692.023 7  89242377.78244
     -2523.448       -1966.329
  23668675.383    23668675.5524   23668687.7074  124379649.295 6  96919208.58842
     -2633.271       -2051.901
  22175315.572    22175314.883    22175323.447   118539893.388 6  92197745.548 5
      -177.607        -138.141
  21790525.100    21790524.080    21790532.102   116278580.497 7  90438972.280 5
      3343.542        2600.525
  23985918.724    23985916.068    23985947.906   127858090.985 5  99445094.622 4
     -4089.001       -3180.253
  20910078.684    20910078.515    20910086.544   111737153.846 7  86906707.512 5
     -2317.053       -1802.150
  21313051.001    21313050.903    21313059.352   113850527.716 7  88550442.599 6
      1992.786        1549.944
  22545934.263    22545932.837    22545940.887   120563232.608 5  93771445.209 5
     -2079.909       -1617.707
  20099228.878    20099228.725    20099233.203   107555126.798 8  83654053.222 7
        47.717          37.114
  21558605.669    21558605.446    21558612.716   115081381.273 7  89507783.842 5
      2489.826        1936.528
 11 10 10 12 40  0.0000000  0 17G03G06G16G18G21G22G29G30G31R05R06R10
                                R11R12R20R21R22
  22512516.103    22512515.8064   22512525.6554  118304125.157 6  92185060.09142
      3243.206        2527.177
  21995677.997    21995677.3084   21995686.2964  115588141.098 7  90068718.64044
      2374.603        1850.342
  21838020.494    21838020.1794   21838027.9024  114759626.881 7  89423111.39144
      2801.624        2183.080
  22614887.359    22614886.5344   22614896.5924  118842258.864 6  92604331.95243
      2532.137        1973.097
  21068434.358    21068433.6614   21068440.2054  110715512.880 8  86271828.56146
      -416.640        -324.652
  24127722.898    24127721.1974   24127738.2224  126792339.198 5  98799147.17441
      3793.083        2955.627
  23355207.671    23355206.8074   23355218.2854  122732425.675 6  95635667.65142
     -1946.965       -1517.101
  21808338.102    21808337.4914   21808347.5574  114603574.602 7  89301506.97844
     -2535.393       -1975.621
  23683720.338    23683719.6274   23683732.5664  124458709.860 6  96980813.90742
     -2637.390       -2055.090
  22176385.731    22176384.918    22176392.343   118545609.807 6  92202191.671 5
      -203.514        -158.287
  21771775.104    21771774.337    21771782.531   116178529.737 7  90361155.202 5
      3326.461        2587.242
  24008926.689    24008927.701    24008960.911   127980743.792 4  99540489.998 4
     -4087.850       -3179.424
  20923143.647    20923143.005    20923150.948   111806966.313 7  86961006.028 5
     -2337.072       -1817.718
  21301933.535    21301933.662    21301942.113   113791139.879 7  88504252.079 6
      1966.405        1529.427
  22557605.715    22557605.291    22557612.069   120625652.322 5  93819993.763 5
     -2081.504       -1618.940
  20098982.902    20098982.952    20098987.272   107553811.618 8  83653030.314 7
        39.977          31.091
  21544630.531    21544629.710    21544635.885   115006776.625 7  89449758.079 5
      2483.808        1931.851
 11 10 10 12 40 30.0000000  0 17G03G06G16G18G21G22G29G30G31R05R06R10
                                R11R12R20R21R22
  22494012.899    22494012.4284   22494023.5234  118206893.069 6  92109294.91442
      3238.857        2523.782
  21982136.327    21982136.1274   21982144.9374  115516981.790 7  90013269.87644
      2369.298        1846.204
  21822058.073    21822057.2144   21822065.4284  114675743.156 7  89357747.49644
      2790.540        2174.443
  22600464.543    22600463.5184   22600473.2704  118766466.746 6  92545273.32143
      2520.629        1964.122
  21070847.440    21070846.6174   21070853.4434  110728193.573 8  86281709.63346
      -428.783        -334.115
  24106069.501    24106069.2774   24106086.6174  126678561.953 5  98710490.27541
      3792.052        2954.814
  23366330.783    23366330.0444   23366341.2154  122790880.816 6  95681217.01542
     -1950.084       -1519.538
  21822846.738    21822845.9344   21822856.0424  114679815.610 7  89360915.48244
     -2547.402       -1984.994
  23698788.924    23698788.9754   23698802.0534  124537895.213 5  97042516.46642
     -2641.645       -2058.420
  22177600.439    22177600.094    22177608.359   118552103.875 6  92207242.617 5
      -229.480        -178.487
  21753121.069    21753121.179    21753129.574   116078994.298 7  90283738.938 6
      3309.155        2573.783
  24031937.663    24031932.109    24031971.367   128103356.188 3  99635855.077 3
     -4086.252       -3178.162
  20936319.773    20936320.104    20936327.846   111877379.787 7  87015771.990 5
     -2357.143       -1833.333
  21290963.864    21290963.723    21290972.467   113732543.047 7  88458676.771 6
      1939.957        1508.856
  22569285.560    22569286.561    22569294.609   120688119.657 5  93868579.366 5
     -2083.097       -1620.177
  20098780.877    20098780.686    20098785.158   107552728.973 8  83652188.256 6
        32.162          25.014
  21530687.746    21530687.718    21530694.752   114932354.070 7  89391873.942 5
      2477.672        1927.072
 11 10 10 12 41  0.0000000  0 16G03G06G16G18G21G22G29G30G31R05R06R11
                                R12R20R21R22
  22475536.278    22475536.1354   22475545.8514  118109794.448 6  92033633.73542
      3234.575        2520.435
  21968626.185    21968625.7034   21968634.8574  115445983.894 7  89957946.87844
      2364.033        1842.099
  21806159.505    21806158.7384   21806165.9914  114592195.744 7  89292645.65344
      2779.434        2165.791
  22586107.456    22586107.2604   22586116.8564  118691023.784 6  92486486.75143
      2509.062        1955.105
  21073329.927    21073329.2404   21073336.2794  110741240.416 8  86291876.01546
      -440.834        -343.505
  24084424.358    24084423.7104   24084440.4014  126564816.737 5  98621858.33041
      3791.073        2954.052
  23377473.015    23377472.6944   23377483.5554  122849431.942 6  95726841.19042
     -1953.133       -1521.915
  21837423.470    21837423.0444   21837432.5254  114756417.797 7  89420605.41544
     -2559.271       -1994.235
  23713881.719    23713881.6964   23713894.3864  124617206.998 6  97104317.54042
     -2645.681       -2061.546
  22178960.590    22178960.175    22178968.480   118559379.814 6  92212901.697 5
      -255.389        -198.634
  21734566.612    21734566.337    21734574.651   115979983.071 7  90206730.404 5
      3291.688        2560.198
  20949610.350    20949609.722    20949617.707   111948395.063 7  87071006.003 5
     -2377.009       -1848.779
  21280143.702    21280143.907    21280152.219   113674744.103 7  88413722.056 6
      1913.472        1488.257
  22580979.268    22580978.798    22580986.809   120750638.651 5  93917205.136 5
     -2084.665       -1621.399
  20098622.463    20098622.327    20098626.873   107551882.874 8  83651530.178 7
        24.417          18.994
  21516781.301    21516781.035    21516787.233   114858117.566 7  89334134.514 5
      2471.586        1922.344
 11 10 10 12 41 30.0000000  0 16G03G06G16G18G21G22G29G30G31R05R06R11
                                R12R20R21R22
  22457084.335    22457082.9384   22457093.1074  118012826.364 6  91958074.28542
      3230.279        2517.089
  21955145.201    21955144.9824   21955154.4654  115375143.931 7  89902746.94144
      2358.825        1838.048
  21790324.611    21790324.0964   21790331.4274  114508983.044 7  89227804.63544
      2768.281        2157.106
  22571817.918    22571817.4964   22571826.5124  118615928.523 6  92427971.12743
      2497.510        1946.117
  21075880.827    21075880.4034   21075887.4894  110754647.432 8  86302323.05346
      -452.750        -352.793
  24062786.242    24062784.5354   24062802.1464  126451102.137 5  98533250.19241
      3790.101        2953.294
  23388632.563    23388631.8634   23388642.6244  122908075.009 6  95772537.01142
     -1956.159       -1524.276
  21852068.208    21852067.2534   21852077.5644  114833375.335 7  89480572.24444
     -2571.018       -2003.386
  23728996.660    23728997.3194   23729008.8504  124696638.151 6  97166211.63842
     -2649.496       -2064.543
  22180467.366    22180466.949    22180474.619   118567433.201 6  92219165.446 5
      -281.266        -218.760
  21716110.781    21716110.536    21716118.406   115881496.815 7  90130130.153 5
      3274.218        2546.610
  20963011.229    20963010.585    20963017.890   112020004.085 7  87126701.825 5
     -2396.677       -1864.069
  21269472.642    21269473.035    21269481.044   113617741.147 7  88369386.442 6
      1886.939        1467.620
  22592679.085    22592678.689    22592685.853   120813206.112 5  93965868.613 5
     -2086.260       -1622.637
  20098508.313    20098507.757    20098511.978   107551268.829 8  83651052.586 6
        16.739          13.022
  21502908.455    21502908.420    21502913.805   114784063.358 7  89276536.891 5
      2465.587        1917.675
 11 10 10 12 42  0.0000000  0 16G03G06G16G18G21G22G29G30G31R05R06R11
                                R12R20R21R22
  22438656.135    22438655.7894   22438665.0764  117915989.486 6  91882617.05642
      3225.503        2513.384
  21941695.481    21941694.6854   21941704.0534  115304462.141 7  89847670.25844
      2353.233        1833.684
  21774553.765    21774553.3354   21774560.8994  114426107.186 7  89163226.08844
      2756.676        2148.056
  22557594.311    22557593.1294   22557602.9154  118541182.924 6  92369727.97643
      2485.520        1936.750
  21078500.737    21078500.0754   21078506.8944  110768413.307 8  86313049.71946
      -465.013        -362.349
  24041153.448    24041151.3544   24041167.4994  126337421.056 5  98444668.12841
      3788.612        2952.184
  23399809.063    23399808.9284   23399819.3514  122966809.895 6  95818304.35942
     -1959.563       -1526.906
  21866780.064    21866778.9124   21866789.2724  114910685.849 7  89540814.11644
     -2583.066       -2012.780
  23744135.767    23744134.6764   23744148.0084  124776185.836 6  97228196.51942
     -2653.648       -2067.768
  22182118.884    22182119.216    22182127.785   118576262.920 6  92226033.023 5
      -307.408        -239.094
  21697753.624    21697753.067    21697761.177   115783539.516 7  90053941.324 6
      3256.208        2532.603
  20976522.379    20976521.968    20976529.412   112092202.702 7  87182856.231 5
     -2416.586       -1879.558
  21258950.735    21258951.045    21258959.469   113561535.654 7  88325671.057 6
      1860.044        1446.701
  22604386.470    22604386.671    22604395.705   120875819.699 5  94014567.956 5
     -2088.113       -1624.083
  20098436.170    20098436.199    20098440.649   107550886.582 8  83650755.282 6
         8.708           6.773
  21489069.652    21489069.099    21489075.842   114710191.064 7  89219080.742 6
      2459.208        1912.718
 11 10 10 12 42 30.0000000  0 16G03G06G16G18G21G22G29G30G31R05R06R11
                                R12R20R21R22
  22420254.548    22420253.3424   22420262.7414  117819285.274 6  91807263.21042
      3221.107        2509.949
  21928275.178    21928274.8284   21928283.6854  115233939.531 7  89792717.61944
      2347.938        1829.560
  21758847.537    21758847.1044   21758854.1384  114343570.887 7  89098912.11944
      2745.422        2139.297
  22543437.892    22543436.8674   22543446.0104  118466789.651 6  92311759.34643
      2473.720        1927.578
  21081188.768    21081187.9424   21081194.4644  110782537.494 8  86324055.58746
      -476.914        -371.620
  24019526.406    24019524.3604   24019540.9764  126223776.407 5  98356114.41041
      3787.296        2951.126
  23411002.248    23411003.1804   23411013.6274  123025636.401 6  95864143.09142
     -1962.533       -1529.253
  21881558.525    21881557.9404   21881567.7674  114988347.905 7  89601329.90444
     -2594.698       -2021.846
  23759293.891    23759294.1694   23759307.2034  124855847.288 5  97290270.02642
     -2657.412       -2070.701
  22183916.077    22183916.281    22183924.229   118585868.791 6  92233504.254 5
      -333.239        -259.188
  21679495.887    21679495.666    21679504.130   115686115.327 7  89978167.145 5
      3238.413        2518.761
  20990143.225    20990142.385    20990150.137   112164987.343 7  87239466.439 5
     -2435.985       -1894.654
  21248579.307    21248579.145    21248587.745   113506130.353 7  88282578.050 6
      1833.338        1425.929
  22616104.184    22616105.223    22616115.142   120938481.134 5  94063304.506 5
     -2089.593       -1625.241
  20098408.395    20098408.077    20098412.198   107550735.813 8  83650638.011 6
         1.032           0.803
  21475264.181    21475263.551    21475271.289   114636500.721 7  89161766.103 6
      2453.147        1907.998
 11 10 10 12 43  0.0000000  0 16G03G06G16G18G21G22G29G30G31R05R06R11
                                R12R20R21R22
  22401877.666    22401877.6194   22401886.5914  117722718.535 6  91732016.50943
      3216.484        2506.352
  21914886.538    21914886.1434   21914894.4154  115163580.244 7  89737892.24344
      2342.508        1825.328
  21743207.265    21743206.6334   21743214.1804  114261380.077 7  89034867.37444
      2733.817        2130.240
  22529349.778    22529349.0224   22529357.5284  118392754.982 6  92254070.15543
      2461.723        1918.224
  21083944.801    21083944.2754   21083950.9004  110797022.303 8  86335342.45846
      -488.905        -380.969
  23997907.753    23997907.4294   23997923.7284  126110174.963 5  98267594.38341
      3785.890        2950.013
  23422216.253    23422215.9544   23422227.1154  123084558.300 6  95910056.14642
     -1965.741       -1531.744
  21896404.606    21896403.7604   21896413.6934  115066363.237 7  89662120.98844
     -2606.454       -2031.004
  23774474.549    23774474.2574   23774488.0664  124935623.373 5  97352432.87441
     -2661.187       -2073.623
  22185859.381    22185858.358    22185867.568   118596254.286 6  92241581.862 5
      -359.234        -279.399
  21661339.080    21661339.615    21661347.973   115589232.508 7  89902814.037 5
      3220.244        2504.626
  21003873.437    21003872.839    21003880.803   112238357.802 7  87296532.271 5
     -2455.458       -1909.799
  21238357.445    21238357.508    21238365.847   113451530.769 7  88240111.739 6
      1806.427        1404.999
  22627833.930    22627832.966    22627842.171   121001193.964 5  94112081.048 5
     -2091.363       -1626.614
  20098424.071    20098423.951    20098428.428   107550820.152 8  83650703.611 7
        -6.810          -5.295
  21461494.602    21461494.032    21461501.160   114562996.312 7  89104596.076 6
      2446.969        1903.190
 11 10 10 12 43 30.0000000  0 16G03G06G16G18G21G22G29G30G31R05R06R11
                                R12R20R21R22
  22383528.053    22383527.9984   22383538.1464  117626291.414 6  91656878.60043
      3212.041        2502.887
  21901528.972    21901528.5014   21901536.6684  115093386.617 7  89683195.95744
      2337.136        1821.135
  21727633.465    21727633.0124   21727639.8134  114179539.351 7  88971095.42245
      2722.298        2121.269
  22515329.960    22515329.4874   22515338.4304  118319082.987 6  92196663.56743
      2449.794        1908.929
  21086770.182    21086769.4284   21086775.9104  110811868.185 8  86346910.68846
      -500.732        -390.185
  23976299.081    23976298.6974   23976314.2104  125996621.090 5  98179111.39541
      3784.468        2948.905
  23433447.914    23433446.9974   23433456.8474  123143577.637 6  95956045.14842
     -1968.789       -1534.115
  21911317.612    21911316.9284   21911327.0144  115144731.689 7  89723187.20944
     -2618.008       -2039.998
  23789678.257    23789678.2244   23789690.2354  125015513.000 5  97414684.16842
     -2664.739       -2076.391
  22187948.115    22187947.606    22187956.070   118607420.166 6  92250266.430 5
      -385.062        -299.495
  21643285.769    21643286.236    21643294.478   115492897.239 7  89827886.805 5
      3202.160        2490.562
  21017712.786    21017712.177    21017720.471   112312311.966 7  87354052.091 5
     -2474.674       -1924.745
  21228288.143    21228287.877    21228295.971   113397740.525 7  88198274.882 6
      1779.607        1384.138
  22639569.500    22639571.171    22639580.043   121063959.396 5  94160898.516 5
     -2092.992       -1627.877
  20098483.580    20098483.492    20098488.265   107551140.733 8  83650952.948 7
       -14.475         -11.258
  21447759.577    21447759.171    21447766.390   114489679.250 7  89047571.748 6
      2440.890        1898.469
 11 10 10 12 44  0.0000000  0 16G03G06G16G18G21G22G29G30G31R05R06R11
                                R12R20R21R22
  22365204.868    22365204.8094   22365213.7804  117530002.293 6  91581848.21743
      3207.330        2499.212
  21888202.557    21888202.0524   21888210.8974  115023355.783 7  89628626.51844
      2331.656        1816.872
  21712125.899    21712125.4534   21712132.9654  114098047.420 7  88907595.25944
      2710.580        2112.144
  22501379.022    22501378.8864   22501388.1494  118245772.813 6  92139538.91643
      2437.614        1899.434
  21089662.926    21089662.3114   21089668.7794  110827070.873 8  86358756.94046
      -512.654        -399.468
  23954699.249    23954697.6134   23954712.9664  125883114.202 5  98090665.01141
      3782.734        2947.587
  23444696.143    23444696.3074   23444705.9014  123202690.866 6  96002107.31142
     -1971.955       -1536.584
  21926296.930    21926296.0494   21926306.3484  115223448.140 7  89784524.60744
     -2629.656       -2049.071
  23804901.911    23804901.4954   23804913.7654  125095509.710 5  97477018.91242
     -2668.253       -2079.150
  22190181.536    22190181.686    22190190.012   118619362.602 6  92259555.006 5
      -410.947        -319.629
  21625335.151    21625335.940    21625343.558   115397110.613 7  89753386.298 5
      3183.735        2476.240
  21031660.891    21031659.494    21031667.835   112386842.017 7  87412019.834 5
     -2493.870       -1939.675
  21218370.171    21218369.985    21218377.797   113344758.491 7  88157066.648 6
      1752.583        1363.120
  22651319.660    22651317.899    22651326.340   121126773.860 5  94209754.106 5
     -2094.653       -1629.170
  20098587.460    20098587.214    20098591.578   107551694.327 8  83651383.513 6
       -22.293         -17.340
  21434060.123    21434060.048    21434066.375   114416546.292 7  88990690.605 6
      2434.669        1893.629
 11 10 10 12 44 30.0000000  0 16G03G06G16G18G21G22G29G30G31R05R06R11
                                R12R20R21R22
  22346907.898    22346906.6164   22346916.8234  117433847.596 6  91506922.56843
      3202.977        2495.820
  21874906.437    21874905.9094   21874914.4754  114953484.221 7  89574181.19144
      2326.466        1812.823
  21696684.316    21696684.1374   21696691.5234  114016902.481 7  88844365.46744
      2699.100        2103.198
  22487497.054    22487496.3354   22487506.0514  118172822.756 6  92082694.87343
      2425.683        1890.137
  21092622.547    21092621.9444   21092628.7094  110842624.462 8  86370876.62946
      -524.219        -408.485
  23933108.022    23933107.0524   23933121.5584  125769653.046 5  98002254.22941
      3781.298        2946.450
  23455962.145    23455961.7124   23455972.0994  123261893.719 6  96048239.31942
     -1974.877       -1538.851
  21941341.090    21941340.3894   21941350.5494  115302506.236 7  89846128.22244
     -2640.898       -2057.839
  23820143.668    23820143.5334   23820154.8244  125175606.811 5  97539431.87542
     -2671.446       -2081.645
  22192560.837    22192560.197    22192568.309   118632076.428 6  92269443.526 5
      -436.612        -339.582
  21607488.212    21607488.073    21607495.882   115301872.203 7  89679312.176 5
      3165.510        2462.056
  21045713.292    21045713.111    21045721.005   112461940.154 7  87470429.420 5
     -2512.612       -1954.249
  21208603.252    21208602.884    21208610.272   113292582.136 7  88116485.041 6
      1725.814        1342.301
  22663071.675    22663071.643    22663081.873   121189632.898 5  94258644.338 5
     -2095.980       -1630.207
  20098733.504    20098733.465    20098737.729   107552476.026 8  83651991.496 7
       -29.783         -23.167
  21420393.270    21420393.046    21420399.919   114343593.225 7  88933949.375 6
      2428.834        1889.092
 11 10 10 12 45  0.0000000  0 16G03G06G16G18G21G22G29G30G31R05R06R11
                                R12R20R21R22
  22328633.654    22328633.7914   22328643.8104  117337824.515 6  91432099.47643
      3198.351        2492.216
  21861640.099    21861639.4084   21861648.2514  114883769.198 7  89519857.84944
      2321.049        1808.610
  21681308.705    21681308.3594   21681315.9024  113936103.762 7  88781405.46144
      2687.322        2094.019
  22473683.207    22473682.4674   22473691.6614  118100231.547 6  92026130.45543
      2413.507        1880.652
  21095648.421    21095647.6714   21095654.1504  110858524.569 8  86383266.33246
      -535.940        -417.617
  23911525.610    23911523.5014   23911539.4744  125656237.151 5  97913878.73041
      3779.526        2945.080
  23467244.218    23467244.3654   23467255.6334  123321182.687 6  96094438.41942
     -1977.914       -1541.229
  21956449.335    21956448.5444   21956459.2264  115381900.692 6  89907993.93544
     -2652.204       -2066.655
  23835402.705    23835401.6284   23835416.6374  125255797.818 5  97601918.00141
     -2674.793       -2084.236
  22195082.570    22195081.967    22195089.319   118645557.071 6  92279928.467 5
      -462.331        -359.592
  21589743.749    21589743.271    21589750.765   115207183.030 7  89605665.237 5
      3146.886        2447.571
  21059871.450    21059871.331    21059879.428   112537598.540 7  87529274.740 5
     -2531.431       -1968.885
  21198985.582    21198985.127    21198993.424   113241209.818 7  88076528.808 6
      1698.789        1321.283
  22674835.729    22674835.408    22674844.443   121252533.554 5  94307566.945 5
     -2097.591       -1631.459
  20098922.016    20098921.606    20098925.636   107553481.970 8  83652773.897 6
       -37.456         -29.131
  21406759.540    21406759.414    21406765.590   114270816.514 7  88877345.332 6
      2422.770        1884.374
 11 10 10 12 45 30.0000000  0 16G03G06G16G18G21G22G29G30G31R05R06R11
                                R12R20R21R22
  22310386.549    22310386.4954   22310396.3464  117241931.450 6  91357377.70343
      3194.424        2489.150
  21848402.814    21848402.3734   21848411.2164  114814207.788 7  89465654.20044
      2316.297        1804.902
  21665998.866    21665998.6024   21666005.9754  113855650.050 7  88718714.28445
      2676.173        2085.328
  22459937.431    22459936.8404   22459946.9264  118027998.542 6  91969845.14743
      2401.950        1871.643
  21098738.972    21098738.4144   21098745.0164  110874766.587 8  86395922.45246
      -546.919        -426.172
  23889950.759    23889950.2544   23889964.6364  125542865.901 5  97825538.01541
      3778.474        2944.233
  23478541.186    23478541.9004   23478552.4964  123380554.595 5  96140702.13142
     -1980.289       -1543.067
  21971620.926    21971620.0364   21971630.6224  115461626.272 6  89970117.66644
     -2662.836       -2074.936
  23850679.390    23850680.3044   23850692.5404  125336076.664 5  97664472.54341
     -2677.166       -2086.090
  22197747.003    22197746.658    22197754.975   118659800.807 6  92291006.928 5
      -487.349        -379.048
  21572101.924    21572101.353    21572109.156   115113043.937 7  89532446.154 5
      3128.922        2433.603
  21074134.433    21074133.580    21074141.866   112613809.998 7  87588550.230 5
     -2549.381       -1982.845
  21189518.756    21189518.364    21189526.156   113190639.690 7  88037196.501 6
      1672.477        1300.814
  22686605.450    22686606.150    22686614.243   121315472.701 5  94356519.505 5
     -2098.477       -1632.146
  20099150.886    20099150.660    20099155.231   107554708.754 8  83653728.059 7
       -44.403         -34.534
  21393157.779    21393157.455    21393164.538   114198212.632 7  88820875.716 6
      2417.442        1880.234
 11 10 10 12 46  0.0000000  0 16G03G06G16G18G21G22G29G30G31R05R06R11
                                R12R20R21R22
  22292164.151    22292162.8084   22292172.4784  117146165.893 6  91282755.29343
      3190.081        2485.755
  21835194.070    21835194.2264   21835202.6964  114744797.301 7  89411568.15944
      2311.201        1800.936
  21650754.786    21650754.3314   21650761.9584  113775540.732 7  88656291.46845
      2664.619        2076.326
  22446260.067    22446259.3564   22446268.2584  117956122.644 6  91913838.11543
      2389.938        1862.281
  21101894.043    21101893.5144   21101900.0784  110891345.936 8  86408841.42746
      -558.218        -434.978
  23868384.670    23868384.5734   23868399.0454  125429539.166 5  97737231.98141
      3776.842        2942.995
  23489855.289    23489856.0564   23489866.2864  123440005.898 6  96187027.72542
     -1982.979       -1545.183
  21986854.459    21986853.2814   21986863.7494  115541677.718 7  90032495.31544
     -2673.749       -2083.433
  23865971.564    23865971.8284   23865987.4744  125416437.038 5  97727090.61241
     -2679.958       -2088.250
  22200552.847    22200552.632    22200560.994   118674803.370 6  92302675.600 5
      -512.662        -398.736
  21554563.620    21554562.736    21554570.223   115019455.735 7  89459655.546 5
      3110.448        2419.231
  21088497.573    21088497.693    21088505.466   112690566.978 7  87648250.026 5
     -2567.552       -1996.984
  21180201.632    21180201.627    21180209.802   113140870.451 7  87998487.108 6
      1645.606        1279.914
  22698383.973    22698383.129    22698390.926   121378446.216 5  94405498.806 5
     -2099.632       -1633.047
  20099420.767    20099420.485    20099424.829   107556152.597 8  83654851.040 6
       -51.708         -40.216
  21379589.077    21379588.615    21379595.352   114125778.186 7  88764537.889 6
      2411.708        1875.770
 11 10 10 12 46 30.0000000  0 16G03G06G16G18G21G22G29G30G31R05R06R11
                                R12R20R21R22
  22273965.433    22273964.3924   22273973.8154  117050532.641 6  91208235.96943
      3185.627        2482.310
  21822015.832    21822015.3704   21822024.1754  114675542.688 7  89357603.57344
      2305.949        1796.846
  21635577.190    21635576.8734   21635583.6184  113695782.243 7  88594142.02645
      2652.796        2067.117
  22432651.417    22432650.9954   22432659.7114  117884610.617 6  91858114.61543
      2377.697        1852.742
  21105113.797    21105113.1844   21105119.8374  110908265.604 8  86422025.58546
      -569.592        -443.840
  23846829.153    23846828.1144   23846841.8534  125316263.830 5  97648966.02241
      3775.034        2941.569
  23501184.342    23501185.1014   23501195.6864  123499540.749 6  96233418.41242
     -1985.862       -1547.423
  22002149.959    22002149.1744   22002159.8934  115622057.271 7  90095128.63244
     -2684.718       -2091.991
  23881280.281    23881280.6294   23881294.2584  125496880.278 5  97789773.25241
     -2682.706       -2090.416
  22203501.604    22203501.907    22203510.330   118690567.908 6  92314936.901 5
      -538.168        -418.582
  21537129.377    21537129.156    21537136.885   114926426.744 7  89387299.898 6
      3091.613        2404.582
  21102964.737    21102964.069    21102971.542   112767869.873 7  87708374.424 5
     -2585.791       -2011.170
  21171035.944    21171035.939    21171043.809   113091907.976 7  87960405.197 6
      1618.682        1258.975
  22710167.355    22710166.453    22710174.841   121441458.441 5  94454508.208 5
     -2101.050       -1634.140
  20099731.944    20099731.562    20099735.781   107557817.700 8  83656146.123 6
       -59.160         -46.018
  21366051.841    21366051.410    21366058.031   114053517.538 7  88708335.229 6
      2405.852        1871.216
 11 10 10 12 47  0.0000000  0 16G03G06G16G18G21G22G29G30G31R05R06R11
                                R12R20R21R22
  22255791.933    22255792.0394   22255800.9024  116955032.706 6  91133820.51243
      3181.119        2478.805
  21808867.043    21808866.3854   21808875.2894  114606443.775 7  89303760.32044
      2300.719        1792.761
  21620466.977    21620466.3594   21620473.4144  113616376.608 8  88532267.54045
      2640.996        2057.915
  22419112.561    22419111.9674   22419120.8284  117813463.845 6  91802675.72843
      2365.499        1843.248
  21108398.118    21108397.3814   21108404.0254  110925523.845 8  86435473.56046
      -580.834        -452.598
  23825283.322    23825283.0504   23825298.1664  125203041.939 5  97560741.71341
      3773.216        2940.141
  23512530.194    23512530.3584   23512540.3624  123559158.826 5  96279873.95242
     -1988.552       -1549.504
  22017507.987    22017506.7364   22017517.7514  115702762.367 7  90158015.62244
     -2695.536       -2100.415
  23896603.298    23896603.1824   23896617.3294  125577403.256 5  97852517.99641
     -2685.327       -2092.436
  22206594.119    22206593.075    22206601.661   118707092.836 6  92327789.622 5
      -563.462        -438.247
  21519800.868    21519800.920    21519808.601   114833960.928 7  89315382.270 6
      3072.848        2389.984
  21117531.999    21117532.110    21117539.508   112845713.762 7  87768919.585 5
     -2603.708       -2025.112
  21162021.476    21162021.312    21162029.158   113043753.353 7  87922951.606 6
      1591.733        1238.013
  22721956.838    22721956.876    22721965.894   121504508.513 5  94503547.052 5
     -2102.234       -1635.068
  20100083.862    20100083.922    20100088.119   107559703.052 8  83657612.502 6
       -66.458         -51.688
  21352546.919    21352546.609    21352553.456   113981429.942 7  88652267.164 6
      2400.065        1866.716
 11 10 10 12 47 30.0000000  0 17G03G06G16G18G21G22G29G30G31R05R06R07
                                R11R12R20R21R22
  22237643.457    22237643.6404   22237654.1404  116859665.432 6  91059508.42243
      3176.521        2475.206
  21795746.994    21795746.6264   21795755.3714  114537499.575 7  89250037.62444
      2295.387        1788.616
  21605423.650    21605423.0314   21605430.2434  113537324.288 7  88470668.35345
      2628.988        2048.561
  22405643.513    22405642.3194   22405651.6884  117742683.191 6  91747522.14043
      2353.036        1833.541
  21111745.762    21111745.2674   21111751.9204  110943117.201 8  86449182.66546
      -592.191        -461.445
  23803748.502    23803746.6644   23803761.6114  125089874.814 5  97472560.05841
      3771.128        2938.521
  23523889.872    23523889.9514   23523900.5434  123618858.306 5  96326392.91842
     -1991.505       -1551.811
  22032927.303    22032925.9124   22032936.5314  115783789.305 6  90221153.39244
     -2706.379       -2108.864
  23911941.116    23911940.3994   23911955.1534  125658001.032 5  97915321.02441
     -2688.029       -2094.574
  22209827.140    22209826.982    22209833.914   118724375.465 6  92341231.663 5
      -588.861        -458.004
  21502579.164    21502578.575    21502586.169   114742060.006 7  89243904.016 6
      3053.743        2375.125
  24022398.221    24022397.542    24022421.209   128593774.632 4 100017420.448
      4771.734        3711.268
  21132200.437    21132199.527    21132207.084   112924092.840 7  87829881.003 5
     -2621.666       -2039.072
  21153158.515    21153158.181    21153165.641   112996406.380 7  87886126.199 6
      1564.554        1216.876
  22733755.070    22733755.008    22733763.556   121567594.764 5  94552614.011 5
     -2103.706       -1636.210
  20100476.955    20100476.689    20100481.084   107561806.667 8  83659248.637 6
       -73.929         -57.497
  21339075.067    21339074.915    21339081.338   113909513.588 7  88596332.297 6
      2394.169        1862.132
 11 10 10 12 48  0.0000000  0 17G03G06G16G18G21G22G29G30G31R05R06R07
                                R11R12R20R21R22
  22219521.993    22219521.4494   22219530.9534  116764434.281 6  90985302.42243
      3172.090        2471.751
  21782657.457    21782657.0724   21782665.7584  114468713.468 7  89196438.11944
      2290.226        1784.591
  21590448.714    21590448.0604   21590455.4854  113458630.721 7  88409348.72945
      2617.124        2039.312
  22392244.865    22392244.0844   22392253.3214  117672273.940 6  91692657.96743
      2340.790        1823.980
  21115157.754    21115157.1274   21115163.8404  110961047.664 8  86463154.44946
      -603.289        -470.096
  23782224.175    23782222.3924   23782237.8894  124976768.139 5  97384425.49641
      3769.166        2936.997
  23535267.134    23535266.2854   23535277.2514  123678641.897 6  96372977.43042
     -1994.177       -1553.884
  22048407.233    22048406.4664   22048417.1134  115865138.917 7  90284542.59844
     -2716.980       -2117.127
  23927294.278    23927293.6534   23927308.2234  125738673.774 5  97978182.45341
     -2690.326       -2096.342
  22213202.796    22213202.130    22213209.537   118742417.695 6  92355264.495 5
      -614.051        -477.597
  21485463.697    21485463.514    21485470.979   114650731.428 7  89172870.922 6
      3034.689        2360.306
  23995645.913    23995645.315    23995671.724   128450582.938 4  99906051.814 4
      4774.142        3713.127
  21146966.540    21146966.739    21146974.049   113003005.815 7  87891257.664 5
     -2639.278       -2052.764
  21144446.207    21144446.231    21144454.023   112949871.556 7  87849932.459 6
      1537.604        1195.913
  22745560.131    22745559.536    22745568.227   121630720.272 5  94601711.496 5
     -2104.892       -1637.134
  20100911.637    20100911.511    20100915.778   107564130.936 8  83661056.403 6
       -81.132         -63.106
  21325636.457    21325635.249    21325641.089   113837771.518 7  88540532.998 6
      2388.496        1857.710
 11 10 10 12 48 30.0000000  0 17G03G06G16G18G21G22G29G30G31R05R06R07
                                R11R12R20R21R22
  22201426.271    22201425.1164   22201435.4514  116669340.503 6  90911203.45643
      3167.346        2468.058
  21769597.761    21769597.6324   21769606.1204  114400085.900 7  89142962.14844
      2284.790        1780.351
  21575542.379    21575541.7294   21575549.4014  113380297.956 7  88348310.24645
      2604.885        2029.773
  22378917.301    22378917.1264   22378925.5914  117602238.333 6  91638084.95343
      2328.091        1814.079
  21118633.530    21118632.9904   21118639.6794  110979313.709 8  86477387.72646
      -614.596        -478.911
  23760713.197    23760711.9914   23760726.1414  124863724.431 5  97296340.00141
      3766.857        2935.177
  23546659.958    23546659.4384   23546669.6854  123738509.752 5  96419627.58142
     -1997.064       -1556.145
  22063948.938    22063947.9724   22063958.7144  115946809.166 7  90348181.65144
     -2727.834       -2125.586
  23942659.617    23942659.1484   23942672.6104  125819418.629 5  98041100.06641
     -2692.825       -2098.269
  22216719.854    22216719.337    22216726.500   118761218.242 6  92369887.125 5
      -639.477        -497.375
  21468457.298    21468456.625    21468463.282   114559979.145 7  89102286.057 5
      3015.259        2345.188
  23968882.838    23968881.449    23968906.287   128307324.650 4  99794631.289 4
      4776.246        3714.763
  21161834.615    21161833.897    21161840.861   113082448.470 7  87953046.293 5
     -2657.010       -2066.566
  21135887.248    21135887.435    21135895.253   112904150.311 7  87814371.500 6
      1510.265        1174.655
  22757373.398    22757372.131    22757380.799   121693885.303 5  94650839.705 5
     -2106.406       -1638.312
  20101387.140    20101386.974    20101391.229   107566675.784 8  83663035.728 6
       -88.622         -68.931
  21312228.358    21312228.138    21312233.712   113766203.493 7  88484869.054 6
      2382.569        1853.098
 11 10 10 12 49  0.0000000  0 17G03G06G16G18G21G22G29G30G31R05R06R07
                                R11R12R20R21R22
  22183356.411    22183355.5444   22183365.7014  116574384.466 6  90837211.80043
      3162.834        2464.542
  21756568.549    21756568.2604   21756576.4154  114331616.864 7  89089609.70644
      2279.590        1776.298
  21560704.965    21560704.6944   21560712.3174  113302327.837 7  88287554.33545
      2592.870        2020.414
  22365661.895    22365660.6544   22365669.2904  117532577.848 6  91583804.23643
      2315.717        1804.444
  21122173.154    21122172.5454   21122179.2884  110997913.452 8  86491881.02346
      -625.588        -487.470
  23739211.792    23739212.1554   23739225.8774  124750746.315 5  97208305.60641
      3764.834        2933.607
  23558068.488    23558067.5064   23558078.3364  123798461.165 6  96466342.85742
     -1999.846       -1558.312
  22079550.374    22079549.7034   22079560.9554  116028797.421 7  90412068.50544
     -2738.296       -2133.744
  23958037.913    23958039.4264   23958051.1014  125900232.376 5  98104071.37241
     -2695.086       -2100.062
  22220378.047    22220377.461    22220385.291   118780775.674 6  92385098.443 5
      -664.583        -516.899
  21451558.588    21451558.316    21451564.604   114469806.839 7  89032152.274 5
      2996.013        2330.226
  23942108.224    23942106.516    23942131.095   128164002.690 5  99683161.113 4
      4778.447        3716.487
  21176799.665    21176798.445    21176806.293   113162416.150 7  88015243.288 5
     -2674.362       -2080.060
  21127480.393    21127480.179    21127488.464   112859243.535 7  87779444.020 6
      1483.260        1153.648
  22769191.257    22769190.846    22769200.083   121757089.045 5  94699998.063 5
     -2107.442       -1639.123
  20101903.919    20101903.344    20101907.824   107569440.311 8  83665185.906 6
       -95.889         -74.580
  21298854.711    21298853.983    21298858.637   113694809.007 7  88429340.071 6
      2376.891        1848.685
 11 10 10 12 49 30.0000000  0 17G03G06G16G18G21G22G29G30G31R05R06R07
                                R11R12R20R21R22
  22165313.265    22165312.7974   22165323.1034  116479570.304 6  90763330.70243
      3158.164        2460.898
  21743569.904    21743569.5044   21743578.0874  114263310.088 7  89036383.69544
      2274.238        1772.133
  21545938.113    21545937.8754   21545945.1424  113224725.913 8  88227085.32645
      2580.648        2010.899
  22352478.419    22352477.4704   22352485.4294  117463297.813 7  91529819.98343
      2303.035        1794.571
  21125776.416    21125775.7644   21125782.4624  111016848.744 8  86506635.79046
      -636.701        -496.131
  23717725.788    23717726.4424   23717740.1874  124637839.410 5  97120326.68241
      3762.460        2931.766
  23569493.211    23569493.2434   23569504.4904  123858498.704 6  96513125.24242
     -2002.635       -1560.496
  22095213.136    22095212.4664   22095223.0334  116111104.599 6  90476203.86244
     -2748.768       -2141.896
  23973429.506    23973429.5754   23973444.2204  125981114.615 5  98167096.01241
     -2697.100       -2101.656
  22224177.952    22224177.647    22224186.337   118801091.658 6  92400899.756 5
      -689.753        -536.477
  21434769.809    21434769.546    21434776.656   114380220.994 7  88962474.611 6
      2976.428        2314.992
  23915323.368    23915320.194    23915342.835   128020624.755 4  99571647.334 4
      4780.224        3717.882
  21191862.481    21191861.453    21191868.893   113242907.456 7  88077847.540 5
     -2691.642       -2093.493
  21119227.601    21119227.294    21119234.583   112815155.639 7  87745153.457 6
      1456.039        1132.472
  22781017.902    22781016.907    22781027.105   121820333.586 4  94749188.169 5
     -2108.732       -1640.124
  20102462.035    20102461.654    20102465.897   107572427.491 8  83667509.263 6
      -103.191         -80.262
  21285512.016    21285512.067    21285517.756   113623590.880 7  88373948.268 6
      2371.098        1844.182
 11 10 10 12 50  0.0000000  0 17G03G06G16G18G21G22G29G30G31R05R06R07
                                R11R12R20R21R22
  22147298.172    22147297.8184   22147307.2564  116384896.359 6  90689558.87443
      3153.441        2457.230
  21730602.555    21730601.9784   21730610.2234  114195163.560 7  88983282.54944
      2268.851        1767.936
  21531241.044    21531240.2994   21531247.9774  113147491.516 8  88166902.70645
      2568.323        2001.293
  22339366.751    22339366.0834   22339373.8714  117394397.846 7  91476131.88043
      2290.308        1784.648
  21129442.801    21129442.0194   21129448.5594  111036115.413 8  86521648.76946
      -647.745        -504.737
  23696255.697    23696254.3984   23696267.7774  124525003.742 5  97032403.25441
      3759.916        2929.793
  23580933.152    23580933.3684   23580943.4964  123918620.162 6  96559973.03842
     -2005.499       -1562.725
  22110935.691    22110934.8284   22110945.6484  116193726.102 6  90540584.15144
     -2759.282       -2150.088
  23988833.065    23988833.5534   23988848.8524  126062060.250 5  98230170.02341
     -2699.301       -2103.330
  22228120.124    22228119.735    22228127.700   118822162.268 6  92417287.979 5
      -714.964        -556.080
  21418091.559    21418090.873    21418098.389   114291223.484 7  88893254.553 6
      2956.733        2299.672
  23888525.681    23888523.738    23888545.928   127877190.801 4  99460089.907 4
      4782.119        3719.345
  21207020.705    21207021.054    21207028.682   113323915.801 7  88140853.926 5
     -2708.825       -2106.856
  21111126.945    21111126.736    21111135.294   112771885.458 7  87711498.882 6
      1428.702        1111.211
  22792851.338    22792851.813    22792861.650   121883617.268 5  94798408.687 5
     -2110.141       -1641.223
  20103061.733    20103061.244    20103065.395   107575634.284 8  83670003.433 6
      -110.574         -86.004
  21272203.371    21272202.952    21272208.381   113552546.476 7  88318691.574 6
      2365.258        1839.641
 11 10 10 12 50 30.0000000  0 17G03G06G16G18G21G22G29G30G31R05R06R07
                                R11R12R20R21R22
  22129308.377    22129308.2584   22129318.2864  116290364.372 6  90615897.66843
      3148.594        2453.457
  21717665.202    21717664.8134   21717672.9734  114127178.042 7  88930306.86744
      2263.402        1763.690
  21516613.841    21516613.5554   21516620.9794  113070627.757 7  88107008.89945
      2555.808        1991.536
  22326328.071    22326326.9364   22326335.1404  117325880.687 7  91422742.05743
      2277.401        1774.603
  21133171.801    21133171.2034   21133178.0194  111055712.531 8  86536919.24046
      -658.817        -513.359
  23674796.670    23674795.8484   23674809.0824  124412243.111 5  96944538.28141
      3757.309        2927.759
  23592389.565    23592389.9594   23592400.8934  123978825.751 6  96606886.37142
     -2008.337       -1564.926
  22126717.465    22126716.7074   22126727.4104  116276660.198 7  90605208.02244
     -2769.763       -2158.261
  24004248.925    24004249.4694   24004262.4594  126143066.597 5  98293291.32441
     -2701.303       -2104.881
  22232203.142    22232202.565    22232210.139   118843986.957 6  92434262.736 5
      -740.180        -575.695
  21401524.442    21401523.914    21401531.145   114202818.590 7  88824495.415 6
      2936.802        2284.170
  23861720.426    23861718.147    23861739.946   127733706.291 5  99348493.092 4
      4783.535        3720.438
  21222276.863    21222276.001    21222284.373   113405437.089 7  88204259.282 5
     -2725.982       -2120.210
  21103180.135    21103179.884    21103188.420   112729434.564 7  87678481.548 6
      1401.269        1089.872
  22804693.745    22804694.258    22804703.705   121946940.501 5  94847659.967 5
     -2111.504       -1642.278
  20103702.016    20103701.448    20103705.625   107579060.906 8  83672668.587 6
      -117.978         -91.762
  21258926.362    21258926.076    21258932.317   113481676.129 7  88263570.245 6
      2359.337        1835.032
 11 10 10 12 51  0.0000000  0 17G03G06G16G18G21G22G29G30G31R05R06R07
                                R11R12R20R21R22
  22111347.625    22111346.7634   22111357.1194  116195978.450 6  90542350.25643
      3143.978        2449.869
  21704759.748    21704758.9974   21704767.2014  114059357.689 7  88877459.87644
      2258.114        1759.564
  21502059.141    21502058.3744   21502065.7694  112994140.311 8  88047408.31945
      2543.511        1981.954
  22313363.524    22313362.4614   22313370.4334  117257751.706 7  91369654.71143
      2264.706        1764.704
  21136964.714    21136963.9254   21136970.4904  111075642.165 8  86552448.81446
      -669.617        -521.784
  23653354.622    23653353.4294   23653366.5834  124299563.461 5  96856736.37042
      3754.853        2925.841
  23603863.368    23603863.5404   23603875.0074  124039118.743 5  96653867.79442
     -2011.057       -1567.052
  22142559.250    22142558.3144   22142569.0154  116359908.161 6  90670076.45643
     -2779.962       -2166.198
  24019676.627    24019676.1334   24019691.2954  126224134.086 5  98356460.30341
     -2703.043       -2106.260
  22236426.870    22236426.558    22236434.721   118866567.593 6  92451825.411 5
      -765.015        -595.009
  21385069.029    21385068.840    21385076.819   114115013.396 7  88756202.691 6
      2917.025        2268.784
  23834907.569    23834905.032    23834925.139   127590178.723 5  99236862.721 4
      4785.182        3721.742
  21237628.108    21237627.936    21237635.879   113487470.807 7  88268063.180 5
     -2742.729       -2133.231
  21095387.497    21095387.373    21095395.291   112687807.757 7  87646105.157 6
      1374.080        1068.727
  22816545.835    22816544.075    22816553.959   122010306.297 5  94896944.342 5
     -2112.635       -1643.161
  20104383.695    20104383.511    20104387.695   107582710.472 8  83675507.130 6
      -125.149         -97.336
  21245683.468    21245683.301    21245688.687   113410983.318 7  88208587.007 5
      2353.709        1830.660
 11 10 10 12 51 30.0000000  0 17G03G06G16G18G21G22G29G30G31R05R06R07
                                R11R12R20R21R22
  22093412.743    22093412.0894   22093421.9154  116101728.962 6  90468909.17543
      3139.370        2446.256
  21691882.964    21691882.4764   21691891.2664  113991692.301 7  88824733.63044
      2252.949        1755.547
  21487574.010    21487573.5194   21487580.9414  112918020.624 8  87988094.30445
      2531.189        1972.353
  22300470.830    22300470.4814   22300479.0874  117190002.693 7  91316863.44044
      2251.961        1754.774
  21140817.739    21140817.4794   21140824.0974  111095892.126 8  86568227.98946
      -680.302        -530.106
  23631925.963    23631925.1334   23631938.0734  124186956.816 5  96768991.35942
      3752.295        2923.860
  23615351.907    23615352.3554   23615362.5894  124099488.496 6  96700909.04342
     -2013.649       -1569.067
  22158458.121    22158457.1794   22158467.7894  116443457.296 6  90735179.57343
     -2789.971       -2173.991
  24035112.600    24035112.4774   24035126.1994  126305249.318 5  98419666.46841
     -2704.604       -2107.460
  22240789.913    22240789.600    22240797.221   118889891.799 6  92469966.465 5
      -789.816        -614.299
  21368725.914    21368725.681    21368732.553   114027801.376 7  88688371.330 6
      2897.176        2253.351
  23808083.329    23808081.513    23808101.053   127446601.290 5  99125193.473 4
      4786.773        3722.986
  21253072.690    21253072.287    21253080.687   113570001.391 7  88332253.537 5
     -2759.262       -2146.086
  21087747.646    21087747.488    21087755.170   112646995.416 7  87614362.237 6
      1346.860        1047.557
  22828397.979    22828398.635    22828408.635   122073703.785 4  94946253.381 5
     -2113.724       -1644.009
  20105104.911    20105104.713    20105109.414   107586571.898 8  83678510.463 6
      -132.243        -102.859
  21232471.241    21232470.728    21232476.873   113340457.208 7  88153733.443 5
      2348.119        1826.308
 11 10 10 12 52  0.0000000  0 17G03G06G16G18G21G22G29G30G31R05R06R07
                                R11R12R20R21R22
  22075505.754    22075505.2904   22075514.1744  116007624.982 6  90395581.48443
      3133.855        2441.962
  21679037.911    21679037.4484   21679045.9554  113924190.838 7  88772135.12844
      2246.795        1750.744
  21473160.957    21473160.3934   21473167.2414  112842279.326 8  87929075.14045
      2517.867        1961.971
  22287652.811    22287651.9734   22287660.9684  117122643.898 7  91264376.23844
      2238.235        1744.069
  21144733.618    21144733.0654   21144739.6264  111116469.405 8  86584262.22346
      -691.888        -539.135
  23610512.920    23610511.6154   23610525.3994  124074434.331 5  96681311.91642
      3748.771        2921.084
  23626856.946    23626857.2164   23626868.0624  124159943.113 6  96748016.41442
     -2017.103       -1571.766
  22174415.959    22174415.1044   22174425.2494  116527313.773 6  90800522.17543
     -2800.812       -2182.448
  24050558.664    24050558.4104   24050572.4814  126386417.780 5  98482914.09241
     -2706.999       -2109.322
  22245294.003    22245293.701    22245301.927   118913966.863 6  92488691.463 5
      -815.498        -634.276
  21352496.754    21352495.959    21352502.301   113941194.687 7  88621010.778 6
      2876.212        2237.049
  23781251.629    23781251.486    23781270.992   127302984.719 5  99013493.703 4
      4787.431        3723.493
  21268611.693    21268611.200    21268619.433   113653033.259 7  88396833.767 5
     -2776.569       -2159.551
  21080261.302    21080261.160    21080269.593   112607007.204 7  87583260.314 6
      1318.691        1025.649
  22840262.573    22840262.370    22840271.490   122137141.286 4  94995593.540 5
     -2115.798       -1645.621
  20105867.969    20105867.555    20105872.064   107590653.148 8  83681684.761 6
      -140.214        -109.057
  21219292.137    21219291.762    21219297.717   113270105.926 7  88099015.848 6
      2341.592        1821.237
 11 10 10 12 52 30.0000000  0 17G03G06G16G18G21G22G29G30G31R05R06R07
                                R11R12R20R21R22
  22057628.566    22057628.2764   22057637.5864  115913681.718 6  90322378.99443
      3128.850        2438.063
  21666227.032    21666226.4544   21666234.6294  113856867.940 7  88719675.76744
      2241.212        1746.399
  21458822.649    21458822.2524   21458829.4464  112766932.948 8  87870363.70145
      2505.051        1951.992
  22274912.169    22274911.1224   22274920.0094  117055691.695 7  91212205.85444
      2225.040        1733.791
  21148714.402    21148713.6184   21148720.3714  111137387.165 8  86600561.76846
      -702.813        -547.645
  23589119.338    23589118.3994   23589131.7154  123962012.974 5  96593711.27142
      3745.729        2918.727
  23638380.265    23638379.9754   23638390.8104  124220496.668 6  96795200.87442
     -2020.001       -1574.014
  22190433.482    22190432.7914   22190443.6824  116611489.553 6  90866113.58243
     -2811.057       -2190.436
  24066016.441    24066017.3034   24066031.8694  126467650.925 5  98546212.05541
     -2708.711       -2110.671
  22249941.230    22249940.183    22249947.970   118938805.740 6  92508010.577 5
      -840.553        -653.764
  21336383.246    21336382.458    21336388.913   113855211.597 7  88554135.229 6
      2855.782        2221.157
  23754417.863    23754417.320    23754438.035   127159347.840 5  98901778.053 4
      4788.140        3724.039
  21284246.552    21284245.408    21284253.677   113736576.501 7  88461811.729 5
     -2793.156       -2172.449
  21072932.547    21072932.775    21072940.054   112567858.288 7  87552811.171 6
      1291.114        1004.201
  22852136.394    22852137.079    22852145.361   122200633.323 5  95044976.091 5
     -2117.295       -1646.783
  20106674.712    20106674.388    20106678.665   107594968.685 8  83685041.280 6
      -147.670        -114.857
  21206148.671    21206148.119    21206153.978   113199944.017 7  88044445.535 6
      2335.678        1816.637
 11 10 10 12 53  0.0000000  0 17G03G06G16G18G21G22G29G30G31R05R06R07
                                R11R12R20R21R22
  22039781.698    22039781.6604   22039790.3674  115819898.487 6  90249301.22843
      3123.425        2433.829
  21653449.282    21653448.8644   21653457.0514  113789722.089 7  88667354.35544
      2235.270        1741.762
  21444560.262    21444559.5744   21444566.9864  112691981.673 8  87811960.14245
      2491.776        1941.646
  22262248.820    22262247.9784   22262256.6384  116989146.310 7  91160352.45644
      2211.402        1723.162
  21152758.603    21152758.0584   21152765.0424  111158641.518 8  86617123.59046
      -714.046        -556.399
  23567745.815    23567744.9764   23567757.1204  123849693.654 6  96506190.11042
      3742.292        2916.067
  23649920.511    23649920.8774   23649930.9114  124281147.280 6  96842460.94042
     -2023.306       -1576.580
  22206511.867    22206511.1024   22206521.8694  116695980.599 6  90931950.63943
     -2821.554       -2198.607
  24081486.497    24081487.2014   24081502.8214  126548943.447 5  98609556.29641
     -2710.727       -2112.245
  22254730.161    22254729.655    22254737.395   118964404.773 6  92527920.909 5
      -865.927        -673.495
  21320386.367    21320386.033    21320392.962   113769853.882 7  88487746.088 6
      2834.806        2204.841
  23727580.693    23727579.726    23727600.156   127015693.327 5  98790048.613 4
      4788.819        3724.579
  21299974.476    21299973.973    21299982.350   113820624.714 7  88527182.460 5
     -2809.917       -2185.485
  21065760.207    21065760.302    21065768.206   112529548.015 7  87523014.301 6
      1263.027         982.354
  22864018.682    22864020.586    22864029.204   122264178.060 5  95094399.632 5
     -2119.060       -1648.155
  20107524.858    20107524.426    20107528.526   107599516.165 8  83688578.200 6
      -155.412        -120.877
  21193039.923    21193039.574    21193044.971   113129969.350 7  87990020.854 6
      2329.410        1811.759
 11 10 10 12 53 30.0000000  0 17G03G06G16G18G21G22G29G30G31R05R06R07
                                R11R12R20R21R22
  22021965.452    22021964.9164   22021973.7964  115726271.528 6  90176345.21443
      3118.613        2430.094
  21640704.492    21640704.0904   21640712.7054  113722749.145 7  88615167.67544
      2229.830        1737.532
  21430372.081    21430371.5714   21430379.1174  112617422.945 8  87753862.46045
      2479.014        1931.696
  22249662.717    22249662.2114   22249670.4214  116923005.005 7  91108813.91644
      2198.234        1712.900
  21156866.363    21156865.5264   21156872.3694  111180226.182 8  86633942.79646
      -724.687        -564.688
  23546391.788    23546390.2614   23546402.3064  123737474.477 6  96418746.97142
      3739.263        2913.716
  23661479.095    23661480.1404   23661490.6754  124341889.597 6  96889792.50142
     -2025.999       -1578.698
  22222648.796    22222647.7234   22222659.2444  116780779.761 6  90998027.78943
     -2831.458       -2206.326
  24096966.482    24096966.5494   24096981.2034  126630287.470 5  98672940.69541
     -2711.958       -2113.180
  22259659.185    22259658.869    22259667.221   118990757.391 6  92548417.343 5
      -890.623        -692.702
  21304506.559    21304506.603    21304513.520   113685120.341 7  88421842.405 6
      2814.294        2188.890
  23700741.388    23700738.691    23700759.186   126872019.422 5  98678304.042 4
      4789.679        3725.259
  21315795.104    21315794.970    21315803.601   113905168.330 6  88592938.509 5
     -2826.008       -2198.002
  21058744.852    21058744.755    21058753.082   112492072.160 7  87493866.429 6
      1235.571         961.005
  22875911.067    22875911.809    22875920.905   122327769.510 4  95143859.527 5
     -2120.107       -1648.966
  20108416.191    20108416.122    20108420.449   107604290.071 8  83692291.233 6
      -162.625        -126.486
  21179965.408    21179965.010    21179970.499   113060176.675 7  87935737.713 6
      2323.660        1807.292
 11 10 10 12 54  0.0000000  0 17G03G06G16G18G21G22G29G30G31R05R06R07
                                R11R12R20R21R22
  22004177.887    22004177.4764   22004187.0874  115632798.422 6  90103509.09243
      3113.374        2426.004
  21627992.416    21627992.1564   21628000.7924  113655946.178 7  88563113.44744
      2224.125        1733.083
  21416258.477    21416258.0174   21416265.3424  112543255.619 7  87696069.76145
      2465.873        1921.460
  22237152.904    22237152.3404   22237160.0624  116857266.052 7  91057588.90243
      2184.762        1702.412
  21161035.764    21161035.0794   21161041.8024  111202136.636 8  86651015.86746
      -735.560        -573.165
  23525055.787    23525054.6284   23525066.1224  123625354.440 6  96331381.10742
      3735.879        2911.074
  23673055.117    23673055.6194   23673066.2214  124402720.545 6  96937193.09942
     -2029.012       -1581.030
  22238842.769    22238842.1584   22238852.6494  116865881.450 6  91064340.68443
     -2841.551       -2214.190
  24112455.176    24112454.5854   24112470.0874  126711677.118 5  98736360.61441
     -2713.495       -2114.388
  22264729.292    22264728.853    22264737.586   119017858.640 6  92569496.053 5
      -915.653        -712.169
  21288744.507    21288744.259    21288751.028   113601011.253 7  88356424.395 6
      2793.411        2172.652
  23673894.297    23673894.888    23673912.982   126728327.185 5  98566545.164 4
      4790.109        3725.592
  21331708.253    21331707.754    21331715.287   113990199.745 6  88659073.940 4
     -2842.292       -2210.673
  21051885.468    21051885.446    21051892.963   112455428.385 7  87465365.723 6
      1207.760         939.373
  22887812.133    22887811.421    22887820.766   122391405.197 4  95193353.811 5
     -2121.784       -1650.271
  20109350.085    20109349.577    20109354.408   107609287.117 8  83696177.813 7
      -170.102        -132.301
  21166924.491    21166923.837    21166929.796   112990562.742 7  87881593.602 6
      2317.687        1802.646
 11 10 10 12 54 30.0000000  0 17G03G06G16G18G21G22G29G30G31R05R06R07
                                R11R12R20R21R22
  21986419.607    21986419.3424   21986427.9504  115539476.049 6  90030790.42843
      3108.150        2421.948
  21615312.055    21615311.6314   21615320.0714  113589309.730 7  88511188.98145
      2218.359        1728.596
  21402218.987    21402218.4204   21402225.9374  112469477.869 8  87638580.63445
      2452.681        1911.182
  22224719.103    22224718.6934   22224726.3844  116791927.777 7  91006676.09243
      2171.169        1691.816
  21165266.113    21165265.4814   21165272.2404  111224367.481 8  86668338.59346
      -746.428        -581.628
  23503737.557    23503737.3884   23503748.8614  123513332.327 5  96244091.53642
      3732.287        2908.259
  23684647.657    23684646.7414   23684658.6694  124463635.915 5  96984659.50842
     -2031.967       -1583.329
  22255093.887    22255093.1994   22255104.0674  116951279.564 6  91130884.54343
     -2851.626       -2222.043
  24127951.041    24127950.3894   24127966.7814  126793105.449 5  98799810.65341
     -2715.034       -2115.582
  22269937.935    22269937.213    22269946.187   119045702.706 6  92591152.499 5
      -940.599        -731.576
  21273099.055    21273098.797    21273106.108   113517526.140 7  88291491.695 6
      2772.303        2156.236
  23647048.238    23647047.567    23647065.371   126584616.293 5  98454771.711 4
      4790.540        3725.899
  21347710.129    21347709.736    21347717.735   114075710.420 6  88725582.147 5
     -2858.363       -2223.174
  21045180.864    21045180.689    21045188.566   112419613.627 7  87437509.819 6
      1179.895         917.696
  22899721.707    22899719.489    22899729.079   122455080.506 5  95242878.906 5
     -2123.206       -1651.371
  20110324.986    20110324.632    20110329.288   107614502.531 8  83700234.229 6
      -177.568        -138.107
  21153914.997    21153914.924    21153921.029   112921123.211 7  87827585.137 6
      2311.654        1797.951
 11 10 10 12 55  0.0000000  0 17G03G06G16G18G21G22G29G30G31R05R06R07
                                R11R12R20R21R22
  21968690.122    21968689.4364   21968698.3374  115446306.603 6  89958190.92643
      3103.139        2418.016
  21602663.578    21602663.2974   21602671.5744  113522841.721 7  88459395.77445
      2212.870        1724.316
  21388254.634    21388254.0764   21388261.3394  112396093.274 8  87581397.86245
      2439.609        1900.993
  22212362.110    22212361.3364   22212370.3604  116726993.458 6  90956078.05043
      2157.765        1681.374
  21169557.594    21169556.8794   21169563.5274  111246918.297 8  86685910.65646
      -756.970        -589.848
  23482439.140    23482438.5844   23482450.7284  123401412.329 5  96156881.53342
      3729.024        2905.730
  23696255.815    23696255.2564   23696267.0684  124524636.867 5  97032192.58942
     -2034.723       -1585.505
  22271400.778    22271400.0134   22271410.8154  117036973.112 6  91197658.61343
     -2861.318       -2229.588
  24143452.414    24143452.6674   24143469.7474  126874570.514 5  98863289.28341
     -2716.114       -2116.427
  22275286.335    22275285.712    22275293.824   119074289.418 6  92613386.573 5
      -965.229        -750.732
  21257571.708    21257571.830    21257578.392   113434670.143 7  88227048.299 6
      2751.393        2139.964
  23620199.157    23620196.674    23620215.285   126440891.857 5  98342987.730 4
      4791.003        3726.279
  21363801.942    21363801.344    21363808.949   114161696.984 6  88792460.485 4
     -2874.053       -2235.373
  21038631.430    21038631.375    21038639.324   112384629.686 7  87410300.093 6
      1152.387         896.305
  22911634.885    22911636.016    22911643.828   122518796.884 5  95292435.952 5
     -2124.604       -1652.462
  20111340.814    20111340.545    20111344.962   107619937.633 8  83704461.526 6
      -184.799        -143.729
  21140940.447    21140939.713    21140945.455   112851859.384 7  87773713.335 6
      2305.928        1793.495
 11 10 10 12 55 30.0000000  0 17G03G06G16G18G21G22G29G30G31R05R06R07
                                R11R12R20R21R22
  21950990.344    21950989.6174   21950998.2544  115353294.299 7  89885713.90143
      3097.787        2413.847
  21590047.613    21590047.3484   21590055.8304  113456545.702 7  88407736.57445
      2207.008        1719.746
  21374365.536    21374365.2474   21374372.1384  112323107.311 8  87524525.70845
      2426.221        1890.562
  22200083.116    22200082.1024   22200091.6434  116662468.340 7  90905798.85643
      2144.042        1670.665
  21173909.897    21173909.2934   21173915.9274  111269790.870 8  86703733.43546
      -767.752        -598.251
  23461161.622    23461161.7854   23461174.4424  123289600.407 5  96069755.74442
      3725.244        2902.760
  23707881.236    23707881.9444   23707892.1284  124585726.231 5  97079794.55442
     -2037.776       -1587.878
  22287764.551    22287763.4584   22287774.7014  117122962.970 6  91264663.56743
     -2871.197       -2237.288
  24158962.175    24158963.4294   24158978.8154  126956072.655 5  98926796.82541
     -2717.252       -2117.332
  22280772.563    22280772.355    22280781.027   119103620.130 6  92636199.299 5
      -990.034        -770.029
  21242163.760    21242163.960    21242170.539   113352450.057 7  88163099.499 6
      2730.052        2123.369
  23593346.948    23593345.511    23593363.916   126297162.278 5  98231199.689 4
      4791.303        3726.514
  21379981.040    21379981.238    21379989.592   114248158.378 6  88859708.109 5
     -2889.890       -2247.683
  21032239.177    21032239.082    21032246.389   112350480.885 7  87383739.928 6
      1124.356         874.497
  22923556.822    22923558.323    22923568.354   122582557.676 4  95342027.556 5
     -2126.027       -1653.576
  20112397.765    20112397.494    20112402.044   107625595.296 8  83708861.919 6
      -192.264        -149.540
  21127998.520    21127998.063    21128004.043   112782774.340 7  87719980.567 6
      2299.923        1788.833
 11 10 10 12 56  0.0000000  0 17G03G06G16G18G21G22G29G30G31R05R06R07
                                R11R12R20R21R22
  21933320.149    21933319.0444   21933327.8114  115260437.984 6  89813358.40543
      3092.479        2409.718
  21577464.377    21577464.0954   21577472.4774  113390420.187 7  88356210.24345
      2201.205        1715.227
  21360552.658    21360552.2934   21360559.1464  112250519.601 8  87467963.88045
      2412.816        1880.118
  22187882.703    22187881.4954   22187890.7864  116598352.235 6  90855838.37644
      2130.271        1659.941
  21178322.999    21178322.2094   21178329.0914  111292981.583 8  86721804.11646
      -778.426        -606.567
  23439905.435    23439904.2724   23439916.4624  123177897.142 5  95982714.61242
      3721.474        2899.820
  23719523.238    23719522.2954   23719532.6694  124646901.765 5  97127463.67242
     -2040.715       -1590.167
  22304183.604    22304182.9514   22304193.6504  117209244.972 6  91331896.14843
     -2880.993       -2244.925
  24174478.189    24174478.8644   24174496.5284  127037607.119 5  98990329.47041
     -2718.518       -2118.285
  22286397.904    22286397.372    22286405.672   119133690.838 6  92659587.601 5
     -1014.789        -789.284
  21226875.286    21226875.243    21226882.047   113270867.291 7  88099646.388 6
      2708.646        2106.722
  23566492.781    23566493.325    23566512.353   126153427.513 4  98119407.568 4
      4791.164        3726.412
  21396249.938    21396248.824    21396256.851   114335088.044 6  88927319.959 5
     -2905.554       -2259.866
  21026002.722    21026002.325    21026009.679   112317165.563 7  87357828.019 6
      1096.486         852.816
  22935491.266    22935489.121    22935499.795   122646360.322 4  95391651.705 5
     -2127.680       -1654.856
  20113496.020    20113495.629    20113500.201   107631473.117 8  83713433.551 6
      -199.700        -155.326
  21115089.441    21115089.225    21115094.452   112713865.817 7  87666385.103 6
      2293.915        1784.160
 11 10 10 12 56 30.0000000  0 17G03G06G16G18G21G22G29G30G31R05R06R07
                                R11R12R20R21R22
  21915680.190    21915679.6914   21915689.2004  115167744.326 6  89741129.66443
      3087.025        2405.469
  21564914.826    21564914.4864   21564922.8614  113324471.307 7  88304821.55045
      2195.286        1710.605
  21346817.202    21346816.5564   21346823.1694  112178338.309 8  87411718.74345
      2399.233        1869.533
  22175760.797    22175760.5624   22175768.9684  116534652.820 6  90806202.58144
      2116.344        1649.093
  21182797.139    21182796.6634   21182803.3024  111316494.475 8  86740125.84646
      -789.102        -614.885
  23418670.730    23418670.0584   23418682.1784  123066311.094 5  95895764.82542
      3717.515        2896.750
  23731181.347    23731180.9394   23731190.8064  124708169.461 5  97175204.59142
     -2043.830       -1592.572
  22320658.567    22320658.2144   22320668.7554  117295822.444 6  91399358.97143
     -2890.905       -2252.656
  24190000.947    24190001.8794   24190018.8114  127119176.650 5  99053889.46341
     -2719.619       -2119.182
  22292161.947    22292161.384    22292170.014   119164505.582 6  92683554.602 5
     -1039.531        -808.526
  21211708.651    21211708.013    21211714.679   113189931.567 7  88036696.521 6
      2687.015        2089.894
  23539641.977    23539641.518    23539660.640   126009696.511 4  98007618.348 4
      4790.702        3726.039
  21412605.582    21412605.080    21412612.793   114422487.465 6  88995297.172 4
     -2921.084       -2271.959
  21019922.581    21019922.453    21019930.419   112284690.208 7  87332569.406 6
      1068.485         831.045
  22947430.769    22947430.338    22947439.784   122710211.114 4  95441313.301 5
     -2129.131       -1655.982
  20114636.973    20114636.540    20114640.915   107637576.681 8  83718180.750 6
      -207.223        -161.173
  21102213.994    21102214.021    21102220.300   112645139.520 7  87612931.368 6
      2287.818        1779.416
 11 10 10 12 57  0.0000000  0 17G03G06G16G18G21G22G29G30G31R05R06R07
                                R11R12R20R21R22
  21898070.965    21898070.5934   21898079.3604  115075202.474 7  89669019.19343
      3082.228        2401.741
  21552396.253    21552396.2654   21552404.5034  113258687.979 7  88253561.85345
      2190.062        1706.542
  21333156.872    21333156.4504   21333163.4084  112106554.065 8  87355782.99745
      2386.224        1859.395
  22163717.028    22163716.0684   22163724.4404  116471360.524 7  90756884.01944
      2102.990        1638.684
  21187330.272    21187329.6914   21187336.6074  111340316.615 8  86758688.54446
      -799.153        -622.715
  23397456.737    23397456.2344   23397469.1174  122954833.013 5  95808899.16442
      3714.191        2894.162
  23742855.536    23742854.8964   23742864.5864  124769517.066 5  97223007.78642
     -2046.218       -1594.456
  22337186.784    22337186.3424   22337198.0074  117382681.434 6  91467041.15543
     -2899.951       -2259.692
  24205528.496    24205528.2074   24205544.0434  127200766.073 5  99117464.91841
     -2719.927       -2119.403
  22298062.540    22298062.627    22298070.555   119196050.501 6  92708089.501 5
     -1063.564        -827.214
  21196659.840    21196659.491    21196667.027   113109633.999 7  87974242.996 6
      2665.959        2073.521
  23512792.078    23512789.927    23512808.458   125865964.141 5  97895827.995 4
      4791.343        3726.556
  21429045.513    21429045.139    21429053.293   114510339.695 6  89063626.567 4
     -2935.891       -2283.457
  21013998.764    21013998.543    21014006.185   112253043.611 7  87307955.406 6
      1041.093         809.740
  22959378.631    22959377.748    22959387.380   122774097.036 5  95491002.220 5
     -2130.121       -1656.749
  20115817.635    20115817.343    20115821.479   107643893.669 8  83723093.952 6
      -214.070        -166.496
  21089371.336    21089371.123    21089376.677   112576583.360 7  87559609.964 6
      2282.409        1775.207
 11 10 10 12 57 30.0000000  0 17G03G06G16G18G21G22G29G30G31R05R06R07
                                R11R12R20R21R22
  21880489.675    21880488.9384   21880497.9944  114982813.285 6  89597027.70643
      3077.173        2397.801
  21539909.899    21539909.3874   21539917.9644  113193069.979 7  88202430.99445
      2184.629        1702.306
  21319572.635    21319571.9864   21319579.1774  112035167.974 8  87300157.49645
      2373.016        1849.102
  22151749.944    22151749.4194   22151757.9224  116408476.246 7  90707883.39344
      2089.473        1628.169
  21191922.192    21191921.4964   21191928.1384  111364445.607 8  86777490.34946
      -809.246        -630.581
  23376263.661    23376262.3804   23376274.5004  122843465.332 6  95722119.51642
      3710.513        2891.271
  23754544.089    23754544.0804   23754554.6544  124830943.738 5  97270872.60141
     -2048.787       -1596.443
  22353769.479    22353768.6774   22353779.9804  117469818.911 6  91534940.35043
     -2908.989       -2266.746
  24221057.581    24221058.0344   24221073.4524  127282372.232 5  99181053.44441
     -2720.229       -2119.633
  22304100.218    22304100.470    22304108.313   119228323.248 6  92733190.487 5
     -1087.758        -846.033
  21181732.989    21181732.368    21181739.212   113029977.836 7  87912288.336 6
      2644.639        2056.938
  23485939.631    23485939.403    23485956.815   125722231.253 5  97784037.203 4
      4791.169        3726.419
  21445569.860    21445569.377    21445577.886   114598639.795 6  89132304.295 4
     -2950.600       -2294.909
  21008229.241    21008229.022    21008236.947   112222225.550 7  87283985.798 6
      1013.586         788.344
  22971330.882    22971332.328    22971341.511   122838018.697 5  95540718.926 5
     -2131.259       -1657.646
  20117037.136    20117036.953    20117041.722   107650423.028 8  83728172.333 6
      -221.029        -171.912
  21076560.430    21076560.143    21076565.801   112508196.781 7  87506420.449 6
      2276.879        1770.908
 11 10 10 12 58  0.0000000  0 17G03G06G16G18G21G22G29G30G31R05R06R07
                                R11R12R20R21R22
  21862938.080    21862936.8274   21862945.8394  114890574.244 6  89525153.21343
      3072.208        2393.924
  21527454.096    21527453.4704   21527461.9894  113127614.624 7  88151426.86245
      2179.231        1698.095
  21306063.776    21306063.3964   21306070.6994  111964179.102 8  87244841.51645
      2359.758        1838.771
  22139861.116    22139860.1044   22139868.4424  116345998.741 7  90659199.73244
      2075.910        1617.589
  21196571.071    21196570.6084   21196577.3404  111388876.969 8  86796527.75946
      -819.277        -638.398
  23355091.820    23355091.4254   23355103.4104  122732207.366 5  95635425.33342
      3706.890        2888.482
  23766248.065    23766247.3364   23766258.7604  124892446.393 5  97318796.60141
     -2051.250       -1598.357
  22370402.777    22370402.2684   22370413.9104  117557229.520 6  91603052.35443
     -2918.116       -2273.847
  24236589.492    24236590.6734   24236606.0064  127363989.012 5  99244650.17841
     -2720.541       -2119.825
  22310272.889    22310272.566    22310281.509   119261318.286 6  92758853.258 5
     -1111.747        -864.691
  21166924.606    21166924.486    21166931.284   112950963.231 7  87850832.661 6
      2623.179        2040.241
  23459089.472    23459088.371    23459104.825   125578500.531 5  97672248.072 4
      4791.099        3726.360
  21462177.598    21462176.025    21462184.551   114687380.108 6  89201324.407 5
     -2965.197       -2306.260
  21002614.652    21002614.567    21002622.528   112192233.583 7  87260658.724 6
       986.068         766.941
  22983291.001    22983291.497    22983300.615   122901971.941 5  95590460.195 5
     -2132.206       -1658.386
  20118296.344    20118295.939    20118300.688   107657161.369 8  83733413.251 6
      -228.012        -177.348
  21063781.263    21063780.559    21063785.772   112439976.238 7  87453360.074 6
      2271.350        1766.601
 11 10 10 12 58 30.0000000  0 17G03G06G16G18G21G22G29G30G31R05R06R07
                                R11R12R20R21R22
  21845412.691    21845412.8734   21845422.0174  114798485.441 7  89453395.77843
      3067.075        2389.928
  21515029.320    21515029.0184   21515037.5384  113062321.952 7  88100549.49945
      2173.656        1693.762
  21292630.909    21292630.3084   21292637.7774  111893588.967 8  87189836.24445
      2346.332        1828.312
  22128049.424    22128048.7154   22128057.1304  116283929.553 7  90610834.22744
      2062.149        1606.867
  21201277.464    21201276.9654   21201283.4884  111413608.530 8  86815799.09846
      -829.363        -646.257
  23333941.596    23333940.6754   23333953.3234  122621061.377 6  95548818.43242
      3702.970        2885.408
  23777964.943    23777965.8704   23777977.0794  124954024.060 5  97366779.05641
     -2053.769       -1600.326
  22387088.550    22387087.2444   22387098.6664  117644910.276 6  91671374.88343
     -2927.226       -2280.943
  24252123.172    24252124.4994   24252139.1054  127445612.770 5  99308252.37741
     -2720.873       -2120.135
  22316580.277    22316579.853    22316588.123   119295033.248 6  92785075.947 5
     -1135.787        -883.389
  21152238.630    21152238.062    21152244.470   112872593.304 7  87789878.397 6
      2601.560        2023.426
  23432238.428    23432237.456    23432253.501   125434773.624 5  97560461.881 4
      4790.716        3726.058
  21478863.881    21478863.518    21478872.433   114776555.171 6  89270682.658 4
     -2979.722       -2317.556
  20997154.802    20997154.557    20997162.253   112163067.203 7  87237973.757 6
       958.455         745.463
  22995256.353    22995256.776    22995266.815   122965956.554 4  95640225.866 5
     -2133.322       -1659.243
  20119594.498    20119594.389    20119598.843   107664107.993 8  83738816.166 6
      -235.033        -182.806
  21051031.623    21051031.570    21051036.929   112371921.172 7  87400428.401 6
      2265.713        1762.219
 11 10 10 12 59  0.0000000  0 17G03G06G16G18G21G22G29G30G31R05R06R07
                                R11R12R20R21R22
  21827917.609    21827917.4084   21827926.2764  114706546.118 6  89381754.81643
      3061.893        2385.882
  21502635.047    21502634.5814   21502643.2514  112997190.505 7  88049797.76945
      2168.073        1689.404
  21279273.772    21279273.3644   21279280.9174  111823397.815 8  87135141.86745
      2332.769        1817.745
  22116316.192    22116315.2054   22116323.2544  116222268.607 7  90562786.84044
      2048.313        1596.086
  21206040.329    21206039.6614   21206046.2824  111438636.821 8  86835301.65046
      -839.433        -654.104
  23312813.370    23312810.9694   23312823.5764  122510028.162 6  95462299.38942
      3698.941        2882.296
  23789697.738    23789697.0934   23789708.9454  125015674.698 5  97414818.37541
     -2056.448       -1602.432
  22403824.234    22403823.4084   22403834.7304  117732857.027 6  91739904.67843
     -2936.233       -2287.966
  24267656.253    24267656.5654   24267671.3614  127527238.626 5  99371856.15041
     -2721.092       -2120.304
  22323022.169    22323021.227    22323029.712   119329464.054 6  92811855.449 5
     -1159.838        -902.097
  21137672.955    21137672.697    21137679.073   112794869.047 7  87729426.323 6
      2579.760        2006.474
  23405390.264    23405389.002    23405403.671   125291052.886 5  97448680.444 4
      4790.250        3725.706
  21495632.838    21495631.657    21495640.274   114866158.754 6  89340374.195 4
     -2994.149       -2328.780
  20991848.973    20991849.102    20991856.740   112134724.826 7  87215929.698 6
       930.736         723.908
  23007228.262    23007228.107    23007238.368   123029970.021 4  95690013.987 5
     -2134.508       -1660.174
  20120931.642    20120931.200    20120935.211   107671260.594 8  83744379.281 6
      -242.128        -188.316
  21038312.442    21038312.517    21038318.329   112304029.422 7  87347623.764 6
      2260.101        1757.853
 11 10 10 12 59 30.0000000  0 17G03G06G16G18G21G22G29G30G31R05R06R07
                                R11R12R20R21R22
  21810453.556    21810452.8744   21810461.9954  114614771.558 7  89310242.24043
      3056.601        2381.772
  21490274.248    21490274.2124   21490282.3794  112932235.207 7  87999183.28345
      2162.431        1685.004
  21265996.008    21265995.4324   21266002.2684  111753622.065 8  87080771.17645
      2319.109        1807.096
  22104662.588    22104661.9494   22104670.3934  116161031.597 7  90515069.79744
      2034.320        1585.175
  21210861.794    21210861.2154   21210867.9824  111463974.458 8  86855045.25046
      -849.537        -661.977
  23291708.653    23291706.7924   23291718.5714  122399124.539 6  95375881.32342
      3694.800        2879.053
  23801446.380    23801445.8274   23801458.5064  125077412.542 5  97462925.66041
     -2059.184       -1604.559
  22420612.710    22420612.2774   22420623.5594  117821081.605 6  91808650.95043
     -2945.232       -2294.976
  24283193.092    24283190.8024   24283208.8744  127608878.038 5  99435470.51141
     -2721.292       -2120.455
  22329599.127    22329598.356    22329607.022   119364623.170 6  92839201.349 5
     -1183.819        -920.748
  21123232.039    21123231.707    21123237.417   112717808.529 7  87669490.486 6
      2557.831        1989.422
  23378545.987    23378544.956    23378558.647   125147357.520 5  97336918.707 4
      4789.628        3725.233
  21512483.318    21512482.319    21512490.989   114956200.676 6  89410406.681 4
     -3008.460       -2339.911
  20986700.383    20986700.222    20986708.026   112107221.726 7  87194538.391 6
       902.948         702.293
  23019208.690    23019207.643    23019217.111   123094027.233 4  95739836.101 5
     -2135.799       -1661.175
  20122309.199    20122309.091    20122313.449   107678633.647 8  83750113.868 6
      -249.235        -193.845
  21025627.568    21025627.250    21025633.422   112236315.346 7  87294957.306 6
      2254.390        1753.411
 11 10 10 13  0  0.0000000  1 17G03G06G16G18G21G22G29G30G31R05R06R07
                                R11R12R20R21R22
  21793018.971    21793018.1474   21793027.6204  114523154.896 7  89238852.69343
      3051.278        2377.611
  21477945.913    21477945.4964   21477953.8294  112867448.239 7  87948699.96445
      2156.814        1680.630
  21252796.199    21252795.7854   21252802.4854  111684255.540 8  87026719.37045
      2305.396        1796.409
  22093088.875    22093088.4794   22093096.9834  116100212.665 7  90467678.51944
      2020.360        1574.301
  21215740.632    21215740.0264   21215746.5274  111489611.930 8  86875022.48446
      -859.538        -669.771
  23270627.680    23270626.6894   23270637.6924  122288345.354 6  95289560.23442
      3690.506        2875.695
  23813209.472    23813208.9104   23813221.8164  125139229.270 5  97511094.41041
     -2061.839       -1606.644
  22437452.578    22437451.6134   22437463.4744  117909573.725 6  91877605.71443
     -2954.105       -2301.907
  24298730.348    24298729.4224   24298745.5684  127690519.900 5  99499086.71341
     -2721.379       -2120.512
  22336311.061    22336310.426    22336317.858   119400500.205 6  92867105.680 5
     -1207.802        -939.408
  21108914.507    21108913.784    21108920.278   112641406.574 7  87610066.860 6
      2535.759        1972.254
  23351704.650    23351704.289    23351718.359   125003683.971 5  97225173.908 4
      4788.621        3724.433
  21529412.259    21529411.740    21529420.905   115046668.216 6  89480770.202 4
     -3022.628       -2350.930
  20981706.518    20981706.783    20981715.282   112080549.752 7  87173793.519 6
       875.246         680.747
  23031193.845    23031193.254    23031202.366   123158118.879 4  95789685.016 5
     -2136.913       -1662.034
  20123726.271    20123726.323    20123730.625   107686217.996 8  83756012.797 6
      -256.336        -199.371
  21012974.248    21012973.868    21012979.547   112168770.674 7  87242422.611 6
      2248.658        1748.954
 11 10 10 13  0 30.0000000  0 17G03G06G16G18G21G22G29G30G31R05R06R07
                                R11R12R20R21R22
  21775616.197    21775615.9684   21775625.6574  114431703.733 7  89167592.09443
      3045.362        2373.007
  21465650.961    21465650.6864   21465658.6804  112802837.182 7  87898353.73045
      2150.531        1675.734
  21239675.835    21239675.2684   21239681.7864  111615307.296 8  86972993.49545
      2291.073        1785.252
  22081597.019    22081596.2454   22081604.1864  116039820.208 7  90420619.56244
      2005.714        1562.888
  21220677.034    21220676.4904   21220683.1984  111515554.270 8  86895237.28046
      -870.052        -677.964
  23249571.907    23249570.7764   23249582.1624  122177700.022 6  95203343.41942
      3685.667        2871.943
  23824989.650    23824989.5324   23825001.2794  125201131.457 5  97559329.74341
     -2065.082       -1609.159
  22454343.948    22454343.2204   22454354.3124  117998337.731 6  91946772.32143
     -2963.567       -2309.262
  24314266.178    24314266.7014   24314283.7454  127772168.070 5  99562707.87641
     -2721.932       -2120.981
  22343157.208    22343157.068    22343164.961   119437100.043 6  92895572.178 5
     -1232.276        -958.433
  21094721.583    21094721.288    21094728.184   112565673.793 7  87551163.681 6
      2513.020        1954.567
  23324869.670    23324868.707    23324884.024   124860040.030 5  97113452.095 4
      4787.320        3723.427
  21546421.668    21546421.859    21546430.984   115137563.488 6  89551466.377 4
     -3037.155       -2362.229
  20976870.849    20976870.981    20976879.908   112054715.919 7  87153700.533 6
       846.913         658.711
  23043185.087    23043186.940    23043195.603   123222253.102 4  95839567.044 5
     -2138.658       -1663.399
  20125185.186    20125184.705    20125188.714   107694020.830 8  83762081.649 6
      -263.941        -205.287
  21000354.504    21000354.254    21000358.688   112101402.199 7  87190024.963 6
      2242.445        1744.121
 11 10 10 13  1  0.0000000  0 17G03G06G16G18G21G22G29G30G31R05R06R07
                                R11R12R20R21R22
  21758245.647    21758245.2674   21758254.8364  114340420.056 7  89096462.01543
      3040.277        2369.042
  21453389.459    21453389.1114   21453397.4094  112738403.493 7  87848145.69545
      2145.116        1671.520
  21226635.623    21226634.8814   21226641.6524  111546780.523 8  86919596.04445
      2277.467        1774.651
  22070186.168    22070185.7284   22070193.5124  115979857.330 7  90373895.33744
      1991.860        1552.097
  21225671.764    21225671.2234   21225678.0884  111541801.315 8  86915689.51046
      -879.681        -685.469
  23228543.152    23228542.2054   23228552.4664  122067192.280 6  95117233.81542
      3681.542        2868.722
  23836785.430    23836785.9274   23836796.7904  125263120.404 5  97607632.69541
     -2067.437       -1610.986
  22471286.521    22471285.8894   22471297.2474  118087372.425 6  92016149.86543
     -2971.999       -2315.837
  24329804.853    24329805.6294   24329823.7144  127853820.626 5  99626332.37641
     -2721.474       -2120.586
  22350139.376    22350138.739    22350146.891   119474421.696 6  92924600.084 5
     -1255.754        -976.696
  21080655.806    21080655.318    21080661.904   112490614.630 7  87492784.421 6
      2491.006        1937.446
  23298040.772    23298040.609    23298056.284   124716433.493 5  97001759.353 4
      4786.399        3722.717
  21563511.727    21563511.345    21563520.166   115228883.259 6  89622492.717 4
     -3050.735       -2372.788
  20972192.302    20972192.087    20972200.217   112029721.978 7  87134260.790 6
       819.450         637.352
  23055189.166    23055188.419    23055197.561   123286430.471 4  95889482.635 5
     -2139.766       -1664.255
  20126684.246    20126683.636    20126687.982   107702042.929 8  83768321.048 6
      -270.770        -210.601
  20987766.390    20987766.105    20987772.064   112034210.911 7  87137765.133 6
      2237.054        1739.924
 11 10 10 13  1 30.0000000  0 17G03G06G16G18G21G22G29G30G31R05R06R07
                                R11R12R20R21R22
  21740906.214    21740905.7614   21740914.6434  114249298.866 7  89025458.55043
      3034.548        2364.584
  21441160.683    21441160.7184   21441168.6974  112674141.441 7  87798071.39845
      2139.078        1666.813
  21213674.339    21213673.8164   21213681.1934  111478670.997 7  86866523.71145
      2263.223        1763.554
  22058856.262    22058855.6444   22058863.7944  115920319.272 7  90327502.13344
      1977.376        1540.810
  21230723.053    21230722.4354   21230728.9144  111568345.120 8  86936372.97845
      -889.837        -693.375
  23207538.592    23207538.2854   23207549.3214  121956818.631 6  95031228.69242
      3676.724        2864.978
  23848597.810    23848597.2004   23848608.0214  125325188.791 5  97655997.53942
     -2070.373       -1613.263
  22488279.066    22488278.7064   22488290.2414  118176669.165 6  92085731.58043
     -2980.990       -2322.844
  24345342.085    24345342.5064   24345361.4424  127935468.458 5  99689953.21441
     -2721.631       -2120.726
  22357253.649    22357253.313    22357261.518   119512456.342 6  92954182.563 5
     -1279.838        -995.424
  21066714.524    21066714.398    21066721.411   112416225.728 7  87434926.469 6
      2468.291        1919.781
  23271220.183    23271219.101    23271234.818   124572861.337 5  96890093.325 4
      4784.942        3721.591
  21580678.352    21580678.172    21580687.347   115320616.152 6  89693840.384 4
     -3064.775       -2383.714
  20967668.765    20967668.950    20967677.569   112005561.006 7  87115468.934 6
       791.385         615.523
  23067196.748    23067196.099    23067205.614   123350644.142 4  95939426.445 5
     -2141.223       -1665.387
  20128222.463    20128222.530    20128226.763   107710277.624 8  83774725.800 6
      -278.161        -216.346
  20975211.531    20975211.320    20975216.416   111967190.324 7  87085638.067 6
      2231.044        1735.258
 11 10 10 13  2  0.0000000  0 17G03G06G16G18G21G22G29G30G31R05R06R07
                                R11R12R20R21R22
  21723597.680    21723597.3404   21723606.8934  114158345.662 6  88954585.98643
      3028.772        2360.078
  21428965.874    21428965.3844   21428973.7854  112610056.075 7  87748134.78545
      2133.052        1662.113
  21200794.224    21200793.8964   21200801.2354  111410985.198 8  86813781.55845
      2248.933        1752.418
  22047608.062    22047607.7204   22047615.8324  115861212.711 7  90281445.15744
      1962.822        1529.475
  21235831.274    21235830.7434   21235837.1384  111595188.930 8  86957290.21745
      -899.959        -701.269
  23186562.290    23186561.3614   23186573.4444  121846586.401 6  94945333.77142
      3671.867        2861.184
  23860424.211    23860424.5314   23860435.3914  125387341.527 5  97704428.09941
     -2073.350       -1615.590
  22505322.211    22505321.9704   22505333.4304  118266230.034 6  92155519.11843
     -2989.919       -2329.808
  24360878.510    24360879.5654   24360899.2794  128017113.298 5  99753571.69041
     -2721.569       -2120.678
  22364503.513    22364503.232    22364511.612   119551206.459 6  92984321.497 5
     -1303.730       -1014.011
  21052901.771    21052901.653    21052907.556   112342515.008 7  87377595.998 6
      2445.527        1902.071
  23244406.922    23244406.348    23244420.957   124429332.768 5  96778461.146 4
      4783.295        3720.293
  21597923.125    21597922.652    21597931.783   115412762.212 6  89765509.388 4
     -3078.556       -2394.433
  20963303.781    20963303.413    20963310.810   111982238.552 7  87097329.246 6
       763.254         593.642
  23079212.636    23079212.330    23079221.734   123414899.471 4  95989402.654 5
     -2142.767       -1666.596
  20129802.217    20129801.791    20129805.975   107718729.321 8  83781299.331 6
      -285.518        -222.068
  20962688.890    20962688.627    20962694.418   111900344.923 7  87033647.253 6
      2225.093        1730.628
 11 10 10 13  2 30.0000000  0 17G03G06G16G18G21G22G29G30G31R05R06R07
                                R11R12R20R21R22
  21706323.730    21706323.3064   21706332.7484  114067568.021 7  88883850.22443
      3023.279        2355.800
  21416805.739    21416805.1044   21416813.8224  112546154.913 7  87698341.70945
      2127.219        1657.570
  21187996.487    21187995.9704   21188003.0674  111343732.066 8  86761376.55445
      2234.826        1741.418
  22036444.463    22036443.9484   22036451.4044  115802546.242 7  90235731.11044
      1948.497        1518.315
  21240997.344    21240996.8844   21241003.5624  111622338.164 8  86978445.44845
      -909.752        -708.897
  23165614.407    23165612.9254   23165625.2594  121736505.271 6  94859556.59942
      3667.101        2857.468
  23872269.569    23872268.5124   23872281.6334  125449585.635 5  97752929.86341
     -2076.048       -1617.707
  22522417.143    22522415.8514   22522427.6764  118356059.836 6  92225516.19243
     -2998.484       -2336.472
  24376416.243    24376416.8044   24376435.9814  128098759.515 5  99817191.20541
     -2721.292       -2120.458
  22371887.469    22371887.375    22371894.698   119590676.839 6  93015020.633 5
     -1327.343       -1032.375
  21039217.484    21039217.009    21039223.012   112269492.484 7  87320800.790 6
      2422.833        1884.421
  23217604.240    23217603.720    23217616.411   124285857.781 5  96666870.605 4
      4781.898        3719.218
  21615244.972    21615244.486    21615253.615   115505324.212 6  89837501.901 4
     -3091.976       -2404.867
  20959095.350    20959095.168    20959103.231   111959761.171 7  87079846.846 6
       735.419         571.993
  23091235.557    23091238.023    23091246.859   123479203.195 4  96039416.525 5
     -2144.072       -1667.615
  20131423.566    20131423.370    20131427.768   107727405.031 8  83788047.095 6
      -292.641        -227.609
  20950201.189    20950200.889    20950206.287   111833681.833 7  86981798.230 6
      2219.377        1726.181
 11 10 10 13  3  0.0000000  0 17G03G06G16G18G21G22G29G30G31R05R06R07
                                R11R12R20R21R22
  21689081.686    21689081.3784   21689091.3104  113976962.858 7  88813248.86943
      3017.299        2351.135
  21404680.330    21404679.8244   21404688.0934  112482434.380 8  87648689.38345
      2121.035        1652.755
  21175280.533    21175279.9564   21175286.8624  111276909.304 8  86709306.89345
      2220.272        1730.080
  22025363.504    22025362.7954   22025371.0154  115744316.840 7  90190357.63744
      1933.714        1506.794
  21246220.623    21246220.0494   21246226.8144  111649786.426 8  86999833.68745
      -919.883        -716.791
  23144694.130    23144694.0344   23144705.9674  121626573.857 6  94773896.09942
      3661.870        2853.414
  23884130.187    23884130.5024   23884142.5574  125511916.182 5  97801498.98241
     -2079.031       -1620.035
  22539560.866    22539559.8074   22539570.7674  118446151.807 6  92295717.56843
     -3007.316       -2343.367
  24391952.927    24391953.1364   24391971.2534  128180399.474 5  99880805.81141
     -2721.133       -2120.341
  22379404.881    22379404.495    22379412.600   119630860.744 6  93046274.722 5
     -1351.316       -1051.020
  21025662.164    21025661.549    21025667.863   112197157.579 7  87264540.397 6
      2399.721        1866.446
  23190812.403    23190810.357    23190822.348   124142435.570 5  96555321.074 4
      4779.811        3717.596
  21632642.486    21632642.368    21632651.254   115598292.829 6  89909810.676 4
     -3105.631       -2415.491
  20955045.126    20955045.178    20955052.733   111938124.735 7  87063018.504 6
       707.235         550.071
  23103272.460    23103271.663    23103280.873   123543551.020 4  96089464.692 5
     -2145.640       -1668.826
  20133085.810    20133085.516    20133090.043   107736299.882 8  83794965.298 6
      -300.117        -233.426
  20937745.084    20937745.060    20937751.410   111767196.467 7  86930087.436 6
      2213.244        1721.411
 11 10 10 13  3 30.0000000  0 17G03G06G16G18G21G22G29G30G31R05R06R07
                                R11R12R20R21R22
  21671872.569    21671872.2754   21671881.4324  113886527.476 7  88742779.81343
      3011.645        2346.732
  21392588.223    21392587.6604   21392595.9174  112418890.844 7  87599174.97545
      2115.129        1648.144
  21162646.081    21162645.5114   21162652.3374  111210515.135 8  86657571.19845
      2205.938        1718.912
  22014365.706    22014364.8794   22014372.9214  115686522.738 7  90145323.33744
      1919.175        1495.463
  21251499.841    21251498.9644   21251505.9584  111677528.355 8  87021450.75745
      -929.637        -724.396
  23123803.550    23123802.8924   23123814.5594  121516790.861 6  94688351.24342
      3656.906        2849.523
  23896006.742    23896008.2834   23896018.9794  125574329.447 5  97850132.55141
     -2081.871       -1622.239
  22556753.385    22556753.2844   22556764.0754  118536499.598 6  92366118.28243
     -3015.896       -2350.033
  24407486.296    24407487.9164   24407504.9794  128262026.117 4  99944410.03341
     -2720.664       -2119.955
  22387054.707    22387053.597    22387062.031   119671751.791 6  93078078.840 5
     -1374.854       -1069.327
  21012234.390    21012234.200    21012240.951   112125509.246 7  87208813.995 6
      2376.787        1848.608
  23164029.933    23164027.340    23164039.234   123999068.010 5  96443814.012 4
      4778.230        3716.367
  21650115.445    21650114.380    21650123.812   115691659.586 6  89982429.103 4
     -3118.833       -2425.750
  20951151.148    20951151.306    20951158.628   111917324.984 7  87046840.920 6
       679.348         528.381
  23115311.202    23115312.224    23115321.420   123607938.192 4  96139543.447 5
     -2146.884       -1669.798
  20134788.103    20134787.792    20134792.240   107745409.805 8  83802050.789 6
      -307.292        -239.010
  20925322.837    20925322.976    20925329.026   111700884.997 7  86878511.893 6
      2207.482        1716.928
 11 10 10 13  4  0.0000000  0 17G03G06G16G18G21G22G29G30G31R05R06R07
                                R11R12R20R21R22
  21654696.173    21654695.9384   21654704.7374  113796263.686 7  88672444.46244
      3005.931        2342.274
  21380529.814    21380529.9764   21380537.8224  112355525.962 7  87549799.78045
      2109.203        1643.534
  21150093.671    21150093.1524   21150099.9484  111144552.445 8  86606171.72945
      2191.572        1707.714
  22003450.891    22003450.4724   22003458.5324  115629166.322 7  90100630.09644
      1904.597        1484.092
  21256834.572    21256834.0404   21256840.8534  111705562.920 8  87043295.86445
      -939.315        -731.935
  23102941.668    23102940.5584   23102952.0694  121407159.694 6  94602924.70842
      3651.810        2845.552
  23907900.095    23907900.0594   23907911.8094  125636826.137 5  97898831.13041
     -2084.651       -1624.419
  22573994.494    22573993.5924   22574005.4734  118627101.617 6  92436717.08843
     -3024.261       -2356.552
  24423015.584    24423017.6274   24423036.5084  128343637.313 5 100008002.21441
     -2720.078       -2119.546
  22394837.057    22394835.667    22394843.208   119713348.486 6  93110431.732 5
     -1398.310       -1087.574
  20998937.278    20998936.561    20998942.682   112054550.900 7  87153624.255 6
      2353.729        1830.674
  23137256.717    23137254.770    23137266.470   123855757.422 5  96332351.245 4
      4776.198        3714.780
  21667660.183    21667660.625    21667669.687   115785420.579 6  90055354.156 4
     -3131.844       -2435.876
  20947414.060    20947414.295    20947421.883   111897363.035 7  87031314.946 6
       651.459         506.688
  23127360.725    23127360.446    23127369.734   123672366.303 4  96189654.044 5
     -2148.222       -1670.830
  20136530.894    20136530.405    20136534.906   107754735.536 8  83809304.135 6
      -314.414        -244.550
  20912932.944    20912932.839    20912938.970   111634747.788 7  86827071.888 6
      2201.697        1712.423
 11 10 10 13  4 30.0000000  0 17G03G06G16G18G21G22G29G30G31R05R06R07
                                R11R12R20R21R22
  21637551.794    21637551.4194   21637560.5404  113706171.844 7  88602243.10443
      3000.090        2337.730
  21368505.810    21368505.6154   21368513.6164  112292339.363 7  87500563.51145
      2103.146        1638.809
  21137623.687    21137623.2024   21137630.4674  111079022.460 8  86555109.43245
      2177.006        1696.366
  21992619.902    21992619.3594   21992627.5504  115572248.614 7  90056278.69844
      1889.832        1472.586
  21262224.665    21262224.2294   21262230.8134  111733888.735 8  87065367.91545
      -949.142        -739.592
  23082108.054    23082106.9124   23082118.5014  121297682.604 6  94517618.24842
      3646.599        2841.488
  23919808.553    23919808.1594   23919821.2154  125699404.869 5  97947593.62942
     -2087.404       -1626.550
  22591283.494    22591282.3864   22591294.4174  118717955.019 6  92507511.76443
     -3032.688       -2363.128
  24438545.740    24438545.4874   24438563.2244  128425230.027 5 100071579.93141
     -2719.547       -2119.112
  22402748.930    22402747.984    22402756.806   119755647.793 6  93143331.168 5
     -1421.754       -1105.810
  20985769.071    20985768.777    20985775.366   111984285.536 7  87098973.489 6
      2330.514        1812.618
  23110495.953    23110494.598    23110505.460   123712509.289 5  96220936.977 4
      4773.910        3713.003
  21685279.954    21685279.705    21685289.114   115879570.590 6  90128581.793 4
     -3144.849       -2445.993
  20943833.726    20943833.734    20943842.105   111878237.984 7  87016439.906 6
       623.454         484.908
  23139417.100    23139417.830    23139426.356   123736834.244 4  96239795.611 5
     -2149.696       -1671.978
  20138314.025    20138313.465    20138317.703   107764276.097 8  83816724.559 6
      -321.668        -250.186
  20900576.378    20900576.184    20900581.526   111568784.266 7  86775766.972 6
      2195.770        1707.818
 11 10 10 13  5  0.0000000  0 17G03G06G16G18G21G22G29G30G31R05R06R07
                                R11R12R20R21R22
  21620443.211    21620442.3824   21620450.8704  113616261.625 7  88532183.26443
      2994.158        2333.105
  21356517.796    21356517.3964   21356525.4234  112229340.444 8  87451473.48145
      2096.997        1634.023
  21125238.136    21125237.6134   21125244.7184  111013936.011 8  86504392.74145
      2162.307        1684.921
  21981874.425    21981873.8084   21981882.1154  115515779.980 7  90012277.22844
      1874.950        1461.010
  21267671.758    21267671.1914   21267677.9294  111762512.496 8  87087672.13545
      -958.891        -747.184
  23061305.924    23061304.7784   23061316.4464  121188370.454 6  94432440.30942
      3641.122        2837.221
  23931734.598    23931734.9264   23931747.6154  125762074.453 5  97996426.91742
     -2090.361       -1628.850
  22608621.725    22608620.7454   22608632.4144  118809066.020 6  92578507.18043
     -3041.126       -2369.695
  24454070.196    24454071.6784   24454089.6714  128506810.114 5 100135147.79141
     -2718.848       -2118.547
  22410794.189    22410793.429    22410801.836   119798656.014 6  93176781.972 5
     -1445.201       -1124.047
  20972733.397    20972733.048    20972739.806   111914724.893 7  87044870.846 6
      2307.087        1794.403
  23083749.241    23083748.458    23083759.308   123569335.378 5  96109580.379 4
      4771.115        3710.846
  21702973.773    21702972.470    21702981.569   115974113.548 6  90202115.041 4
     -3157.725       -2456.007
  20940412.172    20940412.045    20940419.830   111859958.571 7  87002222.563 6
       595.408         463.096
  23151482.191    23151481.325    23151490.888   123801351.000 4  96289975.160 5
     -2151.170       -1673.128
  20140138.115    20140137.920    20140142.644   107774040.016 8  83824318.710 6
      -329.008        -255.892
  20888253.684    20888253.505    20888258.525   111503003.485 7  86724604.185 6
      2189.806        1703.180
 11 10 10 13  5 30.0000000  0 18G03G06G16G18G19G21G22G29G30G31R05R06
                                R07R11R12R20R21R22
  21603366.399    21603365.9204   21603374.9154  113526525.022 7  88462258.70243
      2988.310        2328.552
  21344563.167    21344562.8044   21344571.1914  112166520.624 8  87402523.01045
      2091.004        1629.356
  21112935.426    21112934.9054   21112942.5134  110949286.081 8  86454016.20245
      2147.722        1673.549
  21971213.215    21971212.3184   21971220.3464  115459752.995 7  89968619.89644
      1860.164        1449.484
  24546002.831    24546002.7594   24546012.4724  128990122.948 4 100511791.9644
      3255.409        2536.672
  21273173.295    21273172.6204   21273179.7334  111791423.697 8  87110200.33245
      -968.461        -754.646
  23040534.326    23040533.4794   23040544.7764  121079217.320 6  94347386.26842
      3635.712        2833.005
  23943675.861    23943675.2624   23943688.8804  125824825.681 5  98045323.80541
     -2093.019       -1630.910
  22626005.244    22626004.8324   22626016.9984  118900423.059 6  92649694.29443
     -3049.294       -2376.071
  24469590.066    24469589.1024   24469609.8124  128588365.420 5 100198696.31941
     -2718.101       -2117.948
  22418970.613    22418970.155    22418978.420   119842361.358 6  93210774.940 5
     -1468.457       -1142.135
  20959828.749    20959828.391    20959835.156   111845862.485 7  86991311.266 6
      2283.745        1776.241
  23057015.963    23057014.020    23057025.033   123426230.350 5  95998277.330 4
      4768.823        3709.058
  21720736.156    21720735.696    21720744.327   116069035.701 6  90275943.210 4
     -3170.370       -2465.837
  20937146.884    20937146.796    20937154.780   111842515.084 7  86988655.389 6
       567.564         441.442
  23163554.636    23163553.918    23163564.038   123865907.528 4  96340185.645 5
     -2152.478       -1674.149
  20142002.998    20142002.659    20142006.950   107784018.123 8  83832079.449 6
      -336.177        -261.475
  20875963.536    20875962.739    20875967.998   111437395.675 7  86673575.929 6
      2184.055        1698.708
 11 10 10 13  6  0.0000000  0 18G03G06G16G18G19G21G22G29G30G31R05R06
                                R07R11R12R20R21R22
  21586323.801    21586322.9774   21586331.6974  113436964.050 7  88392471.00844
      2982.559        2324.072
  21332643.527    21332643.3394   21332651.2604  112103881.747 8  87353713.53345
      2085.062        1624.721
  21100716.533    21100716.2674   21100723.8114  110885075.687 8  86403982.15345
      2133.123        1662.173
  21960635.895    21960635.4844   21960643.6264  115404170.520 7  89925308.92844
      1845.437        1437.996
  24527423.324    24527424.0464   24527429.4794  128892479.455 4 100435706.32741
      3254.198        2535.721
  21278729.666    21278728.9734   21278735.7944  111820621.489 8  87132951.84645
      -977.907        -762.008
  23019794.267    23019793.1214   23019804.6154  120970227.228 6  94262459.28742
      3630.435        2828.894
  23955633.421    23955633.5944   23955644.7794  125887659.745 5  98094285.27641
     -2095.726       -1633.029
  22643437.066    22643436.3224   22643448.2854  118992024.995 6  92721072.24343
     -3057.355       -2382.339
  24485105.080    24485106.0084   24485124.0574  128669894.070 5 100262224.07441
     -2717.019       -2117.132
  22427275.652    22427275.718    22427284.523   119886762.662 6  93245309.271 5
     -1491.525       -1160.068
  20947055.202    20947055.368    20947061.509   111777702.630 7  86938298.107 6
      2260.372        1758.065
  23030295.267    23030294.189    23030305.313   123283202.531 5  95887034.271 4
      4766.476        3707.220
  21738570.676    21738569.569    21738578.480   116164333.768 6  90350063.744 4
     -3182.669       -2475.400
  20934037.405    20934037.642    20934046.222   111825908.532 7  86975739.171 6
       539.707         419.774
  23175634.463    23175634.600    23175643.808   123930504.585 4  96390427.628 5
     -2153.842       -1675.206
  20143907.948    20143907.617    20143911.784   107794211.287 8  83840007.456 6
      -343.225        -266.952
  20863704.507    20863704.492    20863710.352   111371962.377 7  86622683.401 6
      2178.317        1694.245
 11 10 10 13  6 30.0000000  0 18G03G06G16G18G19G21G22G29G30G31R05R06
                                R07R11R12R20R21R22
  21569312.821    21569312.4124   21569321.7354  113347573.121 7  88322815.79544
      2976.921        2319.678
  21320756.834    21320756.7264   21320764.7474  112041417.349 8  87305040.00945
      2079.302        1620.234
  21088580.862    21088580.0804   21088587.5134  110821299.797 8  86354286.67745
      2118.662        1650.905
  21950142.475    21950142.0624   21950149.6724  115349027.288 7  89882340.22344
      1830.835        1426.628
  24508848.392    24508846.2994   24508858.3784  128794869.486 4 100359646.76541
      3253.140        2534.895
  21284338.918    21284338.2604   21284344.7534  111850098.084 8  87155920.60445
      -987.125        -769.188
  22999084.093    22999082.8614   22999093.6164  120861396.048 6  94177656.14042
      3625.088        2824.725
  23967604.177    23967605.3394   23967616.5744  125950569.287 5  98143305.52941
     -2098.172       -1634.917
  22660914.035    22660912.8164   22660925.4424  119083862.462 6  92792633.74242
     -3065.110       -2388.405
  24500614.780    24500614.9784   24500633.6334  128751386.545 5 100325723.61041
     -2715.795       -2116.177
  22435708.815    22435709.637    22435719.622   119931850.243 6  93280377.340 5
     -1514.249       -1177.749
  20934412.848    20934412.805    20934419.266   111710241.585 7  86885828.467 6
      2237.103        1739.965
  23003589.409    23003587.574    23003598.700   123140243.938 5  95775845.008 4
      4764.049        3705.341
  21756470.825    21756471.437    21756480.766   116259995.705 6  90424467.295 4
     -3194.695       -2484.756
  20931083.960    20931083.994    20931093.064   111810131.666 7  86963468.269 6
       512.104         398.302
  23187720.592    23187721.000    23187730.137   123995135.933 4  96440696.291 5
     -2154.895       -1676.029
  20145851.813    20145851.528    20145855.724   107804612.351 8  83848097.165 6
      -350.085        -272.285
  20851478.282    20851477.609    20851483.623   111306696.392 7  86571921.006 6
      2172.832        1689.981
 11 10 10 13  7  0.0000000  0 18G03G06G16G18G19G21G22G29G30G31R05R06
                                R07R11R12R20R21R22
  21552334.987    21552334.5284   21552343.8274  113258355.145 7  88253295.36444
      2970.805        2314.906
  21308904.200    21308904.0254   21308911.9064  111979130.444 8  87256504.80445
      2073.052        1615.363
  21076528.212    21076527.5034   21076534.7324  110757962.632 8  86304933.07245
      2103.680        1639.228
  21939733.403    21939733.1354   21939740.7164  115294326.811 7  89839716.53744
      1815.722        1414.844
  24490281.787    24490281.4364   24490289.3524  128697295.219 4 100283615.03341
      3251.635        2533.751
  21290001.298    21290000.5294   21290007.4054  111879853.625 8  87179106.72845
      -996.701        -776.652
  22978404.886    22978404.1604   22978415.4504  120752728.306 6  94092980.35642
      3619.283        2820.216
  23979590.826    23979591.1004   23979602.0594  126013556.286 5  98192386.18141
     -2101.111       -1637.229
  22678435.352    22678433.9194   22678446.2504  119175935.233 6  92864378.58442
     -3073.204       -2394.697
  24516116.055    24516115.2104   24516134.9224  128832841.765 5 100389194.08541
     -2714.883       -2115.457
  22444273.527    22444274.049    22444281.782   119977624.010 6  93315979.121 5
     -1537.375       -1195.735
  20921903.044    20921902.790    20921908.775   111643483.906 7  86833905.902 6
      2213.251        1721.412
  22976894.821    22976895.773    22976907.623   122997364.879 5  95664717.572 4
      4761.090        3703.051
  21774441.641    21774440.872    21774450.509   116356019.208 6  90499152.064 4
     -3207.006       -2494.330
  20928286.340    20928286.399    20928294.292   111795186.425 7  86951844.169 6
       484.136         376.547
  23199812.638    23199813.255    23199822.758   124059802.868 4  96490992.635 4
     -2156.416       -1677.207
  20147834.576    20147834.288    20147838.949   107815223.413 8  83856350.201 6
      -357.413        -277.990
  20839283.205    20839282.872    20839288.357   111241599.839 7  86521290.409 6
      2166.854        1685.327
 11 10 10 13  7 30.0000000  0 18G03G06G16G18G19G21G22G29G30G31R05R06
                                R07R11R12R20R21R22
  21535392.026    21535391.2534   21535400.7954  113169318.201 7  88183915.99944
      2965.023        2310.411
  21297086.288    21297086.1344   21297094.5824  111917028.322 8  87208113.57445
      2067.154        1610.763
  21064560.763    21064559.9714   21064567.0994  110695073.248 8  86255928.37945
      2088.985        1627.777
  21929410.474    21929409.5124   21929417.3494  115240077.770 7  89797444.60344
      1800.932        1403.321
  24471720.833    24471720.6274   24471731.2334  128599763.846 4 100207616.73141
      3250.493        2532.865
  21295717.792    21295717.0204   21295723.7794  111909893.741 8  87202514.59245
     -1005.920        -783.834
  22957758.911    22957757.6804   22957769.1144  120644233.367 6  94008439.20542
      3613.756        2815.921
  23991592.707    23991591.1424   23991606.0744  126076627.747 5  98241532.61441
     -2103.617       -1639.183
  22696001.156    22696000.4024   22696012.0954  119268247.925 6  92936310.37542
     -3080.895       -2400.698
  24531610.212    24531610.1414   24531631.7824  128914264.184 5 100452638.94541
     -2713.410       -2114.294
  22452965.617    22452965.633    22452974.293   120024088.193 6  93352117.865 5
     -1560.137       -1213.436
  20909526.533    20909525.900    20909531.972   111577439.873 7  86782538.376 6
      2189.682        1703.080
  22950222.833    22950221.188    22950232.614   122854574.134 5  95553658.772 4
      4758.312        3700.882
  21792480.829    21792479.164    21792487.857   116452406.747 6  90574119.973 4
     -3218.767       -2503.481
  20925645.116    20925645.301    20925654.276   111781079.259 7  86940871.910 6
       456.451         355.019
  23211914.956    23211914.344    23211924.488   124124513.025 4  96541322.594 4
     -2157.468       -1678.023
  20149857.881    20149857.683    20149861.777   107826051.112 8  83864771.730 6
      -364.388        -283.413
  20827121.761    20827121.569    20827127.075   111176679.869 7  86470797.140 6
      2161.235        1680.958
 11 10 10 13  8  0.0000000  0 18G03G06G16G18G19G21G22G29G30G31R05R06
                                R07R11R12R20R21R22
  21518481.814    21518481.2754   21518490.0104  113080454.089 7  88114671.29344
      2959.176        2305.840
  21285302.070    21285301.7494   21285310.6744  111855102.041 7  87159859.36445
      2061.219        1606.144
  21052677.001    21052676.4814   21052683.0624  110632623.952 8  86207266.61645
      2074.224        1616.279
  21919171.586    21919170.6164   21919178.2944  115186272.492 7  89755518.46944
      1786.036        1391.716
  24453169.266    24453164.9334   24453177.1264  128502266.057 5 100131644.57141
      3249.302        2531.920
  21301486.166    21301485.5884   21301492.2494  111940207.100 8  87226135.37445
     -1015.048        -790.948
  22937145.097    22937143.4624   22937154.0174  120535905.030 6  93924027.89643
      3608.083        2811.476
  24003609.406    24003608.8594   24003621.9884  126139773.885 5  98290737.26641
     -2106.192       -1641.181
  22713611.625    22713611.0324   22713621.7704  119360788.587 6  93008419.80742
     -3088.485       -2406.586
  24547097.789    24547097.5224   24547116.0064  128995641.464 4 100516048.62541
     -2711.852       -2113.051
  22461785.086    22461784.367    22461792.429   120071230.409 6  93388783.975 5
     -1582.739       -1231.017
  20897281.686    20897281.734    20897288.499   111512102.690 7  86731720.619 6
      2166.020        1684.679
  22923563.176    22923562.153    22923572.886   122711867.162 5  95442665.096 4
      4755.430        3698.641
  21810583.112    21810582.330    21810592.032   116549144.063 6  90649359.930 4
     -3230.396       -2512.527
  20923159.676    20923159.648    20923167.972   111767800.159 7  86930543.696 6
       428.785         333.497
  23224024.530    23224022.122    23224032.328   124189256.294 4  96591678.312 4
     -2158.716       -1678.992
  20151920.179    20151919.950    20151924.044   107837086.156 8  83873354.532 6
      -371.325        -288.809
  20814991.915    20814991.267    20814996.910   111111926.733 7  86420433.634 6
      2155.595        1676.570
 11 10 10 13  8 30.0000000  0 18G03G06G16G18G19G21G22G29G30G31R05R06
                                R07R11R12R20R21R22
  21501605.564    21501605.1934   21501613.7984  112991768.979 7  88045566.07444
      2953.276        2301.257
  21273552.444    21273552.2874   21273560.8514  111793357.223 7  87111746.55645
      2055.199        1601.454
  21040878.419    21040877.7884   21040884.5334  110570621.679 8  86158953.18945
      2059.379        1604.710
  21909018.365    21909017.6014   21909025.5194  115132917.251 7  89713943.01844
      1771.092        1380.072
  24434622.623    24434621.2264   24434632.0214  128404807.125 5 100055702.64441
      3248.099        2530.968
  21307307.192    21307306.6424   21307313.3074  111970797.121 8  87249971.73445
     -1024.160        -798.047
  22916563.374    22916562.8424   22916572.5834  120427751.215 6  93839752.56843
      3602.249        2806.933
  24015641.034    24015639.4504   24015651.9814  126202999.418 5  98340003.76641
     -2108.748       -1643.154
  22731264.827    22731264.1004   22731276.7784  119453559.804 6  93080708.89742
     -3096.086       -2412.537
  24562574.637    24562576.0304   24562595.7874  129076975.743 4 100579424.77341
     -2710.318       -2111.885
  22470731.726    22470731.121    22470739.618   120119053.229 6  93425979.480 5
     -1605.287       -1248.558
  20885172.142    20885171.500    20885177.729   111447480.056 8  86681458.623 6
      2142.213        1666.161
  22896920.255    22896919.681    22896930.592   122569252.847 5  95331743.470 4
      4752.323        3696.229
  21828751.163    21828750.851    21828760.613   116646231.178 6  90724871.954 4
     -3241.940       -2521.509
  20920830.106    20920830.027    20920838.327   111755353.735 7  86920863.124 6
       401.115         311.975
  23236137.283    23236136.432    23236146.044   124254038.649 4  96642064.433 4
     -2159.969       -1679.970
  20154021.707    20154021.532    20154025.919   107848332.978 8  83882102.052 6
      -378.340        -294.265
  20802892.314    20802892.154    20802898.484   111047345.460 7  86370203.797 6
      2149.952        1672.185
 11 10 10 13  9  0.0000000  0 18G03G06G16G18G19G21G22G29G30G31R05R06
                                R07R11R12R20R21R22
  21484763.740    21484763.4404   21484772.9134  112903268.066 7  87976604.38244
      2946.983        2296.352
  21261838.627    21261838.1434   21261846.4974  111731799.066 7  87063779.18945
      2048.844        1596.492
  21029165.611    21029165.1414   21029172.4224  110509072.622 8  86110992.90545
      2044.057        1592.765
  21898951.561    21898950.8184   21898958.3984  115080017.959 7  89672722.84144
      1755.710        1368.087
  24416084.526    24416084.9084   24416094.7434  128307391.583 4  99979794.61741
      3246.542        2529.754
  21313181.546    21313180.8134   21313187.5784  112001666.847 8  87274026.04445
     -1033.621        -805.419
  22896016.257    22896016.2884   22896025.8894  120319778.435 6  93755618.29443
      3596.073        2802.122
  24027688.369    24027687.6174   24027699.5864  126266308.864 5  98389335.66241
     -2111.722       -1645.514
  22748963.259    22748962.4304   22748974.7414  119546563.480 6  93153179.08942
     -3103.958       -2418.659
  24578045.330    24578045.7374   24578063.5184  129158268.588 4 100642768.58741
     -2709.061       -2110.933
  22479805.666    22479804.939    22479812.789   120167558.336 6  93463705.616 5
     -1628.158       -1266.342
  20873196.373    20873196.541    20873202.537   111383579.568 7  86631758.290 6
      2117.970        1647.304
  22870299.245    22870297.001    22870307.648   122426740.293 5  95220900.975 4
      4748.653        3693.383
  21846984.658    21846984.383    21846993.972   116743667.888 6  90800655.871 4
     -3253.666       -2530.624
  20918657.248    20918657.225    20918664.824   111743743.838 7  86911833.185 6
       373.069         290.170
  23248260.530    23248260.179    23248269.004   124318863.789 4  96692483.840 4
     -2161.543       -1681.197
  20156163.733    20156163.518    20156168.295   107859796.104 8  83891017.795 6
      -385.693        -299.983
  20790827.053    20790826.972    20790833.280   110982940.496 7  86320111.094 6
      2143.897        1667.473
 11 10 10 13  9 30.0000000  0 18G03G06G16G18G19G21G22G29G30G31R05R06
                                R07R11R12R20R21R22
  21467957.283    21467956.9604   21467965.7744  112814949.235 7  87907784.58144
      2941.075        2291.747
  21250159.191    21250159.0494   21250167.0744  111670424.861 8  87015955.16545
      2042.898        1591.862
  21017539.337    21017538.9074   21017546.1474  110447975.938 8  86063385.12845
      2029.160        1581.161
  21888971.859    21888971.1564   21888978.3174  115027573.126 7  89631856.80144
      1740.727        1356.407
  24397554.660    24397554.2524   24397564.1134  128210016.615 5  99903918.14341
      3245.259        2528.778
  21319107.726    21319107.2114   21319114.2574  112032811.254 8  87298294.39345
     -1042.543        -812.370
  22875504.736    22875503.0534   22875513.7734  120211986.694 6  93671625.08943
      3590.188        2797.531
  24039751.329    24039750.9554   24039762.7694  126329698.763 5  98438730.23241
     -2114.101       -1647.348
  22766704.357    22766703.2584   22766716.2384  119639794.268 6  93225826.26142
     -3111.327       -2424.388
  24593506.036    24593507.5154   24593526.7674  129239513.857 4 100706075.28841
     -2707.246       -2109.497
  22489006.838    22489004.692    22489013.583   120216739.797 6  93501957.812 5
     -1650.435       -1283.676
  20861357.730    20861357.030    20861362.332   111320400.371 7  86582618.963 6
      2094.094        1628.735
  22843694.558    22843693.200    22843702.562   122284329.712 5  95110137.792 4
      4745.543        3690.949
  21865283.238    21865282.537    21865292.274   116841446.741 6  90876705.903 4
     -3264.765       -2539.257
  20916639.565    20916639.383    20916646.686   111732966.792 7  86903451.030 6
       345.568         268.773
  23260390.630    23260390.021    23260399.786   124383728.990 4  96742934.404 4
     -2162.674       -1682.070
  20158346.185    20158345.815    20158350.204   107871472.536 8  83900099.451 6
      -392.600        -305.353
  20778794.317    20778794.050    20778801.032   110918708.884 7  86270153.219 6
      2138.310        1663.126
 11 10 10 13 10  0.0000000  0 18G03G06G16G18G19G21G22G29G30G31R05R06
                                R07R11R12R20R21R22
  21451185.278    21451184.5614   21451193.6024  112726810.660 7  87839105.22844
      2934.544        2286.655
  21238514.823    21238514.3434   21238522.7234  111609232.082 8  86968272.50645
      2036.372        1586.780
  21005999.161    21005998.4294   21006005.6324  110387330.243 8  86016128.76645
      2013.628        1569.057
  21879077.548    21879076.9024   21879084.5234  114975581.016 7  89591343.51844
      1725.143        1344.265
  24379030.717    24379030.6654   24379041.3744  128112678.859 4  99828070.64641
      3243.612        2527.485
  21325086.359    21325085.6874   21325092.3734  112064225.824 8  87322773.25545
     -1051.980        -819.725
  22855026.331    22855025.1544   22855036.1434  120104375.293 6  93587772.39043
      3583.679        2792.475
  24051828.855    24051828.8494   24051839.4244  126393165.815 5  98488184.91841
     -2117.204       -1649.782
  22784488.072    22784487.0044   22784499.8694  119733246.276 6  93298645.80442
     -3119.031       -2430.401
  24608957.683    24608957.9134   24608980.6964  129320705.744 4 100769340.36841
     -2705.897       -2108.480
  22498330.950    22498330.928    22498339.084   120266591.717 6  93540731.510 5
     -1673.188       -1301.369
  20849652.489    20849652.020    20849657.492   111257942.223 7  86534040.445 6
      2069.547        1609.645
  22817109.972    22817108.464    22817117.375   122142021.997 5  94999454.600 4
      4741.344        3687.689
  21883643.453    21883643.331    21883652.911   116939559.357 6  90953015.560 4
     -3276.297       -2548.223
  20914776.610    20914776.665    20914784.385   111723018.503 7  86895713.466 6
       317.405         246.870
  23272526.884    23272526.949    23272536.342   124448630.928 4  96793413.542 4
     -2164.423       -1683.442
  20160567.214    20160566.837    20160571.116   107883358.354 8  83909343.968 6
      -400.061        -311.159
  20766794.632    20766794.186    20766799.422   110854647.221 7  86220327.522 6
      2132.213        1658.383
 11 10 10 13 10 30.0000000  0 18G03G06G16G18G19G21G22G29G30G31R05R06
                                R07R11R12R20R21R22
  21434448.852    21434448.6884   21434457.5254  112638861.239 7  87770573.26144
      2928.515        2281.960
  21226906.260    21226905.9944   21226914.0774  111548229.314 7  86920737.91845
      2030.303        1582.048
  20994546.285    20994545.6704   20994552.6294  110327145.255 8  85969231.39345
      1998.523        1557.286
  21869272.047    21869270.9614   21869279.2934  114924051.128 7  89551190.41444
      1709.989        1332.457
  24360517.775    24360516.4144   24360527.2204  128015387.013 5  99752258.98241
      3242.341        2526.494
  21331116.612    21331116.1524   21331122.6974  112095916.788 8  87347467.49345
     -1060.889        -826.667
  22834584.242    22834583.4994   22834593.7604  119996954.950 6  93504068.56943
      3577.521        2787.668
  24063921.483    24063922.8074   24063935.1934  126456717.737 5  98537705.73741
     -2119.799       -1651.797
  22802314.704    22802313.6184   22802326.3554  119826925.185 6  93371642.14242
     -3126.323       -2436.083
  24624401.661    24624401.2174   24624425.8234  129401849.085 4 100832567.52041
     -2703.869       -2106.862
  22507784.310    22507783.332    22507792.697   120317119.369 6  93580030.709 5
     -1695.458       -1318.687
  20838085.070    20838084.438    20838090.115   111196215.776 7  86486031.036 6
      2045.398        1590.863
  22790546.727    22790545.359    22790554.848   121999830.340 5  94888861.673 4
      4737.747        3684.897
  21902067.266    21902066.455    21902076.248   117038009.455 6  91029587.692 4
     -3287.168       -2556.676
  20913071.033    20913070.929    20913078.154   111713906.615 7  86888626.422 6
       289.842         225.439
  23284674.752    23284671.888    23284682.792   124513576.969 4  96843926.986 4
     -2165.552       -1684.314
  20162828.710    20162828.448    20162833.162   107895462.021 8  83918757.916 6
      -407.041        -316.585
  20754826.927    20754826.467    20754831.907   110790763.488 7  86170640.216 6
      2126.542        1653.979
 11 10 10 13 11  0.0000000  0 18G03G06G16G18G19G21G22G29G30G31R05R06
                                R07R11R12R20R21R22
  21417748.567    21417747.8554   21417756.5554  112551097.802 7  87702186.22344
      2922.323        2277.132
  21215333.383    21215333.1754   21215340.9424  111487412.806 8  86873348.45245
      2024.067        1577.195
  20983180.488    20983180.0144   20983186.6564  110267418.635 8  85922691.18845
      1983.178        1545.331
  21859553.237    21859552.6904   21859560.7204  114872980.397 7  89511395.10544
      1694.653        1320.503
  24342009.356    24342008.2624   24342020.2224  127918136.814 4  99676479.74741
      3240.906        2525.394
  21337198.988    21337198.2644   21337204.8444  112127878.634 8  87372372.80145
     -1069.939        -833.718
  22814178.841    22814177.8684   22814187.3364  119889724.066 6  93420512.36043
      3571.096        2782.652
  24076030.365    24076030.8924   24076043.8264  126520350.130 5  98587289.27241
     -2122.466       -1653.851
  22820183.276    22820182.4624   22820195.7714  119920824.271 6  93444810.05342
     -3133.646       -2441.795
  24639831.119    24639831.7034   24639855.2804  129482936.895 4 100895751.40341
     -2702.038       -2105.451
  22517360.423    22517360.206    22517369.338   120368315.685 6  93619850.003 5
     -1717.751       -1336.026
  20826653.915    20826653.642    20826659.917   111135219.502 7  86438589.540 6
      2020.963        1571.856
  22764004.354    22764003.433    22764012.696   121857753.840 5  94778358.329 4
      4733.834        3681.852
  21920553.009    21920551.676    21920561.544   117136787.891 6  91106415.161 4
     -3298.066       -2565.162
  20911520.210    20911520.225    20911528.460   111705625.908 7  86882185.849 6
       262.137         203.885
  23296823.310    23296825.306    23296836.307   124578563.824 4  96894472.161 4
     -2167.129       -1685.551
  20165130.490    20165130.411    20165134.731   107907778.755 8  83928337.578 6
      -414.149        -322.118
  20742891.688    20742891.284    20742896.611   110727053.505 7  86121088.042 6
      2120.728        1649.452
 11 10 10 13 11 30.0000000  0 18G03G06G16G18G19G21G22G29G30G31R05R06
                                R07R11R12R20R21R22
  21401083.811    21401082.8784   21401092.1264  112463524.672 7  87633947.46644
      2915.980        2272.188
  21203796.479    21203796.3494   21203804.2464  111426786.530 8  86826107.22445
      2017.743        1572.263
  20971903.263    20971902.4414   20971909.3484  110208155.371 8  85876512.04345
      1967.750        1533.306
  21849922.809    21849922.3434   21849930.4454  114822373.737 7  89471961.40244
      1679.194        1308.451
  24323511.010    24323512.5274   24323523.3584  127820931.855 4  99600735.81741
      3239.394        2524.195
  21343332.866    21343332.2944   21343338.9444  112160112.877 8  87397490.37845
     -1078.949        -840.744
  22793810.427    22793809.8764   22793819.1484  119782688.857 6  93337108.62743
      3564.604        2777.605
  24088155.118    24088155.4104   24088167.1214  126584066.108 5  98636937.91041
     -2125.188       -1655.978
  22838094.467    22838092.6874   22838105.8794  120014944.436 6  93518150.23342
     -3140.951       -2447.504
  24655255.466    24655252.9344   24655275.0174  129563969.651 5 100958892.27841
     -2700.154       -2103.983
  22527064.964    22527063.259    22527072.020   120420181.026 6  93660189.686 5
     -1739.899       -1353.259
  20815361.082    20815360.897    20815367.163   111074959.159 8  86391720.421 6
      1996.452        1552.794
  22737486.690    22737484.925    22737493.833   121715800.592 5  94667950.859 4
      4729.675        3678.614
  21939099.898    21939098.931    21939108.004   117235893.214 6  91183496.901 4
     -3308.879       -2573.572
  20910126.663    20910126.782    20910134.494   111698178.968 7  86876393.768 6
       234.325         182.256
  23308989.068    23308986.557    23308996.267   124643594.260 4  96945051.229 4
     -2168.336       -1686.477
  20167473.260    20167472.683    20167477.034   107920311.839 8  83938085.511 6
      -421.329        -327.707
  20730989.344    20730989.110    20730994.856   110663520.506 7  86071673.526 6
      2114.851        1644.875
 11 10 10 13 12  0.0000000  0 18G03G06G16G18G19G21G22G29G30G31R05R06
                                R07R11R12R20R21R22
  21384454.618    21384454.3484   21384462.9514  112376140.606 7  87565856.04044
      2909.652        2267.259
  21192295.252    21192295.1504   21192303.5354  111366348.934 8  86779013.02045
      2011.436        1567.353
  20960713.700    20960713.0964   20960720.0494  110149355.326 8  85830693.84145
      1952.283        1521.256
  21840381.143    21840380.3974   21840387.9994  114772230.514 7  89432888.80544
      1663.700        1296.391
  24305024.129    24305022.7724   24305033.1924  127723770.020 5  99525025.47541
      3237.987        2523.081
  21349517.841    21349517.2904   21349524.0114  112192615.873 8  87422817.36445
     -1087.872        -847.689
  22773479.749    22773478.4154   22773488.1404  119675849.678 6  93253857.63343
      3557.960        2772.425
  24100295.423    24100296.1384   24100308.5454  126647863.109 5  98686649.70141
     -2127.925       -1658.106
  22856045.939    22856044.5994   22856057.8904  120109280.925 6  93591658.96242
     -3148.155       -2453.095
  24670663.008    24670662.3954   24670685.0904  129644942.594 5 101021986.51841
     -2698.170       -2102.405
  22536890.739    22536890.396    22536898.620   120472710.442 6  93701045.841 5
     -1762.032       -1370.470
  20804206.675    20804206.323    20804212.567   111015434.921 8  86345423.834 6
      1971.880        1533.684
  22710992.124    22710989.955    22710998.490   121573971.734 5  94557640.139 4
      4725.660        3675.485
  21957705.122    21957704.747    21957714.072   117335318.523 6  91260827.494 4
     -3319.429       -2581.774
  20908888.052    20908888.191    20908895.440   111691562.677 7  86871247.737 6
       206.702         160.770
  23321153.658    23321154.518    23321166.172   124708665.927 4  96995662.375 4
     -2169.746       -1687.572
  20169855.274    20169854.809    20169858.909   107933059.123 8  83948000.045 6
      -428.479        -333.259
  20719119.812    20719119.843    20719125.804   110600162.583 7  86022395.169 6
      2109.019        1640.345
