     2.11           OBSERVATION DATA    M (MIXED)           RINEX VERSION / TYPE
teqc  2012Jun6                          20151118 02:01:20UTCPGM / RUN BY / DATE
OSX ker:10.8.0|Core 2 Duo|gcc 4.2 -m64|OSX ker:10.8.0+|=+   COMMENT
     2              OBSERVATION DATA    M (MIXED)           COMMENT
CCRINEXO V2.3.3 UX  BKG Frankfurt       11-OCT-11 00:16     COMMENT
Concatenated RINEX hourly files (24/24)                     COMMENT
JPS2RIN 1.40 lnx    SAC                 10-OCT-11 01:01     COMMENT
build Feb  6 2004 (c) Javad Navigation Systems              COMMENT
Stazione Astronomica Cagliari                               COMMENT
/home/srv/htdocs/glonass/hdata/CAGZ.tps                     COMMENT
SE TPS 8b1daea3                                             COMMENT
CAGZ                                                        MARKER NAME
12725M004                                                   MARKER NUMBER
SAC                 SAC-DIST                                OBSERVER / AGENCY
AGNV7TGA2O0         TPS E_GGD           3.3 Jul,10,2008 p4  REC # / TYPE / VERS
RRA052              JPSREGANT_DD_E  NONE                    ANT # / TYPE
  4893378.7999   772650.4734  4004179.0402                  APPROX POSITION XYZ
        0.0945        0.0000        0.0000                  ANTENNA: DELTA H/E/N
     1     1                                                WAVELENGTH FACT L1/2
     7    C1    P1    P2    L1    L2    D1    D2            # / TYPES OF OBSERV
    30.0000                                                 INTERVAL
teqc windowed: start @ 2011 Oct 10 00:00:00.000             COMMENT
teqc windowed: delta = 14400.000 sec                        COMMENT
  2011    10    10     0     0    0.0000000     GPS         TIME OF FIRST OBS
    15                                                      LEAP SECONDS
                                                            END OF HEADER
 11 10 10  0  0  0.0000000  1 15G02G04G05G07G10G13G16G23R01R02R03R12
                                R13R14R19
  21873691.838    21873690.9454   21873694.3334  114947031.410 7  89569132.03944
        -2.128          -1.662
  22818374.353    22818374.5724   22818380.7214  119911400.055 6  93437463.27343
     -2519.839       -1963.513
  22993191.492    22993191.7874   22993197.0454  120830046.613 6  94153303.70943
      3460.514        2696.509
  20511855.914    20511855.6614   20511860.4624  107790763.489 8  83992780.73247
        39.025          30.413
  20279299.704    20279298.2914   20279304.8254  106568458.336 8  83040373.68146
       290.387         226.279
  22208015.709    22208015.2674   22208020.7054  116704218.086 7  90938246.35443
     -1790.055       -1394.846
  25014254.177    25014253.2334   25014258.3424  131450812.698 5 102429229.01541
     -1299.727       -1012.796
  24178696.944    24178696.6314   24178700.1344  127060241.046 5  99007954.05841
     -2201.326       -1715.323
  24386597.050    24386595.563    24386601.848   130360597.766 4 101391660.131 4
     -2971.075       -2310.825
  20279333.379    20279332.976    20279336.591   108214443.104 8  84166816.606 7
     -1028.055        -799.596
  22434731.848    22434730.719    22434737.239   119631905.174 6  93047085.885 5
      4602.367        3579.622
  20753683.468    20753683.202    20753688.486   110862609.369 8  86226534.055 6
     -2251.761       -1751.370
  19518804.149    19518803.941    19518807.487   104229408.229 9  81067366.318 7
      1775.384        1380.855
  22691702.806    22691701.762    22691729.093   120959603.002 6  94079723.103 3
      4718.245        3669.764
  24149177.423    24149176.012    24149179.354   129181796.075 5 100474765.895 4
     -1098.080        -854.057
 11 10 10  0  0 30.0000000  0 15G02G04G05G07G10G13G16G23R01R02R03R12
                                R13R14R19
  21873762.188    21873761.3294   21873764.5314  114947399.405 7  89569418.76444
       -22.376         -17.436
  22832783.764    22832783.6204   22832789.9884  119987121.669 6  93496467.10943
     -2528.210       -1970.025
  22973454.854    22973454.6004   22973460.2474  120726326.241 6  94072482.64743
      3454.179        2691.573
  20511684.523    20511684.3094   20511689.2484  107789863.433 8  83992079.39347
        21.023          16.384
  20277688.503    20277687.1344   20277693.6814  106559992.026 8  83033776.54846
       274.045         213.545
  22218248.997    22218248.4374   22218253.5714  116757992.646 7  90980148.58843
     -1794.929       -1398.625
  25021721.314    25021720.8234   25021729.7814  131490058.095 5 102459809.85241
     -1316.595       -1025.950
  24191270.444    24191271.4924   24191275.6464  127126317.232 5  99059441.93541
     -2203.673       -1717.135
  24403288.483    24403287.795    24403294.201   130449831.194 4 101461063.832 4
     -2977.766       -2316.029
  20285160.073    20285159.640    20285163.197   108245534.993 8  84190999.163 7
     -1044.749        -812.579
  22408868.321    22408867.298    22408874.001   119493990.195 6  92939818.703 5
      4591.935        3571.510
  20766381.286    20766381.327    20766386.183   110930440.271 8  86279291.420 6
     -2270.304       -1765.789
  19508902.935    19508902.420    19508906.003   104176535.464 9  81026243.068 7
      1749.425        1360.665
  22665174.836    22665174.721    22665190.144   120818200.757 6  93969743.536 3
      4708.588        3662.257
  24155391.796    24155390.760    24155394.697   129215042.904 5 100500624.519 4
     -1118.277        -869.765
 11 10 10  0  1  0.0000000  0 15G02G04G05G07G10G13G16G23G28R02R03R12
                                R13R14R19
  21873945.785    21873945.0334   21873948.7314  114948366.568 7  89570172.38044
       -42.315         -32.970
  22847239.111    22847239.8964   22847245.9734  120063086.720 6  93555660.64943
     -2536.275       -1976.320
  22953750.844    22953751.0214   22953757.8234  120622788.241 6  93991803.70943
      3448.037        2686.786
  20511614.484    20511614.3014   20511619.0774  107789495.327 8  83991792.55947
         3.281           2.559
  20276169.276    20276167.8874   20276174.4194  106552008.399 8  83027555.53146
       257.930         200.984
  22228507.470    22228507.2494   22228512.1624  116811905.015 7  91022158.21243
     -1799.516       -1402.231
  25029285.979    25029284.2424   25029289.7494  131529804.767 5 102490781.28241
     -1333.416       -1039.057
  24203857.856    24203855.4684   24203860.3104  127192455.303 5  99110978.03041
     -2205.760       -1718.768
  25096132.147                                   131881064.575 3
      3567.760
  20291078.684    20291078.512    20291082.228   108277119.412 8  84215564.805 7
     -1061.143        -825.334
  22383061.010    22383060.504    22383068.026   119356381.648 6  92832789.871 5
      4581.651        3563.506
  20779181.975    20779181.781    20779187.159   110998818.484 8  86332474.470 6
     -2288.477       -1779.929
  19499146.092    19499145.556    19499148.980   104124434.138 9  80985719.820 7
      1723.683        1340.646
  22638702.076    22638701.603    22638718.526   120677081.248 6  93859983.964 3
      4699.017        3654.772
  24161717.781    24161717.095    24161720.711   129248886.657 5 100526947.392 4
     -1138.232        -885.294
 11 10 10  0  1 30.0000000  0 15G02G04G05G07G10G13G16G23G28R02R03R12
                                R13R14R19
  21874243.699    21874243.0524   21874246.9284  114949933.246 7  89571393.16044
       -62.173         -48.449
  22861741.208    22861741.2314   22861747.7004  120139293.145 6  93615042.27543
     -2544.243       -1982.533
  22934083.688    22934084.4464   22934089.7754  120519435.611 6  93911269.21043
      3442.024        2682.094
  20511645.664    20511645.3824   20511650.3214  107789658.652 8  83991919.82947
       -14.293         -11.137
  20274742.099    20274740.8434   20274747.3264  106544509.196 8  83021711.98246
       241.899         188.490
  22238793.320    22238793.1944   22238797.4464  116865954.978 7  91064275.04743
     -1803.968       -1405.688
  25036944.524    25036942.8194   25036948.6094  131570052.056 5 102522142.83141
     -1349.845       -1051.844
  24216455.167    24216453.8574   24216457.7524  127258656.028 5  99162562.97941
     -2207.716       -1720.320
  25075754.562                                   131773985.740 3
      3570.568
  20297090.316    20297089.783    20297093.641   108309197.337 8  84240514.301 7
     -1077.486        -838.047
  22357313.326    22357312.747    22357319.834   119219083.041 6  92726002.098 5
      4571.432        3555.561
  20792084.551    20792084.376    20792089.304   111067741.050 8  86386080.903 6
     -2306.406       -1793.871
  19489533.780    19489533.430    19489537.120   104073106.215 9  80945798.109 7
      1698.061        1320.713
  22612281.030    22612281.056    22612307.265   120536248.768 6  93750447.690 3
      4689.612        3647.475
  24168158.294    24168155.302    24168157.803   129283324.948 5 100553732.675 4
     -1157.870        -900.565
 11 10 10  0  2  0.0000000  0 15G02G04G05G07G10G13G16G23G28R02R03R12
                                R13R14R19
  21874656.135    21874655.4094   21874659.2054  114952099.392 7  89573081.06244
       -82.044         -63.943
  22876288.627    22876288.3924   22876295.1834  120215739.483 6  93674610.82343
     -2552.056       -1988.607
  22914452.674    22914452.7954   22914458.0304  120416271.481 6  93830881.58143
      3435.809        2677.250
  20511777.823    20511777.5024   20511782.5444  107790353.624 8  83992461.37747
       -31.881         -24.846
  20273407.495    20273406.2624   20273412.8514  106537496.236 8  83016247.32446
       225.797         175.945
  22249105.192    22249104.2894   22249109.1064  116920143.684 7  91106499.99343
     -1808.434       -1409.170
  25044699.105    25044698.2244   25044704.3414  131610799.549 5 102553894.10041
     -1366.434       -1064.722
  24229064.995    24229063.0334   24229069.1164  127324920.400 5  99214197.49041
     -2209.740       -1721.903
  25055364.032                                   131666829.755 3
      3573.371
  20303194.903    20303194.276    20303198.053   108341770.562 8  84265849.030 7
     -1093.867        -850.788
  22331622.884    22331624.108    22331631.310   119082099.184 6  92619459.123 5
      4560.973        3547.419
  20805088.543    20805088.419    20805093.492   111137205.518 8  86440108.832 6
     -2324.335       -1807.813
  19480067.017    19480066.713    19480070.171   104022553.314 9  80906479.200 7
      1672.336        1300.705
  22585915.868    22585916.585    22585944.001   120395707.925 6  93641137.977 3
      4679.970        3639.957
  24174703.794    24174703.946    24174706.392   129318356.301 5 100580979.257 4
     -1177.366        -915.727
 11 10 10  0  2 30.0000000  0 14G02G04G05G07G10G13G16G23R02R03R12R13
                                R14R19
  21875180.579    21875179.6824   21875183.0054  114954852.543 6  89575226.37344
      -101.475         -79.077
  22890878.992    22890879.0324   22890884.6874  120292411.360 6  93734355.13243
     -2559.415       -1994.341
  22894855.695    22894855.2744   22894861.2924  120313286.825 6  93750633.79543
      3429.807        2672.579
  20512008.662    20512008.6674   20512013.6744  107791567.897 8  83993407.56647
       -49.062         -38.230
  20272163.832    20272162.4414   20272168.7414  106530958.756 8  83011153.17646
       210.016         163.650
  22259441.093    22259440.9524   22259445.5604  116974459.359 7  91148823.88443
     -1812.557       -1412.385
  25052545.787    25052544.5984   25052549.3574  131652034.008 5 102586024.85841
     -1382.541       -1077.317
  24241683.343    24241682.9214   24241685.3244  127391236.726 5  99265872.52541
     -2211.372       -1723.120
  20309390.088    20309389.325    20309392.808   108374827.583 8  84291560.031 6
     -1109.944        -863.284
  22305993.639    22305993.387    22305999.462   118945422.358 6  92513154.948 5
      4550.773        3539.493
  20818191.275    20818190.934    20818196.237   111207196.766 8  86494546.463 6
     -2341.744       -1821.355
  19470743.258    19470742.742    19470746.157   103972765.010 9  80867754.973 7
      1646.883        1280.910
  22559605.511    22559604.258    22559628.386   120255450.501 6  93532048.873 3
      4670.544        3632.647
  24181361.052    24181360.623    24181363.571   129353966.095 5 100608675.749 4
     -1196.522        -930.635
 11 10 10  0  3  0.0000000  0 15G02G04G05G07G10G13G16G23G28R02R03R12
                                R13R14R19
  21875813.821    21875813.7964   21875817.2504  114958185.008 7  89577823.08844
      -120.881         -94.202
  22905510.478    22905509.5764   22905515.4684  120369298.958 6  93794267.53743
     -2566.699       -2000.014
  22875292.013    22875291.5404   22875297.3654  120210477.138 6  93670522.36444
      3423.836        2667.931
  20512337.197    20512336.9624   20512342.0864  107793293.219 8  83994751.97747
       -66.211         -51.597
  20271008.886    20271007.6264   20271014.0644  106524890.655 8  83006424.77246
       194.252         151.365
  22269800.113    22269799.5544   22269804.8684  117028894.162 6  91191240.61843
     -1816.694       -1415.606
  25060483.181    25060478.6144   25060485.1464  131693747.046 4 102618528.50941
     -1398.598       -1089.819
  24254312.292    24254311.3154   24254311.5934  127457598.226 5  99317582.74141
     -2212.938       -1724.384
  25014529.432                                   131452238.614 4
      3579.600
  20315673.660    20315673.465    20315677.181   108408362.077 8  84317642.394 7
     -1125.938        -875.732
  22280419.585    22280418.612    22280424.614   118809048.160 6  92407086.155 5
      4540.586        3531.568
  20831390.055    20831390.052    20831395.124   111277704.043 8  86549385.446 6
     -2359.025       -1834.798
  19461561.480    19461561.100    19461564.394   103923734.677 9  80829620.280 7
      1621.545        1261.201
  22533345.395    22533344.712    22533374.679   120115472.976 6  93423177.379 3
      4661.072        3625.262
  24188125.679    24188124.738    24188127.284   129390144.308 5 100636814.271 4
     -1215.625        -945.477
 11 10 10  0  3 30.0000000  0 15G02G04G05G07G10G13G16G23G28R02R03R12
                                R13R14R19
  21876559.792    21876558.7044   21876562.4904  114962101.588 7  89580874.96144
      -140.203        -109.243
  22920183.309    22920183.2424   22920188.4074  120446405.341 6  93854350.40843
     -2573.790       -2005.540
  22855762.219    22855761.9274   22855767.6404  120107850.284 6  93590553.39044
      3417.925        2663.319
  20512763.741    20512763.4654   20512768.6654  107795534.751 8  83996498.62647
       -83.225         -64.848
  20269944.651    20269943.3894   20269949.8254  106519297.976 8  83002066.82546
       178.570         139.147
  22280181.789    22280181.5624   22280186.9584  117083453.385 7  91233754.28143
     -1820.641       -1418.686
  25068512.133    25068511.5594   25068516.4644  131735942.879 4 102651408.34741
     -1414.474       -1102.174
  24266950.526    24266949.1424   24266952.1154  127524010.166 5  99369332.20241
     -2214.470       -1725.551
  24994086.300                                   131344809.297 4
      3582.451
  20322049.085    20322048.483    20322051.866   108442379.656 8  84344100.498 7
     -1141.870        -888.119
  22254903.382    22254902.329    22254909.633   118672986.063 6  92301260.110 5
      4530.267        3523.540
  20844686.415    20844686.115    20844691.273   111348729.154 8  86604627.196 6
     -2375.992       -1847.994
  19452522.781    19452522.372    19452525.899   103875469.035 9  80792080.350 7
      1596.173        1241.469
  22507139.588    22507139.560    22507173.567   119975784.438 6  93314530.759 3
      4651.540        3617.854
  24194995.906    24194995.228    24194997.049   129426893.532 5 100665397.009 4
     -1234.348        -960.047
 11 10 10  0  4  0.0000000  0 15G02G04G05G07G10G13G16G23G28R02R03R12
                                R13R14R19
  21877414.630    21877414.4734   21877418.4154  114966598.073 7  89584378.70144
      -159.437        -124.235
  22934896.883    22934896.2674   22934902.0434  120523724.783 6  93914599.31943
     -2580.685       -2010.929
  22836267.733    22836267.5274   22836272.8984  120005405.346 6  93510726.17843
      3411.885        2658.608
  20513287.791    20513287.5344   20513292.3734  107798288.122 8  83998644.11547
      -100.180         -78.061
  20268970.415    20268969.2194   20268975.6634  106514178.625 8  82998077.71946
       162.864         126.907
  22290586.832    22290586.5434   22290591.8774  117138133.293 7  91276361.98743
     -1824.578       -1421.754
  25076633.999    25076632.8714   25076639.7324  131778616.979 4 102684660.87141
     -1430.347       -1114.497
  24279596.383    24279595.3594   24279601.2974  127590469.729 5  99421118.78841
     -2216.022       -1726.761
  24973626.555                                   131237293.753 4
      3585.508
  20328513.589    20328512.973    20328517.232   108476877.648 8  84370932.257 7
     -1157.839        -900.540
  22229445.491    22229445.295    22229452.498   118537235.965 6  92195676.729 5
      4519.860        3515.443
  20858077.563    20858077.658    20858083.090   111420265.737 8  86660266.754 6
     -2392.934       -1861.171
  19443627.090    19443626.489    19443629.844   103827965.577 9  80755133.222 7
      1570.877        1221.795
  22480988.049    22480987.985    22481023.587   119836384.900 6  93206108.803 3
      4641.854        3610.299
  24201968.713    24201970.056    24201972.274   129464207.844 5 100694419.217 4
     -1253.004        -974.558
 11 10 10  0  4 30.0000000  0 16G02G04G05G07G10G13G16G23G26G28R02R03
                                R12R13R14R19
  21878379.824    21878379.3894   21878383.6894  114971670.044 7  89588330.87744
      -178.224        -138.876
  22949649.767    22949649.1904   22949655.2584  120601250.916 6  93975009.27343
     -2587.227       -2016.024
  22816807.184    22816807.4314   22816812.9584  119903141.259 6  93431039.87944
      3406.197        2654.194
  20513908.280    20513908.0744   20513912.9034  107801548.847 8  84001184.94147
      -116.722         -90.957
  20268085.794    20268084.4104   20268091.1284  106509529.845 8  82994455.29646
       147.541         114.965
  22301014.890    22301014.5014   22301019.9244  117192930.350 6  91319060.98343
     -1828.127       -1424.516
  25084844.287    25084843.3774   25084848.6064  131821764.134 4 102718282.10241
     -1445.780       -1126.599
  24292252.350    24292250.1994   24292255.6184  127656973.308 5  99472939.74041
     -2217.147       -1727.672
  24364261.841    24364260.3844   24364269.6614  128035064.608 5  99767596.97741
      3590.460        2797.760
  24953151.916                                   131129692.023 4
      3588.663
  20335067.685    20335067.366    20335071.585   108511853.054 8  84398135.342 7
     -1173.356        -912.613
  22204046.896    22204046.427    22204053.027   118401797.650 6  92090335.839 5
      4509.810        3507.623
  20871563.717    20871563.704    20871568.935   111492306.306 7  86716298.298 6
     -2409.327       -1873.925
  19434873.179    19434872.766    19434875.991   103781221.338 9  80718776.604 7
      1545.909        1202.368
  22454893.035    22454891.459    22454920.066   119697274.743 6  93097912.066 3
      4632.581        3603.110
  24209050.510    24209049.659    24209053.026   129502080.806 5 100723875.983 4
     -1271.319        -988.814
 11 10 10  0  5  0.0000000  0 16G02G04G05G07G10G13G16G23G26G28R02R03
                                R12R13R14R19
  21879451.513    21879450.9564   21879455.0864  114977301.008 7  89592718.62844
      -197.106        -153.583
  22964437.586    22964438.0604   22964444.7484  120678965.449 6  94035566.05043
     -2593.694       -2021.060
  22797379.337    22797379.1594   22797384.5724  119801044.881 6  93351484.30444
      3400.294        2649.584
  20514622.237    20514621.9084   20514626.7034  107805300.041 8  84004107.95347
      -133.289        -103.860
  20267288.031    20267286.5514   20267293.0494  106505336.799 8  82991187.98246
       132.067         102.911
  22311461.326    22311461.1604   22311466.2454  117247828.595 6  91361838.81243
     -1831.723       -1427.325
  25093140.660    25093136.1414   25093144.7974  131865367.253 4 102752258.56741
     -1461.208       -1138.649
  24304912.769    24304912.2244   24304917.1664  127723505.172 5  99524782.65841
     -2218.199       -1728.412
  24343774.538    24343772.1074   24343779.7004  127927395.148 5  99683698.70941
      3587.633        2795.542
  24932656.767                                   131021999.445 4
      3591.734
  20341709.186    20341708.524    20341712.349   108547290.129 8  84425697.490 7
     -1189.043        -924.802
  22178703.630    22178703.423    22178709.854   118266658.422 6  91985227.576 5
      4499.522        3499.632
  20885140.675    20885140.350    20885146.187   111564831.683 7  86772706.911 6
     -2425.635       -1886.603
  19426258.889    19426258.516    19426261.723   103735221.069 9  80682998.625 7
      1520.852        1182.889
  22428848.304    22428847.078    22428883.258   119558441.399 6  92989930.620 3
      4623.029        3595.693
  24216230.023    24216229.527    24216233.008   129540493.489 5 100753752.477 4
     -1289.524       -1002.967
 11 10 10  0  5 30.0000000  0 16G02G04G05G07G10G13G16G23G26G28R02R03
                                R12R13R14R19
  21880631.454    21880631.0394   21880635.0574  114983501.970 7  89597550.53744
      -215.963        -168.283
  22979264.052    22979263.0984   22979269.8804  120756877.272 6  94096276.53643
     -2600.103       -2026.037
  22777985.717    22777985.2484   22777990.4524  119699130.393 6  93272070.42643
      3394.250        2644.859
  20515431.334    20515431.1244   20515435.8974  107809552.601 8  84007421.64347
      -149.903        -116.806
  20266579.209    20266577.8944   20266584.3004  106501611.999 8  82988285.53646
       116.550          90.822
  22321929.844    22321929.7024   22321934.5394  117302839.194 7  91404704.19343
     -1835.373       -1430.153
  25101528.021    25101524.5284   25101529.9134  131909436.392 4 102786598.11941
     -1476.530       -1150.543
  24317581.812    24317581.2114   24317586.5854  127790077.084 5  99576656.83841
     -2219.522       -1729.499
  24323301.091    24323301.5664   24323304.7154  127819814.893 4  99599869.94441
      3584.768        2793.295
  24912145.899                                   130914210.089 4
      3594.334
  20348438.584    20348438.043    20348442.002   108583201.275 8  84453628.369 7
     -1204.728        -937.002
  22153419.240    22153419.052    22153425.794   118131834.013 6  91880364.172 5
      4489.069        3491.507
  20898810.250    20898809.850    20898814.885   111637850.048 8  86829498.981 6
     -2441.915       -1899.267
  19417786.188    19417785.979    19417789.054   103689978.161 9  80647809.706 7
      1495.698        1163.321
  22402859.119    22402856.823    22402888.382   119419900.480 6  92882176.486 3
      4613.313        3588.179
  24223514.471    24223513.174    24223516.853   129579454.953 5 100784055.860 4
     -1307.528       -1016.966
 11 10 10  0  6  0.0000000  0 16G02G04G05G07G10G13G16G23G26G28R02R03
                                R12R13R14R19
  21881920.294    21881919.4214   21881924.1824  114990273.085 7  89602826.73044
      -235.062        -183.168
  22994127.482    22994127.3874   22994133.5144  120834985.412 6  94157140.02343
     -2606.666       -2031.170
  22758626.899    22758627.2974   22758632.2294  119597401.462 6  93192801.13844
      3387.959        2639.970
  20516335.940    20516335.7764   20516340.5074  107814306.942 8  84011126.33247
      -166.705        -129.900
  20265959.901    20265958.4504   20265964.9704  106498357.422 8  82985749.50446
       100.783          78.534
  22332419.279    22332419.3844   22332424.4024  117357963.184 7  91447657.93143
     -1839.219       -1433.163
  25110001.852                                   131953971.521 4
     -1492.074
  24330257.292    24330256.4844   24330259.2884  127856690.450 5  99628563.24941
     -2220.981       -1730.611
  24302846.437    24302847.2724   24302853.6104  127712326.092 5  99516112.50641
      3581.568        2790.812
  24891620.221                                   130806340.734 4
      3597.001
  20355257.894    20355257.167    20355261.167   108619588.165 8  84481929.278 7
     -1220.706        -949.436
  22128196.740    22128195.590    22128202.228   117997329.235 6  91775749.386 5
      4478.267        3483.094
  20912570.595    20912570.834    20912576.643   111711359.304 7  86886672.842 6
     -2458.334       -1912.039
  19409455.731    19409455.373    19409458.838   103645493.827 9  80613210.786 7
      1470.268        1143.544
  22376923.843    22376922.891    22376960.795   119281656.623 6  92774653.415 3
      4603.272        3580.305
  24230899.505    24230899.718    24230903.003   129618963.412 5 100814784.613 4
     -1325.800       -1031.173
 11 10 10  0  6 30.0000000  0 16G02G04G05G07G10G13G16G23G26G28R02R03
                                R12R13R14R19
  21883313.848    21883313.9704   21883318.5094  114997601.581 6  89608537.22944
      -253.209        -197.303
  23009025.785    23009024.8674   23009031.3524  120913275.027 6  94218144.90143
     -2612.286       -2035.552
  22739302.101    22739302.5494   22739307.2404  119495848.687 6  93113669.11844
      3382.485        2635.695
  20517333.658    20517333.3634   20517338.3584  107819549.458 8  84015211.41147
      -182.527        -142.226
  20265427.799    20265426.4944   20265433.0294  106495561.894 8  82983571.16246
        85.886          66.926
  22342928.313    22342928.1324   22342933.2394  117413188.232 6  91490690.40043
     -1842.161       -1435.446
  25118562.925                                   131998959.101 3
     -1506.755
  24342939.806    24342939.0084   24342942.9334  127923333.492 5  99680492.89941
     -2221.633       -1731.115
  24282406.734    24282405.4144   24282413.4864  127604917.680 4  99432417.66241
      3579.258        2789.032
  24871073.781                                   130698382.221 4
      3600.498
  20362163.470    20362162.935    20362166.757   108656439.027 8  84510591.048 6
     -1235.748        -961.133
  22103030.272    22103029.985    22103036.987   117863135.530 6  91671376.527 5
      4468.264        3475.320
  20926420.479    20926420.471    20926425.769   111785343.681 7  86944216.227 6
     -2473.640       -1923.942
  19401265.503    19401264.921    19401268.290   103601756.752 9  80579193.068 7
      1445.808        1124.519
  22351044.440    22351043.375    22351078.865   119143701.345 6  92667354.936 3
      4594.034        3573.151
  24238383.745    24238384.483    24238388.213   129659004.217 5 100845927.434 4
     -1343.225       -1044.731
 11 10 10  0  7  0.0000000  0 16G02G04G05G07G10G13G16G23G26G28R02R03
                                R12R13R14R19
  21884813.207    21884812.7294   21884817.1394  115005477.831 7  89614674.56044
      -271.775        -211.770
  23023956.004    23023954.9854   23023962.5244  120991735.127 6  94279282.63643
     -2618.261       -2040.212
  22720009.550    22720009.8104   22720014.3514  119394465.844 7  93034669.50044
      3376.421        2630.982
  20518422.416    20518422.1624   20518427.2104  107825271.493 8  84019670.14247
      -198.865        -154.960
  20264981.888    20264980.5314   20264986.8854  106493217.761 8  82981744.55646
        70.442          54.889
  22353455.513    22353454.9424   22353459.7814  117468505.658 7  91533794.86243
     -1845.603       -1438.131
  25127208.372                                   132044389.073 4
     -1521.806
  24355623.816    24355621.9624   24355629.2444  127989997.643 5  99732438.92941
     -2222.637       -1731.924
  24261980.536    24261982.7904   24261989.1234  127497581.552 4  99348779.11041
      3576.472        2786.850
  24850510.117                                   130590330.257 3
      3603.142
  20369154.585    20369154.105    20369158.192   108693745.399 8  84539607.103 6
     -1251.311        -973.241
  22077921.972    22077921.587    22077928.574   117729247.164 6  91567241.152 5
      4457.641        3467.057
  20940357.488    20940357.179    20940363.080   111859790.897 7  87002119.624 6
     -2489.450       -1936.238
  19393213.344    19393212.755    19393216.045   103558758.967 9  80545750.360 7
      1420.751        1105.028
  22325216.816    22325215.822    22325255.423   119006029.505 6  92560276.936 3
      4584.141        3565.407
  24245966.301    24245967.642    24245970.342   129699565.154 5 100877474.773 4
     -1360.852       -1058.435
 11 10 10  0  7 30.0000000  0 16G02G04G05G07G10G13G16G23G26G28R02R03
                                R12R13R14R19
  21886419.256    21886418.9604   21886423.1664  115013917.712 7  89621251.06944
      -290.973        -226.729
  23038920.470    23038920.0624   23038927.4364  121070379.940 6  94340564.28143
     -2624.792       -2045.298
  22700753.092    22700753.1124   22700758.4544  119293272.563 7  92955817.59544
      3369.654        2625.706
  20519605.454    20519605.2044   20519609.9914  107831488.677 8  84024514.70246
      -215.736        -168.105
  20264624.942    20264623.6344   20264630.1344  106491342.597 8  82980283.37746
        54.415          42.403
  22364002.760    22364002.4924   22364006.4004  117523932.054 7  91576984.25143
     -1849.624       -1441.267
  25135939.749                                   132090276.648 3
     -1537.416
  24368318.498    24368317.6174   24368320.3824  128056699.973 5  99784414.74941
     -2224.475       -1733.358
  24241574.097    24241572.6394   24241579.6224  127390335.559 4  99265210.85741
      3573.108        2784.229
  24829936.732                                   130482201.679 4
      3605.271
  20376234.155    20376233.738    20376237.725   108731524.965 8  84568991.198 6
     -1267.453        -985.792
  22052874.919    22052874.365    22052880.890   117595685.575 6  91463359.941 5
      4446.292        3458.224
  20954383.854    20954383.622    20954388.739   111934714.567 8  87060393.577 6
     -2505.599       -1948.797
  19385302.717    19385302.327    19385305.779   103516518.082 9  80512896.349 7
      1395.122        1085.093
  22299447.521    22299445.651    22299488.900   118868661.840 6  92453435.474 3
      4573.565        3557.175
  24253647.969    24253649.334    24253653.226   129740660.819 5 100909438.081 4
     -1378.963       -1072.524
 11 10 10  0  8  0.0000000  0 16G02G04G05G07G10G13G16G23G26G28R02R03
                                R12R13R14R19
  21888134.262    21888133.9014   21888138.3614  115022931.431 6  89628274.72444
      -309.732        -241.352
  23053923.154    23053923.3404   23053930.0444  121149218.042 6  94401996.54442
     -2630.839       -2049.998
  22681535.086    22681535.1954   22681539.9494  119192282.293 7  92877123.90344
      3363.215        2620.687
  20520884.897    20520884.6444   20520889.4974  107838211.228 8  84029753.05547
      -232.210        -180.942
  20264359.695    20264358.2744   20264364.7364  106489948.393 8  82979196.97946
        38.718          30.172
  22374572.125    22374571.9354   22374576.9454  117579478.274 6  91620267.00043
     -1853.277       -1444.107
  25144762.948                                   132136631.758 3
     -1552.621
  24381020.750    24381019.0074   24381022.8414  128123451.613 5  99836428.92841
     -2225.688       -1734.276
  24221183.814    24221184.4584   24221190.9834  127283191.733 4  99181722.17441
      3569.970        2781.783
  24809345.195                                   130374009.767 4
      3607.876
  20383404.971    20383404.700    20383408.534   108769789.342 8  84598752.369 7
     -1283.296        -998.120
  22027892.688    22027891.625    22027898.297   117462464.987 6  91359743.961 5
      4435.238        3449.627
  20968500.184    20968500.100    20968505.460   112010122.737 7  87119044.372 6
     -2521.356       -1961.053
  19377536.598    19377536.062    19377539.565   103475046.350 9  80480640.569 7
      1369.849        1065.438
  22273737.711    22273736.176    22273777.265   118731613.319 6  92346842.053 3
      4563.204        3549.158
  24261434.783    24261433.923    24261436.990   129782299.470 5 100941823.699 4
     -1396.670       -1086.301
 11 10 10  0  8 30.0000000  0 16G02G04G05G07G10G13G16G23G26G28R02R03
                                R12R13R14R19
  21889957.751    21889956.8924   21889961.4574  115032511.828 6  89635739.97244
      -328.699        -256.128
  23068961.386    23068960.9464   23068967.3124  121228240.114 6  94463572.18043
     -2637.029       -2054.832
  22662355.701    22662355.3454   22662360.2764  119091491.314 6  92798585.47244
      3356.421        2615.393
  20522258.733    20522258.5564   20522263.2454  107845431.297 8  84035379.08546
      -248.879        -193.933
  20264184.934    20264183.5954   20264190.1614  106489029.668 8  82978481.08346
        22.772          17.740
  22385164.040    22385163.5864   22385169.6394  117635137.957 6  91663638.16643
     -1857.138       -1447.124
  25153670.571                                   132183446.159 3
     -1568.035
  24393731.251    24393731.4544   24393733.6614  128190245.966 5  99888476.41441
     -2227.058       -1735.368
  24200814.619    24200814.4024   24200820.0554  127176144.717 4  99098308.94841
      3566.664        2779.192
  24788743.955                                   130265751.098 4
      3609.807
  20390665.790    20390665.255    20390669.073   108808532.449 8  84628885.875 7
     -1299.333       -1010.599
  22002972.077    22002971.187    22002978.682   117329582.608 6  91256391.026 5
      4423.828        3440.751
  20982705.464    20982705.042    20982710.432   112086005.023 7  87178063.928 6
     -2537.177       -1973.358
  19369913.163    19369912.734    19369915.933   103434337.710 9  80448978.300 7
      1344.293        1045.561
  22248087.582    22248085.634    22248132.271   118594880.817 6  92240494.491 3
      4552.487        3540.817
  24269318.418    24269316.805    24269321.247   129824471.696 5 100974624.304 4
     -1414.517       -1100.181
 11 10 10  0  9  0.0000000  0 16G02G04G05G07G10G13G16G23G26G28R02R03
                                R12R13R14R19
  21891888.710    21891887.9764   21891892.2774  115042657.505 7  89643645.68444
      -347.700        -270.931
  23084034.117    23084033.1954   23084039.0724  121307443.925 6  94525289.41643
     -2643.200       -2059.630
  22643213.914    22643213.4324   22643219.4614  118990901.953 6  92720204.16444
      3349.488        2609.990
  20523727.254    20523726.9184   20523731.6924  107853147.939 8  84041392.05746
      -265.583        -206.950
  20264100.570    20264099.2404   20264105.7984  106488586.711 8  82978135.91746
         6.722           5.234
  22395777.141    22395776.7924   22395782.3834  117690910.428 6  91707097.21343
     -1861.074       -1450.194
  25162662.039                                   132230718.321 3
     -1583.249
  24406448.908    24406449.5034   24406453.5414  128257083.665 5  99940557.69441
     -2228.722       -1736.670
  24180463.895    24180462.7964   24180471.3494  127069194.909 5  99014971.43141
      3563.292        2776.606
  24768131.851                                   130157428.170 4
      3611.734
  20398015.903    20398015.162    20398019.427   108847754.152 8  84659391.623 7
     -1315.455       -1023.131
  21978116.255    21978115.695    21978123.188   117197041.022 6  91153303.152 5
      4412.221        3431.722
  20996999.004    20996998.929    20997003.654   112162358.012 8  87237449.587 6
     -2553.036       -1985.699
  19362432.591    19362432.086    19362435.513   103394392.398 9  80417909.733 7
      1318.711        1025.662
  22222495.840    22222494.625    22222530.321   118458467.809 6  92134395.442 3
      4541.663        3532.420
  24277301.989    24277300.326    24277304.121   129867174.123 5 101007837.270 4
     -1432.300       -1114.017
 11 10 10  0  9 30.0000000  0 15G02G04G05G07G10G13G23G26G28R02R03R12
                                R13R14R19
  21893927.214    21893926.5494   21893931.1144  115053371.385 7  89651994.14944
      -366.513        -285.596
  23099140.524    23099139.6124   23099146.1974  121386830.794 6  94587149.28642
     -2649.149       -2064.250
  22624111.742    22624111.6354   22624116.1494  118890520.852 6  92641985.12644
      3342.661        2604.674
  20525290.599    20525290.4994   20525295.1824  107861364.219 8  84047794.35647
      -282.091        -219.811
  20264107.691    20264106.3784   20264112.9494  106488624.642 8  82978165.46546
        -9.177          -7.151
  22406412.153    22406411.9464   22406417.9974  117746799.563 7  91750647.16843
     -1864.791       -1453.088
  24419177.799    24419176.3404   24419181.1154  128323968.751 5  99992675.85841
     -2230.204       -1737.811
  24160130.497    24160130.0824   24160137.2294  126962347.136 4  98931713.47241
      3560.057        2774.092
  24747507.871                                   130049050.232 4
      3613.802
  20405456.948    20405456.289    20405460.172   108887459.236 8  84690273.334 7
     -1331.460       -1035.580
  21953325.897    21953325.527    21953332.821   117064848.406 6  91050486.702 5
      4400.666        3422.737
  21011380.761    21011380.631    21011385.432   112239182.200 8  87297201.738 6
     -2568.498       -1997.721
  19355095.788    19355095.320    19355099.002   103355215.084 9  80387438.498 7
      1293.201        1005.823
  22196964.637    22196965.091    22197010.559   118322381.846 6  92028550.834 3
      4530.897        3524.013
  24285383.593    24285382.967    24285385.861   129910408.145 4 101041463.710 4
     -1449.850       -1127.659
 11 10 10  0 10  0.0000000  0 14G02G04G05G07G10G13G23G26G28R02R03R12
                                R13R14
  21896073.829    21896073.8034   21896078.3864  115064654.890 6  89660786.47644
      -385.637        -300.491
  23114281.672    23114281.3174   23114287.9734  121466400.336 6  94649151.51242
     -2655.369       -2069.122
  22605050.190    22605050.3094   22605055.8554  118790352.995 6  92563932.25944
      3335.295        2598.927
  20526949.489    20526949.1884   20526954.1814  107870081.361 8  84054586.94046
      -298.957        -232.955
  20264207.127    20264205.8234   20264212.3914  106489146.278 8  82978571.91946
       -25.508         -19.878
  22417070.768    22417070.2844   22417075.7384  117802807.611 6  91794289.77543
     -1868.992       -1456.352
  24431915.949    24431914.5314   24431917.4304  128390903.617 5 100044832.83841
     -2232.034       -1739.236
  24139818.653    24139815.3854   24139824.2714  126855604.595 4  98848537.46641
      3556.289        2771.143
  24726874.531                                   129940621.655 4
      3615.071
  20412988.546    20412988.164    20412991.937   108927650.253 8  84721532.989 7
     -1347.862       -1048.338
  21928603.391    21928602.328    21928608.617   116933010.826 6  90947946.387 5
      4388.592        3413.348
  21025850.036    21025850.020    21025855.578   112316476.568 7  87357319.569 6
     -2584.341       -2010.042
  19347903.509    19347903.076    19347906.770   103316808.546 9  80357566.757 7
      1267.292         985.671
  22171499.398    22171497.561    22171550.961   118186628.945 6  91922965.274 3
      4519.399        3515.084
 11 10 10  0 10 30.0000000  0 14G02G04G05G07G10G13G23G26G28R02R03R12
                                R13R14
  21898329.485    21898328.7274   21898333.5594  115076506.304 7  89670021.33044
      -404.478        -315.180
  23129456.860    23129456.9314   23129463.8794  121546149.131 6  94711293.42142
     -2661.250       -2073.695
  22586029.896    22586030.1934   22586035.4274  118690400.217 6  92486046.99544
      3328.150        2593.364
  20528703.266    20528703.0484   20528708.0514  107879297.317 8  84061768.20747
      -315.503        -245.851
  20264398.387    20264397.0124   20264403.4994  106490151.814 8  82979355.44146
       -41.568         -32.394
  22427751.183    22427751.0714   22427754.9764  117858933.643 6  91838024.32243
     -1872.840       -1459.337
  24444659.750    24444659.6994   24444664.5174  128457887.558 5 100097028.06341
     -2233.620       -1740.464
  24119525.957    24119526.4624   24119531.6444  126748967.642 5  98765443.74741
      3552.819        2768.448
  24706230.936                                   129832146.075 4
      3616.426
  20420611.071    20420610.643    20420614.512   108968326.703 8  84753170.215 6
     -1363.955       -1060.858
  21903946.460    21903945.724    21903952.249   116801530.920 6  90845684.271 5
      4376.699        3404.094
  21040407.276    21040407.189    21040412.603   112394236.887 8  87417799.803 6
     -2599.732       -2022.019
  19340855.697    19340855.198    19340858.558   103279172.173 9  80328294.037 7
      1241.692         965.756
  22146094.724    22146093.965    22146144.278   118051211.958 6  91817640.873 3
      4508.299        3506.489
 11 10 10  0 11  0.0000000  0 14G02G04G05G07G10G13G23G26G28R02R03R12
                                R13R14
  21900692.966    21900692.2174   21900696.5634  115088924.314 7  89679697.69144
      -423.255        -329.803
  23144667.198    23144666.0694   23144672.5454  121626075.238 6  94773573.49442
     -2666.987       -2078.188
  22567051.403    22567051.2554   22567056.5554  118590665.203 7  92408331.40544
      3320.943        2587.749
  20530551.824    20530551.6104   20530556.5594  107889011.629 8  84069337.80047
      -331.989        -258.692
  20264681.974    20264680.7004   20264687.0854  106491641.911 8  82980516.54446
       -57.621         -44.898
  22438453.304    22438453.2194   22438458.6284  117915177.546 7  91881850.72143
     -1876.666       -1462.326
  24457416.805    24457415.9924   24457421.2514  128524920.998 5 100149261.84441
     -2235.183       -1741.700
  24099253.734    24099253.2044   24099259.6844  126642437.141 5  98682432.96641
      3549.307        2765.723
  24685581.401                                   129723625.645 4
      3618.326
  20428325.028    20428324.398    20428328.203   109009489.163 8  84785185.443 6
     -1380.082       -1073.396
  21879356.291    21879356.459    21879363.664   116670411.653 6  90743702.634 5
      4364.661        3394.735
  21055050.877    21055050.664    21055055.916   112472459.657 8  87478639.744 6
     -2614.950       -2033.848
  19333951.839    19333951.494    19333954.925   103242306.994 9  80299621.128 7
      1216.102         945.857
  22120754.314    22120753.543    22120803.800   117916134.641 6  91712580.634 3
      4496.977        3497.673
 11 10 10  0 11 30.0000000  0 14G02G04G05G07G10G13G23G26G28R02R03R12
                                R13R14
  21903163.659    21903163.3024   21903167.9274  115101910.236 7  89689816.56844
      -442.311        -344.654
  23159909.404    23159909.8514   23159915.2384  121706178.046 6  94835991.23842
     -2673.018       -2082.845
  22548114.984    22548114.6844   22548120.0494  118491152.658 7  92330789.17944
      3313.338        2581.822
  20532495.456    20532495.1974   20532499.9324  107899225.238 8  84077296.46146
      -348.770        -271.768
  20265058.236    20265057.1104   20265063.4204  106493619.349 8  82982057.39646
       -74.049         -57.700
  22449179.406    22449179.6344   22449184.1334  117971541.420 6  91925770.59643
     -1880.780       -1465.556
  24470183.642    24470183.2434   24470186.1184  128592006.473 5 100201536.19541
     -2237.082       -1743.199
  24079000.171    24079001.0194   24079009.5224  126536016.005 4  98599507.42541
      3545.507        2762.727
  24664924.180                                   129615065.296 4
      3619.345
  20436129.877    20436129.506    20436133.276   109051139.977 8  84817580.500 6
     -1396.514       -1086.179
  21854836.203    21854835.785    21854843.894   116539658.405 6  90642005.690 5
      4352.307        3385.124
  21069781.062    21069780.759    21069785.967   112551143.610 7  87539838.354 6
     -2630.517       -2045.961
  19327193.120    19327192.623    19327195.960   103206215.250 9  80271549.779 7
      1190.132         925.658
  22095478.709    22095478.547    22095527.639   117781402.758 6  91607789.327 3
      4485.237        3488.542
 11 10 10  0 12  0.0000000  0 14G02G04G05G07G10G13G23G26G28R02R03R12
                                R13R14
  21905742.068    21905741.5434   21905745.9524  115115458.050 7  89700373.28644
      -461.043        -359.256
  23175185.763    23175185.7664   23175191.3844  121786450.138 6  94898540.90742
     -2678.624       -2087.250
  22529220.021    22529219.9924   22529224.1694  118391860.306 6  92253418.52644
      3305.971        2576.079
  20534532.949    20534532.7064   20534537.5634  107909932.345 8  84085639.67046
      -365.197        -284.565
  20265526.522    20265525.2704   20265531.7584  106496080.127 8  82983974.87946
       -90.182         -70.273
  22459927.077    22459927.0004   22459932.0454  118028020.286 6  91969780.08843
     -1884.594       -1468.532
  24482958.096    24482956.6584   24482963.5444  128659139.008 5 100253847.17941
     -2238.654       -1744.396
  24058770.029    24058770.7554   24058772.9354  126429700.577 4  98516664.26141
      3541.983        2760.005
  24644256.100                                   129506463.779 4
      3620.652
  20444025.922    20444025.533    20444029.741   109093274.585 8  84850351.833 6
     -1412.644       -1098.724
  21830384.076    21830383.831    21830391.341   116409270.375 6  90540592.805 5
      4340.033        3375.583
  21084595.074    21084594.993    21084600.391   112630280.440 7  87601389.238 6
     -2645.473       -2057.589
  19320578.139    19320577.697    19320581.182   103170892.441 9  80244076.499 7
      1164.533         905.745
  22070268.452    22070268.069    22070327.879   117647014.882 6  91503265.512 3
      4473.751        3479.553
 11 10 10  0 12 30.0000000  0 14G02G04G05G07G10G13G23G26G28R02R03R12
                                R13R14
  21908429.459    21908429.3424   21908433.0874  115129582.605 7  89711379.42744
      -480.379        -374.323
  23190495.270    23190494.6234   23190500.7184  121866904.649 6  94961232.72242
     -2684.851       -2092.088
  22510370.565    22510370.5174   22510376.1194  118292806.658 6  92176233.87244
      3297.797        2569.713
  20536667.046    20536666.8444   20536671.6584  107921147.578 8  84094378.81547
      -382.294        -297.893
  20266089.741    20266088.6204   20266095.2124  106499040.805 8  82986281.88246
      -107.015         -83.384
  22470700.092    22470699.8634   22470704.4654  118084629.591 6  92013891.19543
     -1889.145       -1472.068
  24495744.700    24495743.7674   24495747.6254  128726334.863 5 100306207.57241
     -2240.841       -1746.123
  24038563.551    24038563.1904   24038570.3524  126323507.192 5  98433916.21241
      3537.761        2756.679
  24623585.558                                   129397839.567 4
      3621.219
  20452015.820    20452015.445    20452019.250   109135908.932 8  84883511.859 6
     -1429.464       -1111.802
  21806004.672    21806004.489    21806010.891   116279266.123 6  90439478.411 5
      4327.009        3365.455
  21099496.548    21099496.620    21099501.850   112709882.639 7  87663302.043 6
     -2661.145       -2069.779
  19314110.182    19314109.876    19314113.233   103136354.882 9  80217213.962 7
      1138.159         885.235
  22045123.858    22045124.693    22045186.898   117512990.505 6  91399024.353 3
      4461.367        3469.967
 11 10 10  0 13  0.0000000  0 14G02G04G05G07G10G13G23G26G28R02R03R12
                                R13R14
  21911223.782    21911222.3044   21911226.4544  115144260.053 7  89722816.38844
      -498.216        -388.215
  23205835.010    23205835.2924   23205841.0934  121947516.776 6  95024047.34542
     -2689.475       -2095.673
  22491562.992    22491563.1004   22491568.3484  118193971.897 7  92099219.79644
      3291.008        2564.419
  20538893.449    20538893.2834   20538898.0794  107932847.302 8  84103495.49446
      -397.826        -309.997
  20266744.407    20266742.9704   20266749.6814  106502479.537 8  82988961.39646
      -122.393         -95.370
  22481492.762    22481492.2494   22481497.3564  118141346.965 6  92058086.52043
     -1892.171       -1474.417
  24508540.417    24508540.2914   24508543.2824  128793571.835 5 100358599.96641
     -2241.707       -1746.749
  24018373.017    24018373.8594   24018380.3984  126217414.416 5  98351246.49641
      3534.934        2754.507
  24602906.657                                   129289173.154 4
      3623.156
  20460095.017    20460094.592    20460098.640   109179020.624 8  84917043.147 6
     -1444.796       -1123.732
  21781693.711    21781693.153    21781699.537   116149627.782 7  90338648.617 5
      4315.333        3356.367
  21114480.568    21114480.419    21114485.815   112789923.718 7  87725556.203 6
     -2675.150       -2080.670
  19307785.314    19307784.902    19307788.356   103102579.904 9  80190944.539 7
      1113.338         865.929
  22020048.052    22020046.839    22020114.293   117379310.391 6  91295050.890 3
      4450.438        3461.473
 11 10 10  0 13 30.0000000  0 14G02G04G05G07G10G13G23G26G28R02R03R12
                                R13R14
  21914117.419    21914116.4314   21914120.0434  115159467.401 7  89734666.25344
      -516.016        -402.086
  23221200.023    23221200.2134   23221207.3644  122028262.232 6  95086965.85942
     -2693.974       -2099.190
  22472793.337    22472793.5024   22472798.6674  118095336.824 6  92022361.29344
      3284.203        2559.113
  20541207.517    20541207.2484   20541212.2924  107945008.448 8  84112971.71646
      -413.330        -322.073
  20267485.798    20267484.4094   20267490.9144  106506375.389 8  82991997.11546
      -137.753        -107.339
  22492301.522    22492301.3604   22492306.7974  118198150.544 6  92102349.03943
     -1895.113       -1476.708
  24521338.527    24521337.9764   24521342.9974  128860828.010 5 100411007.33341
     -2242.414       -1747.350
  23998200.341    23998201.2274   23998206.9874  126111401.251 5  98268638.84641
      3532.200        2752.400
  24582215.094                                   129180446.084 4
      3625.029
  20468260.040    20468259.214    20468263.063   109222587.720 8  84950928.644 6
     -1460.129       -1135.655
  21757447.352    21757447.009    21757453.559   116020336.168 6  90238088.492 5
      4303.592        3347.239
  21129541.713    21129541.601    21129546.878   112870378.006 7  87788131.753 6
     -2688.929       -2091.387
  19301599.126    19301598.601    19301602.052   103069545.568 9  80165251.182 7
      1088.503         846.615
  21995031.594    21995030.541    21995095.197   117245955.931 6  91191330.696 3
      4439.386        3452.859
 11 10 10  0 14  0.0000000  0 14G02G04G05G07G10G13G23G26G28R02R03R12
                                R13R14
  21917115.712    21917114.8754   21917118.6514  115175224.884 7  89746944.80244
      -534.424        -416.434
  23236594.400    23236594.5314   23236600.5404  122109159.558 6  95150002.71342
     -2699.063       -2103.190
  22454066.597    22454066.3614   22454071.7184  117996925.467 7  91945677.12944
      3276.588        2553.186
  20543613.233    20543613.0174   20543618.1574  107957651.172 8  84122823.19446
      -429.453        -334.635
  20268318.220    20268316.7734   20268323.3094  106510750.059 8  82995405.93946
      -153.824        -119.860
  22503131.725    22503130.4734   22503136.7734  118255061.057 6  92146694.85543
     -1898.805       -1479.582
  24534145.123    24534143.3954   24534149.1614  128928124.847 5 100463446.35441
     -2243.923       -1748.487
  23978045.228    23978043.5534   23978051.3354  126005489.726 4  98186110.41941
      3528.666        2749.625
  24561518.096                                   129071682.186 4
      3625.969
  20476513.515    20476513.292    20476517.086   109266632.075 8  84985185.338 6
     -1476.122       -1148.093
  21733269.240    21733269.602    21733276.694   115891415.463 6  90137816.857 5
      4291.104        3337.526
  21144683.585    21144683.442    21144688.884   112951263.716 7  87851042.863 6
     -2703.372       -2102.622
  19295555.704    19295555.244    19295558.715   103037273.880 9  80140150.990 7
      1062.977         826.761
  21970079.082    21970078.928    21970151.537   117112952.163 6  91087883.445 3
      4427.556        3443.611
 11 10 10  0 14 30.0000000  0 14G02G04G05G07G10G13G23G26G28R02R03R12
                                R13R14
  21920218.454    21920217.5344   21920221.6924  115191529.738 6  89759649.85944
      -552.738        -430.702
  23252016.920    23252017.1444   23252022.2454  122190204.925 6  95213154.93042
     -2704.148       -2107.117
  22435382.149    22435382.3004   22435386.9374  117898738.998 7  91869168.20244
      3268.960        2547.235
  20546110.380    20546110.1854   20546115.1704  107970773.009 8  84133048.00746
      -445.522        -347.159
  20269241.722    20269240.3264   20269246.7474  106515602.744 8  82999187.25246
      -169.872        -132.368
  22513981.373    22513981.1204   22513986.7924  118312077.457 6  92191123.19743
     -1902.440       -1482.427
  24546959.265    24546958.3014   24546962.7704  128995461.414 5 100515916.33441
     -2245.400       -1749.666
  23957910.943    23957909.0434   23957919.1714  125899679.440 5  98103660.85741
      3525.211        2746.950
  24540814.658                                   128962883.107 4
      3626.979
  20484856.219    20484855.817    20484860.190   109311152.255 8  85019812.133 6
     -1492.084       -1160.512
  21709163.497    21709162.872    21709170.305   115762868.166 6  90037835.652 5
      4278.502        3327.721
  21159905.260    21159905.175    21159910.706   113032575.977 7  87914285.730 6
     -2717.673       -2113.745
  19289654.837    19289654.292    19289657.870   103005763.194 9  80115642.679 7
      1037.515         806.956
  21945194.706    21945194.106    21945264.009   116980301.359 6  90984710.481 3
      4415.642        3434.382
 11 10 10  0 15  0.0000000  0 14G02G04G05G07G10G13G23G26G28R02R03R12
                                R13R14
  21923425.809    21923424.0604   21923428.2694  115208380.581 7  89772780.36444
      -570.836        -444.804
  23267466.728    23267467.6244   23267472.6344  122271395.857 6  95276420.58442
     -2708.796       -2110.760
  22416741.496    22416741.0924   22416746.2424  117800780.093 7  91792836.59544
      3261.465        2541.401
  20548698.426    20548698.0894   20548703.1854  107984373.069 8  84143645.45546
      -461.316        -359.466
  20270256.063    20270254.8314   20270261.3704  106520934.323 8  83003341.71446
      -185.727        -144.722
  22524852.152    22524851.4844   22524856.8344  118369199.558 6  92235633.88743
     -1905.869       -1485.085
  24559779.245    24559778.6214   24559782.5314  129062837.745 5 100568417.31941
     -2246.591       -1750.566
  23937794.463    23937794.4804   23937802.9454  125793971.336 5  98021290.92141
      3521.898        2744.364
  24520106.135                                   128854052.361 4
      3628.160
  20493289.112    20493288.607    20493292.397   109356148.707 8  85054809.358 6
     -1507.835       -1172.760
  21685127.962    21685126.990    21685134.088   115634697.655 7  89938147.501 5
      4266.053        3318.043
  21175206.507    21175206.293    21175212.249   113114311.290 7  87977857.619 6
     -2731.531       -2124.522
  19283896.460    19283895.996    19283899.345   102975013.689 9  80091726.400 7
      1012.272         787.323
  21920377.201    21920376.008    21920450.529   116848007.038 6  90881814.810 3
      4403.811        3425.195
 11 10 10  0 15 30.0000000  0 14G02G04G05G07G10G13G23G26G28R02R03R12
                                R13R14
  21926735.476    21926735.1694   21926738.8404  115225779.007 6  89786337.57444
      -589.078        -459.013
  23282945.088    23282944.6174   23282950.8624  122352732.498 6  95339799.76442
     -2713.663       -2114.539
  22398144.992    22398144.1124   22398149.5204  117703054.066 7  91716686.44544
      3253.598        2535.263
  20551377.732    20551377.5464   20551382.3744  107998452.775 8  84154616.65446
      -477.321        -371.938
  20271362.402    20271361.1104   20271367.6074  106526748.009 8  83007871.85246
      -201.861        -157.293
  22535742.506    22535742.2254   22535747.4324  118426429.940 6  92280228.96743
     -1909.521       -1487.930
  24572608.837    24572610.1954   24572614.8534  129130256.856 5 100620951.66641
     -2248.073       -1751.719
  23917699.786    23917698.6404   23917705.8534  125688368.964 4  97939003.32941
      3518.255        2741.521
  24499388.111                                   128745195.854 4
      3628.900
  20501811.305    20501810.565    20501814.571   109401624.145 8  85090179.128 6
     -1523.856       -1185.222
  21661163.199    21661163.231    21661169.968   115506909.999 7  89838757.134 5
      4253.159        3308.015
  21190586.297    21190586.500    21190592.071   113196469.123 7  88041758.151 6
     -2745.611       -2135.473
  19278281.126    19278280.616    19278284.013   102945028.183 9  80068404.351 7
       986.767         767.485
  21895627.425    21895626.174    21895704.499   116716075.336 6  90779201.185 3
      4391.640        3415.684
 11 10 10  0 16  0.0000000  0 14G02G04G05G07G10G13G23G26G28R02R03R12
                                R13R14
  21930150.727    21930150.2464   21930153.2514  115243724.158 7  89800320.80944
      -607.288        -473.214
  23298450.390    23298450.5034   23298455.5114  122434212.962 6  95403291.02242
     -2718.413       -2118.250
  22379593.205    22379592.7944   22379598.0404  117605564.208 6  91640720.32444
      3245.661        2529.084
  20554148.323    20554147.9304   20554152.8214  108013011.516 8  84165961.12746
      -493.312        -384.396
  20272560.861    20272559.5254   20272565.9764  106533045.115 8  83012778.68146
      -218.000        -169.867
  22546653.394    22546652.9884   22546659.0184  118483769.179 6  92324908.88343
     -1913.197       -1490.801
  24585447.081    24585445.3944   24585451.2114  129197719.592 5 100673519.94541
     -2249.571       -1752.892
  23897625.140    23897624.0604   23897631.8194  125582873.958 5  97856799.47341
      3514.598        2738.673
  24478669.499                                   128636316.936 4
      3629.551
  20510422.239    20510422.269    20510426.781   109447579.414 8  85125922.102 7
     -1539.891       -1197.691
  21637271.384    21637271.165    21637278.694   115379509.018 7  89739667.498 5
      4240.140        3297.886
  21206046.046    21206045.693    21206050.744   113279046.194 7  88105984.748 6
     -2759.577       -2146.340
  19272808.985    19272808.434    19272811.845   102915807.683 9  80045677.305 7
       961.195         747.599
  21870946.230    21870944.916    21871023.166   116584510.521 6  90676873.131 3
      4379.304        3406.134
 11 10 10  0 16 30.0000000  0 14G02G04G05G07G10G13G23G26G28R02R03R12
                                R13R14
  21933668.890    21933667.8734   21933671.3574  115262210.949 7  89814726.09544
      -625.193        -487.168
  23313982.089    23313981.1364   23313987.8154  122515831.113 6  95466889.55942
     -2722.826       -2121.683
  22361086.149    22361086.0504   22361091.1414  117508309.500 7  91564937.42944
      3237.919        2523.050
  20557008.815    20557008.5954   20557013.3784  108028044.122 8  84177674.84646
      -508.931        -396.570
  20273850.407    20273849.1384   20273855.6324  106539822.020 8  83018059.37846
      -233.846        -182.217
  22557584.630    22557584.1124   22557590.4294  118541213.345 6  92369670.54443
     -1916.510       -1493.392
  24598292.087    24598289.3534   24598297.8354  129265222.355 5 100726119.44441
     -2250.718       -1753.804
  23877570.734    23877569.7734   23877574.4324  125477483.091 5  97774676.73341
      3511.240        2736.056
  24457946.796                                   128527415.073 4
      3630.481
  20519124.018    20519123.655    20519127.582   109494010.633 8  85162035.261 6
     -1555.602       -1209.915
  21613452.370    21613452.024    21613458.721   115252494.452 7  89640878.404 5
      4227.366        3287.953
  21221581.031    21221581.299    21221586.350   113362035.274 7  88170531.808 6
     -2773.103       -2156.857
  19267479.546    19267478.956    19267482.232   102887347.806 9  80023541.856 7
       936.024         728.019
  21846333.369    21846332.125    21846414.461   116453312.106 6  90574829.805 3
      4367.189        3396.714
 11 10 10  0 17  0.0000000  0 14G02G04G05G07G10G13G23G26G28R02R03R12
                                R13R14
  21937290.556    21937289.7614   21937293.4304  115281244.952 7  89829557.76744
      -643.884        -501.726
  23329540.530    23329539.7924   23329545.6304  122597590.999 6  95530598.54042
     -2727.964       -2125.680
  22342625.534    22342625.1914   22342630.7084  117411299.124 7  91489344.93244
      3229.279        2516.323
  20559960.615    20559960.3684   20559965.2224  108043556.541 8  84189762.44646
      -525.365        -409.375
  20275232.587    20275231.3314   20275237.9284  106547086.192 8  83023719.76346
      -250.559        -195.237
  22568537.415    22568536.6194   22568542.4344  118598769.149 6  92414519.20643
     -1920.680       -1496.635
  24611148.402    24611146.5164   24611150.2044  129332772.403 5 100778755.80141
     -2252.785       -1755.400
  23857534.945    23857533.7964   23857542.7244  125372204.100 4  97692641.19741
      3507.057        2732.750
  24437219.490                                   128418500.280 4
      3630.366
  20527915.464    20527914.901    20527919.411   109540924.930 8  85198524.153 6
     -1572.159       -1222.788
  21589706.941    21589707.232    21589713.877   115125876.812 7  89542398.030 5
      4213.625        3277.268
  21237194.861    21237194.547    21237199.695   113445439.864 7  88235402.044 6
     -2787.356       -2167.942
  19262293.366    19262292.993    19262296.027   102859655.485 9  80002003.394 7
       909.985         707.767
  21821790.817    21821790.150    21821870.281   116322490.360 6  90473079.541 3
      4354.092        3386.520
 11 10 10  0 17 30.0000000  0 14G02G04G05G07G10G13G23G26G28R02R03R12
                                R13R14
  21941017.986    21941016.9794   21941020.6274  115300831.627 7  89844820.09444
      -661.957        -515.804
  23345127.365    23345126.3414   23345132.3484  122679497.089 6  95594421.46542
     -2732.421       -2129.182
  22324213.824    22324213.5804   22324217.9354  117314542.940 7  91413950.49444
      3221.108        2509.959
  20563004.762    20563004.6124   20563009.4574  108059554.407 8  84202228.31746
      -541.211        -421.722
  20276709.193    20276707.9174   20276714.5694  106554845.279 8  83029765.79546
      -266.762        -207.864
  22579512.072    22579511.8614   22579517.4014  118656443.280 6  92459460.06243
     -1924.315       -1499.469
  24624012.022    24624009.5074   24624015.2844  129400376.738 5 100831434.50041
     -2254.169       -1756.495
  23837526.072    23837524.2254   23837531.4764  125267045.151 5  97610699.15841
      3503.503        2730.005
  24416493.285                                   128309582.205 4
      3630.682
  20536799.324    20536798.935    20536803.033   109588329.215 8  85235394.147 6
     -1588.173       -1235.247
  21566038.676    21566038.173    21566045.670   114999665.445 7  89444233.650 6
      4200.353        3266.947
  21252887.090    21252886.771    21252891.806   113529263.553 7  88300598.235 6
     -2800.886       -2178.466
  19257252.656    19257252.317    19257255.374   102832737.859 9  79981067.468 7
       884.492         687.939
  21797320.477    21797319.952    21797409.169   116192055.724 6  90371630.428 3
      4341.475        3376.707
 11 10 10  0 18  0.0000000  0 14G02G04G05G07G10G13G23G26G28R02R03R12
                                R13R14
  21944847.600    21944846.6794   21944850.5894  115320956.032 7  89860501.43744
      -679.713        -529.659
  23360737.873    23360737.3474   23360742.8254  122761533.008 5  95658345.53442
     -2736.565       -2132.363
  22305847.776    22305847.3494   22305852.9294  117218029.927 7  91338745.55344
      3213.069        2503.685
  20566138.765    20566138.5904   20566143.3974  108076022.603 8  84215060.68246
      -556.706        -433.798
  20278277.477    20278276.1374   20278282.8504  106563086.192 8  83036187.27646
      -282.672        -220.268
  22590507.174    22590506.7274   22590511.8644  118714222.363 6  92504482.70342
     -1927.636       -1502.055
  24636884.306    24636883.4864   24636888.1094  129468021.672 5 100884144.74541
     -2255.445       -1757.497
  23817535.601    23817533.7494   23817538.5854  125161993.102 5  97528840.43741
      3499.972        2727.216
  24395765.041                                   128200650.572 4
      3631.380
  20545772.223    20545771.666    20545775.981   109636209.882 8  85272634.659 6
     -1603.891       -1247.473
  21542445.324    21542444.319    21542451.330   114873850.939 7  89346377.947 5
      4187.229        3256.729
  21268653.542    21268653.400    21268659.072   113613488.859 7  88366106.802 6
     -2814.149       -2188.786
  19252354.565    19252353.953    19252357.097   102806580.872 9  79960723.153 7
       859.276         668.323
  21772923.436    21772922.030    21773029.249   116061998.052 6  90270474.346 3
      4329.019        3367.027
 11 10 10  0 18 30.0000000  0 14G02G04G05G07G10G13G23G26G28R02R03R12
                                R13R14
  21948778.518    21948778.1134   21948782.0054  115341615.967 7  89876600.06944
      -697.666        -543.627
  23376372.086    23376371.8824   23376378.4254  122843695.725 5  95722368.41242
     -2740.862       -2135.740
  22287528.126    22287528.4214   22287533.3544  117121761.788 7  91263731.40944
      3204.748        2497.212
  20569361.710    20569361.5954   20569366.3264  108092959.234 8  84228258.05846
      -572.444        -446.059
  20279937.334    20279936.0164   20279942.7204  106571808.671 8  83042984.00146
      -298.858        -232.873
  22601521.562    22601521.4824   22601526.4404  118772105.207 6  92549586.19942
     -1931.238       -1504.861
  24649764.550    24649764.2534   24649768.3564  129535706.735 5 100936886.27441
     -2256.931       -1758.662
  23797564.723    23797563.2394   23797571.7604  125057048.233 5  97447065.22341
      3496.453        2724.512
  24375034.530                                   128091707.706 4
      3631.499
  20554834.661    20554834.095    20554837.288   109684565.985 8  85310244.957 6
     -1619.890       -1259.913
  21518925.537    21518925.059    21518932.159   114748434.630 7  89248831.944 6
      4173.762        3246.258
  21284495.250    21284495.332    21284500.900   113698111.477 7  88431924.379 6
     -2827.390       -2199.083
  19247598.041    19247597.675    19247600.901   102781183.312 9  79940969.505 7
       833.864         648.564
  21748595.998    21748595.289    21748705.300   115932319.534 6  90169613.175 3
      4316.240        3357.036
 11 10 10  0 19  0.0000000  0 14G02G04G05G07G10G13G23G26G28R02R03R12
                                R13R14
  21952811.288    21952810.7214   21952815.0054  115362809.859 6  89893114.78744
      -715.291        -557.369
  23392031.064    23392030.4004   23392037.8694  122925982.792 6  95786488.19542
     -2744.886       -2138.897
  22269256.364    22269256.1844   22269261.9164  117025741.558 7  91188910.45644
      3196.620        2490.872
  20572673.615    20572673.3574   20572678.1324  108110363.206 8  84241819.59946
      -587.854        -458.066
  20281688.935    20281687.6214   20281694.2194  106581013.173 8  83050156.32846
      -314.778        -245.281
  22612556.360    22612556.6204   22612561.2714  118830091.882 6  92594770.62042
     -1934.513       -1507.414
  24662649.890    24662650.2844   24662656.4604  129603432.359 4 100989659.47041
     -2258.070       -1759.560
  23777614.934    23777613.9684   23777621.1674  124952211.591 5  97365374.36041
      3492.760        2721.609
  24354299.750                                   127982756.870 4
      3631.921
  20563984.847    20563984.370    20563988.163   109733397.562 8  85348225.066 6
     -1635.579       -1272.120
  21495480.917    21495480.986    21495487.756   114623420.974 7  89151599.123 5
      4160.471        3235.924
  21300410.519    21300410.513    21300415.738   113783128.073 7  88498048.382 6
     -2840.323       -2209.137
  19242984.276    19242983.764    19242986.961   102756545.434 9  79921806.721 7
       808.679         628.972
  21724340.242    21724339.621    21724451.705   115803023.939 6  90069049.837 3
      4303.478        3347.180
 11 10 10  0 19 30.0000000  0 14G02G04G05G07G10G13G23G26G28R02R03R12
                                R13R14
  21956944.147    21956943.5454   21956947.6584  115384525.512 6  89910036.05744
      -732.806        -571.014
  23407711.696    23407711.4154   23407716.8814  123008380.509 5  95850694.18442
     -2748.697       -2141.831
  22251029.640    22251029.2984   22251034.4304  116929960.803 7  91114276.11244
      3188.406        2484.469
  20576072.102    20576071.8344   20576076.8074  108128222.270 8  84255735.75946
      -603.121        -469.963
  20283530.277    20283528.9784   20283535.4984  106590689.201 8  83057696.07846
      -330.672        -257.668
  22623608.508    22623608.2534   22623613.6464  118888171.560 6  92640027.49742
     -1937.802       -1509.988
  24675546.358    24675544.3104   24675551.3584  129671187.712 5 101042455.82241
     -2259.274       -1760.472
  23757684.103    23757683.0844   23757689.1684  124847472.826 5  97283759.76841
      3489.338        2719.021
  24333565.280    24333564.6224   24333570.6864  127873790.162 5  99641900.68841
      3632.155        2830.244
  20573223.226    20573222.717    20573226.261   109782693.452 8  85386566.312 6
     -1651.210       -1284.276
  21472111.594    21472110.859    21472117.249   114498801.070 7  89054672.541 5
      4147.099        3225.518
  21316397.312    21316396.902    21316401.925   113868523.988 7  88564467.428 6
     -2853.095       -2219.073
  19238510.235    19238509.887    19238512.863   102732655.490 9  79903225.669 7
       783.607         609.474
  21700154.625    21700154.343    21700257.966   115674103.591 6  89968778.460 3
      4290.774        3337.251
 11 10 10  0 20  0.0000000  0 14G02G04G05G07G10G13G23G26G28R02R03R12
                                R13R14
  21961176.439    21961175.8894   21961180.5044  115406768.518 7  89927368.24744
      -750.138        -584.519
  23423413.817    23423413.1954   23423418.9444  123090894.068 6  95914990.42742
     -2752.220       -2144.590
  22232850.813    22232850.6514   22232855.9434  116834429.643 6  91039836.24744
      3180.242        2478.118
  20579558.339    20579558.1244   20579563.0834  108146542.530 8  84270011.29046
      -618.295        -481.788
  20285462.909    20285461.4934   20285467.9804  106600844.569 8  83065609.35446
      -346.438        -269.955
  22634679.636    22634679.4054   22634684.9664  118946351.382 6  92685362.40043
     -1940.935       -1512.417
  24688445.364    24688445.0634   24688451.0874  129738980.662 4 101095281.43241
     -2260.274       -1761.307
  23737773.855    23737773.6184   23737780.9074  124742840.350 5  97202227.99241
      3485.994        2716.349
  24312827.802    24312825.4604   24312835.2354  127764818.182 4  99556987.63241
      3632.491        2830.504
  20582549.544    20582549.184    20582552.864   109832461.239 8  85425274.580 6
     -1666.735       -1296.348
  21448817.313    21448816.701    21448823.277   114374586.683 7  88958061.371 5
      4133.776        3215.162
  21332454.948    21332455.012    21332460.325   113954303.246 7  88631184.609 6
     -2865.613       -2228.804
  19234177.975    19234177.461    19234180.638   102709520.776 9  79885232.019 7
       758.640         590.055
  21676042.900    21676041.811    21676139.946   115545569.228 6  89868807.382 3
      4278.034        3327.358
 11 10 10  0 20 30.0000000  0 14G02G04G05G07G10G13G23G26G28R02R03R12
                                R13R14
  21965510.698    21965509.9284   21965514.4104  115429542.139 7  89945113.91844
      -768.099        -598.518
  23439138.398    23439137.5624   23439143.0594  123173525.501 6  95979378.54342
     -2756.451       -2147.893
  22214720.164    22214719.9424   22214725.6134  116739155.054 6  90965596.31244
      3171.355        2471.188
  20583132.713    20583132.3664   20583137.4874  108165326.736 8  84284648.34146
      -634.015        -494.035
  20287487.534    20287486.1274   20287492.6474  106611484.333 8  83073900.07346
      -362.897        -282.779
  22645771.385    22645770.9364   22645776.1544  119004635.723 6  92730778.73643
     -1944.711       -1515.347
  24701354.590    24701356.3584   24701359.9774  129806815.379 5 101148139.59841
     -2262.066       -1762.614
  23717883.764    23717881.9434   23717889.0934  124638319.538 5  97120783.18341
      3482.026        2713.241
  24292090.991    24292091.2304   24292097.2314  127655848.655 4  99472076.46841
      3632.071        2830.152
  20591965.526    20591964.904    20591968.832   109882705.450 8  85464353.389 6
     -1682.856       -1308.889
  21425600.771    21425600.184    21425606.597   114250784.488 7  88861770.788 6
      4119.682        3204.199
  21348584.818    21348584.871    21348590.176   114040466.845 7  88698200.733 6
     -2878.591       -2238.903
  19229987.901    19229987.339    19229990.651   102687145.369 9  79867828.938 7
       733.066         570.163
  21652003.343    21652002.888    21652105.738   115417428.748 6  89769142.606 3
      4264.566        3316.859
 11 10 10  0 21  0.0000000  0 14G02G04G05G07G10G13G23G26G28R02R03R12
                                R13R14
  21969944.565    21969944.5554   21969948.9704  115452847.205 7  89963273.69444
      -785.601        -612.156
  23454884.346    23454883.9794   23454888.8334  123256274.171 6  96043858.01642
     -2760.149       -2150.772
  22196640.443    22196639.9604   22196645.6974  116644142.305 7  90891560.39844
      3162.764        2464.496
  20586795.574    20586795.4664   20586800.5054  108184576.119 8  84299647.86446
      -649.330        -505.971
  20289604.734    20289603.3734   20289609.8594  106622611.192 8  83082570.34546
      -378.935        -295.273
  22656882.801    22656882.6054   22656887.3134  119063027.132 6  92776278.51642
     -1948.071       -1517.974
  24714271.176    24714272.2544   24714277.4044  129874694.977 4 101201032.79541
     -2263.361       -1763.649
  23698014.352    23698014.6264   23698020.0454  124533913.299 5  97039427.68441
      3478.455        2710.483
  24271357.793    24271355.3494   24271364.3324  127546886.676 4  99387171.17841
      3631.912        2830.051
  20601470.899    20601470.218    20601474.542   109933428.160 8  85503804.373 6
     -1698.655       -1321.175
  21402461.040    21402461.117    21402468.807   114127401.433 7  88765806.211 6
      4105.872        3193.456
  21364786.958    21364786.555    21364791.943   114127013.658 7  88765514.904 6
     -2891.148       -2248.667
  19225939.899    19225939.743    19225942.922   102665531.327 9  79851018.029 7
       707.857         550.554
  21628039.182    21628038.650    21628129.244   115289687.982 6  89669788.684 3
      4251.367        3306.618
 11 10 10  0 21 30.0000000  0 14G02G04G05G07G10G13G23G26G28R02R03R12
                                R13R14
  21974478.526    21974478.1694   21974482.2154  115476670.901 7  89981837.60744
      -802.618        -625.417
  23470650.627    23470650.0324   23470655.8814  123339126.838 6  96108418.51842
     -2763.343       -2153.243
  22178608.183    22178608.1654   22178613.4194  116549383.034 7  90817722.00744
      3154.510        2458.056
  20590545.238    20590544.9434   20590549.7714  108204279.263 8  84315000.97346
      -664.181        -517.543
  20291812.932    20291811.5704   20291818.1094  106634214.590 8  83091611.94746
      -394.595        -307.478
  22668013.382    22668012.5624   22668016.8814  119121514.476 6  92821853.06442
     -1951.073       -1520.334
  24727194.747    24727194.8374   24727200.1374  129942608.382 4 101253952.31741
     -2264.241       -1764.379
  23678167.363    23678166.3544   23678173.4054  124429612.066 5  96958154.03441
      3475.070        2707.854
  24250622.520    24250619.5504   24250628.0264  127437924.631 5  99302265.83241
      3632.121        2830.257
  20611063.417    20611063.061    20611067.026   109984618.415 8  85543619.013 6
     -1713.998       -1333.112
  21379400.018    21379399.801    21379407.483   114004428.665 7  88670160.731 6
      4092.368        3182.955
  21381057.577    21381057.252    21381062.303   114213929.121 7  88833115.813 6
     -2903.135       -2257.993
  19222033.010    19222032.521    19222035.909   102644667.309 9  79834790.473 7
       683.112         531.310
  21604149.486    21604148.604    21604240.001   115162339.215 7  89570739.674 3
      4238.499        3296.623
 11 10 10  0 22  0.0000000  0 14G02G04G05G07G10G13G23G26G28R02R03R12
                                R13R14
  21979111.411    21979111.0394   21979114.5454  115501014.132 7  90000806.33744
      -819.883        -638.864
  23486436.765    23486435.5624   23486442.2074  123422083.307 5  96173059.90342
     -2766.708       -2155.877
  22160625.174    22160625.1214   22160630.8784  116454882.167 7  90744084.96944
      3145.941        2451.377
  20594380.962    20594380.7134   20594385.4314  108224436.253 8  84330707.71946
      -679.226        -529.271
  20294111.974    20294110.7204   20294117.4334  106646297.020 8  83101026.82346
      -410.503        -319.873
  22679160.729    22679160.8614   22679164.6824  119180100.047 6  92867504.14742
     -1954.247       -1522.791
  24740125.784    24740123.4144   24740128.6744  130010558.331 4 101306900.25541
     -2265.450       -1765.270
  23658340.676    23658340.0154   23658346.8134  124325418.658 5  96876964.38441
      3471.579        2705.160
  24229889.515    24229886.2344   24229893.4734  127328968.080 5  99217364.75941
      3631.951        2830.103
  20620745.020    20620744.480    20620747.944   110036278.441 8  85583799.022 6
     -1729.598       -1345.246
  21356416.830    21356416.464    21356424.309   113881871.447 7  88574838.464 6
      4078.509        3172.171
  21397397.068    21397396.875    21397402.090   114301212.045 7  88901002.527 6
     -2915.297       -2267.454
  19218266.484    19218266.194    19218269.484   102624555.130 9  79819147.669 7
       658.112         511.862
  21580334.005    21580332.715    21580431.402   115035387.920 7  89471999.720 3
      4225.247        3286.314
 11 10 10  0 22 30.0000000  0 14G02G04G05G07G10G13G23G26G28R02R03R12
                                R13R14
  21983842.836    21983841.1334   21983845.4754  115525872.982 6  90020176.85544
      -837.170        -652.346
  23502241.118    23502240.1284   23502246.6144  123505138.832 5  96237778.47042
     -2770.140       -2158.552
  22142691.525    22142691.2914   22142696.8564  116360640.189 7  90670649.67144
      3137.090        2444.483
  20598302.295    20598301.9454   20598307.0654  108245043.651 8  84346765.43146
      -694.371        -541.067
  20296502.131    20296500.7384   20296507.3384  106658856.812 8  83110813.67246
      -426.590        -332.408
  22690327.428    22690327.4554   22690331.8794  119238781.312 6  92913229.81442
     -1957.610       -1525.420
  24753063.192    24753065.1094   24753065.5324  130078542.725 4 101359875.10041
     -2266.655       -1766.205
  23638533.430    23638532.6504   23638539.6674  124221331.943 5  96795857.85641
      3467.762        2702.157
  24209155.311    24209156.1604   24209160.6454  127220017.554 4  99132468.38641
      3631.497        2829.736
  20630513.947    20630513.346    20630516.845   110088405.334 8  85624342.160 6
     -1745.305       -1357.459
  21333511.694    21333511.419    21333519.009   113759731.088 7  88479840.424 6
      4064.407        3161.206
  21413803.759    21413804.471    21413809.375   114388856.523 7  88969170.440 6
     -2927.387       -2276.859
  19214640.531    19214640.101    19214643.545   102605192.015 9  79804087.478 7
       633.010         492.339
  21556592.101    21556591.857    21556686.588   114908835.436 7  89373569.897 3
      4211.727        3275.811
 11 10 10  0 23  0.0000000  0 14G02G04G05G07G10G13G23G26G28R02R03R12
                                R13R14
  21988671.019    21988669.8914   21988673.7224  115551248.090 7  90039949.66044
      -854.365        -665.740
  23518064.380    23518064.1654   23518071.0524  123588293.166 5  96302574.02642
     -2773.316       -2161.030
  22124808.207    22124808.2224   22124813.7784  116266662.142 7  90597420.01744
      3128.187        2437.556
  20602309.906    20602309.4904   20602314.3834  108266102.659 8  84363175.04646
      -709.412        -552.790
  20298983.556    20298982.1914   20298988.6424  106671896.604 8  83120974.54546
      -442.622        -344.900
  22701512.787    22701512.4224   22701517.9814  119297560.605 6  92959031.84542
     -1960.893       -1527.975
  24766006.729    24766003.9074   24766011.5274  130146564.207 4 101412878.76741
     -2267.875       -1767.171
  23618746.996    23618744.8474   23618752.5144  124117354.939 5  96714836.81941
      3464.243        2699.406
  24188425.315    24188425.0104   24188431.4744  127111078.978 5  99047581.31041
      3631.142        2829.486
  20640370.228    20640369.754    20640373.292   110141001.521 8  85665250.296 6
     -1760.987       -1369.656
  21310685.532    21310685.513    21310693.021   113638013.005 7  88385170.819 6
      4050.221        3150.169
  21430279.266    21430279.460    21430284.188   114476861.588 7  89037618.805 6
     -2939.442       -2286.232
  19211154.841    19211154.508    19211157.946   102586579.625 9  79789611.181 7
       607.963         472.858
  21532927.574    21532926.709    21533033.068   114782687.198 7  89275454.510 3
      4198.237        3265.294
 11 10 10  0 23 30.0000000  0 14G02G04G05G07G10G13G23G26G28R02R03R12
                                R13R14
  21993596.772    21993596.6734   21993600.2614  115577137.989 7  90060123.59744
      -871.472        -679.074
  23533906.947    23533906.7944   23533913.2504  123671543.872 5  96367444.69942
     -2776.476       -2163.502
  22106974.912    22106975.2204   22106980.6444  116172950.537 7  90524397.99644
      3119.331        2430.646
  20606402.863    20606402.5914   20606407.4604  108287611.681 8  84379935.32646
      -724.352        -564.429
  20301556.256    20301554.9584   20301561.5534  106685416.880 8  83131509.80946
      -458.610        -357.361
  22712716.828    22712716.3814   22712722.2484  119356438.006 6  93004910.30342
     -1964.151       -1530.509
  24778957.755    24778958.8104   24778965.3084  130214622.886 4 101465911.45341
     -2269.058       -1768.166
  23598981.331    23598980.7394   23598987.3444  124013488.504 5  96633901.95841
      3460.484        2696.457
  24167697.573    24167697.5004   24167703.7164  127002155.133 4  98962705.71541
      3630.666        2829.058
  20650314.908    20650314.413    20650318.080   110194067.135 8  85706523.549 6
     -1776.562       -1381.772
  21287939.808    21287939.358    21287946.849   113516720.280 7  88290832.045 6
      4036.041        3139.144
  21446820.487    21446820.683    21446825.590   114565223.619 7  89106344.817 6
     -2951.178       -2295.360
  19207810.050    19207809.651    19207812.962   102568717.279 9  79775718.252 7
       583.031         453.469
  21509338.931    21509338.152    21509444.732   114656946.536 7  89177656.217 3
      4184.621        3254.700
 11 10 10  0 24  0.0000000  0 14G02G04G05G07G10G13G23G26G28R02R03R12
                                R13R14
  21998620.128    21998620.4684   21998624.1934  115603538.180 6  90080695.16444
      -888.819        -692.574
  23549766.119    23549765.8584   23549773.6584  123754885.867 5  96432386.49342
     -2779.900       -2166.159
  22089193.955    22089193.5394   22089199.3574  116079505.791 7  90451583.90844
      3110.028        2423.399
  20610580.599    20610580.2974   20610585.2364  108309566.719 8  84397043.14946
      -739.537        -576.263
  20304219.878    20304218.5934   20304225.3934  106699415.082 8  83142417.48446
      -474.884        -370.037
  22723939.471    22723939.0704   22723944.1354  119415411.035 6  93050863.30242
     -1967.625       -1533.223
  24791915.343    24791914.1174   24791918.8594  130282716.587 4 101518971.46341
     -2270.705       -1769.365
  23579236.846    23579236.1254   23579244.4704  123909731.110 5  96553052.04341
      3456.461        2693.329
  24146972.538    24146973.0384   24146979.7724  126893246.583 5  98877842.03141
      3629.648        2828.277
  20660346.449    20660346.075    20660350.191   110247598.936 8  85748159.398 6
     -1792.456       -1394.129
  21265273.763    21265273.234    21265280.432   113395853.779 7  88196824.780 6
      4021.447        3127.793
  21463427.627    21463427.474    21463432.561   114653936.437 7  89175343.654 6
     -2963.176       -2304.690
  19204604.768    19204604.345    19204607.469   102551601.702 9  79762406.150 7
       557.750         433.804
  21485827.026    21485825.814    21485922.486   114531614.159 7  89080175.430 3
      4170.583        3243.778
 11 10 10  0 24 30.0000000  0 14G02G04G05G07G10G13G23G26G28R02R03R12
                                R13R14
  22003742.788    22003742.4894   22003746.5574  115630455.884 7  90101669.99444
      -905.670        -705.717
  23565644.892    23565643.7514   23565650.0034  123838325.517 5  96497404.38242
     -2782.743       -2168.370
  22071464.644    22071464.5964   22071469.5794  115986339.170 7  90378986.55244
      3101.093        2416.435
  20614844.777    20614844.5814   20614849.6744  108331975.261 8  84414504.35146
      -754.273        -587.748
  20306976.729    20306975.2824   20306981.8404  106713900.578 8  83153704.87946
      -490.787        -382.431
  22735181.450    22735181.3714   22735185.7424  119474488.315 6  93096897.50742
     -1970.753       -1535.643
  24804881.666    24804881.9704   24804886.8114  130350854.431 4 101572065.90441
     -2271.800       -1770.264
  23559514.938    23559514.5174   23559521.5954  123806092.311 5  96472294.54741
      3452.843        2690.564
  24126253.104    24126252.8634   24126258.2844  126784365.612 4  98792999.81641
      3629.120        2827.896
  20670467.142    20670466.847    20670470.895   110301606.094 8  85790164.962 6
     -1807.975       -1406.202
  21242690.527    21242689.336    21242696.274   113275425.806 7  88103158.600 6
      4007.133        3116.658
  21480100.748    21480101.122    21480106.736   114743005.883 7  89244619.880 6
     -2974.663       -2313.627
  19201541.054    19201540.643    19201543.635   102535241.557 9  79749681.597 7
       532.954         414.520
  21462394.183    21462393.498    21462497.705   114406702.106 7  88983021.701 3
      4156.894        3233.172
 11 10 10  0 25  0.0000000  0 14G02G04G05G07G10G13G23G26G28R02R03R12
                                R13R14
  22008963.424    22008963.2724   22008966.8794  115657890.289 7  90123047.44044
      -923.260        -719.420
  23581539.947    23581541.0184   23581546.7244  123921861.295 5  96562497.17242
     -2786.229       -2171.075
  22053789.499    22053789.2494   22053794.3814  115893454.433 7  90306608.83645
      3091.271        2408.779
  20619194.980    20619194.8954   20619199.8534  108354836.450 8  84432318.25946
      -769.755        -599.809
  20309825.906    20309824.6734   20309831.0694  106728874.457 8  83165372.82646
      -507.454        -395.418
  22746443.416    22746442.2414   22746447.9014  119533670.719 6  93143013.66242
     -1974.691       -1538.725
  24817856.841    24817857.2034   24817860.5134  130419036.808 4 101625194.98241
     -2273.713       -1771.694
  23539816.446    23539815.8354   23539821.7224  123702573.811 5  96391630.78541
      3448.389        2687.075
  24105539.983    24105539.0744   24105545.6354  126675515.943 4  98708182.00841
      3627.590        2826.702
  20680677.399    20680676.998    20680680.784   110356089.030 8  85832540.555 6
     -1824.216       -1418.833
  21220187.913    21220187.831    21220195.380   113155439.590 7  88009835.996 6
      3991.987        3104.879
  21496842.117    21496841.866    21496846.927   114832429.059 7  89314171.228 5
     -2986.767       -2323.044
  19198618.791    19198618.305    19198621.543   102519636.948 9  79737544.688 7
       507.386         394.633
  21439040.579    21439039.431    21439144.200   114282214.309 7  88886197.878 3
      4142.313        3221.806
 11 10 10  0 25 30.0000000  0 14G02G04G05G07G10G13G23G26G28R02R03R12
                                R13R14
  22014283.844    22014283.6354   22014287.6454  115685849.339 7  90144833.69544
      -940.722        -733.024
  23597455.293    23597455.9034   23597463.1234  124005500.170 5  96627670.28441
     -2789.748       -2173.815
  22036169.521    22036169.5784   22036174.6804  115800863.956 7  90234460.41644
      3081.408        2401.104
  20623633.421    20623633.1764   20623638.0444  108378159.146 8  84450491.78946
      -785.101        -611.762
  20312770.354    20312768.9984   20312775.4674  106744346.616 8  83177429.04946
      -524.055        -408.349
  22757728.303    22757726.6024   22757731.4124  119592967.756 6  93189219.12642
     -1978.479       -1541.670
  24830842.560    24830845.4904   24830843.5724  130487274.390 4 101678367.05541
     -2275.499       -1773.070
  23520142.941    23520141.8494   23520149.7444  123599186.258 5  96311069.05441
      3444.043        2683.685
  24084835.110    24084832.9734   24084839.4424  126566710.635 5  98623398.74141
      3626.087        2825.503
  20690978.547    20690977.942    20690982.096   110411057.333 8  85875293.662 6
     -1840.356       -1431.385
  21197772.137    21197772.065    21197779.034   113035908.648 7  87916867.514 6
      3976.778        3093.049
  21513649.351    21513649.721    21513654.725   114922212.506 7  89384002.789 6
     -2998.713       -2332.333
  19195839.773    19195839.442    19195842.854   102504796.972 9  79726002.493 7
       481.893         374.808
  21415768.995    21415767.756    21415869.315   114158164.193 7  88789714.354 3
      4127.656        3210.429
 11 10 10  0 26  0.0000000  0 14G02G04G05G07G10G13G23G26G28R02R03R12
                                R13R14
  22019704.186    22019703.5074   22019708.3004  115714333.287 7  90167028.97544
      -957.926        -746.434
  23613391.471    23613392.2334   23613398.2394  124089241.548 5  96692923.30141
     -2792.844       -2176.238
  22018606.890    22018607.2224   22018612.3374  115708572.022 7  90162544.63145
      3071.635        2393.484
  20628159.427    20628159.3204   20628164.2144  108401943.422 8  84469024.99746
      -800.244        -623.565
  20315809.733    20315808.4654   20315814.9814  106760318.970 8  83189875.02846
      -540.503        -421.172
  22769033.889    22769033.8904   22769037.7174  119652381.425 6  93235515.47842
     -1982.171       -1544.536
  24843838.352    24843836.4314   24843846.7744  130555568.861 4 101731583.49141
     -2277.222       -1774.503
  23500493.769    23500492.2164   23500501.2744  123495932.400 5  96230611.49141
      3439.816        2680.418
  24064138.425    24064136.9574   24064144.2804  126457954.369 5  98538653.64441
      3624.587        2824.358
  20701370.188    20701370.165    20701373.847   110466512.410 8  85918425.366 6
     -1856.370       -1443.842
  21175443.009    21175442.795    21175449.138   112916837.067 7  87824256.291 6
      3961.605        3081.250
  21530524.875    21530524.448    21530529.508   115012354.465 7  89454113.181 6
     -3010.395       -2341.412
  19193204.160    19193203.685    19193207.113   102490722.740 9  79715055.867 7
       456.658         355.179
  21392579.225    21392579.395    21392683.486   114034556.698 7  88693575.220 3
      4113.100        3199.077
 11 10 10  0 26 30.0000000  0 14G02G04G05G07G10G13G23G26G28R02R03R12
                                R13R14
  22025220.889    22025220.4004   22025224.9094  115743324.593 7  90189619.58144
      -974.894        -759.658
  23629341.744    23629343.2324   23629350.6594  124173067.139 5  96758241.92941
     -2795.573       -2178.374
  22001098.727    22001098.4864   22001104.1084  115616565.859 7  90090851.52844
      3062.004        2385.975
  20632770.045    20632769.8244   20632774.8464  108426172.581 8  84487904.86346
      -815.106        -635.150
  20318941.247    20318940.0284   20318946.6414  106776776.346 8  83202698.94046
      -556.737        -433.823
  22780359.099    22780358.9354   22780363.8934  119711896.317 6  93281890.69342
     -1985.550       -1547.176
  24856842.627    24856844.0054   24856842.1474  130623905.053 4 101784832.35141
     -2278.679       -1775.557
  23480869.010    23480868.7094   23480874.7744  123392797.290 5  96150246.50941
      3435.758        2677.204
  24043451.016    24043448.6674   24043454.4694  126349234.931 5  98453937.28441
      3623.290        2823.339
  20711851.443    20711850.690    20711854.814   110522438.262 8  85961923.231 6
     -1872.115       -1456.089
  21153197.528    21153196.672    21153204.116   112798212.380 7  87731992.650 6
      3946.588        3069.570
  21547462.687    21547462.755    21547467.823   115102835.584 7  89524487.364 5
     -3021.747       -2350.252
  19190708.757    19190708.249    19190711.479   102477397.394 9  79704691.714 7
       431.644         335.722
  21369471.746    21369471.360    21369581.690   113911379.458 7  88597770.790 3
      4098.619        3187.794
 11 10 10  0 27  0.0000000  0 14G02G04G05G07G10G13G23G26G28R02R03R12
                                R13R14
  22030835.987    22030834.7934   22030838.8874  115772826.311 7  90212607.92744
      -991.868        -772.886
  23645311.230    23645311.6284   23645317.8724  124256979.831 5  96823628.42341
     -2798.515       -2180.654
  21983646.394    21983646.4274   21983651.6114  115524853.145 7  90019387.08444
      3052.188        2378.325
  20637466.133    20637465.7144   20637470.7144  108450850.000 8  84507134.02646
      -830.033        -646.782
  20322166.359    20322165.0744   20322171.7744  106793724.050 8  83215904.92546
      -573.087        -446.560
  22791704.069    22791703.2054   22791709.2154  119771517.410 6  93328348.66942
     -1989.142       -1549.981
  24869855.376    24869855.9484   24869859.9344  130692288.125 4 101838117.79741
     -2280.182       -1776.750
  23461264.607    23461264.9264   23461273.9124  123289787.153 5  96069978.91541
      3431.594        2673.949
  24022770.474    24022769.2354   24022774.0494  126240560.755 5  98369256.14741
      3621.682        2822.114
  20722420.590    20722420.293    20722424.575   110578839.734 8  86005791.019 6
     -1887.961       -1468.414
  21131037.237    21131036.458    21131044.124   112680044.019 7  87640083.939 6
      3931.361        3057.722
  21564464.669    21564464.713    21564469.910   115193657.809 7  89595126.869 5
     -3033.013       -2359.014
  19188354.357    19188353.939    19188357.289   102464825.395 9  79694913.495 7
       406.541         316.197
  21346446.881    21346445.929    21346557.064   113788640.661 7  88502307.193 3
      4083.950        3176.416
 11 10 10  0 27 30.0000000  0 14G02G04G05G07G10G13G23G26G28R02R03R12
                                R13R14
  22036545.509    22036545.3544   22036549.4464  115802834.178 7  90235990.67444
     -1008.849        -786.124
  23661294.527    23661295.2374   23661302.0194  124340974.533 5  96889078.80541
     -2801.399       -2182.901
  21966249.787    21966249.7904   21966255.0264  115433434.150 7  89948151.51144
      3042.209        2370.556
  20642246.444    20642246.2624   20642251.3534  108475971.606 8  84526709.29946
      -844.946        -658.401
  20325484.411    20325483.1154   20325489.7104  106811159.805 8  83229491.21746
      -589.503        -459.355
  22803069.132    22803067.8564   22803074.0734  119831241.785 6  93374887.11642
     -1992.690       -1552.749
  24882875.240    24882876.0974   24882878.5924  130760715.745 3 101891437.98841
     -2281.799       -1777.993
  23441687.690    23441685.6054   23441693.4594  123186900.023 5  95989807.13941
      3427.364        2670.696
  24002099.117    24002098.2424   24002104.7074  126131932.134 5  98284610.50841
      3619.975        2820.753
  20733078.861    20733078.245    20733082.652   110635713.993 8  86050026.535 6
     -1903.856       -1480.777
  21108961.995    21108961.551    21108968.683   112562331.067 7  87548529.445 6
      3915.934        3045.721
  21581529.142    21581529.612    21581534.684   115284814.888 7  89666026.815 5
     -3044.292       -2367.787
  19186140.299    19186140.010    19186142.853   102453003.198 9  79685718.456 7
       381.444         296.676
  21323502.829    21323503.105    21323613.136   113666340.882 7  88407185.112 3
      4069.171        3164.922
 11 10 10  0 28  0.0000000  0 14G02G04G05G07G10G13G23G26G28R02R03R12
                                R13R14
  22042352.222    22042351.3364   22042355.3094  115833346.022 7  90259766.11544
     -1025.540        -799.120
  23677294.267    23677293.5944   23677301.1284  124425047.964 5  96954590.56241
     -2803.778       -2184.753
  21948909.730    21948909.6064   21948914.9444  115342311.180 7  89877146.61145
      3032.367        2362.884
  20647111.009    20647110.8544   20647115.7534  108501535.122 8  84546628.91746
      -859.581        -669.804
  20328895.135    20328893.8914   20328900.4484  106829083.123 8  83243457.42446
      -605.661        -471.942
  22814454.227    22814454.3524   22814459.7284  119891068.831 6  93421505.56242
     -1996.042       -1555.353
  24895905.652    24895905.5504   24895913.3174  130829188.178 4 101944793.16341
     -2283.177       -1779.084
  23422132.336    23422131.8384   23422137.5264  123084136.329 5  95909731.54241
      3423.202        2667.409
  23981435.597    23981436.3554   23981444.2424  126023351.749 5  98200002.49541
      3618.389        2819.504
  20743825.468    20743825.119    20743829.220   110693059.856 8  86094628.857 6
     -1919.503       -1492.948
  21086971.743    21086972.160    21086979.590   112445075.896 7  87457331.000 6
      3900.748        3033.912
  21598656.409    21598656.372    21598661.417   115376302.741 7  89737184.021 5
     -3055.155       -2376.235
  19184066.788    19184066.283    19184069.647   102441929.452 9  79677105.542 7
       356.549         277.315
  21300644.747    21300643.065    21300747.383   113544482.661 7  88312406.530 3
      4054.421        3153.413
 11 10 10  0 28 30.0000000  0 14G02G04G05G07G10G13G23G26G28R02R03R12
                                R13R14
  22048253.068    22048252.6664   22048256.2834  115864355.828 6  90283929.59144
     -1041.530        -811.587
  23693306.220    23693305.4854   23693313.0224  124509193.768 5  97020158.70041
     -2805.726       -2186.264
  21931625.842    21931625.8674   21931631.1264  115251482.492 7  89806371.00645
      3023.091        2355.655
  20652058.833    20652058.5034   20652063.5614  108527535.725 8  84566889.12246
      -873.572        -680.706
  20332397.716    20332396.5594   20332403.3184  106847490.239 8  83257800.61646
      -621.244        -484.085
  22825857.968    22825857.5984   22825862.1184  119950994.716 6  93468201.05042
     -1998.777       -1557.497
  24908945.912    24908944.4984   24908948.3824  130897700.755 3 101998179.58041
     -2283.949       -1779.683
  23402600.271    23402598.8104   23402605.2674  122981493.104 5  95829749.81541
      3419.781        2664.774
  23960784.697    23960783.2984   23960789.4714  125914818.529 5  98115431.21441
      3617.314        2818.704
  20754659.706    20754659.204    20754663.197   110750872.937 8  86139594.569 6
     -1934.470       -1504.587
  21065069.267    21065069.023    21065076.515   112328277.946 7  87366488.157 6
      3885.970        3022.423
  21615844.134    21615843.796    21615848.707   115468113.886 7  89808592.668 5
     -3065.335       -2384.149
  19182132.108    19182131.711    19182134.275   102431598.831 9  79669070.617 7
       332.351         258.496
  21277865.997    21277865.327    21277963.955   113423065.039 7  88217970.529 3
      4040.236        3142.407
 11 10 10  0 29  0.0000000  0 14G02G04G05G07G10G13G23G26G28R02R03R12
                                R13R14
  22054245.591    22054245.2114   22054248.8844  115895847.467 7  90308468.52044
     -1057.914        -824.346
  23709328.277    23709328.7104   23709335.7844  124593395.526 5  97085770.42441
     -2807.832       -2187.913
  21914395.862    21914395.7754   21914400.2964  115160936.839 7  89735815.95845
      3013.246        2347.982
  20657086.910    20657086.5564   20657091.3534  108553957.474 8  84587477.50546
      -887.912        -691.877
  20335990.039    20335988.7764   20335995.5344  106866367.000 8  83272509.76946
      -637.254        -496.556
  22837277.193    22837277.1434   22837281.7764  120011005.394 6  93514962.59442
     -2001.955       -1559.971
  24921985.546                                   130966240.306 3
     -2285.261
  23383086.783    23383086.5994   23383094.3714  122878956.798 5  95749851.43341
      3415.901        2661.738
  23940137.168    23940136.4834   23940141.6144  125806321.826 5  98030888.36041
      3615.721        2817.419
  20765578.745    20765578.390    20765581.840   110809138.616 8  86184912.313 6
     -1949.905       -1516.588
  21043249.678    21043249.479    21043256.631   112211925.939 7  87275992.181 6
      3870.752        3010.584
  21633088.119    21633088.080    21633093.118   115560230.550 7  89880238.959 5
     -3075.786       -2392.272
  19180333.943    19180333.451    19180336.869   102421996.639 9  79661602.250 7
       307.781         239.388
  21255167.772    21255167.763    21255259.244   113302076.936 7  88123868.696 3
      4025.567        3131.026
 11 10 10  0 29 30.0000000  0 14G02G04G05G07G10G13G23G26G28R02R03R12
                                R13R14
  22060330.896    22060330.3714   22060334.3184  115927826.237 6  90333387.03644
     -1074.188        -837.032
  23725364.060    23725363.7084   23725370.0054  124677657.393 5  97151429.01141
     -2809.836       -2189.471
  21897221.337    21897220.8064   21897226.0064  115070683.649 7  89665488.81245
      3003.402        2340.314
  20662196.083    20662195.7594   20662200.4154  108580805.547 8  84608398.08146
      -902.169        -702.990
  20339672.886    20339671.5774   20339678.3404  106885720.696 8  83287590.56346
      -653.204        -508.990
  22848714.997    22848714.2424   22848719.7234  120071107.707 6  93561795.55142
     -2005.037       -1562.357
  24935035.191                                   131034813.422 3
     -2286.491
  23363596.746    23363596.4414   23363603.1744  122776535.721 5  95670042.81641
      3411.926        2658.660
  23919501.248    23919498.6424   23919506.0304  125697871.462 5  97946381.62941
      3614.086        2816.190
  20776583.315    20776582.881    20776587.029   110867863.454 8  86230587.163 6
     -1965.267       -1528.543
  21021515.524    21021514.904    21021522.340   112096029.106 7  87185850.197 6
      3855.468        2998.694
  21650390.118    21650389.920    21650395.371   115652656.380 7  89952125.703 5
     -3086.102       -2400.303
  19178673.140    19178672.716    19178675.654   102413128.261 9  79654704.622 7
       283.253         220.310
  21232554.426    21232553.461    21232644.181   113181528.230 7  88030108.637 3
      4010.794        3119.495
 11 10 10  0 30  0.0000000  0 14G02G04G05G07G10G13G23G26G28R02R03R12
                                R13R14
  22066509.423    22066508.8424   22066512.7444  115960292.666 6  90358685.54144
     -1090.200        -849.512
  23741409.778    23741408.7444   23741415.5134  124761979.692 5  97217134.67641
     -2811.678       -2190.930
  21880103.146    21880103.2344   21880108.0244  114980728.888 7  89595394.19645
      2993.612        2332.688
  20667386.076    20667385.8614   20667390.7574  108608081.144 8  84629651.79746
      -916.222        -713.939
  20343447.286    20343445.8004   20343452.2794  106905553.651 8  83303044.80946
      -668.989        -521.291
  22860169.787    22860169.7954   22860173.8034  120131304.638 6  93608702.24842
     -2008.052       -1564.712
  24948089.452                                   131103423.183 3
     -2287.395
  23344129.361    23344129.1844   23344135.3664  122674232.896 5  95590326.35841
      3408.217        2655.744
  23898872.231    23898873.4824   23898879.3124  125589473.696 5  97861915.88041
      3612.466        2814.901
  20787674.723    20787674.472    20787678.754   110927049.650 7  86276620.852 6
     -1980.458       -1540.357
  20999867.532    20999867.349    20999874.453   111980593.695 7  87096067.114 6
      3840.237        2986.852
  21667750.012    21667750.011    21667755.580   115745390.321 7  90024252.074 5
     -3096.112       -2408.090
  19177149.986    19177149.553    19177153.072   102404995.668 9  79648379.276 7
       258.927         201.386
  21210022.980    21210021.994    21210108.781   113061424.840 7  87936694.816 3
      3996.088        3108.065
 11 10 10  0 30 30.0000000  0 14G02G04G05G07G10G13G23G26G28R02R03R12
                                R13R14
  22072778.552    22072777.6444   22072782.2464  115993239.194 6  90384358.14343
     -1106.399        -862.135
  23757467.552    23757465.2614   23757471.5524  124846354.511 5  97282881.26541
     -2813.552       -2192.370
  21863041.789    21863041.5564   21863046.6284  114891069.099 7  89525529.43445
      2983.554        2324.846
  20672656.628    20672656.3984   20672661.3484  108635777.457 8  84651233.33746
      -930.412        -724.998
  20347311.410    20347310.0864   20347316.5614  106925860.590 8  83318868.38946
      -685.009        -533.776
  22871641.800    22871640.8874   22871647.1514  120191590.384 6  93655678.12342
     -2011.256       -1567.220
  24961155.099                                   131172064.173 3
     -2288.722
  23324683.214    23324681.8164   23324689.0204  122572043.987 5  95510698.66441
      3404.156        2652.581
  23878255.384    23878254.1214   23878260.2294  125481126.016 5  97777489.15541
      3610.527        2813.394
  20798851.916    20798851.488    20798855.431   110986691.169 8  86323008.688 6
     -1995.826       -1552.312
  20978305.707    20978304.790    20978313.170   111865616.736 7  87006640.605 6
      3824.695        2974.761
  21685167.479    21685166.491    21685171.536   115838423.829 7  90096611.451 5
     -3106.306       -2416.018
  19175763.717    19175763.190    19175766.385   102397591.830 9  79642620.740 7
       234.437         182.335
  21187575.650    21187574.175    21187660.873   112941764.339 7  87843625.455 3
      3981.097        3096.436
 11 10 10  0 31  0.0000000  0 14G02G04G05G07G10G13G23G26G28R02R03R12
                                R13R14
  22079139.730    22079138.6554   22079143.1214  116026665.668 7  90410404.73743
     -1122.021        -874.304
  23773532.753    23773532.0244   23773538.0814  124930781.110 5  97348668.19841
     -2814.882       -2193.410
  21846036.726    21846036.7374   21846041.7834  114801709.188 7  89455898.33845
      2973.749        2317.214
  20678007.210    20678006.9334   20678011.7714  108663894.633 8  84673142.82346
      -944.102        -735.664
  20351266.095    20351264.8464   20351271.5514  106946643.900 8  83335063.16646
      -700.580        -545.907
  22883130.853    22883130.2654   22883135.7414  120251966.905 6  93702724.71542
     -2013.891       -1569.241
  24974223.661                                   131240738.718 3
     -2289.668
  23305259.651    23305259.6904   23305265.2904  122469971.553 5  95431161.69641
      3400.638        2649.871
  23857648.066    23857647.2734   23857652.4964  125372833.385 5  97693105.35141
      3609.011        2812.209
  20810114.008    20810113.921    20810118.337   111046789.623 8  86369751.908 6
     -2010.735       -1563.906
  20956830.567    20956830.357    20956838.107   111751102.989 7  86917574.383 6
      3809.516        2962.957
  21702638.804    21702638.489    21702643.321   115931755.096 7  90169202.422 5
     -3115.792       -2423.398
  19174513.787    19174513.383    19174516.739   102390917.843 9  79637429.870 7
       210.448         163.680
  21165211.328    21165210.215    21165300.774   112822551.815 7  87750904.495 3
      3966.387        3084.945
 11 10 10  0 31 30.0000000  0 14G02G04G05G07G10G13G23G26G28R02R03R12
                                R13R14
  22085592.396    22085591.4544   22085595.9124  116060574.918 7  90436827.51243
     -1138.573        -887.201
  23789608.888    23789608.2364   23789614.8374  125015261.636 5  97414497.17741
     -2817.134       -2195.167
  21829090.631    21829090.7724   21829095.3914  114712656.194 7  89386506.39845
      2963.072        2308.885
  20683438.069    20683438.1074   20683443.0964  108692436.060 8  84695382.89646
      -958.658        -747.011
  20355312.529    20355311.3404   20355318.0644  106967908.009 8  83351632.60046
      -717.031        -558.728
  22894638.375    22894638.4514   22894642.5944  120312438.580 6  93749845.50442
     -2017.521       -1572.098
  24987298.687                                   131309451.684 3
     -2291.309
  23285859.725    23285859.3764   23285866.1964  122368021.094 5  95351719.80141
      3396.046        2646.254
  23837051.650    23837050.6004   23837057.7024  125264603.388 5  97608770.34741
      3606.364        2810.157
  20821463.162    20821462.837    20821466.794   111107348.796 8  86416853.459 6
     -2026.552       -1576.207
  20935444.224    20935443.995    20935451.312   111637060.489 7  86828874.686 6
      3793.363        2950.387
  21720165.970    21720166.101    21720171.519   116025385.271 7  90242025.889 5
     -3126.184       -2431.477
  19173401.263    19173400.777    19173404.077   102384976.984 9  79632809.211 7
       185.610         144.359
  21142933.262    21142931.905    21143018.005   112703794.523 7  87658537.710 3
      3950.739        3072.811
 11 10 10  0 32  0.0000000  0 13G02G04G05G07G10G13G26G28R02R03R12R13
                                R14
  22092138.837    22092138.4014   22092142.6184  116094977.998 6  90463635.09443
     -1154.854        -899.888
  23805697.479    23805696.1614   23805703.0944  125099806.605 5  97480376.32441
     -2819.132       -2196.719
  21812205.585    21812205.7624   21812210.8874  114623925.894 7  89317365.90645
      2952.379        2300.555
  20688952.547    20688952.2224   20688957.2984  108721412.857 8  84717962.21146
      -973.017        -758.194
  20359453.070    20359451.6794   20359458.3844  106989665.612 8  83368586.56846
      -733.368        -571.454
  22906166.015    22906165.9374   22906170.0994  120373018.547 6  93797050.63742
     -2021.029       -1574.812
  23266483.986    23266483.1434   23266488.7524  122266206.400 5  95272383.71241
      3391.688        2642.866
  23816471.259    23816470.1514   23816476.4064  125156452.638 5  97524497.09341
      3603.793        2808.120
  20832901.049    20832900.285    20832904.566   111168381.422 8  86464323.259 6
     -2042.214       -1588.386
  20914149.612    20914148.797    20914155.851   111523504.605 7  86740553.450 6
      3777.128        2937.767
  21737751.451    21737751.628    21737757.234   116119324.137 7  90315089.432 5
     -3136.252       -2439.302
  19172428.227    19172427.768    19172431.170   102379781.409 9  79628768.210 7
       160.862         125.117
  21120742.842    21120741.558    21120817.189   112585508.684 7  87566537.574 3
      3935.117        3060.643
 11 10 10  0 32 30.0000000  0 13G02G04G05G07G10G13G26G28R02R03R12R13
                                R14
  22098777.347    22098776.2984   22098780.7414  116129862.162 7  90490817.54943
     -1170.851        -912.352
  23821794.196    23821793.3184   23821801.1114  125184402.984 5  97546295.59341
     -2820.734       -2197.979
  21795381.065    21795380.6444   21795385.7754  114535510.450 7  89248470.75945
      2941.864        2292.359
  20694547.318    20694547.1454   20694551.8214  108750813.193 8  84740871.56446
      -987.080        -769.153
  20363685.179    20363683.9764   20363690.7284  107011906.452 8  83385917.08146
      -749.437        -583.977
  22917711.602    22917712.1094   22917717.6134  120433696.416 6  93844332.08942
     -2024.301       -1577.388
  23247133.536    23247133.7254   23247139.6754  122164518.087 5  95193146.07641
      3387.451        2639.579
  23795903.750    23795902.9684   23795908.9524  125048373.315 5  97440279.48741
      3601.414        2806.306
  20844425.284    20844424.661    20844428.546   111229876.569 8  86512152.800 6
     -2057.569       -1600.329
  20892943.728    20892943.287    20892950.418   111410428.255 7  86652605.175 6
      3761.169        2925.349
  21755392.623    21755392.231    21755397.999   116213557.696 7  90388382.182 5
     -3146.041       -2446.917
  19171592.691    19171592.297    19171595.418   102375319.291 9  79625297.681 7
       136.510         106.175
  21098638.693    21098638.189    21098707.742   112467686.862 7  87474898.467 3
      3919.622        3048.601
 11 10 10  0 33  0.0000000  0 13G02G04G05G07G10G13G26G28R02R03R12R13
                                R14
  22105506.084    22105505.8804   22105509.0964  116165224.182 6  90518372.35143
     -1186.505        -924.549
  23837902.695    23837900.4424   23837908.1664  125269047.253 5  97612252.12541
     -2822.116       -2199.072
  21778616.282    21778616.2104   21778620.8474  114447411.202 7  89179822.00145
      2931.492        2284.280
  20700221.880    20700221.6404   20700226.7694  108780633.953 8  84764108.51946
     -1000.864        -779.891
  20368009.323    20368008.1084   20368014.7144  107034629.415 8  83403623.27546
      -765.329        -596.359
  22929276.599    22929276.4994   22929282.6784  120494470.973 6  93891688.85642
     -2027.289       -1579.704
  23227807.497    23227805.3314   23227811.6884  122062955.373 5  95114006.29941
      3383.444        2636.448
  23775351.670    23775350.7264   23775356.8674  124940367.341 5  97356119.01741
      3599.073        2804.483
  20856035.547    20856035.297    20856039.189   111291832.154 8  86560340.466 6
     -2072.702       -1612.102
  20871828.438    20871827.964    20871834.964   111297831.469 7  86565029.895 6
      3745.310        2913.019
  21773087.381    21773087.195    21773093.127   116308081.400 7  90461900.592 5
     -3155.430       -2454.220
  19170893.751    19170893.302    19170896.616   102371587.524 9  79622395.203 7
       112.367          87.398
  21076623.987    21076623.058    21076700.668   112350330.731 7  87383621.425 3
      3904.214        3036.603
 11 10 10  0 33 30.0000000  0 13G02G04G05G07G10G13G26G28R02R03R12R13
                                R14
  22112323.556    22112322.9464   22112326.2644  116201047.079 6  90546286.29043
     -1201.750        -936.420
  23854015.432    23854014.6274   23854021.4574  125353721.757 5  97678232.22741
     -2822.975       -2199.723
  21761909.483    21761909.5534   21761914.1254  114359615.975 7  89111410.13645
      2921.386        2276.408
  20705973.496    20705973.1824   20705978.1364  108810858.450 8  84787660.07046
     -1014.205        -790.283
  20372422.247    20372420.9674   20372427.6204  107057819.247 8  83421693.26246
      -780.801        -608.412
  22940857.037    22940858.0364   22940863.1504  120555326.897 5  93939109.02042
     -2029.971       -1581.793
  23208501.498    23208500.5804   23208507.8934  121961504.108 5  95034953.36541
      3379.834        2633.626
  23754810.009    23754809.5614   23754814.9944  124832422.935 5  97272006.55341
      3597.075        2802.922
  20867729.774    20867729.262    20867732.315   111354232.261 8  86608873.870 6
     -2087.411       -1623.536
  20850800.108    20850800.160    20850806.920   111185703.276 7  86477819.087 6
      3729.741        2900.913
  21790832.675    21790832.771    21790838.004   116402876.183 7  90535629.845 5
     -3164.324       -2461.139
  19170328.733    19170328.075    19170331.410   102368570.056 9  79620048.292 7
        88.698          68.991
  21054692.988    21054691.973    21054778.100   112233428.025 7  87292697.128 3
      3889.126        3024.911
 11 10 10  0 34  0.0000000  0 13G02G04G05G07G10G13G26G28R02R03R12R13
                                R14
  22119227.529    22119227.2914   22119232.8124  116237335.123 6  90574562.66743
     -1217.526        -948.725
  23870134.543    23870134.9954   23870140.9144  125438430.652 5  97744239.12441
     -2824.329       -2200.785
  21745262.235    21745262.2104   21745266.7384  114272134.219 7  89043242.53745
      2910.594        2267.995
  20711802.941    20711802.5824   20711807.5164  108841492.109 8  84811530.45746
     -1028.136        -801.147
  20376925.279    20376924.0004   20376930.5234  107081482.679 8  83440132.29446
      -796.906        -620.965
  22952455.452    22952455.5084   22952460.1974  120616270.988 6  93986597.87142
     -2033.173       -1584.300
  23189219.220    23189218.3724   23189224.8084  121860172.303 5  94955993.51441
      3375.534        2630.340
  23734281.803    23734281.4074   23734289.1294  124724550.183 5  97187949.84641
      3594.374        2800.837
  20879507.466    20879507.051    20879511.184   111417083.401 8  86657758.072 6
     -2102.740       -1635.463
  20829862.972    20829862.437    20829869.303   111074052.809 7  86390979.849 6
      3713.444        2888.233
  21808630.081    21808630.242    21808635.091   116497945.565 7  90609572.697 5
     -3173.675       -2468.415
  19169898.165    19169897.886    19169901.279   102366271.907 9  79618260.849 7
        64.413          50.097
  21032849.050    21032848.284    21032931.050   112116988.227 7  87202132.864 3
      3873.372        3012.607
 11 10 10  0 34 30.0000000  0 13G02G04G05G07G10G13G26G28R02R03R12R13
                                R14
  22126222.982    22126222.6944   22126227.0344  116274093.675 7  90603205.68143
     -1232.927        -960.729
  23886262.038    23886262.0904   23886267.7884  125523178.884 5  97810276.67641
     -2825.348       -2201.544
  21728676.353    21728676.3594   21728681.2214  114184975.568 7  88975326.70945
      2900.052        2259.781
  20717710.999    20717710.7594   20717715.5884  108872540.096 8  84835723.69646
     -1041.653        -811.677
  20381519.712    20381518.4144   20381524.8794  107105626.611 8  83458945.74446
      -812.623        -633.212
  22964071.333    22964070.7294   22964077.4234  120677310.589 6  94034161.17542
     -2036.048       -1586.528
  23169961.572    23169961.2094   23169966.3754  121758967.651 5  94877132.81141
      3371.516        2627.115
  23713771.136    23713768.4654   23713774.5494  124616759.215 5  97103956.93441
      3591.863        2798.858
  20891371.476    20891370.994    20891374.951   111480391.915 8  86706998.014 6
     -2117.737       -1647.131
  20809016.399    20809015.842    20809023.081   110962890.379 7  86304520.189 6
      3697.477        2875.815
  21826479.310    21826479.534    21826484.653   116593293.695 7  90683732.355 5
     -3182.692       -2475.429
  19169603.870    19169603.506    19169606.559   102364699.150 9  79617037.599 7
        40.519          31.514
  21011094.047    21011093.383    21011173.859   112001021.931 7  87111936.902 3
      3857.836        3000.536
 11 10 10  0 35  0.0000000  0 13G02G04G05G07G10G13G26G28R02R03R12R13
                                R14
  22133308.057    22133307.7454   22133311.5784  116311322.325 6  90632215.01243
     -1248.500        -972.870
  23902397.052    23902395.6414   23902402.0034  125607965.611 5  97876344.21641
     -2826.571       -2202.513
  21712152.920    21712152.7444   21712157.9554  114098144.413 7  88907666.07145
      2889.136        2251.276
  20723698.077    20723697.9604   20723702.8754  108904003.230 8  84860240.41746
     -1055.408        -822.398
  20386205.969    20386204.6634   20386211.3044  107130253.136 8  83478135.22546
      -828.641        -645.696
  22975705.429    22975704.7364   22975710.6814  120738447.395 6  94081800.20342
     -2039.185       -1588.967
  23150727.192    23150725.8414   23150730.7584  121657892.992 5  94798373.33041
      3367.226        2623.818
  23693275.844    23693275.5394   23693280.1944  124509055.189 5  97020031.71141
      3588.855        2796.528
  20903321.593    20903321.156    20903324.749   111544159.294 7  86756594.843 6
     -2132.959       -1658.970
  20788261.706    20788261.696    20788268.883   110852219.728 7  86218443.027 6
      3681.056        2863.041
  21844380.819    21844380.917    21844385.998   116688918.793 7  90758107.410 5
     -3191.783       -2482.499
  19169445.230    19169444.712    19169448.185   102363852.430 9  79616379.038 7
        16.400          12.755
  20989428.858    20989427.682    20989510.804   111885533.667 7  87022112.631 3
      3841.901        2988.138
 11 10 10  0 35 30.0000000  0 13G02G04G05G07G10G13G26G28R02R03R12R13
                                R14
  22140478.673    22140479.4604   22140482.9564  116349007.973 6  90661580.44243
     -1263.920        -984.873
  23918534.256    23918535.6584   23918542.3914  125692777.755 5  97942431.57341
     -2827.627       -2203.347
  21695690.050    21695689.9564   21695695.5524  114011632.681 7  88840254.32645
      2878.236        2242.780
  20729762.267    20729761.8864   20729766.6714  108935868.736 8  84885070.67746
     -1068.991        -832.981
  20390981.928    20390980.5134   20390987.1434  107155351.099 8  83497692.07246
      -844.610        -658.139
  22987355.874    22987355.2604   22987360.9404  120799670.846 6  94129506.75742
     -2042.399       -1591.492
  23131515.913    23131516.0724   23131520.1884  121556938.259 5  94719707.29941
      3363.049        2620.587
  23672794.636    23672794.5404   23672800.5394  124401430.228 5  96936168.12241
      3585.988        2794.266
  20915355.075    20915354.802    20915358.346   111608373.495 7  86806539.209 6
     -2148.069       -1670.724
  20767598.621    20767598.165    20767605.138   110742032.772 7  86132742.079 6
      3664.630        2850.264
  21862331.361    21862331.496    21862336.487   116784806.464 7  90832686.689 5
     -3200.756       -2489.481
  19169420.104    19169419.831    19169423.377   102363719.402 9  79616275.576 7
        -7.593          -5.909
  20967851.553    20967850.558    20967937.248   111770514.933 7  86932653.600 3
      3825.975        2975.752
 11 10 10  0 36  0.0000000  0 13G02G04G05G07G10G13G26G28R02R03R12R13
                                R14
  22147738.438    22147738.1814   22147742.0904  116387155.735 6  90691305.97043
     -1279.181        -996.759
  23934679.490    23934679.7104   23934686.2724  125777619.556 5  98008542.03841
     -2828.532       -2204.045
  21679290.542    21679290.3474   21679295.2284  113925449.905 7  88773098.92945
      2867.286        2234.251
  20735903.369    20735903.0624   20735908.2924  108968141.940 8  84910218.62346
     -1082.503        -843.509
  20395849.043    20395847.6644   20395854.1974  107180927.328 8  83517621.59746
      -860.474        -670.500
  22999024.138    22999023.5194   22999029.9334  120860987.630 6  94177286.00942
     -2045.412       -1593.827
  23112329.577    23112328.8634   23112332.9864  121456111.239 5  94641140.82241
      3358.758        2617.173
  23652330.273    23652330.3484   23652336.9964  124293894.519 5  96852374.07341
      3583.030        2791.962
  20927473.973    20927473.440    20927477.090   111673041.146 7  86856836.259 6
     -2163.098       -1682.406
  20747027.692    20747026.860    20747033.953   110632340.242 7  86047425.672 6
      3648.225        2837.511
  21880332.180    21880331.908    21880337.001   116880960.578 7  90907473.196 5
     -3209.453       -2496.239
  19169529.713    19169529.545    19169532.665   102364305.240 9  79616731.230 7
       -31.455         -24.463
  20946364.677    20946363.509    20946441.036   111655976.332 7  86843568.041 3
      3809.958        2963.297
 11 10 10  0 36 30.0000000  0 13G02G04G05G07G10G13G26G28R02R03R12R13
                                R14
  22155085.886    22155084.9284   22155089.0164  116425763.954 6  90721390.28243
     -1294.648       -1008.819
  23950829.156    23950829.9384   23950836.9494  125862489.609 5  98074674.52541
     -2829.521       -2204.804
  21662953.901    21662953.6434   21662958.8404  113839599.847 7  88706202.76945
      2856.057        2225.496
  20742122.280    20742122.0344   20742127.0534  109000822.051 8  84935683.64046
     -1096.143        -854.139
  20400807.361    20400805.8644   20400812.3464  107206982.545 8  83537924.35346
      -876.537        -683.014
  23010709.571    23010709.3244   23010715.7934  120922398.584 6  94225138.65342
     -2048.632       -1596.331
  23093165.592    23093165.4714   23093171.8244  121355413.835 5  94562675.29441
      3354.365        2613.777
  23631885.140    23631886.3884   23631892.3524  124186452.102 5  96768652.71541
      3579.692        2789.379
  20939677.420    20939676.912    20939680.804   111738162.510 7  86907486.183 6
     -2178.281       -1694.220
  20726550.056    20726549.298    20726556.129   110523144.180 7  85962495.411 6
      3631.544        2824.534
  21898381.627    21898381.432    21898386.218   116977378.482 7  90982464.880 5
     -3218.335       -2503.143
  19169774.358    19169773.779    19169776.969   102365609.454 9  79617745.626 7
       -55.494         -43.162
  20924967.677    20924966.762    20925039.105   111541921.405 7  86754858.693 3
      3793.716        2950.623
 11 10 10  0 37  0.0000000  0 13G02G04G05G07G10G13G26G28R02R03R12R13
                                R14
  22162519.004    22162517.9534   22162522.3214  116464824.500 6  90751827.06343
     -1309.424       -1020.333
  23966983.889    23966983.3384   23966990.1114  125947379.155 5  98140822.19741
     -2829.873       -2205.107
  21646679.814    21646679.7974   21646684.1704  113754078.881 7  88639563.05645
      2845.278        2217.103
  20748416.952    20748416.7234   20748421.7464  109033901.082 8  84961459.50346
     -1109.164        -864.284
  20405855.246    20405853.9714   20405860.5034  107233510.346 8  83558595.36046
      -892.045        -695.102
  23022412.021    23022411.4564   23022418.5824  120983897.828 6  94273060.09242
     -2051.363       -1598.459
  23074027.907    23074026.4864   23074033.2124  121254840.574 5  94484306.54941
      3350.474        2610.764
  23611455.556    23611457.2664   23611462.8964  124079099.994 5  96685001.74041
      3576.932        2787.228
  20951964.536    20951964.327    20951968.722   111803730.434 7  86958483.441 6
     -2192.917       -1705.601
  20706164.919    20706164.513    20706171.283   110414441.719 7  85877949.065 6
      3615.258        2811.867
  21916477.942    21916478.295    21916483.125   117074050.488 7  91057654.206 5
     -3226.491       -2509.491
  19170151.701    19170151.128    19170154.309   102367624.197 9  79619312.658 7
       -78.908         -61.376
  20903662.101    20903660.567    20903724.212   111428346.572 7  86666522.700 3
      3777.878        2938.326
 11 10 10  0 37 30.0000000  0 13G02G04G05G07G10G13G26G28R02R03R12R13
                                R14
  22170035.960    22170035.0084   22170039.5704  116504328.017 6  90782609.02043
     -1324.251       -1031.880
  23983140.141    23983139.1824   23983146.2124  126032278.653 5  98206977.63641
     -2830.255       -2205.383
  21630467.488    21630467.3504   21630472.3644  113668882.550 7  88573176.30145
      2834.301        2208.542
  20754786.008    20754785.7844   20754790.9144  109067370.500 8  84987539.56746
     -1122.256        -874.482
  20410991.619    20410990.4264   20410997.0374  107260503.487 8  83579628.95946
      -907.638        -707.251
  23034131.367    23034130.8104   23034136.5054  121045478.122 5  94321044.68842
     -2054.141       -1600.595
  23054910.753    23054910.3884   23054916.3314  121154385.270 5  94406029.67341
      3346.467        2607.649
  23591045.992    23591045.6094   23591050.7884  123971834.142 5  96601417.99641
      3574.011        2784.933
  20964334.384    20964334.242    20964338.091   111869736.830 7  87009821.736 6
     -2207.627       -1717.045
  20685871.629    20685871.026    20685878.213   110306228.287 8  85793783.051 6
      3598.808        2799.076
  21934620.569    21934620.897    21934625.938   117170966.039 7  91133032.972 5
     -3234.675       -2515.857
  19170660.366    19170659.945    19170663.101   102370340.686 9  79621425.488 7
      -102.334         -79.592
  20882444.051    20882443.474    20882507.748   111315247.289 7  86578556.571 3
      3761.859        2925.939
 11 10 10  0 38  0.0000000  0 13G02G04G05G07G10G13G26G28R02R03R12R13
                                R14
  22177636.968    22177636.7584   22177641.6284  116544277.199 6  90813738.23643
     -1338.911       -1043.302
  23999298.425    23999297.7304   23999305.4364  126117190.765 5  98273142.87241
     -2830.401       -2205.515
  21614318.320    21614318.1624   21614322.9564  113584018.434 7  88507048.40945
      2823.410        2200.059
  20761229.885    20761229.7084   20761234.6204  109101233.658 8  85013926.44146
     -1135.157        -884.540
  20416217.951    20416216.5684   20416223.1924  107287966.696 8  83601028.84446
      -923.110        -719.309
  23045866.672    23045866.1544   23045871.2834  121107144.496 6  94369096.38542
     -2056.802       -1602.691
  23035818.209    23035818.3794   23035825.5054  121054053.545 5  94327849.11041
      3342.504        2604.546
  23570652.482    23570650.8414   23570654.7734  123864662.758 5  96517907.85241
      3570.978        2782.566
  20976787.524    20976787.031    20976790.602   111936185.948 8  87061504.372 6
     -2222.177       -1728.359
  20665671.095    20665670.400    20665677.985   110198511.121 7  85710003.045 6
      3582.391        2786.302
  21952809.738    21952809.513    21952814.899   117268127.008 7  91208602.597 5
     -3242.571       -2522.000
  19171301.018    19171300.500    19171303.716   102373762.100 9  79624086.597 7
      -125.630         -97.714
  20861317.885    20861316.912    20861388.044   111202631.576 7  86490966.598 3
      3745.897        2913.492
 11 10 10  0 38 30.0000000  0 13G02G04G05G07G10G13G26G28R02R03R12R13
                                R14
  22185323.309    22185322.5334   22185326.8224  116584664.928 6  90845209.18743
     -1353.296       -1054.521
  24015457.204    24015455.7634   24015463.2854  126202108.132 5  98339312.19641
     -2830.406       -2205.497
  21598231.814    21598231.8884   21598237.1584  113499484.357 7  88441177.70445
      2812.520        2191.573
  20767747.990    20767747.4804   20767752.1174  109135484.048 8  85040615.05546
     -1147.874        -894.453
  20421532.455    20421531.2944   20421537.8604  107315895.214 8  83622791.31446
      -938.487        -731.288
  23057616.658    23057616.3414   23057621.4374  121168892.307 6  94417211.54142
     -2059.355       -1604.704
  23016749.454    23016748.4154   23016756.2444  120953841.807 5  94249762.05441
      3338.685        2601.553
  23550275.334    23550275.2814   23550279.9744  123757584.364 5  96434470.17241
      3567.953        2780.231
  20989321.480    20989321.265    20989324.902   112003072.319 7  87113527.092 6
     -2236.589       -1739.566
  20645563.960    20645563.134    20645570.173   110091288.869 7  85626607.971 6
      3566.054        2773.599
  21971043.226    21971043.231    21971048.578   117365524.955 7  91284356.534 5
     -3250.311       -2528.018
  19172072.644    19172072.191    19172075.421   102377882.327 9  79627291.221 7
      -148.751        -115.696
  20840281.667    20840281.044    20840351.450   111090497.170 7  86403750.955 3
      3729.984        2901.095
 11 10 10  0 39  0.0000000  0 13G02G04G05G07G10G13G26G28R02R03R12R13
                                R14
  22193092.433    22193091.5364   22193095.3004  116625489.747 6  90877020.72843
     -1368.326       -1066.221
  24031617.421    24031617.6724   24031624.7884  126287029.038 5  98405484.29941
     -2830.909       -2205.903
  21582208.743    21582208.7654   21582214.0134  113415283.686 7  88375566.79045
      2800.848        2182.479
  20774338.734    20774338.4684   20774343.1954  109170120.493 8  85067604.49246
     -1161.203        -904.834
  20426935.848    20426934.5834   20426941.1024  107344289.432 8  83644916.67946
      -954.475        -743.744
  23069382.224    23069381.0524   23069387.2224  121230722.130 6  94465390.59542
     -2062.630       -1607.243
  22997702.524    22997703.0434   22997708.2334  120853751.675 5  94171769.74241
      3334.051        2597.965
  23529917.316    23529916.0024   23529922.7454  123650602.731 5  96351107.87141
      3564.148        2777.254
  21001937.929    21001937.572    21001941.594   112070395.939 8  87165889.895 6
     -2251.646       -1751.278
  20625549.330    20625548.693    20625555.861   109984564.006 7  85543599.758 6
      3548.942        2760.287
  21989321.133    21989320.451    21989325.693   117463157.355 7  91360292.811 5
     -3258.509       -2534.395
  19172974.367    19172974.350    19172977.704   102382700.261 9  79631038.502 7
      -172.445        -134.125
  20819336.651    20819335.737    20819397.320   110978847.946 7  86316912.568 3
      3713.321        2888.142
 11 10 10  0 39 30.0000000  0 13G02G04G05G07G10G13G26G28R02R03R12R13
                                R14
  22200947.101    22200945.7904   22200949.1854  116666762.099 6  90909181.00143
     -1383.078       -1077.720
  24047779.496    24047779.5784   24047786.4074  126371964.186 5  98471667.49641
     -2831.250       -2206.138
  21566252.616    21566252.3904   21566257.4094  113331432.093 7  88310227.88745
      2789.255        2173.445
  20781005.470    20781005.2534   20781010.0114  109205154.065 8  85094903.37746
     -1174.319        -915.052
  20432430.226    20432428.9534   20432435.4314  107373162.230 8  83667414.95446
      -970.326        -756.097
  23081166.345    23081165.4824   23081171.9294  121292646.974 6  94513643.67242
     -2065.714       -1609.642
  22978682.251    22978682.2934   22978687.7874  120753796.850 5  94093882.90141
      3329.678        2594.543
  23509580.476    23509580.1944   23509586.3244  123543734.122 5  96267833.64141
      3560.485        2774.412
  21014638.187    21014637.963    21014642.434   112138168.916 7  87218602.202 6
     -2266.510       -1762.841
  20605631.156    20605630.936    20605637.876   109878353.011 8  85460991.214 6
      3531.880        2747.018
  22007643.549    22007643.391    22007648.526   117561034.051 7  91436419.101 5
     -3266.533       -2540.635
  19174009.738    19174009.192    19174012.706   102388227.349 9  79635337.350 7
      -195.968        -152.417
  20798485.861    20798484.496    20798553.712   110867699.226 7  86230463.558 3
      3696.655        2875.208
 11 10 10  0 40  0.0000000  0 13G02G04G05G07G10G13G26G28R02R03R12R13
                                R14
  22208884.422    22208883.5334   22208886.5074  116708475.237 6  90941684.72843
     -1397.853       -1089.228
  24063944.181    24063943.1644   24063951.0694  126456906.220 5  98537856.09541
     -2831.571       -2206.435
  21550361.976    21550361.9544   21550367.2784  113247927.550 7  88245159.41845
      2777.566        2164.338
  20787746.390    20787746.2244   20787751.1304  109240579.146 8  85122507.34146
     -1187.393        -925.239
  20438014.632    20438013.2464   20438019.8464  107402508.567 8  83690282.22146
      -986.190        -768.456
  23092968.197    23092967.0404   23092972.9524  121354662.384 6  94561967.32842
     -2068.785       -1612.062
  22959687.955    22959686.5304   22959693.2534  120653973.341 5  94016098.34442
      3325.170        2591.035
  23489266.280    23489265.6974   23489271.9034  123436976.540 6  96184645.92641
      3556.580        2771.378
  21027422.999    21027422.044    21027426.040   112206385.876 7  87271659.817 6
     -2281.356       -1774.385
  20585809.244    20585808.889    20585816.011   109772652.167 8  85378779.443 6
      3514.688        2733.646
  22026009.600    22026010.239    22026015.507   117659147.035 7  91512729.190 5
     -3274.436       -2546.781
  19175176.959    19175176.253    19175179.060   102394457.107 9  79640182.721 7
      -219.415        -170.655
  20777727.708    20777727.026    20777796.351   110757049.349 7  86144402.588 3
      3679.863        2862.152
 11 10 10  0 40 30.0000000  0 13G02G04G05G07G10G13G26G28R02R03R12R13
                                R14
  22216904.345    22216903.8334   22216906.7174  116750621.262 6  90974525.78743
     -1411.932       -1100.207
  24080107.945    24080108.8764   24080114.3394  126541847.388 5  98604043.96041
     -2831.211       -2206.144
  21534537.271    21534537.2884   21534542.2374  113164767.283 7  88180359.21445
      2766.344        2155.589
  20794560.614    20794560.4904   20794565.5334  109276387.989 8  85150410.32946
     -1199.869        -934.964
  20443688.102    20443686.7124   20443693.3374  107432322.597 8  83713513.92446
     -1001.478        -780.374
  23104784.939    23104785.3114   23104790.3114  121416762.809 6  94610357.23342
     -2071.339       -1614.046
  22940714.456    22940714.6544   22940722.1484  120554276.674 5  93938412.65742
      3321.189        2587.945
  23468971.127    23468970.4454   23468976.8744  123330327.897 5  96101543.10541
      3553.237        2768.742
  21040288.575    21040287.994    21040291.909   112275040.263 7  87325057.653 6
     -2295.621       -1785.483
  20566082.668    20566082.180    20566088.687   109667460.350 8  85296963.580 6
      3498.058        2720.712
  22044419.746    22044419.251    22044425.019   117757487.288 6  91589216.032 5
     -3281.657       -2552.401
  19176473.176    19176472.825    19176476.029   102401381.966 9  79645568.725 7
      -242.263        -188.427
  20757062.702    20757062.384    20757133.621   110646895.152 7  86058727.077 3
      3663.593        2849.492
 11 10 10  0 41  0.0000000  0 13G02G04G05G07G10G13G26G28R02R03R12R13
                                R14
  22225005.589    22225004.4854   22225009.1494  116793194.498 6  91007699.72943
     -1426.140       -1111.287
  24096270.302    24096268.5754   24096276.5784  126626781.905 5  98670226.65041
     -2830.955       -2205.956
  21518777.869    21518777.6704   21518782.9124  113081950.421 7  88115826.60045
      2754.881        2146.658
  20801446.785    20801446.6664   20801451.7774  109312575.555 8  85178608.43246
     -1212.491        -944.802
  20449449.575    20449448.3244   20449454.8234  107462600.538 8  83737107.11546
     -1016.936        -792.423
  23116617.080    23116615.9864   23116622.8274  121478944.655 5  94658810.58442
     -2074.025       -1616.140
  22921767.200    22921766.6594   22921773.6274  120454704.152 5  93860823.69442
      3317.070        2584.735
  23448698.053    23448697.0664   23448702.4534  123223788.070 5  96018525.05341
      3549.562        2765.890
  21053235.358    21053235.146    21053239.171   112344127.628 7  87378792.238 6
     -2310.068       -1796.723
  20546450.499    20546450.136    20546457.026   109562774.525 8  85215541.277 6
      3481.099        2707.520
  22062870.484    22062869.813    22062875.372   117856048.189 6  91665874.493 5
     -3288.970       -2558.091
  19177899.264    19177898.902    19177902.058   102408996.884 9  79651491.442 7
      -265.270        -206.326
  20736491.808    20736490.615    20736571.023   110537235.953 7  85973436.615 3
      3647.095        2836.613
 11 10 10  0 41 30.0000000  0 13G02G04G05G07G10G13G26G28R02R03R12R13
                                R14
  22233188.461    22233187.7694   22233192.1594  116836197.765 6  91041208.74543
     -1440.825       -1122.710
  24112433.106    24112432.3884   24112438.0334  126711712.327 5  98736406.17341
     -2831.156       -2206.076
  21503085.331    21503085.1624   21503090.0014  112999484.517 7  88051567.45245
      2742.723        2137.189
  20808405.897    20808405.7484   20808410.5864  109349145.450 8  85207104.44046
     -1225.614        -955.023
  20455300.356    20455299.1284   20455305.8854  107493347.281 8  83761065.60046
     -1032.960        -804.903
  23128465.702    23128466.2364   23128471.6294  121541213.435 5  94707331.67942
     -2077.274       -1618.646
  22902843.003    22902842.7724   22902849.2594  120355262.112 5  93783336.41242
      3312.322        2581.045
  23428445.921    23428444.5604   23428452.7034  123117365.332 5  95935598.25741
      3545.183        2762.496
  21066264.539    21066263.951    21066267.836   112413652.479 7  87432867.105 6
     -2325.017       -1808.349
  20526915.638    20526915.141    20526921.295   109458604.018 8  85134519.780 6
      3463.465        2693.808
  22081362.244    22081362.661    22081367.812   117954831.488 6  91742705.930 5
     -3296.674       -2564.081
  19179455.207    19179454.704    19179457.764   102417305.115 9  79657953.407 7
      -288.751        -224.585
  20716013.296    20716012.825    20716099.954   110428079.686 7  85888537.243 3
      3629.844        2823.177
 11 10 10  0 42  0.0000000  0 13G02G04G05G07G10G13G26G28R02R03R12R13
                                R14
  22241453.306    22241453.3964   22241457.9454  116879634.134 6  91075055.25143
     -1455.057       -1133.812
  24128593.431    24128594.0284   24128599.7444  126796642.132 5  98802585.18741
     -2831.066       -2206.039
  21487460.508    21487460.3144   21487465.4454  112917378.128 7  87987588.44445
      2730.839        2127.930
  20815438.649    20815438.4424   20815443.0724  109386101.845 8  85235901.63446
     -1238.305        -964.914
  20461241.899    20461240.5354   20461247.0594  107524568.191 8  83785393.56346
     -1048.610        -817.095
  23140334.312    23140333.5714   23140339.6574  121603574.581 6  94755924.76742
     -2080.274       -1620.998
  22883946.194    22883945.7764   22883952.2044  120255956.961 5  93705955.80242
      3307.889        2577.566
  23408217.505    23408216.4634   23408221.2264  123011068.552 5  95852769.62941
      3541.032        2759.237
  21079375.731    21079375.422    21079379.759   112483619.379 7  87487285.797 6
     -2339.573       -1819.668
  20507477.803    20507477.509    20507484.614   109354956.408 8  85053904.980 6
      3446.190        2680.370
  22099896.860    22099897.236    22099902.287   118053839.787 6  91819712.363 5
     -3304.005       -2569.782
  19181141.487    19181141.140    19181144.584   102426310.412 9  79664957.532 7
      -311.779        -242.495
  20695632.270    20695631.505    20695712.638   110319434.619 7  85804035.576 3
      3612.931        2810.066
 11 10 10  0 42 30.0000000  0 13G02G04G05G07G10G13G26G28R02R03R12R13
                                R14
  22249803.341    22249802.3074   22249806.7414  116923506.920 6  91109241.83043
     -1470.024       -1145.477
  24144755.860    24144754.4484   24144762.5524  126881574.135 5  98868765.93941
     -2831.469       -2206.336
  21471906.240    21471905.9934   21471911.3134  112835639.269 7  87923895.82745
      2718.121        2118.011
  20822545.543    20822545.2074   20822549.9574  109423447.873 8  85265002.42746
     -1251.751        -975.394
  20467273.952    20467272.7514   20467279.4834  107556268.189 8  83810094.84246
     -1065.016        -829.886
  23152220.430    23152219.1894   23152224.2744  121666033.699 6  94804594.15842
     -2083.970       -1623.872
  22865075.512    22865075.8964   22865083.9534  120156794.983 5  93628686.70642
      3302.677        2573.523
  23388014.771    23388015.0444   23388020.1754  122904906.091 5  95770045.63641
      3536.081        2755.383
  21092571.688    21092570.996    21092575.488   112554033.257 7  87542052.138 6
     -2354.974       -1831.653
  20488140.556    20488140.176    20488146.767   109251839.325 8  84973702.821 6
      3427.951        2666.179
  22118473.692    22118474.353    22118479.171   118153075.358 6  91896895.562 5
     -3311.932       -2575.950
  19182959.262    19182958.887    19182962.180   102436016.887 9  79672507.017 7
      -335.599        -261.027
  20675348.461    20675347.659    20675433.984   110211309.022 7  85719937.900 3
      3595.103        2796.208
 11 10 10  0 43  0.0000000  0 13G02G04G05G07G10G13G26G28R02R03R12R13
                                R14
  22258239.053    22258238.6034   22258242.5414  116967840.384 6  91143787.37343
     -1485.390       -1157.444
  24160922.890    24160922.2674   24160930.4434  126966532.784 5  98934967.42441
     -2832.266       -2206.919
  21456427.514    21456427.3544   21456432.2864  112754297.356 7  87860512.51745
      2704.798        2107.638
  20829730.701    20829730.5694   20829735.7014  109461208.759 8  85294426.48746
     -1265.550        -986.131
  20473402.519    20473401.2154   20473408.1374  107588473.782 8  83835190.09646
     -1081.880        -843.021
  23164128.470    23164128.7584   23164133.2204  121728617.686 6  94853360.87942
     -2088.113       -1627.086
  22846239.247    22846238.7984   22846244.6064  120057803.967 5  93551550.87642
      3296.910        2569.021
  23367844.739    23367842.8984   23367849.4284  122798907.890 5  95687449.67641
      3530.539        2751.090
  21105855.119    21105855.507    21105859.484   112624920.168 7  87597186.387 6
     -2370.705       -1843.878
  20468908.329    20468907.758    20468914.353   109149282.891 8  84893936.711 6
      3409.227        2651.626
  22137098.342    22137098.795    22137103.908   118252562.181 6  91974274.175 5
     -3320.304       -2582.453
  19184912.796    19184912.403    19184915.779   102446449.456 9  79680621.239 7
      -359.742        -279.794
  20655167.384    20655166.480    20655247.178   110103732.581 7  85636267.202 3
      3576.767        2781.919
 11 10 10  0 43 30.0000000  0 13G02G04G05G07G10G13G26G28R02R03R12R13
                                R14
  22266759.162    22266758.1044   22266762.5184  117012611.403 6  91178673.88643
     -1499.744       -1168.625
  24177091.810    24177089.9924   24177098.2564  127051494.831 5  99001171.61541
     -2832.250       -2206.996
  21441020.675    21441020.5424   21441025.0344  112673333.942 7  87797424.13945
      2692.340        2097.929
  20836991.329    20836991.0374   20836995.9674  109499362.331 8  85324156.53446
     -1278.421        -996.176
  20479623.288    20479622.0244   20479628.7474  107621163.771 8  83860662.80446
     -1097.868        -855.484
  23176057.773    23176057.6044   23176063.6334  121791305.529 6  94902208.52642
     -2091.412       -1629.659
  22827430.957    22827430.1144   22827436.5414  119958963.581 6  93474532.38542
      3292.075        2565.260
  23347702.423    23347701.9024   23347707.0794  122693056.443 5  95604968.04541
      3525.806        2747.372
  21119225.275    21119224.335    21119228.283   112696257.851 7  87652671.226 6
     -2385.569       -1855.442
  20449776.625    20449776.096    20449783.397   109047267.809 8  84814591.665 6
      3391.319        2637.690
  22155765.198    22155765.343    22155770.395   118352275.604 6  92051829.040 5
     -3327.593       -2588.126
  19186998.371    19186997.759    19187000.969   102457585.116 9  79689282.312 7
      -382.969        -297.866
  20635084.897    20635084.410    20635160.754   109996686.495 7  85553009.211 3
      3559.186        2768.286
 11 10 10  0 44  0.0000000  0 13G02G04G05G07G10G13G26G28R02R03R12R13
                                R14
  22275360.922    22275359.7544   22275364.1444  117057812.380 6  91213895.41143
     -1513.636       -1179.462
  24193258.651    24193257.0914   24193264.9164  127136452.974 4  99067372.71041
     -2831.738       -2206.550
  21425685.400    21425685.3444   21425690.6704  112592746.752 7  87734628.92245
      2680.120        2088.403
  20844325.167    20844324.8724   20844330.0864  109537901.543 8  85354187.08546
     -1290.861       -1005.869
  20485935.210    20485933.8274   20485940.7134  107654332.791 8  83886508.78146
     -1113.428        -867.607
  23188005.839    23188004.7774   23188011.4394  121854092.220 5  94951133.16842
     -2094.253       -1631.877
  22808649.525    22808648.9204   22808656.3864  119860269.861 5  93397628.21342
      3287.542        2561.726
  23327587.096    23327586.9544   23327591.5294  122587349.839 5  95522599.28141
      3521.311        2743.886
  21132676.658    21132676.185    21132680.221   112768040.339 7  87708502.044 6
     -2399.969       -1866.643
  20430746.830    20430746.458    20430753.452   108945791.616 8  84735665.745 6
      3373.755        2624.031
  22174473.204    22174472.585    22174477.937   118452207.472 6  92129553.807 5
     -3334.470       -2593.479
  19189214.083    19189213.590    19189216.499   102469416.692 9  79698484.655 7
      -405.751        -315.585
  20615103.131    20615102.099    20615184.360   109890168.447 7  85470161.715 3
      3541.955        2754.854
 11 10 10  0 44 30.0000000  0 13G02G04G05G07G10G13G26G28R02R03R12R13
                                R14
  22284041.842    22284041.2194   22284045.6114  117103432.430 6  91249443.48343
     -1527.835       -1190.517
  24209420.632    24209420.6204   24209427.8354  127221396.249 5  99133562.21141
     -2831.314       -2206.208
  21410420.924    21410420.5374   21410425.3614  112512529.859 7  87672122.25345
      2667.472        2078.549
  20851730.289    20851730.0824   20851735.1604  109576816.031 8  85384510.05746
     -1303.629       -1015.820
  20492336.403    20492335.2404   20492341.9634  107687971.806 8  83912720.98446
     -1129.357        -880.019
  23199971.558    23199971.3604   23199975.3464  121916969.841 6  95000128.68542
     -2097.757       -1634.608
  22789895.416    22789894.2464   22789901.5354  119761715.328 6  93320832.47342
      3282.577        2557.847
  23307498.450    23307497.5314   23307501.9864  122481782.939 5  95440339.33541
      3516.285        2739.949
  21146209.923    21146209.630    21146213.739   112840258.109 7  87764671.419 6
     -2414.732       -1878.127
  20411816.586    20411816.290    20411823.343   108844847.462 8  84657153.621 6
      3355.692        2609.982
  22193218.435    22193218.905    22193224.107   118552345.795 6  92207439.160 5
     -3341.548       -2598.985
  19191558.135    19191557.633    19191560.796   102481933.438 9  79708219.907 7
      -428.866        -333.567
  20595218.873    20595217.501    20595291.056   109784172.415 7  85387720.244 3
      3524.229        2741.073
 11 10 10  0 45  0.0000000  0 13G02G04G05G07G10G13G26G28R02R03R12R13
                                R14
  22292802.836    22292802.0074   22292806.4154  117149471.872 6  91285318.36343
     -1541.814       -1201.414
  24225584.208    24225581.7974   24225588.4934  127306325.124 5  99199740.51141
     -2830.871       -2205.895
  21395227.345    21395227.0684   21395232.4984  112432688.783 7  87609908.43045
      2654.935        2068.785
  20859206.943    20859206.8084   20859211.9724  109616106.763 7  85415126.20746
     -1316.132       -1025.553
  20498827.687    20498826.5084   20498833.0244  107722083.487 8  83939301.49746
     -1145.093        -892.275
  23211954.279    23211954.3564   23211959.9014  121979940.793 6  95049196.93042
     -2100.701       -1636.902
  22771167.930    22771167.9964   22771174.3654  119663303.420 6  93244147.88542
      3277.854        2554.186
  23287437.713    23287437.1514   23287441.5974  122376361.160 5  95358192.51242
      3511.416        2736.173
  21159825.717    21159824.976    21159829.071   112912912.707 7  87821180.529 6
     -2429.283       -1889.438
  20392986.852    20392986.588    20392993.913   108744441.404 8  84579060.025 6
      3337.701        2595.989
  22212003.457    22212003.436    22212008.817   118652690.133 6  92285484.741 5
     -3348.417       -2604.319
  19194030.168    19194029.808    19194033.364   102495136.315 9  79718488.804 7
      -451.664        -351.289
  20575432.497    20575432.104    20575509.446   109678703.417 7  85305688.905 3
      3506.638        2727.416
 11 10 10  0 45 30.0000000  0 13G02G04G05G07G10G13G26G28R02R03R12R13
                                R14
  22601434.982    22601434.4194   22601439.1114  118771347.434 6  92549117.48743
     -1555.437       -1212.028
  24541534.148    24541532.0454   24541540.2814  128966654.986 5 100493503.97941
     -2830.038       -2205.201
  21679899.083    21679898.9874   21679904.3784  113928649.339 7  88775591.98645
      2642.483        2059.077
  21166547.716    21166547.4634   21166552.3154  111231191.822 8  86673634.04346
     -1328.371       -1035.092
  20805201.394    20805199.9834   20805206.5024  109332086.957 8  85193849.64846
     -1160.615        -904.376
  23523747.182    23523747.1894   23523751.8844  123618423.963 6  96325937.01241
     -2103.650       -1639.246
  23052260.998    23052261.0774   23052267.5614  121140459.264 5  94395178.42842
      3273.287        2550.613
  23567198.151    23567196.9354   23567203.4484  123846512.314 6  96503764.85342
      3506.695        2732.479
  21473314.961    21473314.097    21473318.895   114585751.516 7  89122277.363 6
     -2443.580       -1900.564
  20674051.868    20674051.819    20674058.958   110243204.206 8  85744764.444 6
      3319.887        2582.135
  22530618.426    22530618.137    22530623.336   120354672.481 6  93609248.761 5
     -3354.869       -2609.347
  19496423.409    19496423.044    19496426.311   104109898.612 9  80974415.047 7
      -474.274        -368.879
  20855539.843    20855538.987    20855630.753   111171830.698 7  86467010.043 3
      3489.132        2713.767
 11 10 10  0 46  0.0000000  0 13G02G04G05G07G10G13G26G28R02R03R12R13
                                R14
  22610353.232    22610352.9404   22610356.9694  118818211.448 6  92585634.89243
     -1568.741       -1222.408
  24557687.010    24557686.7164   24557693.9304  129051540.926 5 100559648.82841
     -2828.934       -2204.356
  21664848.916    21664848.9634   21664853.9044  113849560.508 7  88713964.33145
      2630.156        2049.472
  21174165.543    21174165.0864   21174169.9134  111271223.536 8  86704827.57746
     -1340.327       -1044.411
  20811870.850    20811869.5134   20811876.1984  109367135.564 8  85221160.23846
     -1175.888        -916.278
  23535764.304    23535763.7094   23535768.1484  123681575.106 6  96375145.65141
     -2106.351       -1641.314
  23033587.915    23033587.0914   23033594.6224  121042328.748 5  94318713.09942
      3268.788        2547.125
  23547192.601    23547191.1504   23547198.6264  123741384.000 5  96421846.70342
      3501.963        2728.804
  21487091.968    21487091.354    21487096.015   114659270.002 7  89179458.391 6
     -2457.572       -1911.447
  20655424.457    20655424.240    20655431.277   110143873.022 8  85667506.865 6
      3302.240        2568.412
  22549477.330    22549477.048    22549482.047   120455412.780 6  93687602.293 5
     -3361.072       -2614.168
  19499150.353    19499150.015    19499153.163   104124460.315 9  80985740.824 7
      -496.438        -386.120
  20835952.191    20835950.904    20836042.857   111067416.532 7  86385799.070 3
      3471.860        2700.322
 11 10 10  0 46 30.0000000  0 13G02G04G05G07G10G13G26G28R02R03R12R13
                                R14
  22619346.361    22619345.8054   22619349.7844  118865471.281 6  92622460.73343
     -1582.025       -1232.736
  24573833.374    24573833.8464   24573839.9554  129136389.160 5 100625764.26841
     -2827.743       -2203.424
  21649868.929    21649868.6544   21649873.5424  113770839.101 7  88652622.96945
      2617.784        2039.840
  21181850.753    21181850.4044   21181855.3964  111311610.292 8  86736297.79146
     -1352.268       -1053.716
  20818627.169    20818625.7514   20818632.2364  109402638.968 8  85248825.21746
     -1191.149        -928.162
  23547796.665    23547796.3794   23547800.9504  123744803.857 6  96424414.76941
     -2109.057       -1643.422
  23014939.075    23014938.1544   23014945.0534  120944327.537 5  94242348.52942
      3264.346        2543.660
  23527213.022    23527212.5344   23527218.4054  123636394.651 5  96340036.82442
      3497.169        2725.052
  21500948.268    21500947.522    21500951.396   114733205.800 7  89236963.991 6
     -2471.601       -1922.347
  20636896.332    20636895.794    20636902.555   110045070.025 8  85590660.105 6
      3284.473        2554.594
  22568369.689    22568369.487    22568374.985   120556332.999 6  93766095.770 5
     -3367.157       -2618.899
  19502001.660    19502001.146    19502004.427   104139685.433 9  80997582.593 7
      -518.681        -403.415
  20816461.261    20816460.258    20816546.587   110963520.421 7  86304990.918 3
      3454.414        2686.759
 11 10 10  0 47  0.0000000  0 13G02G04G05G07G10G13G26G28R02R03R12R13
                                R14
  22628416.326    22628415.1904   22628419.5034  118913130.391 6  92659597.69843
     -1595.278       -1243.083
  24589972.781    24589971.8504   24589979.4854  129221203.311 5 100691853.18941
     -2826.525       -2202.485
  21634960.348    21634960.0154   21634964.7944  113692493.657 7  88591574.57345
      2605.221        2030.038
  21189604.562    21189604.1774   21189609.0474  111352356.135 8  86768047.79746
     -1364.156       -1062.976
  20825470.650    20825469.3494   20825475.9174  109438602.783 8  85276848.95846
     -1206.452        -940.094
  23559844.720    23559844.0834   23559850.4644  123808116.134 6  96473748.96541
     -2111.785       -1645.526
  22996315.259    22996315.0824   22996322.4744  120846462.505 5  94166090.06142
      3259.915        2540.198
  23507262.210    23507260.6134   23507268.6034  123531553.214 5  96258342.21941
      3492.246        2721.233
  21514882.009    21514881.670    21514886.126   114807564.035 7  89294798.161 6
     -2485.607       -1933.249
  20618467.999    20618467.572    20618474.212   109946803.135 8  85514230.324 6
      3266.622        2540.708
  22587296.786    22587296.350    22587301.724   120657436.197 6  93844731.577 5
     -3373.102       -2623.523
  19504977.894    19504977.494    19504980.474   104155578.091 9  81009943.563 7
      -540.837        -420.650
  20797069.756    20797068.630    20797154.821   110860150.904 7  86224592.386 3
      3436.867        2673.132
 11 10 10  0 47 30.0000000  0 13G02G04G05G07G10G13G26G28R02R03R12R13
                                R14
  22637560.491    22637560.1834   22637563.8384  118961185.477 6  92697043.20143
     -1608.499       -1253.366
  24606105.892    24606105.5684   24606111.4904  129305980.141 5 100757912.95741
     -2825.287       -2201.500
  21620123.156    21620123.3254   21620128.2854  113614525.808 7  88530820.40745
      2592.544        2020.166
  21197425.936    21197425.6544   21197430.7774  111393458.820 8  86800075.85646
     -1376.074       -1072.266
  20832401.514    20832400.0394   20832406.8594  109475025.421 8  85305230.22146
     -1221.807        -952.057
  23571908.380    23571906.5254   23571912.8354  123871511.096 6  96523147.57541
     -2114.672       -1647.779
  22977718.598    22977716.8634   22977723.9404  120748733.666 6  94089937.75442
      3255.250        2536.564
  23487341.377    23487339.8934   23487346.4794  123426861.864 6  96176764.55842
      3487.101        2717.224
  21528896.202    21528895.539    21528899.227   114882342.550 7  89352959.210 6
     -2499.700       -1944.209
  20600140.414    20600140.223    20600147.060   109849073.478 8  85438218.387 6
      3248.603        2526.690
  22606257.178    22606257.137    22606262.066   120758718.202 6  93923506.461 5
     -3379.052       -2628.150
  19508078.420    19508077.919    19508081.253   104172134.970 9  81022821.138 7
      -563.019        -437.902
  20777776.684    20777775.814    20777860.646   110757309.548 7  86144604.728 3
      3419.138        2659.320
 11 10 10  0 48  0.0000000  0 13G02G04G05G07G10G13G26G28R02R03R12R13
                                R14
  22646780.314    22646779.7744   22646783.4714  119009635.594 6  92734796.53243
     -1621.676       -1263.647
  24622230.290    24622229.6944   24622237.3164  129390718.915 5 100823943.12441
     -2824.192       -2200.660
  21605359.396    21605359.2104   21605363.9234  113536939.642 7  88470363.65945
      2579.693        2010.151
  21205315.629    21205315.2854   21205320.1994  111434917.820 8  86832381.57946
     -1387.997       -1081.551
  20839420.184    20839418.7844   20839425.4074  109511907.961 8  85333969.84746
     -1237.192        -964.042
  23583987.671    23583987.5174   23583992.9264  123934990.328 5  96572611.86341
     -2117.521       -1650.017
  22959148.134    22959147.7724   22959154.1874  120651143.312 6  94013893.34642
      3250.582        2532.935
  23467448.510    23467446.9954   23467452.3724  123322325.173 5  96095307.40842
      3481.824        2713.101
  21542988.747    21542987.646    21542991.489   114957541.906 7  89411447.584 6
     -2513.763       -1955.147
  20581914.779    20581914.119    20581920.560   109751884.792 8  85362627.210 6
      3230.463        2512.586
  22625250.505    22625250.497    22625255.380   120860177.636 6  94002419.333 5
     -3385.002       -2632.774
  19511303.271    19511302.765    19511305.909   104189355.515 9  81036214.906 7
      -585.201        -455.156
  20758583.508    20758582.532    20758668.378   110655000.080 7  86065030.772 3
      3401.257        2645.450
 11 10 10  0 48 30.0000000  0 13G02G04G05G07G10G13G26G28R02R03R12R13
                                R14
  22656074.415    22656074.0384   22656077.9894  119058478.571 6  92772855.97743
     -1634.613       -1273.722
  24638347.916    24638347.3354   24638356.4394  129475417.581 5 100889942.00141
     -2822.556       -2199.388
  21590668.524    21590668.1934   21590673.1944  113459738.137 7  88410206.64445
      2566.958        2000.226
  21213272.141    21213271.9494   21213276.9734  111476731.751 8  86864963.85346
     -1399.689       -1090.662
  20846526.271    20846525.0554   20846531.5314  109549250.698 8  85363068.07646
     -1252.407        -975.904
  23596084.310    23596083.6564   23596089.3154  123998554.442 5  96622142.29341
     -2120.183       -1652.087
  22940604.217    22940603.3874   22940609.1104  120553693.075 6  93937958.12842
      3245.995        2529.360
  23447585.711    23447584.4254   23447590.1844  123217946.927 5  96013973.70842
      3476.605        2709.046
  21557159.086    21557158.935    21557162.860   115033161.241 7  89470262.600 6
     -2527.615       -1965.923
  20563790.091    20563790.135    20563796.866   109655240.314 8  85287459.296 6
      3212.388        2498.523
  22644276.634    22644276.215    22644280.926   120961811.776 6  94081468.083 5
     -3390.634       -2637.157
  19514652.101    19514651.514    19514654.615   104207237.883 9  81050123.419 7
      -607.099        -472.189
  20739490.835    20739490.076    20739570.048   110553225.591 7  85985872.771 3
      3383.576        2631.676
 11 10 10  0 49  0.0000000  0 13G02G04G05G07G10G13G26G28R02R03R12R13
                                R14
  22665443.887    22665442.7394   22665446.6704  119107709.852 6  92811217.99743
     -1647.540       -1283.791
  24654457.003    24654456.7114   24654464.1704  129560072.053 5 100955906.47741
     -2821.031       -2198.236
  21576050.839    21576050.4994   21576055.9344  113382921.958 7  88350349.88545
      2554.019        1990.145
  21221296.008    21221295.7954   21221300.8954  111518897.029 8  86897819.91146
     -1411.376       -1099.771
  20853719.562    20853718.2574   20853724.7224  109587051.260 8  85392523.04746
     -1267.678        -987.802
  23608195.854    23608196.0124   23608201.2834  124062201.736 6  96671737.53741
     -2123.012       -1654.268
  22922086.466    22922085.4404   22922091.1214  120456381.687 6  93862131.11342
      3241.362        2525.730
  23427754.308    23427753.5514   23427758.2614  123113728.601 6  95932764.64042
      3471.159        2704.797
  21571408.606    21571407.870    21571412.738   115109197.505 7  89529401.901 6
     -2541.513       -1976.729
  20545768.788    20545768.252    20545775.294   109559139.898 8  85212714.549 6
      3194.207        2484.382
  22663333.917    22663333.715    22663339.202   121063615.545 6  94160648.766 5
     -3396.260       -2641.533
  19518124.342    19518123.715    19518126.728   104225778.295 9  81064543.744 7
      -628.986        -489.215
  20720498.987    20720497.886    20720579.491   110451986.232 7  85907131.008 3
      3365.655        2617.765
 11 10 10  0 49 30.0000000  0 13G02G04G05G07G10G13G26G28R02R03R12R13
                                R14
  22674884.500    22674883.8034   22674887.3444  119157323.158 6  92849877.70143
     -1660.328       -1293.756
  24670557.286    24670558.1734   24670563.3994  129644676.662 5 101021832.05741
     -2819.497       -2197.014
  21561506.092    21561505.9604   21561511.5264  113306490.476 7  88290792.89245
      2541.080        1980.056
  21229385.643    21229385.5224   21229390.6404  111561408.719 7  86930945.90346
     -1423.020       -1108.851
  20860998.723    20860997.6244   20861004.2094  109625305.136 8  85422331.25046
     -1282.887        -999.652
  23620322.811    23620322.1584   23620327.6554  124125928.675 6  96721394.83441
     -2125.768       -1656.436
  22903593.599    22903593.5454   22903598.9944  120359206.700 6  93786410.38142
      3236.665        2522.079
  23407951.631    23407950.4634   23407956.2484  123009669.562 6  95851679.68742
      3465.710        2700.543
  21585735.178    21585734.666    21585738.827   115185646.128 7  89588861.941 6
     -2555.387       -1987.528
  20527849.147    20527848.501    20527855.010   109463582.672 8  85138392.285 6
      3175.969        2470.194
  22682422.558    22682422.118    22682427.862   121165582.304 6  94239956.223 5
     -3401.839       -2645.875
  19521718.056    19521717.612    19521720.826   104244970.351 9  81079470.904 7
      -650.777        -506.162
  20701606.515    20701605.599    20701688.379   110351281.083 7  85828804.853 3
      3347.682        2603.811
 11 10 10  0 50  0.0000000  0 13G02G04G05G07G10G13G26G28R02R03R12R13
                                R14
  22684400.111    22684399.3594   22684403.8414  119207330.366 6  92888844.35543
     -1673.540       -1304.065
  24686648.543    24686649.8784   24686654.7804  129729242.877 5 101087727.72241
     -2818.390       -2196.135
  21547038.127    21547037.9274   21547043.0524  113230459.878 7  88231548.27345
      2527.519        1969.497
  21237543.534    21237543.3994   21237548.2614  111604278.690 8  86964351.07146
     -1435.055       -1118.228
  20868367.157    20868365.8914   20868372.6384  109664025.647 8  85452503.06446
     -1298.575       -1011.879
  23632467.666    23632466.0394   23632471.8704  124189748.883 6  96771124.83041
     -2129.008       -1658.946
  22885130.969    22885131.0444   22885135.6704  120262182.993 6  93710807.51442
      3231.525        2518.056
  23388183.399    23388182.5214   23388187.8734  122905786.659 6  95770731.97942
      3459.694        2695.868
  21600141.252    21600140.799    21600144.884   115262520.118 7  89648652.812 6
     -2569.664       -1998.630
  20510033.439    20510033.140    20510039.756   109368583.464 8  85064504.024 6
      3157.176        2455.580
  22701543.334    22701543.517    22701548.944   121267722.913 6  94319398.896 5
     -3407.609       -2650.360
  19525436.114    19525435.732    19525439.353   104264825.950 9  81094914.149 7
      -673.011        -523.452
  20682817.931    20682817.228    20682901.256   110251126.056 7  85750906.393 3
      3329.224        2589.467
 11 10 10  0 50 30.0000000  0 13G02G04G05G07G10G13G26G28R02R03R12R13
                                R14
  22693991.153    22693989.7384   22693994.1564  119257727.243 6  92928114.63443
     -1686.368       -1314.044
  24702734.220    24702734.1964   24702742.1534  129813766.556 5 101153590.21641
     -2816.709       -2194.825
  21532646.604    21532646.4044   21532651.4044  113154831.204 7  88172616.84345
      2514.258        1959.161
  21245769.052    21245768.7704   21245773.7594  111647503.620 8  86998032.82946
     -1446.696       -1127.291
  20875823.539    20875822.4824   20875829.2994  109703210.653 8  85483036.82146
     -1313.883       -1023.805
  23644628.505    23644627.6004   23644634.0664  124253661.463 5  96820926.79641
     -2131.897       -1661.231
  22866697.089    22866695.3574   22866702.7514  120165309.888 6  93635321.99242
      3226.633        2514.256
  23368448.305    23368447.4134   23368455.1284  122802081.780 6  95689923.01142
      3453.801        2691.261
  21614625.997    21614625.815    21614629.770   115339816.396 7  89708772.133 6
     -2583.531       -2009.413
  20492322.954    20492322.734    20492329.731   109274144.109 8  84991051.210 6
      3138.647        2441.168
  22720695.796    22720695.614    22720701.342   121370032.894 6  94398973.314 5
     -3413.104       -2654.638
  19529277.995    19529277.551    19529281.115   104285341.368 9  81110870.588 7
      -694.809        -540.408
  20664132.520    20664131.645    20664204.992   110151522.122 7  85673436.711 3
      3310.929        2575.175
 11 10 10  0 51  0.0000000  0 13G02G04G05G07G10G13G26G28R02R03R12R13
                                R14
  22703653.277    22703652.8154   22703656.8004  119308507.477 6  92967683.65443
     -1698.867       -1323.795
  24718810.468    24718808.1944   24718818.5454  129898241.882 5 101219415.05641
     -2814.785       -2193.307
  21518330.976    21518330.9754   21518335.9954  113079603.286 7  88113997.69345
      2501.077        1948.891
  21254060.960    21254060.6854   21254065.4794  111691077.692 7  87031986.65146
     -1458.093       -1136.170
  20883367.975    20883366.7564   20883373.3644  109742855.810 8  85513929.14146
     -1328.999       -1035.585
  23656807.648    23656808.8494   23656814.8684  124317662.680 5  96870797.81341
     -2134.712       -1663.437
  22848290.297    22848289.6544   22848296.1484  120068584.409 6  93559951.51642
      3221.866        2510.540
  23348749.331    23348746.5034   23348753.1124  122698554.361 5  95609252.31442
      3448.104        2686.842
  21629189.219    21629189.215    21629192.719   115417530.148 7  89769216.152 6
     -2597.208       -2020.051
  20474717.484    20474716.956    20474723.952   109180262.006 8  84918031.808 6
      3120.271        2426.878
  22739878.626    22739878.542    22739884.259   121472505.190 6  94478673.977 5
     -3418.271       -2658.656
  19533242.578    19533241.992    19533245.437   104306510.344 9  81127335.353 7
      -716.317        -557.135
  20645549.862    20645549.236    20645619.005   110052467.994 7  85596394.559 3
      3292.754        2561.085
 11 10 10  0 51 30.0000000  0 13G02G04G05G07G10G13G26G28R02R03R12R13
                                R14
  22713388.772    22713388.9304   22713392.7274  119359670.089 6  93007550.61443
     -1711.700       -1333.790
  24734874.921    24734873.2624   24734882.3184  129982668.419 4 101285201.86141
     -2813.215       -2192.116
  21504092.697    21504092.8574   21504098.0184  113004780.642 7  88055694.33345
      2487.407        1938.244
  21262419.355    21262419.1094   21262424.3644  111735001.255 7  87066212.79246
     -1469.828       -1145.325
  20891000.287    20890998.9144   20891005.4834  109782962.403 8  85545181.01546
     -1344.478       -1047.645
  23669004.458    23669002.8484   23669010.1884  124381754.031 5  96920739.06741
     -2137.825       -1665.845
  22829913.299    22829912.1314   22829918.2684  119972009.563 6  93484698.42542
      3216.761        2506.550
  23329081.762    23329080.6914   23329087.2844  122595209.211 6  95528723.64942
      3441.842        2681.938
  21643831.123    21643830.815    21643835.110   115495661.888 7  89829985.273 6
     -2611.256       -2030.974
  20457216.709    20457216.221    20457223.262   109086941.512 8  84845449.227 6
      3101.384        2412.189
  22759091.709    22759092.041    22759097.480   121575138.550 6  94558499.915 5
     -3423.694       -2662.876
  19537329.109    19537328.635    19537332.180   104328332.846 9  81144308.421 7
      -738.198        -574.152
  20627071.693    20627070.657    20627145.087   109953967.091 7  85519782.608 3
      3274.172        2546.593
 11 10 10  0 52  0.0000000  0 13G02G04G05G07G10G13G26G28R02R03R12R13
                                R14
  22723198.547    22723197.0024   22723201.4274  119411213.139 6  93047714.00843
     -1724.701       -1343.911
  24750932.918    24750931.7894   24750938.8734  130067044.336 5 101350949.24741
     -2811.938       -2191.092
  21489932.017    21489931.9814   21489937.0984  112930365.898 7  87997708.82545
      2473.417        1927.341
  21270844.376    21270844.0054   21270848.6064  111779273.098 8  87100710.32846
     -1481.774       -1154.625
  20898719.953    20898718.6454   20898725.2624  109823530.527 8  85576792.52546
     -1360.196       -1059.888
  23681217.948    23681217.6714   23681224.2714  124445936.474 5  96970751.31441
     -2141.237       -1668.512
  22811564.337    22811564.0604   22811570.1034  119875586.330 6  93409563.42942
      3211.328        2502.327
  23309451.710    23309451.3254   23309456.6434  122492050.028 6  95448339.88842
      3435.265        2676.823
  21658551.077    21658551.300    21658555.785   115574210.809 7  89891078.855 6
     -2625.479       -2042.037
  20439821.836    20439821.055    20439828.435   108994184.732 8  84773305.091 6
      3082.242        2397.304
  22778334.943    22778334.987    22778339.969   121677930.461 6  94638449.162 5
     -3429.274       -2667.207
  19541537.848    19541537.380    19541540.724   104350806.691 9  81161788.090 7
      -760.198        -591.262
  20608697.713    20608696.602    20608768.762   109856022.568 8  85443603.502 3
      3255.251        2531.905
 11 10 10  0 52 30.0000000  0 13G02G04G05G07G10G13G26G28R02R03R12R13
                                R14
  22733075.988    22733075.4004   22733079.4444  119463124.444 6  93088164.35643
     -1736.269       -1352.932
  24766974.624    24766975.3904   24766983.2284  130151357.772 4 101416647.94741
     -2809.254       -2189.059
  21475847.958    21475847.8444   21475852.8224  112856352.138 7  87940035.76146
      2460.596        1917.348
  21279332.995    21279332.5524   21279337.4484  111823881.682 8  87135470.25646
     -1492.368       -1162.884
  20906525.526    20906524.1524   20906530.8344  109864549.729 8  85608755.53346
     -1374.632       -1071.145
  23693446.473    23693447.4534   23693453.0684  124510200.600 5  97020827.23941
     -2143.347       -1670.153
  22793242.638    22793241.2104   22793247.8014  119779306.662 6  93334540.35642
      3207.092        2499.046
  23289855.629    23289854.4974   23289861.1814  122389070.538 6  95368096.14642
      3429.778        2672.542
  21673348.637    21673347.635    21673352.088   115653165.777 7  89952488.249 6
     -2638.410       -2052.096
  20422530.895    20422530.626    20422538.062   108901984.192 8  84701593.562 6
      3064.231        2383.292
  22797605.197    22797605.096    22797610.871   121780868.399 6  94718511.961 5
     -3433.501       -2670.499
  19545866.040    19545865.593    19545868.947   104373919.578 9  81179764.781 7
      -780.900        -607.366
  20590425.708    20590425.275    20590504.649   109758626.688 7  85367851.215 3
      3237.530        2518.045
 11 10 10  0 53  0.0000000  0 13G02G04G05G07G10G13G26G28R02R03R12R13
                                R14
  22743024.680    22743022.9054   22743026.7334  119515397.330 6  93128896.47543
     -1748.369       -1362.363
  24783007.994    24783007.4634   24783014.9864  130235603.087 5 101482293.55841
     -2807.066       -2187.310
  21461839.237    21461839.3274   21461844.6614  112782738.747 8  87882674.67445
      2447.111        1906.844
  21287884.289    21287884.3714   21287889.3324  111868821.866 8  87170488.57246
     -1503.488       -1171.546
  20914416.297    20914415.0294   20914421.6914  109906016.214 8  85641067.06846
     -1389.627       -1082.821
  23705690.690    23705691.6234   23705697.0814  124574542.767 5  97070963.92841
     -2146.066       -1672.271
  22774948.548    22774946.3184   22774954.8564  119683167.762 5  93259626.95042
      3202.314        2495.309
  23270293.521    23270291.5794   23270297.7894  122286270.285 6  95287992.06242
      3423.707        2667.826
  21688219.763    21688218.977    21688223.271   115732522.633 7  90014210.239 6
     -2651.882       -2062.571
  20405344.689    20405344.532    20405351.188   108810338.409 8  84630313.517 6
      3045.617        2368.815
  22816900.848    22816900.937    22816906.652   121883945.759 6  94798683.213 5
     -3438.185       -2674.139
  19550312.927    19550312.498    19550315.726   104397665.656 9  81198233.951 7
      -802.057        -623.820
  20572257.060    20572256.507    20572330.971   109661778.129 7  85292524.652 3
      3219.194        2503.787
 11 10 10  0 53 30.0000000  0 13G02G04G05G07G10G13G26G28R02R03R12R13
                                R14
  22753038.758    22753038.3284   22753043.0444  119568030.794 6  93169909.54543
     -1760.577       -1371.883
  24799026.043    24799025.9824   24799032.7594  130319778.729 4 101547884.84641
     -2804.853       -2185.629
  21447907.949    21447908.0664   21447913.3044  112709529.066 8  87825628.17045
      2433.414        1896.167
  21296499.483    21296499.2394   21296503.9844  111914092.825 7  87205764.64145
     -1514.694       -1180.282
  20922392.277    20922391.1014   20922397.7944  109947929.756 8  85673726.96246
     -1404.721       -1094.586
  23717950.494    23717950.2614   23717955.4854  124638964.152 5  97121162.34641
     -2148.899       -1674.470
  22756680.526    22756679.8324   22756685.6914  119587171.200 6  93184824.46142
      3197.323        2491.424
  23250765.967    23250765.2384   23250770.7664  122183653.200 6  95208030.71542
      3417.428        2662.916
  21703166.326    21703165.507    21703169.715   115812280.288 7  90076243.960 6
     -2665.427       -2073.111
  20388262.856    20388262.569    20388269.681   108719249.876 8  84559466.893 6
      3026.808        2354.181
  22836222.846    22836222.687    22836228.347   121987160.369 6  94878961.221 5
     -3442.896       -2677.802
  19554878.055    19554877.683    19554880.876   104422043.804 9  81217194.741 7
      -823.257        -640.313
  20554191.869    20554190.998    20554249.644   109565479.906 7  85217626.010 3
      3200.548        2489.315
 11 10 10  0 54  0.0000000  0 13G02G04G05G07G10G13G26G28R02R03R12R13
                                R14
  22763123.129    22763123.2764   22763127.1464  119621024.639 6  93211203.44443
     -1772.332       -1381.028
  24815029.892    24815031.3674   24815035.8664  130403885.174 5 101613422.19741
     -2802.280       -2183.635
  21434054.693    21434054.5804   21434059.8654  112636728.161 8  87768900.18745
      2419.995        1885.716
  21305177.240    21305176.9064   21305181.8214  111959695.481 8  87241299.17645
     -1525.462       -1188.676
  20930454.010    20930452.3934   20930459.1244  109990292.312 8  85706736.72746
     -1419.429       -1106.049
  23730224.947    23730224.0114   23730230.7124  124703467.526 5  97171424.66641
     -2151.301       -1676.369
  22738440.021    22738439.9434   22738445.0544  119491321.113 6  93110136.11842
      3192.707        2487.831
  23231273.391    23231272.6074   23231279.0114  122081225.184 6  95128216.68842
      3411.214        2658.086
  21718187.409    21718187.245    21718191.482   115892440.551 7  90138590.817 6
     -2678.567       -2083.329
  20371286.656    20371285.927    20371292.845   108628723.004 8  84489057.124 6
      3008.328        2339.812
  22855571.764    22855570.775    22855576.122   122090511.878 6  94959345.679 5
     -3447.135       -2681.102
  19559561.826    19559561.432    19559564.775   104447053.830 9  81236646.981 7
      -844.036        -656.468
  20536231.575    20536230.609    20536286.416   109469737.269 8  85143159.599 3
      3182.290        2475.137
 11 10 10  0 54 30.0000000  0 13G02G04G05G07G10G13G26G28R02R03R12R13
                                R14
  22773274.638    22773273.8284   22773277.5114  119674366.909 6  93252768.86043
     -1783.889       -1390.033
  24831019.523    24831020.1104   24831026.5684  130487910.936 4 101678896.69041
     -2799.589       -2181.468
  21420277.395    21420277.4964   21420282.8704  112564329.225 7  87712485.43945
      2406.508        1875.204
  21313915.952    21313915.7854   21313920.7704  112005618.541 8  87277083.38146
     -1536.151       -1197.001
  20938598.391    20938597.3834   20938603.7654  110033093.829 8  85740088.54146
     -1434.082       -1117.463
  23742513.022    23742512.9394   23742518.4064  124768043.785 5  97221743.77541
     -2153.831       -1678.320
  22720227.370    22720226.9464   22720232.9314  119395608.607 6  93035554.95642
      3188.059        2484.202
  23211817.236    23211816.5494   23211822.1594  121978979.936 6  95048545.08042
      3405.002        2653.237
  21733283.316    21733283.088    21733286.896   115972992.417 7  90201242.256 6
     -2691.637       -2093.495
  20354413.149    20354412.989    20354420.131   108538750.758 8  84419078.733 6
      2989.758        2325.368
  22874942.094    22874942.485    22874947.009   122193987.834 6  95039826.958 5
     -3451.294       -2684.335
  19564361.396    19564361.023    19564364.225   104472683.797 9  81256581.402 7
      -864.695        -672.538
  20518373.455    20518372.114    20518440.161   109374542.218 7  85069119.058 3
      3163.966        2460.825
 11 10 10  0 55  0.0000000  0 13G02G04G05G07G10G13G26G28R02R03R12R13
                                R14
  22783490.678    22783489.1554   22783493.7224  119728053.326 6  93294602.41543
     -1795.304       -1398.942
  24846994.904    24846994.4314   24847001.8324  130571852.249 5 101744305.38041
     -2796.615       -2179.179
  21406577.281    21406577.0144   21406582.2964  112492333.325 7  87656384.74446
      2393.077        1864.735
  21322715.172    21322715.0604   21322720.1684  112051858.788 7  87313114.72845
     -1546.715       -1205.221
  20946826.524    20946825.3634   20946831.7484  110076332.230 8  85773780.79246
     -1448.603       -1128.779
  23754814.099    23754815.0474   23754819.2744  124832691.371 5  97272118.45341
     -2156.175       -1680.120
  22702040.056    22702040.0984   22702046.2184  119300033.538 6  92961080.90242
      3183.493        2480.624
  23192395.689    23192395.4224   23192400.7614  121876919.372 6  94969017.36542
      3398.876        2648.475
  21748451.693    21748451.485    21748455.357   116053933.219 7  90264196.193 6
     -2704.536       -2103.527
  20337644.676    20337644.394    20337651.734   108449333.203 8  84349531.763 6
      2971.262        2310.986
  22894335.980    22894335.334    22894341.479   122297583.866 6  95120401.632 5
     -3455.162       -2687.346
  19569276.450    19569276.032    19569279.247   104498929.835 9  81276994.991 7
      -885.208        -688.493
  20500617.764    20500616.785    20500689.891   109279895.943 8  84995505.304 3
      3145.621        2446.550
 11 10 10  0 55 30.0000000  0 13G02G04G05G07G10G13G26G28R02R03R12R13
                                R14
  22793773.503    22793772.5584   22793776.4134  119782088.305 6  93336707.57643
     -1807.006       -1408.057
  24862951.435    24862951.7284   24862957.8164  130655713.846 4 101809651.92241
     -2794.128       -2177.246
  21392955.312    21392955.2364   21392960.2114  112420749.786 8  87600605.36146
      2379.145        1853.880
  21331575.844    21331575.5314   21331580.5734  112098421.433 8  87349397.28845
     -1557.476       -1213.616
  20955139.088    20955137.6854   20955144.3904  110120013.612 8  85807818.22246
     -1463.469       -1140.366
  23767131.857    23767130.9904   23767136.9434  124897417.470 5  97322554.34141
     -2158.860       -1682.250
  22683880.575    22683880.4164   22683885.7254  119204603.490 6  92886719.83642
      3178.572        2476.802
  23173011.559    23173010.6344   23173016.4454  121775053.365 6  94889641.26742
      3392.219        2643.280
  21763693.760    21763693.435    21763697.598   116135268.420 7  90327456.886 6
     -2717.783       -2113.830
  20320981.645    20320981.349    20320988.701   108360479.300 8  84280423.192 6
      2952.339        2296.264
  22913752.535    22913751.852    22913757.898   122401304.125 6  95201072.926 5
     -3459.448       -2690.681
  19574307.662    19574307.126    19574310.301   104525796.511 9  81297891.291 7
      -905.913        -704.600
  20482966.887    20482966.149    20483044.203   109185806.821 8  84922324.930 3
      3126.953        2432.100
 11 10 10  0 56  0.0000000  0 13G02G04G05G07G10G13G26G28R02R03R12R13
                                R14
  22804120.786    22804120.1284   22804124.1894  119836466.623 6  93379080.27543
     -1818.331       -1416.892
  24878894.760    24878895.4114   24878903.5484  130739490.896 5 101874932.60241
     -2791.164       -2174.922
  21379411.992    21379411.8694   21379416.7314  112349578.767 8  87545147.42946
      2365.441        1843.202
  21340497.018    21340496.8324   21340501.1994  112145302.114 8  87385927.69145
     -1567.967       -1221.790
  20963535.023    20963533.5844   20963540.3154  110164134.978 8  85842198.49846
     -1478.034       -1151.717
  23779462.907    23779463.4634   23779471.2344  124962219.493 5  97373049.36641
     -2161.365       -1684.192
  22665748.001    22665747.8744   22665754.0364  119109317.285 6  92812470.89342
      3173.831        2473.110
  23153664.380    23153663.0604   23153670.0284  121673382.655 6  94810417.33442
      3385.737        2638.242
  21779009.452    21779008.513    21779013.675   116216994.159 7  90391021.326 6
     -2730.692       -2123.870
  20304424.546    20304424.183    20304431.097   108272188.077 8  84211752.263 6
      2933.619        2281.706
  22933190.854    22933190.836    22933196.574   122505142.971 6  95281836.448 5
     -3463.298       -2693.677
  19579454.114    19579453.904    19579456.914   104553278.605 8  81319266.255 7
      -926.308        -720.460
  20465420.422    20465419.608    20465499.582   109092274.575 8  84849577.701 3
      3108.418        2417.614
 11 10 10  0 56 30.0000000  0 13G02G04G05G07G10G13G26G28R02R03R12R13
                                R14
  22814535.546    22814534.0064   22814538.5044  119891192.602 6  93421723.88543
     -1829.927       -1425.924
  24894822.274    24894821.0014   24894828.3294  130823188.376 4 101940151.28241
     -2788.583       -2172.917
  21365949.223    21365948.8414   21365953.6094  112278829.812 8  87490018.37746
      2351.310        1832.193
  21349479.487    21349479.3324   21349484.5474  112192506.312 8  87422710.18045
     -1578.776       -1230.209
  20972015.996    20972014.5014   20972021.2434  110208702.719 8  85876926.59646
     -1492.934       -1163.323
  23791810.207    23791810.7504   23791816.9984  125027104.794 5  97423609.28741
     -2164.219       -1686.418
  22647644.455    22647644.0714   22647649.9264  119014182.757 6  92738340.09342
      3168.681        2469.092
  23134356.539    23134355.3584   23134361.3154  121571917.584 6  94731353.65742
      3378.808        2632.842
  21794398.414    21794398.402    21794403.082   116299116.500 7  90454894.253 6
     -2743.920       -2134.162
  20287974.705    20287974.037    20287980.864   108184468.960 8  84143526.301 6
      2914.497        2266.831
  22952652.397    22952651.591    22952658.096   122609104.766 5  95362695.587 5
     -3467.339       -2696.813
  19584717.169    19584716.667    19584719.800   104581381.127 9  81341123.769 7
      -946.980        -736.540
  20447980.040    20447979.173    20448056.860   108999308.677 8  84777270.966 3
      3089.480        2402.953
 11 10 10  0 57  0.0000000  0 13G02G04G05G07G10G13G26G28R02R03R12R13
                                R14
  22825013.751    22825012.7854   22825017.3364  119946258.847 6  93464632.63743
     -1840.740       -1434.336
  24910732.692    24910730.9274   24910739.8964  130906799.193 4 102005302.40541
     -2785.147       -2170.211
  21352565.540    21352565.7404   21352570.5624  112208500.763 8  87435216.52746
      2337.662        1821.554
  21358522.448    21358522.4474   21358527.3154  112240027.091 8  87459739.35345
     -1588.901       -1238.104
  20980580.414    20980579.2494   20980586.1544  110253710.986 8  85911997.96346
     -1507.186       -1174.428
  23804172.315    23804173.0494   23804179.9704  125092068.760 5  97474230.51441
     -2166.380       -1688.082
  22629568.525    22629568.1194   22629574.0384  118919196.107 6  92664324.55942
      3164.158        2465.564
  23115087.611    23115086.4084   23115091.7044  121470656.115 6  94652448.63142
      3372.309        2627.767
  21809862.171    21809861.698    21809865.300   116381628.921 7  90519070.573 6
     -2756.504       -2143.945
  20271630.944    20271630.510    20271637.555   108097318.294 8  84075742.483 6
      2895.946        2252.402
  22972134.749    22972134.928    22972141.502   122713181.523 6  95443644.167 5
     -3470.679       -2699.413
  19590094.337    19590094.100    19590097.150   104610096.229 9  81363457.734 7
      -966.988        -752.098
  20430645.205    20430644.441    20430717.527   108906905.930 8  84705402.022 3
      3071.104        2388.615
 11 10 10  0 57 30.0000000  0 13G02G04G05G07G10G13G26G28R02R03R12R13
                                R14
  22835556.693    22835555.3354   22835560.1664  120001661.348 6  93507803.40543
     -1852.447       -1443.459
  24926626.662    24926627.3954   24926638.1294  130990319.936 4 102070383.34641
     -2782.529       -2168.229
  21339262.436    21339262.5004   21339267.5904  112138592.265 8  87380742.37146
      2323.116        1810.219
  21367624.943    21367624.8614   21367630.2404  112287861.650 8  87497013.02446
     -1599.815       -1246.613
  20989228.804    20989227.5104   20989234.4404  110299157.582 8  85947410.88446
     -1522.306       -1186.215
  23816549.154    23816550.9304   23816556.5014  125157110.414 5  97524912.27641
     -2169.505       -1690.530
  22611521.370    22611520.6774   22611526.8734  118824357.071 6  92590424.03042
      3158.793        2461.412
  23095856.874    23095855.9644   23095861.1694  121369600.338 6  94573703.87942
      3364.927        2622.027
  21825396.995    21825396.974    21825400.602   116464528.686 7  90583548.168 6
     -2769.881       -2154.357
  20255394.066    20255393.833    20255400.952   108010736.359 8  84008400.996 6
      2876.442        2237.231
  22991639.590    22991639.497    22991645.732   122817369.267 6  95524679.070 5
     -3474.865       -2702.671
  19595585.901    19595585.541    19595588.824   104639420.008 9  81386265.121 7
      -987.701        -768.212
  20413417.007    20413415.769    20413488.468   108815066.971 8  84633971.619 3
      3051.759        2373.521
 11 10 10  0 58  0.0000000  0 13G02G04G05G07G10G13G26G28R02R03R12R13
                                R14
  22846164.159    22846163.0324   22846167.0914  120057405.324 6  93551240.26042
     -1864.107       -1452.533
  24942504.546    24942502.6244   24942510.7244  131073756.357 4 102135398.58941
     -2780.120       -2166.340
  21326041.728    21326041.4264   21326046.7684  112069115.145 7  87326604.36046
      2308.375        1798.735
  21376788.459    21376788.4114   21376793.8004  112336016.301 8  87534536.12245
     -1610.735       -1255.120
  20997961.918    20997960.5644   20997967.4824  110345049.824 8  85983171.05746
     -1537.422       -1197.990
  23828943.216    23828941.3114   23828948.8744  125222237.446 5  97575660.58341
     -2172.580       -1692.941
  22593503.608    22593502.8144   22593510.2124  118729674.320 6  92516645.28943
      3153.187        2457.025
  23076668.261    23076666.3414   23076672.0104  121268761.141 6  94495127.90342
      3357.389        2616.144
  21841006.464    21841005.952    21841009.631   116547822.530 7  90648332.249 6
     -2783.268       -2164.762
  20239265.996    20239265.590    20239272.768   107924733.308 8  83941509.746 6
      2856.825        2221.974
  23011166.440    23011165.592    23011171.741   122921673.300 6  95605804.412 5
     -3478.980       -2705.872
  19601192.184    19601191.847    19601195.079   104669358.106 9  81409550.317 7
     -1008.399        -784.313
  20396296.074    20396294.769    20396387.426   108723802.014 8  84562987.744 3
      3032.263        2358.420
 11 10 10  0 58 30.0000000  0 13G02G04G05G07G10G13G26G28R02R03R12R13
                                R14
  22856836.816    22856836.3464   22856840.4604  120113492.550 6  93594944.58342
     -1874.996       -1461.058
  24958366.038    24958367.3544   24958373.0774  131157110.432 4 102200349.59741
     -2776.737       -2163.689
  21312903.521    21312903.5434   21312908.7034  112000076.384 8  87272807.92646
      2294.218        1787.699
  21386013.512    21386013.3954   21386018.2994  112384493.467 7  87572310.53845
     -1621.025       -1263.140
  21006780.251    21006778.8974   21006785.8424  110391391.345 8  86019281.32146
     -1551.923       -1209.292
  23841353.928    23841353.6714   23841358.7554  125287454.489 5  97626478.97741
     -2175.169       -1694.910
  22575517.080    22575517.3184   22575523.0844  118635153.490 6  92442992.75042
      3148.224        2453.173
  23057521.122    23057520.0754   23057525.0234  121168146.212 6  94416726.67242
      3350.299        2610.632
  21856688.729    21856689.253    21856693.878   116631513.391 7  90713425.121 6
     -2796.025       -2174.689
  20223247.287    20223246.844    20223254.053   107839315.644 8  83875073.791 6
      2837.757        2207.143
  23030714.548    23030714.343    23030719.772   123026094.933 6  95687021.220 5
     -3482.369       -2708.510
  19606914.102    19606913.542    19606916.923   104699912.299 9  81433314.686 7
     -1028.473        -799.925
  20379283.540    20379282.455    20379368.205   108633117.025 8  84492454.991 3
      3013.353        2343.687
 11 10 10  0 59  0.0000000  0 13G02G04G05G07G10G13G26G28R02R03R12R13
                                R14
  22867573.170    22867572.8774   22867576.2984  120169909.304 6  93638905.67642
     -1886.113       -1469.709
  24974210.546    24974207.9324   24974215.2484  131240369.553 4 102265226.62641
     -2773.847       -2161.421
  21299848.031    21299847.6984   21299852.8444  111931467.204 8  87219346.23246
      2279.638        1776.340
  21395297.648    21395297.4354   21395302.3534  112433280.355 8  87610326.28745
     -1631.513       -1271.309
  21015682.057    21015680.7694   21015687.3694  110438170.191 8  86055732.36346
     -1566.721       -1220.819
  23853779.543    23853779.7324   23853784.7594  125352750.945 5  97677359.27441
     -2178.030       -1697.164
  22557559.670    22557559.6104   22557566.4654  118540784.585 6  92369458.56343
      3142.917        2449.015
  23038415.386    23038414.6404   23038420.5474  121067747.816 6  94338494.16542
      3342.812        2604.783
  21872445.734    21872445.016    21872449.437   116715588.843 7  90778817.127 6
     -2809.015       -2184.790
  20207337.017    20207336.402    20207343.075   107754473.751 8  83809085.665 6
      2818.336        2192.042
  23050282.376    23050281.826    23050287.802   123130620.600 6  95768318.941 5
     -3486.005       -2711.339
  19612748.682    19612748.177    19612751.559   104731068.835 9  81457547.547 7
     -1048.690        -815.649
  20362378.481    20362377.270    20362461.372   108543003.104 8  84422366.511 3
      2994.169        2328.800
 11 10 10  0 59 30.0000000  0 13G02G04G05G07G10G13G26G28R02R03R12R13
                                R14
  22878372.007    22878371.0764   22878375.1884  120226657.250 6  93683124.83942
     -1897.203       -1478.330
  24990035.384    24990036.1474   24990041.8894  131323535.495 4 102330031.06141
     -2770.617       -2158.959
  21286875.335    21286874.9644   21286879.8764  111863294.396 8  87166224.56646
      2265.011        1764.941
  21404640.389    21404640.3024   21404645.9144  112482379.737 8  87648585.53945
     -1641.936       -1279.432
  21024667.623    21024666.5474   21024673.2064  110485390.093 8  86092527.08246
     -1581.455       -1232.302
  23866220.222    23866220.2904   23866226.5714  125418131.199 5  97728304.86441
     -2180.878       -1699.356
  22539631.657    22539630.8844   22539637.6374  118446573.022 6  92296046.97243
      3137.642        2444.923
  23019353.186    23019352.7844   23019358.3694  120967573.214 6  94260436.04942
      3335.264        2598.908
  21888273.624    21888273.508    21888277.821   116800051.806 7  90844510.522 6
     -2821.976       -2194.871
  20191535.398    20191534.929    20191541.830   107670213.297 8  83743549.773 6
      2798.837        2176.874
  23069868.805    23069869.052    23069875.148   123235251.527 6  95849698.528 5
     -3489.473       -2714.037
  19618696.494    19618696.089    19618699.162   104762829.700 9  81482250.452 7
     -1068.848        -831.325
  20345580.761    20345580.195    20345640.959   108453466.487 8  84352726.994 3
      2974.820        2313.718
 11 10 10  1  0  0.0000000  1 13G02G04G05G07G10G13G26G28R02R03R12R13
                                R14
  22889233.185    22889232.9204   22889237.2004  120283733.193 6  93727599.59543
     -1908.008       -1486.774
  25005842.763    25005844.2394   25005849.2354  131406605.730 4 102394760.93641
     -2767.241       -2156.267
  21273985.535    21273985.5034   21273990.7824  111795560.219 8  87113444.68946
      2250.431        1753.583
  21414043.303    21414042.8864   21414047.9514  112531789.578 8  87687086.70545
     -1652.184       -1287.414
  21033737.377    21033735.9724   21033742.6644  110533049.667 8  86129664.39646
     -1595.998       -1243.629
  23878677.694    23878677.8014   23878683.7154  125483594.798 5  97779315.42241
     -2183.513       -1701.439
  22521733.575    22521732.8264   22521740.2004  118352519.294 6  92222758.37543
      3132.448        2440.888
  23000332.945    23000332.8924   23000338.1404  120867625.253 6  94182554.53742
      3327.722        2593.026
  21904175.001    21904174.341    21904178.253   116884900.361 7  90910503.842 6
     -2834.745       -2204.795
  20175843.093    20175842.821    20175849.645   107586536.605 8  83678467.921 6
      2779.462        2161.806
  23089475.683    23089475.216    23089481.445   123339984.461 6  95931157.444 5
     -3492.839       -2716.649
  19624756.721    19624756.250    19624759.562   104795191.465 9  81507420.717 7
     -1088.722        -846.779
  20328892.144    20328891.584    20328965.730   108364508.571 8  84283537.440 3
      2955.580        2298.797
 11 10 10  1  0 30.0000000  0 13G02G04G05G07G10G13G26G28R02R03R12R13
                                R14
  22900156.312    22900155.6624   22900159.7924  120341132.389 6  93772326.21843
     -1918.744       -1495.114
  25021632.502    25021633.2264   25021643.5064  131489576.129 4 102459412.96241
     -2764.078       -2153.829
  21261179.527    21261179.5584   21261184.9974  111728264.895 8  87061006.77746
      2235.760        1742.154
  21423503.707    21423503.6494   21423508.4184  112581505.665 8  87725826.50545
     -1662.361       -1295.342
  21042889.698    21042888.3704   21042894.9714  110581145.847 8  86167141.92146
     -1610.541       -1254.963
  23891151.133    23891150.2844   23891157.3214  125549140.042 5  97830389.61141
     -2186.218       -1703.563
  22503865.924    22503864.8194   22503872.0354  118258622.296 6  92149591.90843
      3127.244        2436.794
  22981358.186    22981356.7224   22981362.7654  120767905.340 6  94104850.72942
      3320.121        2587.124
  21920145.963    21920146.503    21920150.524   116970131.058 7  90976794.369 6
     -2847.416       -2214.650
  20160260.304    20160259.828    20160266.493   107503441.582 8  83613838.473 6
      2760.035        2146.695
  23109099.153    23109098.538    23109105.460   123444814.711 6  96012692.050 5
     -3496.037       -2719.135
  19630928.893    19630928.454    19630931.655   104828149.614 9  81533054.833 7
     -1108.541        -862.196
  20312312.827    20312312.275    20312372.984   108276129.166 8  84214797.741 3
      2936.254        2283.759
 11 10 10  1  1  0.0000000  0 13G02G04G05G07G10G13G26G28R02R03R12R13
                                R14
  22911139.117    22911138.1104   22911142.8024  120398848.826 6  93817300.03942
     -1929.223       -1503.289
  25037401.961    25037400.9104   25037409.6604  131572441.521 4 102523983.15941
     -2760.432       -2150.938
  21248456.972    21248457.0304   21248462.3694  111661407.752 8  87008910.30846
      2221.158        1730.774
  21433022.042    21433021.7894   21433026.6504  112631523.226 8  87764801.22845
     -1672.370       -1303.143
  21052124.206    21052122.9284   21052129.6674  110629674.776 8  86204956.66745
     -1624.937       -1266.181
  23903639.415    23903639.4514   23903644.9624  125614763.905 5  97881525.03641
     -2188.866       -1705.634
  22486027.723    22486027.3384   22486032.4604  118164880.082 6  92076546.04443
      3122.061        2432.784
  22962424.046    22962423.6994   22962429.2474  120668412.452 6  94027323.81042
      3312.539        2581.199
  21936189.800    21936189.650    21936193.112   117055739.014 7  91043378.312 5
     -2859.969       -2224.419
  20144786.166    20144785.819    20144792.483   107420927.535 8  83549660.910 6
      2740.716        2131.668
  23128740.896    23128740.308    23128745.962   123549736.244 5  96094297.681 4
     -3498.960       -2721.407
  19637211.474    19637211.055    19637214.060   104861698.205 9  81559148.186 7
     -1128.167        -877.463
  20295841.999    20295840.945    20295892.677   108188326.625 8  84146506.934 3
      2917.020        2268.792
 11 10 10  1  1 30.0000000  0 13G02G04G05G07G10G13G26G28R02R03R12R13
                                R14
  22922181.541    22922181.1714   22922184.5084  120456877.394 6  93862517.09742
     -1939.257       -1511.106
  25053148.973    25053148.7894   25053156.9044  131655197.415 4 102588468.10241
     -2756.620       -2148.026
  21235818.192    21235818.0254   21235823.3434  111594988.883 8  86957155.34746
      2206.833        1719.608
  21442596.720    21442596.2604   21442601.2764  112681838.101 8  87804007.62245
     -1681.897       -1310.565
  21061440.699    21061439.3874   21061446.1864  110678633.129 8  86243106.02245
     -1638.901       -1277.067
  23916141.263    23916139.6824   23916147.2214  125680464.423 5  97932720.20641
     -2191.145       -1707.376
  22468217.311    22468217.3804   22468223.6754  118071290.950 6  92003619.48243
      3117.288        2429.040
  22943535.144    22943534.3444   22943540.2164  120569148.189 6  93949975.03942
      3305.128        2575.416
  21952303.164    21952302.475    21952305.433   117141720.309 7  91110252.620 5
     -2872.047       -2233.813
  20129420.905    20129420.534    20129427.311   107338992.920 8  83485934.013 6
      2721.661        2116.847
  23148399.003    23148398.926    23148403.950   123654743.800 5  96175970.194 5
     -3501.441       -2723.340
  19643603.591    19643603.120    19643606.035   104895831.943 9  81585696.650 7
     -1147.307        -892.352
  20279478.554    20279477.578    20279524.924   108101100.377 8  84078664.108 3
      2898.140        2254.122
 11 10 10  1  2  0.0000000  0 13G02G04G05G07G10G13G26G28R02R03R12R13
                                R14
  22933281.406    22933281.9254   22933284.6794  120515211.824 6  93907972.48042
     -1949.521       -1519.107
  25068877.280    25068874.6914   25068881.8834  131737837.625 4 102652862.77841
     -2752.817       -2145.036
  21223262.383    21223262.1834   21223267.7014  111529006.991 8  86905740.88746
      2192.098        1708.130
  21452226.461    21452226.3094   21452231.3434  112732444.871 7  87843441.46545
     -1691.728       -1318.226
  21070838.166    21070836.7754   21070843.7284  110728016.242 8  86281586.35446
     -1653.157       -1288.169
  23928658.187    23928657.2684   23928663.3154  125746237.668 5  97983972.03041
     -2193.639       -1709.337
  22450436.824    22450436.4354   22450442.5694  117977852.534 6  91930810.34643
      3112.131        2425.038
  22924689.451    22924689.2404   22924694.7314  120470111.445 6  93872803.55043
      3297.395        2569.423
  21968485.291    21968484.448    21968487.891   117228069.723 7  91177413.243 5
     -2884.410       -2243.425
  20114164.147    20114163.505    20114170.645   107257636.370 8  83422656.729 6
      2702.284        2101.779
  23168072.657    23168072.331    23168076.404   123759830.779 6  96257704.497 5
     -3504.149       -2725.450
  19650104.179    19650103.589    19650106.748   104930544.338 8  81612695.171 7
     -1166.682        -907.415
  20263222.880    20263221.675    20263256.444   108014448.601 8  84011268.213 3
      2878.815        2239.049
 11 10 10  1  2 30.0000000  0 13G02G04G05G07G10G13G26G28R02R03R12R13
                                R14
  22944439.572    22944437.8624   22944442.6104  120573842.258 6  93953658.52642
     -1959.108       -1526.584
  25084578.777    25084574.6584   25084584.2204  131820353.123 4 102717160.34041
     -2748.209       -2141.444
  21210788.734    21210788.5794   21210793.8894  111463457.242 8  86854663.16646
      2177.879        1697.039
  21461910.577    21461910.2524   21461915.6644  112783334.723 7  87883095.88945
     -1700.900       -1325.381
  21080314.562    21080313.3914   21080320.2484  110777816.143 8  86320391.46345
     -1666.819       -1298.828
  23941186.978    23941186.7614   23941192.9854  125812076.666 5  98035275.08441
     -2195.613       -1710.813
  22432684.740    22432683.6544   22432689.0054  117884558.571 6  91858113.77643
      3107.498        2421.423
  22905885.767    22905885.0834   22905891.0004  120371298.373 6  93795806.36543
      3290.202        2563.788
  21984733.824    21984732.897    21984737.284   117314778.288 7  91244853.229 5
     -2896.173       -2252.585
  20099014.216    20099013.883    20099021.052   107176851.910 8  83359824.380 6
      2683.389        2087.076
  23187758.426    23187757.755    23187762.130   123864987.363 6  96339492.954 4
     -3506.319       -2727.139
  19656711.083    19656710.659    19656713.700   104965825.420 9  81640136.009 7
     -1185.365        -921.955
  20247073.801    20247072.631    20247116.275   107928365.443 8  83944314.781 3
      2860.067        2224.513
 11 10 10  1  3  0.0000000  0 13G02G04G05G07G10G13G26G28R02R03R12R13
                                R14
  22955651.570    22955650.5124   22955654.4524  120632762.004 6  93999570.00242
     -1968.929       -1534.233
  25100255.147    25100257.2084   25100261.5244  131902738.063 4 102781356.18141
     -2744.061       -2138.239
  21198396.932    21198396.8434   21198401.8034  111398338.151 8  86803921.02346
      2163.312        1685.696
  21471647.172    21471647.2524   21471652.4424  112834501.877 8  87922966.39045
     -1710.292       -1332.694
  21089869.553    21089868.3664   21089875.2094  110828028.334 8  86359517.83646
     -1680.728       -1309.659
  23953726.788    23953726.7144   23953734.1374  125877977.925 5  98086626.66541
     -2197.915       -1712.650
  22414956.779    22414957.1324   22414962.6224  117791406.317 6  91785527.62143
      3102.572        2417.587
  22887125.060    22887123.8984   22887130.2234  120272708.476 6  93718983.07843
      3282.465        2557.767
  22001049.538    22001048.726    22001052.885   117401840.683 7  91312568.415 5
     -2908.081       -2261.843
  20083971.530    20083971.236    20083978.231   107096636.779 8  83297434.844 7
      2664.189        2072.144
  23207454.417    23207454.414    23207459.618   123970206.831 6  96421330.325 5
     -3508.500       -2728.834
  19663423.202    19663422.859    19663426.077   105001668.846 8  81668014.230 7
     -1204.205        -936.603
  20231031.286    20231030.186    20231074.906   107842848.750 8  83877801.854 3
      2840.985        2209.604
 11 10 10  1  3 30.0000000  0 13G02G04G05G07G10G13G26G28R02R03R12R13
                                R14
  22966918.874    22966918.1824   22966922.6314  120691975.454 6  94045710.34342
     -1978.657       -1541.807
  25115909.578    25115911.6184   25115917.1484  131984997.553 4 102845454.22541
     -2739.881       -2134.919
  21186088.953    21186088.8874   21186093.8294  111333659.508 8  86753522.08146
      2148.587        1674.227
  21481437.806    21481437.7374   21481443.0474  112885951.692 8  87963057.14745
     -1719.685       -1340.013
  21099504.449    21099502.9724   21099509.8504  110878658.745 8  86398970.08745
     -1694.636       -1320.494
  23966280.294    23966280.0934   23966287.0614  125943948.819 5  98138032.50441
     -2200.242       -1714.476
  22397259.286    22397259.2474   22397266.3804  117698404.048 6  91713058.36043
      3097.558        2413.674
  22868408.359    22868407.4994   22868413.1854  120174351.962 6  93642341.64642
      3274.671        2551.702
  22017432.223    22017431.255    22017436.177   117489262.873 7  91380563.437 5
     -2920.031       -2271.137
  20069037.152    20069036.839    20069043.613   107016999.985 8  83235495.134 6
      2644.923        2057.162
  23227163.156    23227163.586    23227169.327   124075493.943 5  96503220.291 4
     -3510.605       -2730.465
  19670241.571    19670241.240    19670244.863   105038078.904 9  81696333.165 7
     -1223.046        -951.256
  20215096.002    20215095.380    20215153.315   107757907.990 8  83811736.910 3
      2821.755        2194.704
 11 10 10  1  4  0.0000000  0 13G02G04G05G07G10G13G26G28R02R03R12R13
                                R14
  22978242.723    22978242.3774   22978245.6914  120751481.532 6  94092078.70342
     -1988.498       -1549.476
  25131539.110    25131538.7224   25131546.1384  132067131.256 4 102909454.20741
     -2735.783       -2131.750
  21173865.674    21173865.4894   21173870.1574  111269425.290 8  86703469.44446
      2133.572        1662.525
  21491282.347    21491282.1474   21491287.2204  112937684.583 7  88003368.48145
     -1729.273       -1347.484
  21109218.790    21109217.3224   21109224.4054  110929708.303 8  86438748.95845
     -1708.736       -1331.481
  23978848.616    23978847.7314   23978855.4504  126009991.188 5  98189494.05341
     -2202.739       -1716.416
  22379590.693    22379590.2844   22379597.6024  117605554.516 6  91640708.10443
      3092.341        2409.605
  22849737.834    22849736.5394   22849742.2024  120076233.409 6  93565885.62443
      3266.456        2545.281
  22033882.356    22033881.603    22033886.696   117577044.880 7  91448838.311 6
     -2932.200       -2280.598
  20054211.882    20054211.548    20054218.354   106937944.384 8  83174007.448 6
      2625.322        2041.922
  23246886.520    23246886.015    23246891.908   124180847.791 6  96585162.148 4
     -3512.996       -2732.327
  19677166.184    19677165.611    19677168.797   105075054.515 9  81725091.971 7
     -1242.060        -966.047
  20199270.053    20199269.139    20199332.090   107673546.357 8  83746122.238 3
      2802.280        2179.578
 11 10 10  1  4 30.0000000  0 13G02G04G05G07G10G13G26G28R02R03R12R13
                                R14
  22989623.043    22989622.2524   22989626.0344  120811283.335 6  94138677.48742
     -1998.440       -1557.214
  25147144.341    25147145.6874   25147154.1044  132149142.707 4 102973358.91841
     -2731.919       -2128.776
  21161728.238    21161728.2684   21161732.8944  111205643.882 8  86653769.65146
      2118.296        1650.619
  21501181.626    21501181.2904   21501186.2404  112989704.440 7  88043903.43645
     -1738.926       -1355.008
  21119013.825    21119012.4544   21119019.4174  110981181.375 8  86478857.83245
     -1723.026       -1342.619
  23991430.554    23991429.9534   23991435.8044  126076110.768 5  98241015.74941
     -2205.508       -1718.590
  22361951.831    22361951.8724   22361958.6144  117512864.499 6  91568482.12243
      3086.785        2405.308
  22831112.499    22831111.9044   22831118.5304  119978361.858 6  93489622.08343
      3258.107        2538.787
  22050400.207    22050399.690    22050405.483   117665190.754 6  91517396.206 6
     -2944.445       -2290.125
  20039497.294    20039496.675    20039503.477   106859477.805 8  83112977.902 6
      2605.555        2026.542
  23266623.571    23266622.129    23266628.022   124286271.536 6  96667158.341 4
     -3515.430       -2734.227
  19684196.716    19684196.411    19684199.793   105112598.932 8  81754293.187 7
     -1261.116        -980.868
  20183553.770    20183553.241    20183615.052   107589770.829 8  83680963.462 3
      2782.552        2164.219
 11 10 10  1  5  0.0000000  0 13G02G04G05G07G10G13G26G28R02R03R12R13
                                R14
  23001057.713    23001057.4514   23001062.0834  120871377.035 6  94185503.72342
     -2007.765       -1564.479
  25162727.777    25162730.4674   25162737.7064  132231028.587 4 103037165.80541
     -2727.212       -2125.083
  21149677.423    21149677.4084   21149682.2124  111142316.216 8  86604423.41746
      2103.549        1639.128
  21511134.463    21511134.2404   21511139.4264  113042008.063 7  88084659.50245
     -1747.940       -1362.030
  21128889.098    21128887.7074   21128894.5794  111033076.107 8  86519295.27045
     -1736.661       -1353.242
  24004027.757    24004029.0284   24004033.0154  126142307.165 5  98292597.31241
     -2207.688       -1720.291
  22344344.914    22344344.2764   22344350.4604  117420333.672 6  91496380.21343
      3081.898        2401.489
  22812535.102    22812534.8314   22812541.0284  119880739.219 6  93413552.51243
      3250.094        2532.533
  22066986.503    22066986.296    22066990.821   117753697.842 7  91586235.040 5
     -2956.020       -2299.127
  20024892.497    20024891.851    20024898.920   106781599.344 8  83052405.768 6
      2586.323        2011.584
  23286369.622    23286369.779    23286376.228   124391761.013 5  96749205.673 4
     -3517.160       -2735.567
  19691333.250    19691332.897    19691336.121   105150707.860 8  81783933.462 7
     -1279.465        -995.142
  20167947.661    20167946.917    20168007.141   107506582.004 8  83616261.147 3
      2763.354        2149.224
 11 10 10  1  5 30.0000000  0 13G02G04G05G07G10G13G26G28R02R03R12R13
                                R14
  23012547.275    23012547.0434   23012550.8324  120931756.325 6  94232552.51742
     -2017.400       -1572.001
  25178286.215    25178287.2054   25178292.4874  132312783.939 4 103100870.94841
     -2723.096       -2121.852
  21137713.020    21137712.8854   21137717.8504  111079441.658 8  86555430.25846
      2088.215        1627.184
  21521140.851    21521140.5984   21521145.4994  113094590.725 7  88125633.00345
     -1757.388       -1369.387
  21138843.850    21138842.4684   21138848.9884  111085388.287 8  86560057.99645
     -1750.723       -1364.194
  24016637.573    24016637.7324   24016645.2304  126208577.125 5  98344236.20941
     -2210.224       -1722.224
  22326765.940    22326765.7484   22326772.0234  117327960.258 6  91424400.95343
      3076.451        2397.247
  22794005.784    22794004.7574   22794011.2304  119783365.464 6  93337676.87043
      3241.593        2525.917
  22083639.627    22083639.730    22083643.209   117842561.529 7  91655351.239 5
     -2968.091       -2308.510
  20010397.866    20010397.342    20010404.343   106704308.427 8  82992290.619 6
      2566.560        1996.213
  23306130.238    23306129.836    23306134.342   124497310.693 6  96831299.861 4
     -3519.269       -2737.207
  19698574.616    19698574.183    19698577.410   105189375.834 8  81814008.555 7
     -1298.220       -1009.728
  20152452.235    20152450.995    20152504.992   107423978.440 8  83552013.820 3
      2743.644        2133.927
 11 10 10  1  6  0.0000000  0 13G02G04G05G07G10G13G26G28R02R03R12R13
                                R14
  23024093.336    23024091.9884   23024096.5964  120992426.906 5  94279828.27042
     -2026.706       -1579.238
  25193820.246    25193818.4744   25193827.0274  132394414.925 5 103164479.18241
     -2718.509       -2118.382
  21125836.596    21125836.4304   21125841.3654  111017030.587 8  86506798.25646
      2073.044        1615.354
  21531201.112    21531200.8874   21531206.0584  113147458.733 8  88166828.84945
     -1766.585       -1376.572
  21148879.277    21148877.8204   21148884.8044  111138125.258 8  86601151.72445
     -1764.557       -1374.976
  24029263.809    24029263.1474   24029271.0074  126274928.782 5  98395938.75841
     -2212.733       -1724.229
  22309220.083    22309219.6974   22309226.0194  117235753.588 6  91352551.62943
      3071.144        2393.096
  22775525.902    22775524.7474   22775531.0694  119686251.747 6  93262003.86743
      3233.167        2519.358
  22100360.431    22100360.478    22100364.810   117931788.259 7  91724749.797 5
     -2979.835       -2317.654
  19996015.017    19996014.591    19996021.478   106627613.674 8  82932639.155 7
      2546.934        1980.946
  23325901.250    23325900.994    23325905.625   124602926.164 6  96913445.227 4
     -3521.196       -2738.722
  19705921.490    19705921.123    19705924.530   105228607.703 8  81844522.228 7
     -1316.716       -1024.116
  20137067.368    20137066.120    20137129.554   107341970.020 8  83488229.519 3
      2724.132        2118.722
 11 10 10  1  6 30.0000000  0 13G02G04G05G07G10G13G26G28R02R03R12R13
                                R14
  23035689.796    23035688.6524   23035692.6854  121053366.636 6  94327313.76042
     -2035.731       -1586.277
  25209325.161    25209327.2454   25209332.8284  132475899.996 4 103227973.67741
     -2713.684       -2114.569
  21114045.070    21114044.8274   21114049.6094  110955066.094 8  86458514.23446
      2058.011        1603.650
  21541312.194    21541311.7854   21541316.9554  113200591.457 8  88208230.95645
     -1775.472       -1383.475
  21158991.797    21158990.4024   21158997.3904  111191266.764 8  86642560.67045
     -1778.117       -1385.542
  24041902.924    24041901.6884   24041908.9704  126341343.264 5  98447690.24441
     -2214.886       -1725.881
  22291701.813    22291700.7094   22291707.7364  117143695.022 6  91280817.68043
      3066.121        2389.181
  22757092.259    22757091.2684   22757096.8524  119589381.929 6  93186520.90143
      3224.853        2512.882
  22117147.341    22117146.165    22117150.184   118021356.998 7  91794414.362 5
     -2991.295       -2326.558
  19981740.865    19981740.572    19981747.108   106551497.556 8  82873437.751 6
      2527.529        1965.858
  23345680.580    23345680.682    23345685.779   124708585.257 6  96995624.509 4
     -3522.671       -2739.854
  19713370.035    19713369.442    19713373.031   105268381.535 8  81875457.424 7
     -1334.789       -1038.166
  20121790.528    20121789.988    20121845.649   107260538.666 8  83424893.860 3
      2704.735        2103.698
 11 10 10  1  7  0.0000000  0 13G02G04G05G07G10G13G26G28R02R03R12R13
                                R14
  23047336.982    23047336.0344   23047340.9834  121114573.557 6  94375007.46042
     -2044.907       -1593.442
  25224804.698                                   132557238.033 3
     -2709.206
  21102339.142    21102339.1034   21102343.9884  110893551.464 8  86410580.75646
      2042.768        1591.770
  21551472.873    21551472.4944   21551477.5894  113253987.712 8  88249838.42745
     -1784.480       -1390.505
  21169181.413    21169180.0644   21169186.6804  111244812.426 8  86684284.55945
     -1791.770       -1396.184
  24054553.748    24054552.1504   24054559.8954  126407821.324 5  98499491.29541
     -2217.189       -1727.691
  22274212.234    22274211.6044   22274218.8744  117051786.735 6  91209200.85443
      3060.861        2385.113
  22738705.545    22738704.9454   22738709.9554  119492759.924 6  93111231.02543
      3216.347        2506.255
  22133995.399    22133995.149    22133999.398   118111266.613 7  91864344.046 5
     -3002.825       -2335.529
  19967575.598    19967575.155    19967581.936   106475962.531 8  82814688.316 7
      2508.011        1950.673
  23365466.605    23365467.723    23365472.489   124814286.137 5  97077836.296 4
     -3524.204       -2741.043
  19720919.477    19720919.098    19720922.286   105308694.983 8  81906812.337 7
     -1352.934       -1052.281
  20106623.419    20106622.375    20106682.458   107179686.381 8  83362008.711 3
      2685.195        2088.475
 11 10 10  1  7 30.0000000  0 13G02G04G05G07G10G13G26G28R02R03R12R13
                                R14
  23059037.333    23059036.6904   23059041.0514  121176057.098 6  94422916.69542
     -2053.646       -1600.220
  25240255.090                                   132638438.645 3
     -2702.445
  21090721.717    21090721.5784   21090726.4304  110832501.612 8  86363009.44346
      2027.557        1579.915
  21561686.318    21561685.8154   21561691.0684  113307658.202 7  88291659.60445
     -1793.211       -1397.309
  21179449.735    21179448.4944   21179454.9494  111298773.638 8  86726332.24945
     -1805.324       -1406.743
  24067218.054    24067217.3444   24067224.2624  126474375.785 5  98551351.87041
     -2219.407       -1729.421
  22256753.400    22256753.5224   22256759.7474  116960042.201 6  91137711.62743
      3055.740        2381.093
  22720368.922    22720368.4324   22720373.8604  119396401.387 6  93036146.46143
      3207.827        2499.611
  22150910.677    22150910.158    22150913.987   118201528.641 6  91934547.833 5
     -3014.223       -2344.396
  19953521.574    19953521.366    19953528.004   106401021.253 8  82756400.672 6
      2488.444        1935.457
  23385265.012    23385264.838    23385270.377   124920039.101 5  97160088.595 4
     -3525.580       -2742.118
  19728571.659    19728571.422    19728574.539   105349558.002 8  81938594.685 7
     -1370.911       -1066.261
  20091567.444    20091566.179    20091625.072   107099427.524 8  83299585.142 3
      2665.711        2073.338
 11 10 10  1  8  0.0000000  0 12G02G05G07G10G13G26G28R02R03R12R13R14
  23070787.991    23070786.3444   23070790.3944  121237806.697 6  94471033.25242
     -2063.055       -1607.583
  21079191.568    21079191.4624   21079196.1214  110771910.118 8  86315795.29046
      2011.764        1567.609
  21571949.462    21571949.4254   21571954.7104  113361592.950 7  88333686.67245
     -1802.490       -1404.543
  21189795.332    21189793.9554   21189800.9794  111353141.072 8  86768696.47945
     -1819.289       -1417.628
  24079896.010    24079896.5874   24079901.2494  126540998.783 5  98603265.87541
     -2222.205       -1731.593
  22239325.586    22239325.1614   22239331.8764  116868454.396 6  91066344.52643
      3050.039        2376.652
  22702082.287    22702081.2514   22702086.4154  119300301.116 6  92961263.15543
      3198.713        2492.503
  22167889.846    22167889.628    22167893.037   118292132.592 7  92005017.557 5
     -3026.114       -2353.645
  19939577.894    19939577.423    19939584.530   106326667.367 8  82698569.895 7
      2468.359        1919.830
  23405071.610    23405070.527    23405075.395   125025833.015 5  97242372.748 5
     -3527.398       -2743.535
  19736324.861    19736324.497    19736327.486   105390959.485 8  81970795.843 7
     -1389.282       -1080.552
  20076621.228    20076620.217    20076691.011   107019755.411 8  83237617.986 3
      2645.668        2057.695
 11 10 10  1  8 30.0000000  0 12G02G05G07G10G13G26G28R02R03R12R13R14
  23082590.032    23082589.5854   23082593.7844  121299831.135 6  94519363.97742
     -2071.945       -1614.500
  21067751.075    21067751.1754   21067756.0054  110711791.432 8  86268949.55946
      1996.137        1555.435
  21582265.307    21582265.0144   21582269.9034  113415802.164 7  88375927.60645
     -1811.450       -1411.518
  21200220.601    21200219.3464   21200226.0754  111407925.646 8  86811385.74445
     -1833.033       -1428.334
  24092589.603    24092589.8764   24092595.1804  126607702.304 5  98655242.58841
     -2224.683       -1733.519
  22221928.905    22221928.4494   22221935.4564  116777036.173 6  90995109.56743
      3044.529        2372.363
  22683847.015    22683845.8484   22683851.2924  119204473.868 6  92886592.58943
      3189.761        2485.534
  22184934.486    22184934.448    22184938.548   118383088.815 7  92075761.264 5
     -3037.652       -2362.625
  19925747.143    19925746.639    19925753.418   106252914.146 8  82641206.289 6
      2448.470        1904.364
  23424885.183    23424885.123    23424889.161   125131677.546 6  97324696.244 5
     -3528.870       -2744.678
  19744180.432    19744180.056    19744183.290   105432908.451 8  82003422.812 7
     -1407.323       -1094.583
  20061787.325    20061786.116    20061860.139   106940683.018 8  83176117.184 3
      2625.840        2042.343
 11 10 10  1  9  0.0000000  0 12G02G05G07G10G13G26G28R02R03R12R13R14
  23094443.340    23094442.2844   23094446.8334  121362119.004 6  94567899.96242
     -2080.605       -1621.242
  21056399.703    21056399.7424   21056404.9094  110652138.978 8  86222467.12646
      1980.588        1543.313
  21592631.817    21592631.2344   21592635.5494  113470275.410 8  88418374.29245
     -1820.174       -1418.315
  21210723.444    21210722.0664   21210728.8874  111463117.418 8  86854392.30945
     -1846.535       -1438.857
  24105296.544    24105296.0254   24105302.5874  126674477.507 5  98707275.16941
     -2227.072       -1735.387
  22204563.518    22204562.9084   22204569.2774  116685779.759 6  90924000.70843
      3039.148        2368.170
  22665661.673    22665661.5834   22665667.3604  119108913.925 6  92812130.29643
      3180.808        2478.547
  22202044.835    22202043.862    22202047.942   118474386.966 7  92146770.926 5
     -3048.956       -2371.409
  19912026.922    19912026.537    19912033.806   106179753.909 8  82584303.900 7
      2428.769        1889.040
  23444706.377    23444706.544    23444711.003   125237561.113 6  97407050.099 5
     -3530.068       -2745.610
  19752136.577    19752136.044    19752139.355   105475392.978 8  82036466.337 7
     -1425.079       -1108.392
  20047064.327    20047063.534    20047146.317   106862203.192 8  83115077.282 3
      2606.092        2026.979
 11 10 10  1  9 30.0000000  0 12G02G05G07G10G13G26G28R02R03R12R13R14
  23106345.454    23106343.9764   23106348.6534  121424663.804 6  94616636.14442
     -2089.049       -1627.844
  21045136.907    21045136.8854   21045142.2494  110592951.903 8  86176347.32346
      1965.043        1531.202
  21603046.808    21603046.1884   21603050.9134  113525007.628 7  88461022.77145
     -1828.749       -1424.999
  21221302.558    21221301.1354   21221308.0914  111518711.952 8  86897712.72545
     -1859.928       -1449.297
  24118015.270    24118014.4974   24118023.5584  126741321.110 5  98759361.03241
     -2229.302       -1737.156
  22187228.570    22187227.5234   22187233.7044  116594683.244 6  90853016.41743
      3033.826        2364.031
  22647528.326    22647528.0814   22647533.2734  119013621.066 6  92737876.14243
      3171.889        2471.594
  22219216.145    22219216.406    22219219.857   118566021.872 7  92218042.508 5
     -3060.212       -2380.168
  19898417.707    19898417.263    19898424.452   106107183.639 8  82527860.371 7
      2409.075        1873.722
  23464534.135    23464533.437    23464538.849   125343477.987 5  97489429.876 4
     -3531.174       -2746.474
  19760191.671    19760191.309    19760194.325   105518407.023 8  82069921.710 7
     -1442.657       -1122.068
  20032452.482    20032451.418    20032528.876   106784313.916 8  83054496.839 3
      2586.400        2011.603
 11 10 10  1 10  0.0000000  0 12G02G05G07G10G13G26G28R02R03R12R13R14
  23118296.355    23118294.1494   23118297.9504  121487462.859 6  94665570.45242
     -2097.524       -1634.425
  21033962.772    21033962.7884   21033968.2204  110534231.979 8  86130591.53446
      1949.539        1519.123
  21613510.631    21613510.4074   21613515.0344  113579996.637 7  88503871.34345
     -1837.203       -1431.585
  21231958.366    21231956.8834   21231963.8014  111574707.856 8  86941345.88745
     -1873.209       -1459.637
  24130749.037    24130749.3874   24130753.8934  126808233.254 5  98811500.33241
     -2231.573       -1738.862
  22169923.596    22169923.6584   22169929.2094  116503747.068 6  90782157.08343
      3028.598        2359.941
  22629445.891    22629445.2594   22629451.7154  118918598.028 6  92663832.20743
      3162.895        2464.595
  22236450.867    22236450.850    22236455.396   118657991.282 6  92289574.261 5
     -3071.220       -2388.725
  19884919.636    19884919.245    19884926.233   106035205.006 8  82471877.001 7
      2389.463        1858.481
  23484366.503    23484366.845    23484372.500   125449425.116 5  97571833.168 4
     -3531.938       -2747.053
  19768345.263    19768344.983    19768348.103   105561947.044 8  82103786.176 7
     -1460.051       -1135.594
  20017951.235    20017950.472    20018026.167   106707016.001 8  82994376.271 3
      2566.744        1996.344
 11 10 10  1 10 30.0000000  0 12G02G05G07G10G13G26G28R02R03R12R13R14
  23130294.926    23130294.0074   23130297.3054  121550516.471 5  94714703.12542
     -2106.139       -1641.132
  21022879.091    21022878.8104   21022884.1964  110475985.140 8  86085204.38646
      1933.478        1506.610
  21624023.936    21624023.9524   21624028.6764  113635244.430 8  88546921.56245
     -1846.043       -1438.478
  21242690.958    21242689.5964   21242696.6154  111631107.901 8  86985293.96645
     -1886.891       -1470.307
  24143496.235    24143497.1134   24143503.0234  126875218.057 5  98863696.21141
     -2234.275       -1740.994
  22152650.295    22152650.0664   22152655.7174  116412975.885 6  90711426.31243
      3022.725        2355.375
  22611416.124    22611415.7634   22611421.8734  118823851.235 6  92590003.55643
      3153.418        2457.205
  22253748.610    22253748.568    22253752.731   118750297.385 6  92361367.892 5
     -3082.641       -2397.610
  19871533.324    19871532.856    19871539.680   105963821.903 8  82416356.838 7
      2369.340        1842.818
  23504206.202    23504205.564    23504212.426   125555403.816 5  97654261.031 4
     -3533.345       -2748.157
  19776597.687    19776597.379    19776600.412   105606014.272 8  82138060.697 7
     -1477.814       -1149.408
  20003562.205    20003561.159    20003640.248   106630314.577 8  82934719.580 3
      2546.584        1980.688
 11 10 10  1 11  0.0000000  0 12G02G05G07G10G13G26G28R02R03R12R13R14
  23142340.989    23142340.1494   23142344.7764  121613823.299 6  94764033.11942
     -2114.240       -1647.474
  21011885.998    21011885.6514   21011890.5334  110418214.879 8  86040188.59446
      1917.850        1494.426
  21634586.159    21634586.0034   21634591.2434  113690750.405 7  88590172.94345
     -1854.327       -1444.929
  21253500.384    21253499.0394   21253505.7544  111687911.675 8  87029556.63845
     -1900.045       -1480.557
  24156257.519    24156256.1314   24156262.1704  126942276.844 5  98915949.80041
     -2236.349       -1742.639
  22135408.476    22135408.7944   22135415.2604  116322372.276 6  90640826.11943
      3017.441        2351.246
  22593439.932    22593439.5114   22593445.2534  118729384.856 6  92516393.39743
      3144.263        2450.062
  22271109.879    22271109.329    22271113.796   118842939.437 6  92433422.808 5
     -3093.510       -2406.063
  19858258.952    19858258.261    19858265.265   105893037.794 8  82361302.548 7
      2349.621        1827.479
  23524051.224    23524051.441    23524057.940   125661412.806 6  97736712.435 4
     -3533.991       -2748.653
  19784948.495    19784948.077    19784951.217   105650606.372 8  82172743.436 7
     -1495.009       -1162.782
  19989286.061    19989284.859    19989353.735   106554212.172 8  82875528.832 3
      2526.857        1965.311
 11 10 10  1 11 30.0000000  0 12G02G05G07G10G13G26G28R02R03R12R13R14
  23154434.097    23154432.9764   23154437.1984  121677370.182 5  94813550.17042
     -2122.116       -1653.595
  21000981.378    21000981.2814   21000986.1294  110360912.921 8  85995537.71846
      1902.281        1482.295
  21645195.383    21645195.2754   21645200.1774  113746502.266 7  88633615.97245
     -1862.450       -1451.260
  21264384.153    21264383.0444   21264389.7454  111745107.758 8  87074125.00545
     -1913.023       -1490.667
  24169029.455    24169030.5764   24169037.3894  127009398.948 5  98968252.68541
     -2238.421       -1744.207
  22118197.804    22118198.0264   22118204.4484  116231926.721 6  90570349.09043
      3012.243        2347.192
  22575515.615    22575515.0264   22575520.3164  118635192.192 6  92442996.51943
      3135.217        2443.016
  22288531.431    22288531.291    22288535.894   118935905.300 6  92505729.564 5
     -3104.204       -2414.379
  19845094.865    19845094.459    19845101.314   105822842.434 8  82306706.173 7
      2330.052        1812.254
  23543898.812    23543899.331    23543906.547   125767438.911 5  97819177.181 4
     -3534.389       -2748.977
  19793394.683    19793394.587    19793397.872   105695710.288 8  82207824.252 7
     -1511.908       -1175.929
  19975119.881    19975118.727    19975189.952   106478699.349 8  82816796.726 3
      2507.305        1950.147
 11 10 10  1 12  0.0000000  0 12G02G05G07G10G13G26G28R02R03R12R13R14
  23166571.518    23166570.8664   23166575.6894  121741155.672 5  94863253.11542
     -2130.189       -1659.887
  20990167.008    20990166.8434   20990171.6764  110304082.815 8  85951254.51846
      1886.341        1469.878
  21655851.544    21655851.1704   21655856.3554  113802500.547 7  88677250.99545
     -1870.791       -1457.761
  21275343.366    21275341.6774   21275348.4274  111802696.619 8  87118999.43545
     -1926.264       -1500.984
  24181815.410    24181814.9344   24181818.4804  127076586.158 5  99020606.28741
     -2240.765       -1746.034
  22101017.439    22101017.3284   22101023.0674  116141641.874 6  90499997.26943
      3006.691        2342.875
  22557644.375    22557643.2974   22557649.7464  118541277.380 6  92369816.16543
      3125.719        2435.629
  22306015.003    22306014.239    22306018.901   119029194.690 6  92578287.964 5
     -3115.168       -2422.908
  19832041.883    19832041.403    19832048.260   105753238.528 8  82252569.819 7
      2310.169        1796.801
  23563751.339    23563751.170    23563758.131   125873481.406 5  97901654.649 4
     -3535.080       -2749.512
  19801936.804    19801936.472    19801939.897   105741324.164 8  82243301.710 6
     -1529.062       -1189.271
  19961065.087    19961063.891    19961132.690   106403778.905 8  82758525.354 3
      2487.369        1934.651
 11 10 10  1 12 30.0000000  0 12G02G05G07G10G13G26G28R02R03R12R13R14
  23178756.040    23178754.6114   23178759.5484  121805185.518 5  94913146.48442
     -2138.370       -1666.263
  20979444.509    20979444.2604   20979449.2374  110247735.348 8  85907347.40146
      1870.207        1457.302
  21666555.578    21666555.2824   21666560.7134  113858751.714 7  88721083.06145
     -1879.193       -1464.303
  21286378.077    21286376.6214   21286383.5594  111860685.968 8  87164185.92945
     -1939.610       -1511.382
  24194615.146    24194615.9114   24194620.7064  127143847.496 5  99073017.68041
     -2243.154       -1747.902
  22083869.713    22083869.1324   22083875.1174  116051527.579 6  90429778.35143
      3000.992        2338.432
  22539827.653    22539827.2854   22539832.5804  118447651.735 6  92296861.12743
      3116.008        2428.057
  22323560.113    22323559.217    22323563.296   119122814.519 6  92651103.359 5
     -3126.174       -2431.465
  19819101.844    19819101.432    19819107.804   105684235.061 8  82198900.458 7
      2290.138        1781.223
  23583608.284    23583607.207    23583614.148   125979546.627 5  97984149.794 5
     -3535.830       -2750.088
  19810575.746    19810575.257    19810578.297   105787454.092 8  82279180.546 7
     -1546.212       -1202.608
  19947122.966    19947121.880    19947189.771   106329460.786 8  82700722.367 3
      2467.258        1918.991
 11 10 10  1 13  0.0000000  0 12G02G05G07G10G13G26G28R02R03R12R13R14
  23190986.937    23190985.2694   23190991.8474  121869458.204 5  94963229.07842
     -2146.527       -1672.609
  20968814.695    20968814.2624   20968819.4444  110191874.390 8  85863819.38246
      1853.817        1444.534
  21677308.263    21677308.0044   21677312.9514  113915254.973 7  88765111.57045
     -1887.704       -1470.940
  21297489.455    21297488.1684   21297494.7754  111919075.647 8  87209684.36845
     -1953.075       -1521.879
  24207427.819    24207428.1264   24207433.2814  127211184.418 5  99125487.95741
     -2245.992       -1750.100
  22066754.234    22066753.6574   22066760.0654  115961586.335 6  90359694.28143
      2995.052        2333.812
  22522067.643    22522066.0784   22522072.6604  118354320.109 6  92224135.19643
      3106.043        2420.292
  22341165.379    22341165.133    22341169.139   119216764.247 6  92724175.347 5
     -3137.195       -2440.042
  19806274.558    19806274.197    19806280.891   105615835.029 8  82145700.447 7
      2269.857        1765.440
  23603465.766    23603467.013    23603472.992   126085633.414 5  98066661.729 4
     -3536.680       -2750.749
  19819310.532    19819310.133    19819313.324   105834098.518 8  82315459.542 6
     -1563.456       -1216.023
  19933294.675    19933293.604    19933359.247   106255747.320 8  82643389.827 3
      2446.955        1903.154
 11 10 10  1 13 30.0000000  0 12G02G05G07G10G13G26G28R02R03R12R13R14
  23203262.388    23203261.2544   23203266.5024  121933968.398 5  95013496.73942
     -2154.291       -1678.658
  20958276.652    20958276.5564   20958281.9224  110136499.311 8  85820669.96546
      1837.702        1431.974
  21688107.778    21688107.5334   21688112.0604  113972006.467 7  88809333.51245
     -1895.843       -1477.277
  21308676.255    21308674.7754   21308681.4194  111977861.698 7  87255491.66645
     -1966.138       -1532.052
  24220255.711    24220257.2414   24220263.0614  127278594.246 5  99178015.06641
     -2248.154       -1751.804
  22049671.643    22049671.2484   22049677.0714  115871816.308 6  90289743.64643
      2989.478        2329.455
  22504363.306    22504361.8124   22504367.9484  118261282.603 6  92151638.44743
      3096.287        2412.703
  22358832.922    22358831.919    22358836.708   119311039.373 6  92797500.420 5
     -3147.948       -2448.400
  19793560.474    19793559.930    19793566.594   105548037.001 8  82092968.654 7
      2249.913        1749.936
  23623329.721    23623329.505    23623335.696   126191736.633 5  98149186.446 4
     -3537.059       -2751.044
  19828140.840    19828140.446    19828143.667   105881251.644 8  82352134.193 7
     -1580.215       -1229.054
  19919579.088    19919578.187    19919631.154   106182637.203 8  82586526.278 3
      2426.920        1887.634
 11 10 10  1 14  0.0000000  0 12G02G05G07G10G13G26G28R02R03R12R13R14
  23215584.231    23215582.9694   23215587.8704  121998717.834 5  95063950.83542
     -2162.380       -1684.953
  20947832.999    20947833.0264   20947838.4064  110081617.209 8  85777904.69146
      1821.070        1419.013
  21698955.008    21698954.3434   21698959.5294  114029008.952 7  88853751.02545
     -1904.349       -1483.910
  21319938.699    21319937.2854   21319943.8734  112037047.511 8  87301610.47445
     -1979.602       -1542.555
  24233098.662    24233099.0194   24233105.1634  127346082.164 5  99230603.02141
     -2251.007       -1754.033
  22032622.182    22032621.9074   22032627.8724  115782223.593 6  90219931.16743
      2983.372        2324.708
  22486715.691    22486715.2684   22486720.8704  118168546.727 6  92079376.74043
      3086.035        2404.703
  22376559.612    22376559.693    22376564.621   119405642.908 6  92871080.942 5
     -3158.996       -2456.999
  19780959.841    19780959.348    19780966.081   105480845.657 8  82040708.734 7
      2229.464        1734.029
  23643195.586    23643195.877    23643200.818   126297858.844 5  98231725.908 4
     -3537.823       -2751.638
  19837066.832    19837066.284    19837069.629   105928915.285 8  82389205.914 7
     -1597.341       -1242.379
  19905978.340    19905977.477    19906030.713   106110136.218 8  82530136.562 3
      2406.429        1871.698
 11 10 10  1 14 30.0000000  0 12G02G05G07G10G13G26G28R02R03R12R13R14
  23227950.657    23227949.6684   23227954.7584  122063702.109 5  95114587.92842
     -2169.918       -1690.855
  20937483.100    20937483.1214   20937488.2814  110027228.108 8  85735523.57046
      1804.791        1406.331
  21709849.111    21709848.7094   21709853.6194  114086259.288 7  88898361.66245
     -1912.422       -1490.195
  21331276.758    21331275.4514   21331282.3974  112096630.297 8  87348038.60445
     -1992.631       -1552.698
  24245954.594    24245957.0684   24245963.2384  127413646.689 5  99283250.65841
     -2253.357       -1755.828
  22015606.956    22015606.2384   22015612.9364  115692807.539 6  90150256.33543
      2977.665        2320.265
  22469126.798    22469125.9214   22469131.7594  118076113.802 7  92007351.11143
      3076.080        2396.936
  22394350.346    22394349.532    22394354.336   119500571.331 6  92944914.146 5
     -3169.630       -2465.264
  19768473.074    19768472.566    19768479.691   105414261.385 8  81988920.987 7
      2209.441        1718.450
  23663065.847    23663065.219    23663070.527   126403995.971 5  98314276.977 4
     -3538.001       -2751.779
  19846087.053    19846086.824    19846090.221   105977084.874 8  82426671.149 7
     -1613.980       -1255.317
  19892490.890    19892490.227    19892539.326   106038243.763 8  82474220.347 3
      2386.357        1856.033
 11 10 10  1 15  0.0000000  0 12G02G05G07G10G13G26G28R02R03R12R13R14
  23240360.331    23240360.8104   23240365.0084  122128918.411 5  95165405.81842
     -2177.719       -1696.933
  20927227.506    20927227.5104   20927232.1784  109973334.410 8  85693528.48446
      1788.176        1393.384
  21720790.386    21720790.1234   21720794.6444  114143755.889 7  88943164.21145
     -1920.646       -1496.609
  21342690.603    21342689.1224   21342696.0044  112156609.380 8  87394775.54245
     -2005.908       -1563.045
  24258827.358    24258827.4474   24258833.8034  127481288.270 5  99335958.36341
     -2256.130       -1757.996
  21998625.606    21998625.0384   21998631.2414  115603569.514 7  90080720.22243
      2971.636        2315.568
  22451595.672    22451594.6274   22451600.4244  117983987.046 6  91935564.01643
      3065.738        2388.884
  22412200.341    22412200.286    22412204.377   119595823.175 6  93018998.904 5
     -3180.435       -2473.670
  19756100.458    19756099.958    19756106.745   105348284.215 8  81937605.444 7
      2189.097        1702.627
  23682935.951    23682936.306    23682941.799   126510145.679 5  98396837.847 4
     -3538.511       -2752.174
  19855201.826    19855201.450    19855204.764   106025757.362 8  82464527.530 7
     -1630.744       -1268.359
  19879118.654    19879117.792    19879162.774   105966960.916 8  82418778.201 3
      2365.915        1840.192
 11 10 10  1 15 30.0000000  0 12G02G05G07G10G13G26G28R02R03R12R13R14
  23252814.244    23252813.9244   23252818.5974  122194366.481 5  95216404.29342
     -2185.350       -1702.868
  20917067.443    20917067.1604   20917071.8924  109919941.044 8  85651923.26346
      1771.511        1380.397
  21731778.406    21731778.5114   21731783.1484  114201499.782 7  88988159.44845
     -1928.797       -1502.960
  21354179.780    21354178.4874   21354185.4014  112216985.854 7  87441822.12945
     -2019.040       -1573.277
  24271714.095    24271715.3044   24271721.6314  127549009.604 5  99388728.18641
     -2258.588       -1759.916
  21981677.806    21981678.0114   21981684.1884  115514513.315 6  90011325.80143
      2965.605        2310.858
  22434123.526    22434122.9784   22434128.7054  117892172.126 6  91864019.92543
      3055.389        2380.825
  22430112.079    22430111.983    22430115.487   119691399.125 6  93093335.729 5
     -3191.156       -2482.012
  19743842.157    19743841.737    19743848.725   105282918.369 8  81886765.378 7
      2168.794        1686.835
  23702810.908    23702810.595    23702815.215   126616308.589 6  98479408.954 4
     -3538.793       -2752.400
  19864410.941    19864410.431    19864413.820   106074932.544 8  82502774.891 7
     -1647.373       -1281.292
  19865861.497    19865860.660    19865904.265   105896291.815 8  82363813.389 3
      2345.532        1824.286
 11 10 10  1 16  0.0000000  0 12G02G05G07G10G13G26G28R02R03R12R13R14
  23265313.191    23265309.7214   23265315.0154  122260037.841 5  95267576.77342
     -2192.463       -1708.408
  20907001.429    20907001.2304   20907006.2274  109867044.426 8  85610705.12746
      1755.200        1367.688
  21742812.465    21742812.2584   21742817.1824  114259483.299 7  89033341.40445
     -1936.490       -1508.953
  21365743.341    21365742.0974   21365748.9884  112277752.668 7  87489172.87845
     -2031.767       -1583.194
  24284614.919    24284616.0064   24284622.9634  127616805.204 5  99441555.88041
     -2260.856       -1761.690
  21964765.440    21964765.2944   21964771.4594  115425634.406 6  89942069.51843
      2959.949        2306.463
  22416710.964    22416709.9354   22416715.9944  117800666.315 6  91792716.72643
      3045.284        2372.946
  22448082.514    22448081.655    22448085.673   119787291.330 6  93167918.534 5
     -3201.352       -2489.942
  19731697.360    19731697.039    19731703.852   105218157.883 8  81836396.113 7
      2148.833        1671.314
  23722684.120    23722684.894    23722690.451   126722476.366 5  98561983.858 4
     -3538.623       -2752.250
  19873712.291    19873711.906    19873715.077   106124601.394 8  82541406.218 6
     -1663.543       -1293.866
  19852718.661    19852717.540    19852767.863   105826231.351 8  82309321.903 3
      2325.459        1808.746
 11 10 10  1 16 30.0000000  0 12G02G05G07G10G13G26G28R02R03R12R13R14
  23277846.674    23277847.8884   23277851.2994  122325914.972 5  95318909.58842
     -2199.612       -1714.007
  20897027.689    20897027.5284   20897032.5614  109814631.568 8  85569863.94246
      1738.712        1354.841
  21753888.877    21753888.3544   21753893.6484  114317690.240 7  89078697.46245
     -1944.234       -1514.989
  21377378.111    21377376.6384   21377383.5974  112338894.177 7  87536815.59845
     -2044.561       -1593.163
  24297528.253    24297526.9974   24297535.8254  127684660.317 5  99494429.98441
     -2263.262       -1763.583
  21947884.318    21947883.5254   21947888.8784  115336919.054 6  89872940.69243
      2954.103        2301.892
  22399354.475    22399353.3354   22399359.1484  117709457.788 6  91721645.16443
      3034.976        2364.920
  22466106.753    22466106.857    22466111.835   119883483.000 6  93242734.261 5
     -3211.647       -2497.941
  19719663.890    19719663.291    19719670.072   105153989.374 8  81786487.262 7
      2128.778        1655.718
  23742556.522    23742557.507    23742563.181   126828631.586 5  98644549.020 4
     -3538.576       -2752.224
  19883102.719    19883102.379    19883105.621   106174746.258 8  82580407.783 7
     -1679.710       -1306.438
  19839686.760    19839685.751    19839739.343   105756765.481 8  82255292.969 3
      2305.311        1793.039
 11 10 10  1 17  0.0000000  0 12G02G05G07G10G13G26G28R02R03R12R13R14
  23290425.777    23290425.6784   23290428.6164  122392009.498 6  95370411.80242
     -2206.555       -1719.382
  20887149.165    20887148.8444   20887154.1584  109762719.516 8  85529412.99046
      1722.199        1341.975
  21765010.053    21765009.9514   21765014.8774  114376133.622 7  89124237.75045
     -1951.878       -1520.945
  21389086.603    21389085.4484   21389092.0534  112400423.352 8  87584760.39045
     -2057.254       -1603.051
  24310454.505    24310454.9554   24310459.2664  127752589.821 5  99547362.01741
     -2265.429       -1765.252
  21931036.033    21931035.8384   21931041.2444  115248383.165 6  89803951.69843
      2948.335        2297.397
  22382057.399    22382056.8084   22382062.3324  117618564.118 7  91650818.93343
      3024.631        2356.856
  22484192.370    22484192.181    22484196.418   119979987.270 6  93317793.130 5
     -3221.842       -2505.877
  19707744.175    19707743.729    19707750.283   105090428.419 8  81737050.978 7
      2108.717        1640.110
  23762430.092    23762430.332    23762435.339   126934787.013 5  98727114.328 4
     -3538.395       -2752.083
  19892584.781    19892584.520    19892587.905   106225378.901 8  82619788.723 7
     -1695.726       -1318.899
  19826769.934    19826768.651    19826812.322   105687910.241 8  82201738.873 3
      2285.167        1777.361
 11 10 10  1 17 30.0000000  0 12G02G05G07G10G13G26G28R02R03R12R13R14
  23303043.212    23303042.3714   23303046.8754  122458314.190 5  95422077.78842
     -2213.845       -1725.077
  20877365.237    20877365.2354   20877370.4384  109711305.553 8  85489350.16046
      1705.232        1328.749
  21776175.145    21776175.1384   21776180.1294  114434806.843 7  89169957.13745
     -1959.801       -1527.122
  21400868.070    21400866.8104   21400873.5044  112462334.036 8  87633002.47245
     -2070.265       -1613.200
  24323395.366    24323395.7454   24323399.2054  127820589.489 5  99600348.74841
     -2268.064       -1767.338
  21914221.292    21914221.0724   21914226.5944  115160023.197 7  89735099.79243
      2942.125        2292.563
  22364820.943    22364819.8664   22364825.6414  117527983.288 6  91580236.49343
      3013.864        2348.456
  22502334.298    22502333.965    22502338.964   120076797.430 6  93393089.916 5
     -3232.314       -2514.023
  19695937.557    19695937.182    19695943.882   105027470.931 8  81688084.051 7
      2088.274        1624.210
  23782301.776    23782301.305    23782306.266   127040935.772 5  98809674.445 4
     -3538.377       -2752.073
  19902156.705    19902156.116    19902159.177   106276490.956 8  82659542.544 7
     -1711.917       -1331.494
  19813966.298    19813965.353    19814004.597   105619661.633 8  82148656.666 3
      2264.629        1761.442
 11 10 10  1 18  0.0000000  0 12G02G05G07G10G13G26G28R02R03R12R13R14
  23315700.538    23315700.1884   23315704.6664  122524836.902 5  95473913.66142
     -2221.033       -1730.697
  20867678.707    20867678.6184   20867683.8664  109660402.662 8  85449685.56646
      1688.234        1315.509
  21787385.989    21787385.7454   21787390.9284  114493719.435 7  89215863.04445
     -1967.690       -1533.260
  21412723.978    21412722.6404   21412729.4704  112524636.214 7  87681549.60945
     -2083.242       -1623.305
  24336350.177    24336349.7014   24336355.0854  127888670.390 5  99653398.76041
     -2270.706       -1769.383
  21897443.457    21897442.6254   21897447.9484  115071851.140 7  89666394.31343
      2935.978        2287.777
  22347646.611    22347645.6534   22347651.1624  117437729.563 7  91509908.92943
      3003.017        2340.010
  22520535.118    22520535.767    22520539.517   120173922.612 6  93468631.712 5
     -3242.694       -2522.093
  19684246.372    19684246.092    19684252.722   104965128.577 8  81639595.574 7
      2067.851        1608.324
  23802174.549    23802173.727    23802178.058   127147086.522 5  98892236.097 4
     -3538.381       -2752.081
  19911819.607    19911819.181    19911822.596   106328091.362 8  82699676.188 6
     -1728.087       -1344.067
  19801279.125    19801278.012    19801323.341   105552031.544 8  82096055.451 3
      2244.027        1745.362
 11 10 10  1 18 30.0000000  0 12G02G05G07G10G13G26G28R02R03R12R13R14
  23328400.779    23328399.8834   23328404.1174  122591571.520 6  95525914.63941
     -2227.767       -1735.924
  20858089.354    20858089.1574   20858094.2174  109610009.862 8  85410418.45146
      1671.448        1302.426
  21798641.742    21798641.4624   21798646.3234  114552866.313 7  89261951.52245
     -1975.232       -1539.142
  21424653.087    21424651.8354   21424658.9764  112587325.824 7  87730398.64245
     -2095.872       -1633.147
  24349320.646    24349321.1644   24349326.0294  127956829.434 5  99706509.65141
     -2273.009       -1771.167
  21880700.424    21880699.7144   21880705.0774  114983865.267 7  89597833.91144
      2929.959        2283.081
  22330533.544    22330532.6794   22330538.4684  117347802.595 7  91439835.98143
      2992.311        2331.674
  22538796.225    22538796.142    22538798.843   120271358.035 6  93544414.803 5
     -3252.753       -2529.917
  19672670.562    19672669.700    19672676.541   104903398.526 8  81591583.333 7
      2047.683        1592.641
  23822044.606    23822044.671    23822049.718   127253233.990 5  98974795.214 4
     -3537.919       -2751.728
  19921572.976    19921572.397    19921575.932   106380173.513 8  82740184.525 6
     -1743.825       -1356.311
  19788707.362    19788706.608    19788749.975   105485017.962 8  82043933.702 3
      2223.735        1729.587
 11 10 10  1 19  0.0000000  0 12G02G05G07G10G13G26G28R02R03R12R13R14
  23341137.445    23341136.2094   23341140.7414  122658506.136 5  95578071.46541
     -2234.348       -1741.047
  20848595.451    20848595.3814   20848600.2964  109560119.686 8  85371542.99346
      1654.764        1289.422
  21809939.262    21809939.0674   21809944.1754  114612236.950 7  89308214.35445
     -1982.537       -1544.836
  21436654.042    21436652.8974   21436659.8904  112650391.740 8  87779540.89945
     -2108.297       -1642.831
  24362304.358    24362303.5474   24362310.1884  128025057.874 5  99759674.62641
     -2275.229       -1772.904
  21863990.299    21863990.0954   21863995.8394  114896057.254 7  89529412.10544
      2924.102        2278.521
  22313481.993    22313481.5334   22313487.7424  117258195.905 7  91370012.59143
      2981.657        2323.360
  22557113.044    22557111.558    22557114.210   120369091.679 6  93620429.835 5
     -3262.548       -2537.537
  19661207.368    19661206.739    19661213.216   104842272.743 8  81544041.079 7
      2027.637        1577.050
  23841912.451    23841913.034    23841917.552   127359366.300 5  99057342.542 4
     -3537.251       -2751.181
  19931413.994    19931413.574    19931416.971   106432724.847 8  82781057.791 6
     -1759.359       -1368.389
  19776249.800    19776249.045    19776290.192   105418612.512 8  81992284.845 3
      2203.530        1713.833
 11 10 10  1 19 30.0000000  0 12G02G05G07G10G13G26G28R02R03R12R13R14
  23353912.056    23353910.5014   23353914.4474  122725633.459 5  95630378.48041
     -2240.686       -1745.978
  20839196.743    20839196.9014   20839201.6004  109510730.081 8  85333057.58646
      1638.026        1276.384
  21821278.662    21821278.6034   21821283.5084  114671825.238 7  89354646.77545
     -1989.815       -1550.502
  21448725.851    21448724.7044   21448731.2694  112713828.686 7  87828972.27145
     -2120.662       -1652.463
  24375300.425    24375299.8604   24375305.2464  128093351.254 5  99812890.23341
     -2277.457       -1774.662
  21847313.996    21847313.8014   21847319.6534  114808423.993 7  89461126.44744
      2918.270        2273.978
  22296491.027    22296489.7954   22296495.7974  117168908.085 7  91300437.67343
      2970.992        2315.072
  22575480.490    22575480.157    22575484.423   120467117.697 6  93696672.270 5
     -3272.276       -2545.105
  19649856.641    19649856.116    19649863.070   104781746.442 8  81496965.062 7
      2007.613        1561.485
  23861777.802    23861777.226    23861783.308   127465477.026 5  99139873.090 4
     -3536.531       -2750.633
  19941341.677    19941341.170    19941344.707   106485737.790 8  82822290.078 7
     -1774.688       -1380.312
  19763905.888    19763904.994    19763951.471   105352811.184 8  81941105.975 3
      2183.389        1698.238
 11 10 10  1 20  0.0000000  0 12G02G05G07G10G13G26G28R02R03R12R13R14
  23366722.867    23366720.6264   23366726.2874  122792953.175 5  95682835.36141
     -2247.328       -1751.149
  20829894.232    20829894.1894   20829899.3744  109461844.777 8  85294965.14046
      1620.957        1263.088
  21832659.271    21832658.9054   21832664.4384  114731631.675 7  89401249.19245
     -1997.262       -1556.307
  21460868.470    21460867.1924   21460873.6984  112777637.147 7  87878693.14445
     -2133.228       -1662.255
  24388308.601    24388306.0474   24388313.7624  128161712.111 5  99866158.39141
     -2279.941       -1776.573
  21830672.459    21830671.7504   21830677.3594  114720969.021 7  89392979.73044
      2912.076        2269.152
  22279561.484    22279560.4134   22279566.1444  117079944.058 7  91231115.06143
      2959.936        2306.454
  22593904.986    22593904.745    22593909.530   120565436.231 6  93773142.209 5
     -3282.210       -2552.828
  19638618.660    19638618.487    19638625.181   104721822.464 8  81450357.544 7
      1987.308        1545.688
  23881637.669    23881636.876    23881643.097   127571566.197 5  99222386.878 4
     -3536.021       -2750.232
  19951355.774    19951355.304    19951358.825   106539211.922 8  82863881.068 6
     -1790.249       -1392.411
  19751676.061    19751674.905    19751729.828   105287617.116 8  81890399.519 3
      2162.883        1682.248
 11 10 10  1 20 30.0000000  0 12G02G05G07G10G13G26G28R02R03R12R13R14
  23379570.268    23379569.4814   23379572.3914  122860467.045 5  95735443.55541
     -2253.577       -1756.034
  20820689.040    20820689.0444   20820694.4664  109413471.018 8  85257271.30246
      1603.977        1249.854
  21844081.656    21844081.6644   21844087.3014  114791659.193 7  89448023.85445
     -2004.507       -1561.955
  21473082.030    21473080.7584   21473087.4084  112841820.599 8  87928706.21045
     -2145.591       -1671.887
  24401330.355    24401329.8424   24401335.8864  128230145.483 5  99919483.09541
     -2282.223       -1778.348
  21814065.444    21814064.4944   21814070.7634  114633698.292 7  89324976.57044
      2905.993        2264.408
  22262695.619    22262695.1324   22262699.9714  116991312.081 7  91162051.20844
      2948.881        2297.823
  22612385.690    22612385.367    22612389.842   120664050.375 6  93849842.091 5
     -3291.983       -2560.439
  19627495.217    19627494.929    19627501.930   104662507.352 8  81404223.573 7
      1967.069        1529.947
  23901494.047    23901493.712    23901500.008   127677636.625 5  99304886.060 4
     -3535.128       -2749.547
  19961456.528    19961456.084    19961459.369   106593149.055 8  82905832.174 6
     -1805.545       -1404.314
  19739560.705    19739559.472    19739611.998   105223035.948 8  81840169.549 3
      2142.555        1666.468
 11 10 10  1 21  0.0000000  0 12G02G05G07G10G13G26G28R02R03R12R13R14
  23392451.534    23392451.9654   23392454.7754  122928163.508 5  95788194.04041
     -2259.484       -1760.665
  20811579.973    20811579.9324   20811585.4854  109365602.612 8  85219971.23646
      1587.230        1236.804
  21855545.100    21855544.9854   21855550.4764  114851898.432 7  89494963.50545
     -2011.418       -1567.339
  21485365.351    21485364.0294   21485370.5924  112906369.596 8  87979004.10945
     -2157.634       -1681.273
  24414366.219    24414364.7624   24414370.2574  128298643.479 5  99972858.12241
     -2284.305       -1779.937
  21797491.246    21797491.1134   21797497.8734  114546604.841 7  89257111.55844
      2900.232        2259.919
  22245891.574    22245891.1424   22245896.4384  116903006.669 7  91093241.81044
      2938.085        2289.413
  22630919.400    22630919.430    22630924.686   120762950.003 6  93926764.005 5
     -3301.340       -2567.707
  19616484.819    19616484.365    19616490.956   104603792.981 8  81358556.830 7
      1947.229        1514.512
  23921341.631    23921342.105    23921351.777   127783677.851 4  99387362.526 4
     -3534.115       -2748.756
  19971641.089    19971641.039    19971644.532   106647537.739 8  82948134.476 6
     -1820.386       -1415.854
  19727558.675    19727557.595    19727602.818   105159060.300 8  81790410.616 3
      2122.487        1650.821
 11 10 10  1 21 30.0000000  0 12G02G05G07G10G13G26G28R02R03R12R13R14
  23405369.771    23405368.6404   23405373.9244  122996049.834 5  95841092.45641
     -2266.206       -1765.885
  20802569.472    20802569.1994   20802574.5734  109318250.624 8  85183073.58446
      1569.524        1223.003
  21867050.232    21867050.2364   21867055.4374  114912357.106 7  89542074.16145
     -2019.152       -1573.373
  21497719.683    21497718.1984   21497725.2304  112971292.207 7  88029593.14345
     -2170.546       -1691.336
  24427413.578    24427413.5544   24427420.6874  128367215.570 5 100026290.90941
     -2287.246       -1782.319
  21780954.332    21780953.6464   21780959.9644  114459699.130 7  89189392.84644
      2893.486        2254.653
  22229151.971    22229151.4444   22229156.6904  116815039.817 7  91024696.24044
      2926.316        2280.238
  22649508.506    22649508.286    22649512.864   120862142.317 6  94003913.564 5
     -3311.537       -2575.641
  19605588.460    19605588.044    19605594.615   104545688.811 8  81313364.702 7
      1926.364        1498.279
  23941191.033    23941190.569    23941200.034   127889697.340 4  99469822.064 4
     -3533.841       -2748.525
  19981912.689    19981912.238    19981915.176   106702384.240 8  82990792.877 6
     -1836.077       -1428.064
  19715672.367    19715671.556    19715714.288   105095700.558 8  81741130.826 3
      2101.481        1634.523
 11 10 10  1 22  0.0000000  0 12G02G05G07G10G13G26G28R02R03R12R13R14
  23418323.994    23418322.9794   23418328.4054  123064126.094 5  95894138.88641
     -2272.216       -1770.560
  20793657.866    20793657.7244   20793662.8454  109271420.468 8  85146582.55546
      1552.458        1209.709
  21878597.113    21878596.7034   21878602.1664  114973036.384 7  89589356.70745
     -2026.110       -1578.785
  21510145.387    21510144.1304   21510151.0324  113036590.104 7  88080474.61345
     -2182.659       -1700.773
  24440478.289    24440479.4864   24440483.8874  128435864.940 5 100079783.88441
     -2289.400       -1783.953
  21764453.387    21764452.5504   21764458.2664  114372985.516 7  89121823.80744
      2887.407        2249.931
  22212478.156    22212477.3274   22212483.5364  116727417.415 7  90956419.06244
      2915.144        2271.538
  22668153.653    22668152.828    22668155.941   120961628.634 6  94081291.791 5
     -3320.874       -2582.895
  19594807.201    19594806.890    19594813.689   104488199.129 8  81268650.516 7
      1906.271        1482.653
  23961032.882    23961035.244    23961041.642   127995695.983 4  99552265.411 4
     -3532.814       -2747.745
  19992269.207    19992269.010    19992272.325   106757688.793 8  83033807.521 6
     -1850.904       -1439.590
  19703902.581    19703901.494    19703939.621   105032959.889 8  81692332.532 3
      2081.180        1618.669
 11 10 10  1 22 30.0000000  0 12G02G05G07G10G13G26G28R02R03R12R13R14
  23431314.858    23431313.1374   23431317.1584  123132385.908 5  95947328.33141
     -2278.394       -1775.371
  20784845.194    20784845.0714   20784850.1744  109225110.255 8  85110496.67546
      1534.967        1196.078
  21890184.785    21890184.6374   21890190.0134  115033931.463 7  89636807.41745
     -2033.448       -1584.500
  21522641.634    21522640.3454   21522647.7034  113102258.287 7  88131644.61245
     -2195.146       -1710.501
  24453555.989    24453556.2244   24453561.8724  128504588.624 5 100133334.76741
     -2292.082       -1786.050
  21747988.524    21747987.8614   21747993.6524  114286461.900 7  89054402.81244
      2880.885        2244.848
  22195869.955    22195869.2634   22195874.8904  116640139.123 7  90888410.01244
      2903.473        2262.451
  22686850.385    22686850.212    22686853.540   121061403.578 6  94158894.498 5
     -3330.654       -2590.510
  19584140.920    19584140.308    19584147.078   104431320.813 8  81224411.847 7
      1885.722        1466.676
  23980874.795    23980872.966    23980879.661   128101668.268 4  99634688.269 4
     -3532.015       -2747.111
  20002710.649    20002710.288    20002713.308   106813445.000 8  83077173.459 6
     -1866.084       -1451.399
  19692248.169    19692247.226    19692277.009   104970836.165 8  81644014.109 3
      2060.469        1602.595
 11 10 10  1 23  0.0000000  0 12G02G05G07G10G13G26G28R02R03R12R13R14
  23444337.620    23444338.6294   23444342.5344  123200826.469 5  96000658.63641
     -2284.142       -1779.863
  20776132.067    20776131.9324   20776136.8864  109179322.012 8  85074817.52146
      1517.732        1182.646
  21901813.542    21901813.7484   21901818.6024  115095041.083 7  89684425.29344
     -2040.328       -1589.863
  21535207.982    21535206.7894   21535214.3384  113168295.651 7  88183102.28245
     -2207.198       -1719.896
  24466647.394    24466648.3864   24466650.8304  128573386.888 5 100186943.78541
     -2294.284       -1787.780
  21731560.120    21731559.3874   21731564.9264  114200129.703 7  88987130.97844
      2874.730        2240.050
  22179327.356    22179326.7844   22179332.5704  116553207.898 7  90820671.40844
      2892.091        2253.579
  22705601.208    22705601.099    22705604.748   121161465.120 6  94236720.113 5
     -3339.941       -2597.737
  19573589.211    19573588.724    19573595.207   104375054.243 8  81180648.976 7
      1865.555        1450.985
  24000703.200    24000704.530    24000711.015   128207612.172 4  99717089.027 4
     -3530.821       -2746.186
  20013235.809    20013235.600    20013238.869   106869649.907 8  83120888.389 6
     -1880.735       -1462.795
  19680709.684    19680708.580    19680745.861   104909329.764 8  81596175.736 3
      2040.111        1586.784
 11 10 10  1 23 30.0000000  0 12G02G05G07G10G13G26G28R02R03R12R13R14
  23457395.263    23457395.4864   23457399.4104  123269444.261 5  96054127.02641
     -2290.276       -1784.634
  20767518.310    20767518.1574   20767523.3344  109134057.040 8  85039546.11246
      1500.022        1168.848
  21913482.794    21913482.5614   21913487.4124  115156362.349 7  89732208.09544
     -2047.595       -1595.527
  21547844.995    21547843.3514   21547850.2034  113234700.277 7  88234846.12945
     -2219.631       -1729.580
  24479753.997    24479753.3584   24479758.7354  128642259.283 5 100240610.55341
     -2297.031       -1789.896
  21715167.782    21715167.1144   21715172.7614  114113989.119 7  88920008.44844
      2868.082        2234.874
  22162850.885    22162850.5044   22162856.1164  116466625.761 7  90753204.81544
      2880.163        2244.289
  22724405.841    22724405.737    22724409.861   121261810.449 6  94314766.451 5
     -3349.594       -2605.241
  19563151.748    19563151.531    19563158.167   104319399.333 8  81137361.836 7
      1844.917        1434.934
  24020530.088    24020533.278    24020538.673   128313524.945 3  99799465.596 4
     -3529.947       -2745.493
  20023844.734    20023844.253    20023847.467   106926299.449 8  83164949.148 6
     -1895.765       -1474.484
  19669287.308    19669286.148    19669315.532   104848440.793 8  81548817.701 3
      2019.272        1570.529
 11 10 10  1 24  0.0000000  0 12G02G05G07G10G13G26G28R02R03R12R13R14
  23470487.133    23470485.2434   23470488.2884  123338237.031 5  96107731.78541
     -2295.959       -1789.063
  20759004.497    20759004.6474   20759009.8364  109089317.513 8  85004684.13946
      1482.536        1155.224
  21925192.150    21925191.7154   21925196.8014  115217894.360 7  89780155.10744
     -2054.543       -1600.943
  21560550.865    21560549.4814   21560556.3224  113301471.196 7  88286875.41045
     -2231.758       -1739.034
  24492874.945    24492873.2094   24492880.0734  128711206.140 5 100294335.32141
     -2299.459       -1791.771
  21698812.560    21698812.0414   21698817.8614  114028041.897 7  88853036.59844
      2861.680        2229.889
  22146442.007    22146441.1184   22146446.6704  116380395.886 7  90686012.71744
      2868.400        2235.115
  22743263.171    22743263.241    22743267.839   121362438.158 6  94393032.429 5
     -3358.981       -2612.542
  19552829.187    19552828.964    19552835.874   104264356.002 8  81094550.363 7
      1824.573        1419.113
  24040359.017    24040356.461    24040358.457   128419404.820 3  99881816.622 4
     -3528.972       -2744.779
  20034535.963    20034535.681    20034539.134   106983391.190 8  83209353.829 6
     -1910.387       -1485.855
  19657980.319    19657979.512    19658007.868   104788170.088 8  81501940.551 3
      1998.761        1554.578
 11 10 10  1 24 30.0000000  0 12G02G05G07G10G13G26G28R02R03R12R13R14
  23483610.358    23483610.1214   23483611.6774  123407202.110 5  96161470.80341
     -2301.739       -1793.536
  20750591.827    20750591.5864   20750596.6824  109045105.729 8  84970233.39146
      1464.830        1141.429
  21936941.012    21936940.8754   21936945.5344  115279635.755 7  89828265.26944
     -2061.592       -1606.431
  21573325.890    21573324.9244   21573331.9654  113368607.003 7  88339189.01745
     -2244.000       -1748.572
  24506009.205    24506009.6964   24506013.8804  128780228.018 5 100348118.60741
     -2302.086       -1793.853
  21682495.163    21682494.6614   21682499.2804  113942289.533 7  88786216.58544
      2855.057        2224.729
  22130100.500    22130099.4674   22130105.1094  116294521.573 7  90619097.69944
      2856.447        2225.802
  22762172.982    22762173.276    22762177.718   121463346.462 6  94471516.645 5
     -3368.303       -2619.790
  19542621.989    19542621.865    19542628.328   104209925.558 8  81052215.591 7
      1804.048        1403.145
  24060172.375    24060172.587    24060173.313   128525250.080 3  99964140.759 4
     -3527.693       -2743.755
  20045309.659    20045309.267    20045312.629   107040922.133 8  83254100.125 6
     -1925.102       -1497.301
  19646790.084    19646789.009    19646812.346   104728518.292 8  81455544.680 3
      1977.985        1538.384
 11 10 10  1 25  0.0000000  0 12G02G05G07G10G13G26G28R02R03R12R13R14
  23496765.549    23496765.7114   23496770.6714  123476337.601 5  96215342.59041
     -2307.152       -1797.775
  20742279.491    20742279.2834   20742284.5284  109001424.541 8  84936196.10246
      1447.335        1127.794
  21948729.540    21948729.3864   21948734.6694  115341585.973 7  89876538.16744
     -2068.299       -1611.667
  21586170.703    21586169.2874   21586176.9834  113436106.856 7  88391786.29345
     -2255.904       -1757.849
  24519156.010    24519156.8184   24519162.8104  128849325.996 5 100401961.14641
     -2304.418       -1795.634
  21666214.276    21666213.5314   21666219.3624  113856734.107 7  88719550.04644
      2848.682        2219.750
  22113827.122    22113826.5834   22113832.4554  116209006.394 7  90552462.49944
      2844.638        2216.595
  22781136.679    22781136.613    22781140.251   121564534.194 6  94550218.200 5
     -3377.387       -2626.861
  19532529.619    19532529.527    19532536.161   104156109.160 8  81010358.409 7
      1783.817        1387.409
  24079975.214    24079976.835    24079980.895   128631060.449 3 100046437.726 4
     -3525.912       -2742.389
  20056165.155    20056164.801    20056168.347   107098890.362 8  83299186.527 6
     -1939.376       -1508.406
  19635715.538    19635714.797    19635739.627   104669487.072 8  81409631.530 3
      1957.490        1522.465
 11 10 10  1 25 30.0000000  0 11G02G05G07G10G13G26G28R02R03R13R14
  23509953.444    23509953.7804   23509956.8694  123545637.637 5  96269342.59441
     -2312.643       -1802.039
  20734067.739    20734067.6764   20734072.7504  108958272.721 8  84902571.30246
      1429.651        1114.014
  21960557.434    21960557.0874   21960562.1444  115403740.286 7  89924970.07744
     -2075.082       -1616.946
  21599084.430    21599083.0894   21599090.0854  113503966.832 7  88444664.17745
     -2267.865       -1767.167
  24532320.163    24532318.6174   24532327.1744  128918497.588 5 100455861.08641
     -2306.963       -1797.630
  21649970.138    21649969.6254   21649976.0664  113771374.102 7  88653035.77244
      2842.157        2214.663
  22097622.780    22097622.2304   22097627.7644  116123850.120 7  90486106.97744
      2832.662        2207.266
  22800150.876    22800150.799    22800154.671   121665996.241 6  94629133.109 5
     -3386.508       -2633.952
  19522552.305    19522551.636    19522558.538   104102904.171 8  80968976.756 7
      1763.422        1371.546
  20067101.621    20067101.165    20067104.722   107157289.815 8  83344608.326 6
     -1953.674       -1519.527
  19624757.675    19624756.805    19624771.879   104611073.974 8  81364199.024 3
      1936.909        1506.486
 11 10 10  1 26  0.0000000  0 11G02G05G07G10G13G26G28R02R03R13R14
  23523172.481    23523169.9244   23523175.5324  123615096.129 5  96323466.06741
     -2317.998       -1806.226
  20725956.676    20725956.5744   20725961.4604  108915648.268 8  84869357.44246
      1411.860        1100.155
  21972423.153    21972422.7894   21972427.7764  115466093.867 7  89973557.28144
     -2081.887       -1622.242
  21612065.068    21612063.7804   21612070.4814  113572181.637 7  88497818.56145
     -2279.859       -1776.513
  24545496.444    24545494.4954   24545502.8584  128987739.373 5 100509815.69341
     -2309.396       -1799.527
  21633763.459    21633762.6894   21633769.4644  113686207.262 7  88586672.01744
      2835.512        2209.502
  22081486.393    22081485.2254   22081491.5664  116039052.211 7  90420030.69844
      2820.455        2197.758
  22819215.766    22819214.771    22819219.213   121767727.018 6  94708257.028 5
     -3395.635       -2641.049
  19512688.501    19512688.190    19512695.048   104050307.130 8  80928067.956 7
      1742.970        1355.644
  20078117.382    20078117.095    20078120.625   107216113.880 8  83390360.371 6
     -1967.960       -1530.635
  19613914.880    19613914.005    19613938.501   104553275.799 8  81319244.781 3
      1916.175        1490.358
 11 10 10  1 26 30.0000000  0 11G02G05G07G10G13G26G28R02R03R13R14
  23536417.758    23536417.2234   23536422.0294  123684708.417 5  96377709.39241
     -2322.604       -1809.818
  20717946.144    20717945.9914   20717950.8894  108873551.934 8  84836555.10346
      1394.726        1086.800
  21984325.948    21984325.3104   21984330.3534  115528643.694 7  90022297.41944
     -2087.902       -1626.933
  21625113.103    21625112.0214   21625118.4404  113640748.648 7  88551247.39045
     -2291.073       -1785.251
  24558685.313    24558685.2444   24558692.3514  129057049.749 5 100563823.72841
     -2311.168       -1800.910
  21617593.651    21617593.0534   21617599.1124  113601233.421 7  88520458.65944
      2829.564        2204.853
  22065417.658    22065417.4404   22065423.7664  115954613.815 7  90354234.55744
      2808.941        2188.782
  22838328.454    22838328.000    22838333.016   121869723.170 6  94787587.359 5
     -3403.923       -2647.498
  19502938.659    19502938.309    19502944.964   103998316.647 8  80887630.931 7
      1723.203        1340.271
  20089212.070    20089211.520    20089214.933   107275357.820 8  83436438.988 6
     -1981.428       -1541.110
  19603187.176    19603186.189    19603206.156   104496091.675 8  81274768.161 3
      1896.259        1474.865
 11 10 10  1 27  0.0000000  0 11G02G05G07G10G13G26G28R02R03R13R14
  23549691.894    23549691.3854   23549695.3994  123754466.081 5  96432066.00641
     -2327.786       -1813.866
  20710035.184    20710035.1064   20710040.0024  108831979.635 8  84804161.09946
      1376.879        1072.894
  21996264.392    21996264.2554   21996269.4294  115591382.507 7  90071184.79844
     -2094.527       -1632.098
  21638226.652    21638225.1454   21638232.2234  113709660.833 7  88604945.18645
     -2302.909       -1794.476
  24571887.158    24571885.2634   24571893.9734  129126424.079 4 100617881.62241
     -2313.648       -1802.805
  21601459.686    21601458.9254   21601464.7654  113516448.194 7  88454392.27244
      2822.880        2199.637
  22049418.376    22049417.5624   22049423.3304  115870532.175 7  90288716.40844
      2796.620        2179.187
  22857492.257    22857490.804    22857494.323   121971976.884 6  94867118.007 5
     -3412.844       -2654.435
  19493301.884    19493301.342    19493308.204   103946928.330 8  80847662.259 7
      1702.833        1324.429
  20100383.257    20100382.914    20100386.368   107335012.864 8  83482837.358 6
     -1995.452       -1552.018
  19592573.698    19592572.888    19592607.085   104439516.114 8  81230765.126 3
      1875.578        1458.754
 11 10 10  1 27 30.0000000  0 11G02G05G07G10G13G26G28R02R03R13R14
  23562994.296    23562994.8474   23562997.4754  123824372.388 5  96486538.43641
     -2332.360       -1817.420
  20702225.152    20702225.1894   20702230.2834  108790939.062 8  84772181.43046
      1359.382        1059.257
  22008239.469    22008239.4904   22008244.8184  115654314.630 7  90120222.80644
     -2100.708       -1636.914
  21651406.538    21651405.2004   21651412.4094  113778922.528 7  88658915.32245
     -2314.294       -1803.354
  24585101.828    24585101.6734   24585105.8754  129195868.034 4 100671993.79441
     -2315.769       -1804.466
  21585363.016    21585362.4634   21585367.6944  113431858.721 7  88388478.41644
      2816.621        2194.771
  22033487.915    22033486.7944   22033492.0724  115786816.021 7  90223483.05844
      2784.637        2169.846
  22876702.204    22876701.718    22876706.304   122074492.052 6  94946852.007 4
     -3421.288       -2661.009
  19483778.787    19483778.449    19483785.198   103896147.619 8  80808166.150 7
      1682.836        1308.871
  20111632.570    20111632.023    20111635.638   107395082.238 8  83529557.982 6
     -2008.979       -1562.543
  19582075.917    19582074.934    19582120.098   104383555.731 8  81187240.405 3
      1855.310        1443.039
 11 10 10  1 28  0.0000000  0 11G02G05G07G10G13G26G28R02R03R13R14
  23576323.876    23576323.5134   23576326.4474  123894420.112 5  96541121.03841
     -2337.135       -1821.145
  20694516.328    20694516.3384   20694521.6164  108750428.224 8  84740614.54246
      1341.594        1045.399
  22020251.207    22020251.1564   22020256.3804  115717434.743 7  90169407.29244
     -2107.054       -1641.870
  21664652.570    21664650.9964   21664658.1914  113848528.371 7  88713153.63045
     -2325.827       -1812.335
  24598330.005    24598327.5574   24598337.6584  129265377.962 4 100726157.38341
     -2318.146       -1806.385
  21569302.025    21569301.7934   21569307.6394  113347462.322 7  88322715.00944
      2810.051        2189.649
  22017626.048    22017625.4424   22017631.0214  115703464.052 7  90158533.47744
      2772.356        2160.288
  22895960.979    22895961.021    22895964.731   122177262.606 6  95026784.662 4
     -3429.815       -2667.631
  19474369.067    19474368.576    19474375.504   103845970.615 8  80769139.592 7
      1662.565        1293.107
  20122957.598    20122957.403    20122960.773   107455558.804 8  83576595.315 6
     -2022.563       -1573.103
  19571692.614    19571691.660    19571736.670   104328207.141 8  81144191.535 3
      1834.832        1427.051
 11 10 10  1 28 30.0000000  0 11G02G05G07G10G13G26G28R02R03R13R14
  23589680.318    23589680.2384   23589686.2224  123964607.316 5  96595812.37441
     -2341.923       -1824.868
  20686908.525    20686908.4914   20686913.7544  108710449.096 8  84709461.97346
      1323.716        1031.469
  22032298.276    22032298.2484   22032302.9364  115780741.347 7  90218737.12044
     -2113.359       -1646.770
  21677962.882    21677961.6224   21677968.6844  113918477.013 7  88767659.05345
     -2337.373       -1821.328
  24611569.327    24611566.9634   24611578.0484  129334954.007 4 100780372.40641
     -2320.276       -1807.949
  21553279.192    21553278.8274   21553285.0684  113263260.593 7  88257103.29044
      2803.417        2184.481
  22001834.982    22001833.8404   22001839.3444  115620479.145 7  90093869.93344
      2759.976        2150.638
  22915268.057    22915267.810    22915271.426   122280286.728 6  95106914.501 4
     -3438.414       -2674.309
  19465072.563    19465072.248    19465078.950   103796397.770 8  80730582.940 7
      1642.318        1277.358
  20134358.883    20134358.518    20134361.916   107516439.699 8  83623947.128 6
     -2036.119       -1583.647
  19561423.781    19561422.932    19561466.927   104273470.284 8  81101618.299 3
      1814.318        1411.181
 11 10 10  1 29  0.0000000  0 11G02G05G07G10G13G26G28R02R03R13R14
  23603064.086    23603063.6764   23603067.3624  124034935.293 5  96650613.38441
     -2346.573       -1828.473
  20679403.067    20679402.8124   20679408.1234  108671006.971 8  84678727.84446
      1305.721        1017.441
  22044381.525    22044381.3234   22044385.7844  115844237.209 7  90268214.40944
     -2119.704       -1651.714
  21691339.409    21691338.0694   21691345.1514  113988771.079 7  88822433.63444
     -2348.910       -1830.323
  24624822.664    24624824.0974   24624826.5524  129404601.343 4 100834643.04941
     -2322.812       -1809.981
  21537294.486    21537294.1744   21537299.7944  113179258.886 7  88191647.40744
      2796.676        2179.229
  21986114.612    21986113.8334   21986119.2804  115537868.424 7  90029497.95444
      2747.378        2140.810
  22934623.476    22934623.348    22934626.654   122383566.681 6  95187243.326 4
     -3446.924       -2680.941
  19455890.008    19455889.617    19455896.512   103747433.324 8  80692499.478 7
      1621.969        1261.532
  20145835.738    20145835.364    20145838.956   107577726.058 8  83671614.290 6
     -2049.609       -1594.142
  19551271.348    19551270.407    19551296.456   104219350.276 8  81059525.084 3
      1793.703        1395.074
 11 10 10  1 29 30.0000000  0 11G02G05G07G10G13G26G28R02R03R13R14
  23616472.714    23616471.2694   23616476.0804  124105394.751 5  96705516.85241
     -2350.721       -1831.747
  20671998.841    20671998.8284   20672003.9484  108632097.786 8  84648408.99746
      1288.176        1003.774
  22056498.699    22056498.6444   22056503.4014  115907914.611 7  90317833.16344
     -2125.483       -1656.221
  21704780.221    21704778.9014   21704785.7954  114059402.680 7  88877471.23444
     -2359.884       -1838.868
  24638088.325    24638086.6124   24638092.1404  129474313.285 4 100888964.01241
     -2324.764       -1811.485
  21521345.997    21521346.0524   21521352.3574  113095452.243 7  88126343.54344
      2790.390        2174.329
  21970464.452    21970463.7284   21970469.5414  115455628.294 7  89965414.74744
      2735.238        2131.358
  22954023.614    22954023.941    22954028.337   122487093.599 6  95267764.249 5
     -3454.914       -2687.159
  19446820.601    19446820.178    19446827.105   103699070.851 8  80654884.220 7
      1602.176        1246.137
  20157386.749    20157386.538    20157389.983   107639408.314 8  83719589.373 6
     -2062.551       -1604.205
  19541232.909    19541232.052    19541247.036   104165840.703 8  81017906.589 3
      1773.595        1379.504
 11 10 10  1 30  0.0000000  0 12G02G05G07G10G13G26G28R02R03R13R14R15
  23629902.873    23629902.9234   23629908.3944  124175975.841 5  96760515.08441
     -2355.052       -1835.126
  20664695.169    20664695.0414   20664699.7874  108593716.286 8  84618501.33246
      1270.238         989.794
  22068649.223    22068649.0434   22068653.6204  115971764.753 7  90367586.50544
     -2131.521       -1660.916
  21718284.111    21718282.6124   21718289.1624  114130363.640 7  88932765.47944
     -2371.159       -1847.658
  24651365.954    24651366.3204   24651369.0674  129544083.223 5 100943330.20941
     -2326.938       -1813.189
  21505434.618    21505434.3284   21505440.1124  113011835.073 7  88061187.32144
      2783.728        2169.146
  21954884.620    21954883.6374   21954889.6794  115373754.392 7  89901616.91544
      2722.669        2121.559
  22973470.081    22973469.916    22973473.627   122590858.693 6  95348470.400 5
     -3463.147       -2693.562
  19437862.872    19437862.402    19437869.050   103651303.799 8  80617732.079 7
      1581.979        1230.431
  20169010.193    20169010.095    20169013.485   107701476.625 8  83767864.724 6
     -2075.660       -1614.403
  19531308.339    19531307.106    19531315.800   104112935.012 8  80976757.562 3
      1753.125        1363.546
  23585933.706    23585932.506    23585937.231   126036072.968 5  98028089.970 4
      4313.756        3355.140
 11 10 10  1 30 30.0000000  0 12G02G05G07G10G13G26G28R02R03R13R14R15
  23643361.360    23643359.6994   23643364.8314  124246697.573 5  96815622.90641
     -2359.807       -1838.806
  20657495.887    20657495.9474   20657501.0034  108555885.866 8  84589023.08646
      1251.734         975.381
  22080836.049    22080835.9144   22080841.0504  116035808.009 7  90417490.33544
     -2138.064       -1666.020
  21731853.527    21731852.5154   21731859.2754  114201673.905 7  88988331.91044
     -2382.885       -1856.792
  24664656.840    24664654.6084   24664661.2044  129613933.154 4 100997758.70141
     -2329.754       -1815.378
  21489563.273    21489562.7854   21489568.4744  112928430.316 7  87996196.61544
      2776.558        2163.549
  21939378.346    21939377.8924   21939383.3894  115292271.073 7  89838123.44144
      2709.503        2111.299
  22992962.808    22992963.340    22992967.965   122694881.617 6  95429377.086 5
     -3471.762       -2700.259
  19429020.636    19429020.397    19429027.002   103604153.614 8  80581059.714 7
      1561.305        1214.349
  20180709.591    20180709.334    20180712.641   107763949.832 8  83816454.994 6
     -2089.249       -1624.971
  19521500.813    19521499.788    19521505.587   104060655.301 8  80936095.548 3
      1732.157        1347.219
  23561735.031    23561736.967    23561740.795   125906776.363 5  97927526.045 4
      4305.961        3349.077
 11 10 10  1 31  0.0000000  0 13G02G05G07G10G13G15G26G28R02R03R13R14
                                R15
  23656844.942    23656842.6914   23656847.8624  124317551.553 5  96870833.79741
     -2363.784       -1841.891
  20650401.151    20650401.2244   20650406.3684  108518602.386 8  84559971.01746
      1233.827         961.424
  22093058.640    22093058.4874   22093063.5524  116100037.272 7  90467539.10044
     -2143.901       -1670.571
  21745488.938    21745487.4734   21745494.3804  114273326.290 7  89044164.91144
     -2393.910       -1865.376
  24677963.547    24677963.5524   24677970.8444  129683857.186 4 101052244.92141
     -2331.791       -1816.952
  24890975.105    24890975.6124   24890985.1264  130802957.017 4 101924393.87441
      3375.947        2630.591
  21473731.283    21473730.5334   21473736.8804  112845233.478 7  87931367.92144
      2769.944        2158.396
  21923946.831    21923945.8644   21923951.1454  115211175.446 7  89774932.05144
      2696.887        2101.471
  23012503.003    23012503.235    23012508.611   122799154.783 6  95510478.406 5
     -3479.764       -2706.483
  19420293.454    19420292.842    19420299.814   103557615.517 8  80544863.432 7
      1541.278        1198.769
  20192482.783    20192482.397    20192485.756   107826818.950 8  83865353.191 6
     -2101.997       -1634.886
  19511809.515    19511808.498    19511815.855   104008995.782 8  80895915.924 3
      1711.834        1331.476
  23537578.591    23537581.389    23537587.746   125777707.735 4  97827139.432 4
      4298.662        3343.401
 11 10 10  1 31 30.0000000  0 13G02G05G07G10G13G15G26G28R02R03R13R14
                                R15
  23670349.151    23670348.9324   23670352.7424  124388519.170 5  96926133.19741
     -2367.518       -1844.802
  20643407.727    20643407.6764   20643413.1404  108481851.645 8  84531334.07246
      1216.124         947.628
  22105313.515    22105313.2884   22105318.2604  116164435.355 7  90517719.40444
     -2149.398       -1674.855
  21759185.537    21759184.3564   21759191.3284  114345303.828 7  89100251.29744
     -2404.663       -1873.760
  24691281.084    24691282.4894   24691283.2954  129753840.355 4 101106777.21241
     -2333.718       -1818.457
  24871701.062    24871699.7744   24871704.9874  130701665.093 4 101845465.15241
      3376.754        2631.247
  21457936.327    21457935.7674   21457942.0794  112762230.367 7  87866690.19844
      2763.535        2153.396
  21908585.516    21908585.0754   21908590.7684  115130454.656 7  89712032.74844
      2684.468        2091.791
  23032088.156    23032087.748    23032091.785   122903659.869 5  95591760.119 5
     -3487.407       -2712.425
  19411677.739    19411677.258    19411683.733   103511672.987 8  80509130.373 7
      1521.495        1183.387
  20204326.931    20204326.568    20204329.615   107890065.346 8  83914544.836 6
     -2114.478       -1644.594
  19502231.855    19502230.770    19502229.089   103957941.301 8  80856206.766 3
      1691.737        1315.834
  23513469.895    23513468.774    23513474.947   125648854.002 5  97726919.959 4
      4291.476        3337.809
 11 10 10  1 32  0.0000000  0 13G02G05G07G10G13G15G26G28R02R03R13R14
                                R15
  23683874.943    23683875.1784   23683878.5524  124459600.527 5  96981521.25141
     -2371.324       -1847.778
  20636516.574    20636516.5474   20636521.8134  108445638.263 8  84503115.84546
      1198.054         933.547
  22117600.218    22117599.9014   22117605.1814  116229003.653 7  90568032.34744
     -2155.195       -1679.372
  21772944.021    21772943.1174   21772949.9224  114417607.442 7  89156591.77144
     -2415.651       -1882.325
  24704609.120    24704608.3354   24704617.0454  129823885.584 4 101161357.88141
     -2336.009       -1820.261
  24852422.711    24852422.9264   24852427.3964  130600355.280 4 101766522.42341
      3377.194        2631.581
  21442179.610    21442178.7824   21442184.9144  112679425.299 7  87802166.78744
      2756.765        2148.128
  21893297.540    21893296.7614   21893302.2034  115050113.920 7  89649429.58944
      2671.579        2081.740
  23051715.962    23051716.051    23051719.475   123008397.944 5  95673223.031 5
     -3495.254       -2718.537
  19403173.946    19403173.793    19403180.653   103466329.084 8  80473862.898 7
      1501.371        1167.731
  20216241.703    20216241.320    20216243.883   107953688.672 8  83964029.645 6
     -2127.128       -1654.434
  19492767.927    19492766.915    19492767.062   103907494.540 8  80816970.479 3
      1671.328        1299.932
  23489397.906    23489398.851    23489403.121   125520220.056 5  97626871.436 4
      4284.011        3332.006
 11 10 10  1 32 30.0000000  0 13G02G05G07G10G13G15G26G28R02R03R13R14
                                R15
  23697425.487    23697424.4624   23697428.2974  124530804.639 5  97037004.98341
     -2375.329       -1850.930
  20629730.373    20629730.0894   20629735.3124  108409975.633 8  84475326.77946
      1179.690         919.236
  22129921.446    22129921.2024   22129926.5464  116293752.825 7  90618486.23644
     -2161.165       -1684.032
  21786767.519    21786765.9604   21786772.9914  114490247.908 7  89213194.71944
     -2426.823       -1891.029
  24717952.079    24717954.2064   24717959.3774  129894004.810 4 101215996.24341
     -2338.466       -1822.222
  24833142.162    24833140.7084   24833146.1074  130499039.833 4 101687575.36941
      3377.332        2631.676
  21426462.380    21426461.6384   21426467.4704  112596831.371 7  87737807.90044
      2749.755        2142.668
  21878084.539    21878083.4124   21878089.3004  114970167.767 7  89587133.89644
      2658.401        2071.487
  23071389.834    23071389.514    23071393.547   123113378.840 5  95754874.797 5
     -3503.215       -2724.719
  19394785.181    19394784.958    19394791.783   103421595.817 8  80439070.361 7
      1481.066        1151.937
  20228228.726    20228228.295    20228231.418   108017698.407 8  84013814.988 6
     -2139.875       -1664.347
  19483420.724    19483419.691    19483408.152   103857667.787 8  80778216.220 3
      1650.743        1283.862
  23465368.653    23465369.460    23465374.354   125391820.058 5  97527004.835 4
      4276.256        3325.975
 11 10 10  1 33  0.0000000  0 13G02G05G07G10G13G15G26G28R02R03R13R14
                                R15
  23710996.092    23710996.2304   23711002.0104  124602126.046 5  97092580.04441
     -2379.291       -1853.953
  20623048.465    20623048.3904   20623053.4244  108374862.756 8  84447966.09646
      1161.271         904.889
  22142276.174    22142275.9424   22142281.2234  116358678.218 7  90669077.43644
     -2167.085       -1688.635
  21800653.532    21800652.6174   21800659.3944  114563220.562 7  89270056.51144
     -2437.927       -1899.680
  24731310.796    24731306.6374   24731315.3134  129964195.706 4 101270690.37841
     -2340.905       -1824.122
  24813861.117    24813859.4024   24813867.0494  130397717.138 5 101608622.68141
      3377.500        2631.797
  21410784.595    21410784.6254   21410790.5164  112514447.082 7  87673612.35244
      2742.662        2137.145
  21862945.955    21862945.2754   21862951.2564  114890616.318 7  89525145.77044
      2645.144        2061.151
  23091107.399    23091107.088    23091111.317   123218597.532 5  95836711.509 5
     -3511.202       -2730.932
  19386510.268    19386510.132    19386516.787   103377470.272 8  80404750.513 7
      1460.771        1136.150
  20240286.775    20240286.252    20240289.673   108082088.058 8  84063895.813 6
     -2152.592       -1674.236
  19474188.825    19474187.838    19474175.281   103808458.428 8  80739942.351 3
      1630.035        1267.825
  23441384.678    23441383.536    23441389.393   125263654.091 4  97427320.264 4
      4268.271        3319.757
 11 10 10  1 33 30.0000000  0 13G02G05G07G10G13G15G26G28R02R03R13R14
                                R15
  23724590.201    23724589.9914   23724595.4754  124673558.744 5  97148241.86341
     -2382.992       -1856.890
  20616471.065    20616470.9084   20616475.7104  108340297.691 8  84421032.27646
      1142.927         890.592
  22154663.618    22154663.4644   22154668.6434  116423775.252 7  90719802.39244
     -2172.860       -1693.145
  21814602.248    21814600.9184   21814608.1974  114636520.583 7  89327173.40444
     -2448.875       -1908.215
  24744678.978    24744677.4544   24744687.9554  130034455.435 4 101325438.2054
     -2343.268       -1825.949
  24794577.678    24794574.8504   24794583.5134  130296384.618 5 101529662.29841
      3377.799        2632.051
  21395147.806    21395147.0824   21395152.6464  112432270.647 7  87609578.79344
      2735.641        2131.663
  21847883.032    21847882.3124   21847888.3854  114811458.882 7  89463464.66844
      2631.873        2050.807
  23110868.548    23110868.779    23110872.026   123324048.680 5  95918729.027 5
     -3518.964       -2736.964
  19378348.404    19378348.254    19378355.354   103333949.314 8  80370900.896 7
      1440.539        1120.417
  20252414.905    20252414.424    20252417.475   108146851.739 8  84114267.562 6
     -2165.081       -1683.952
  19465072.240    19465071.592    19465058.847   103759863.231 8  80702145.931 3
      1609.476        1251.797
  23417443.366    23417443.534    23417448.913   125135720.333 5  97327816.293 4
      4260.488        3313.716
 11 10 10  1 34  0.0000000  0 13G02G05G07G10G13G15G26G28R02R03R13R14
                                R15
  23738205.262    23738203.2504   23738206.9174  124745098.912 5  97203987.43341
     -2386.504       -1859.606
  20609997.816    20609997.9224   20610002.7844  108306281.412 8  84394526.07946
      1124.662         876.364
  22167083.396    22167083.2984   22167088.3664  116489041.799 7  90770659.43744
     -2178.424       -1697.474
  21828612.750    21828611.3564   21828618.1684  114710145.843 7  89384543.72344
     -2459.642       -1916.604
  24758063.300    24758060.2914   24758067.5204  130104783.079 4 101380238.87941
     -2345.363       -1827.553
  24775292.505    24775291.2864   24775298.3574  130195042.315 4 101450694.25641
      3378.259        2632.381
  21379549.235    21379548.5754   21379554.5384  112350302.292 7  87545707.36544
      2728.709        2126.270
  21832895.581    21832894.1214   21832900.5994  114732697.198 7  89402091.94344
      2618.722        2040.566
  23130672.747    23130672.793    23130677.073   123429729.067 5  96000924.826 5
     -3526.549       -2742.865
  19370300.391    19370299.846    19370306.570   103291030.890 8  80337519.892 7
      1420.500        1104.835
  20264612.542    20264611.894    20264615.354   108211985.341 8  84164927.021 6
     -2177.319       -1693.468
  19456071.189    19456070.385    19456063.187   103711881.410 8  80664826.622 3
      1589.141        1235.952
  23393545.946    23393546.332    23393551.219   125008021.783 5  97228495.250 4
      4252.686        3307.645
 11 10 10  1 34 30.0000000  0 13G02G05G07G10G13G15G26G28R02R03R13R14
                                R15
  23751836.752    23751835.9964   23751840.2074  124816741.184 5  97259812.54541
     -2389.828       -1862.212
  20603629.273    20603629.1444   20603633.9664  108272812.229 8  84368446.20046
      1106.328         862.072
  22179534.815    22179534.9344   22179539.4754  116554473.446 7  90821645.15444
     -2183.975       -1701.802
  21842683.868    21842682.5034   21842689.5354  114784091.513 7  89442163.72644
     -2470.359       -1924.958
  24771458.130    24771454.4194   24771465.8624  130175175.923 4 101435090.49441
     -2347.723       -1829.361
  24756005.420    24756004.5114   24756010.7514  130093688.222 4 101371717.05441
      3378.408        2632.550
  21363990.552    21363989.8944   21363996.1484  112268540.787 7  87481997.11444
      2721.768        2120.847
  21817982.971    21817981.9454   21817987.7134  114654330.717 7  89341027.17144
      2605.394        2030.169
  23150520.756    23150519.452    23150524.205   123535633.591 6  96083294.966 5
     -3534.040       -2748.694
  19362364.177    19362363.808    19362370.501   103248712.698 8  80304605.745 7
      1400.433        1089.230
  20276877.816    20276877.336    20276880.680   108277483.005 8  84215869.648 6
     -2189.461       -1702.914
  19447184.412    19447183.593    19447188.650   103664510.077 8  80627982.132 3
      1568.665        1220.100
  23369689.292    23369691.251    23369697.736   124880557.259 4  97129356.272 4
      4244.763        3301.480
