     2.11           OBSERVATION DATA    G (GPS)             RINEX VERSION / TYPE
teqc  2013Mar15     IG&GA WUT           20150120 00:05:01UTCPGM / RUN BY / DATE
Linux 2.4.21-27.ELsmp|Opteron|gcc -static|Linux x86_64|=+   COMMENT
BIT 2 OF LLI FLAGS DATA COLLECTED UNDER A/S CONDITION       COMMENT
JOZE                                                        MARKER NAME
12204M001                                                   MARKER NUMBER
Automatic           IG&GA WUT                               OBSERVER / AGENCY
4002A27500          TRIMBLE 4000SSI     7.29                REC # / TYPE / VERS
23525               TRM14532.00     NONE                    ANT # / TYPE
  3664938.4340  1409153.9645  5009572.3074                  APPROX POSITION XYZ
        0.1980        0.0000        0.0000                  ANTENNA: DELTA H/E/N
     1     1                                                WAVELENGTH FACT L1/2
     4    L1    L2    C1    P2                              # / TYPES OF OBSERV
    16                                                      LEAP SECONDS
 SNR is mapped to RINEX snr flag value [1-9]                COMMENT
  L1: 3 -> 1; 8 -> 5; 40 -> 9                               COMMENT
  L2: 1 -> 1; 5 -> 5; 60 -> 9                               COMMENT
  2015     1    19     0     0    0.0000000     GPS         TIME OF FIRST OBS
                                                            END OF HEADER
 15  1 19  0  0  0.0000000  0  7G02G29G10G31G05G12G25
    111049.72347    194474.82046  22528844.4724   22528845.5154
 -12043529.28347  -9241649.73747  20323316.6004   20323320.5514
    340909.42345    285730.94545  24204951.9124   24204955.3934
  -7715411.48546  -5780746.92646  21784745.9024   21784749.0904
  -2601505.20045  -1921461.44045  24683688.9154   24683693.3934
   9999136.27147   7898814.61746  22638811.2234   22638814.5754
  -9732395.46847  -4620120.46046  20483110.9564   20483117.3454
 15  1 19  0  0 30.0000000  0  7G02G29G10G31G05G12G25
    197056.06647    261492.75246  22545210.9774   22545212.1844
 -12037901.25347  -9237264.25047  20324387.1984   20324391.2074
    367476.71145    306432.74145  24210007.8574   24210015.1374
  -7708469.12547  -5775337.30246  21786067.1714   21786070.4534
  -2650870.06545  -1959927.50245  24674294.9314   24674300.1944
  10120883.28047   7993682.36546  22661978.8234   22661982.7034
  -9669366.72047  -4571007.16246  20495104.7414   20495111.1884
 15  1 19  0  1  0.0000000  0  7G02G29G10G31G05G12G25
    283494.36947    328847.26146  22561659.5574   22561660.8474
 -12031838.48847  -9232540.01647  20325541.1154   20325545.2414
    394659.02745    327613.72745  24215180.1034   24215184.2174
  -7700958.20247  -5769484.64146  21787496.4364   21787499.7884
  -2699974.61946  -1998190.73845  24664951.4634   24664954.8864
  10242863.30547   8088731.68946  22685191.0404   22685194.8264
  -9605888.36847  -4521543.54046  20507184.4804   20507191.0924
 15  1 19  0  1 30.0000000  0  7G02G29G10G31G05G12G25
    370363.93647    396537.82846  22578190.3614   22578191.5804
 -12025340.47747  -9227476.61847  20326777.9994   20326781.6334
    422457.82345    349275.12245  24220470.7394   24220472.5324
  -7692876.55647  -5763187.27146  21789034.3564   21789037.5564
  -2748815.07345  -2036248.21645  24655657.2084   24655661.4164
  10365076.37947   8183962.61646  22708447.3714   22708450.6534
  -9541959.76547  -4471729.06246  20519349.4594   20519356.0354
 15  1 19  0  2  0.0000000  0  7G02G29G10G31G05G12G25
    457661.84047    464562.17146  22594802.8184   22594803.8734
 -12018407.63847  -9222074.38847  20328097.1254   20328100.6774
    450872.88545    371416.82145  24225877.6724   24225880.0524
  -7684223.97547  -5756444.99346  21790680.9354   21790684.3814
  -2797389.26145  -2074098.21045  24646413.5684   24646418.5744
  10487520.37447   8279373.47846  22731747.7204   22731751.5644
  -9477581.83947  -4421564.46746  20531600.2304   20531606.3024
 15  1 19  0  2 30.0000000  0  7G02G29G10G31G05G12G25
    545389.56647    532921.44746  22611496.3464   22611497.3424
 -12011036.87947  -9216330.92647  20329499.7144   20329503.6174
    479907.79345    394041.38845  24231403.4554   24231408.0734
  -7674996.39647  -5749254.67646  21792436.7524   21792439.9874
  -2845690.88945  -2111735.79645  24637222.2914   24637227.7064
  10610197.81147   8374966.23346  22755092.5164   22755096.0924
  -9412751.70847  -4371047.52046  20543936.8944   20543942.8024
 15  1 19  0  3  0.0000000  0  7G02G29G10G31G05G12G25
    633541.34247    601611.14746  22628271.3774   22628272.5964
 -12003232.06447  -9210249.23447  20330984.6754   20330989.0474
    509558.86745    417146.15445  24237044.9744   24237050.9524
  -7665196.90647  -5741618.72246  21794301.5664   21794304.9774
  -2893720.45545  -2149161.37145  24628081.9534   24628087.3924
  10733103.60147   8470736.92746  22778480.9264   22778484.3264
  -9347473.59147  -4320181.45946  20556359.0204   20556365.7484
 15  1 19  0  3 30.0000000  0  7G02G29G10G31G05G12G25
    722114.40847    670629.13246  22645126.0814   22645127.3354
 -11994994.34647  -9203830.21647  20332552.1974   20332556.6164
    539825.54544    440730.62045  24242805.0504   24242811.8134
  -7654825.38046  -5733537.00646  21796274.9114   21796278.8964
  -2941476.20845  -2186373.61945  24618994.9884   24619000.3694
  10856234.94046   8566683.39646  22801911.7854   22801915.4894
  -9281748.88547  -4268967.41246  20568866.0784   20568872.5724
 15  1 19  0  4  0.0000000  0  7G02G29G10G31G05G12G25
    811106.73047    739973.79946  22662060.4954   22662061.8794
 -11986324.22847  -9197074.27547  20334202.2564   20334206.3474
    570707.98244    464794.82845  24248680.8064   24248688.0744
  -7643881.77447  -5725009.52646  21798357.6504   21798361.4254
  -2988955.59146  -2223370.50945  24609960.2644   24609964.6954
  10979590.25646   8662804.37646  22825385.2514   22825389.9054
  -9215578.12447  -4217405.77646  20581457.6594   20581463.8144
 15  1 19  0  4 30.0000000  0  7G02G29G10G31G05G12G25
    900521.96647    809648.02346  22679075.7434   22679076.8684
 -11977216.06447  -9189977.01147  20335935.5444   20335939.5534
    602212.29645    489343.59845  24254676.7424   24254681.1144
  -7632358.92647  -5716030.69446  21800550.4874   21800553.9104
  -3036149.94745  -2260145.28445  24600979.0764   24600983.4014
  11103175.32547   8759104.37646  22848903.1594   22848907.1684
  -9148955.82647  -4165492.27946  20594135.8104   20594142.2454
 15  1 19  0  5  0.0000000  0  7G02G29G10G31G05G12G25
    990355.96847    879648.54646  22696170.9784   22696172.2094
 -11967672.12747  -9182540.16047  20337751.6394   20337755.6714
    634336.52545    514375.50645  24260789.5474   24260794.6354
  -7620258.87246  -5706602.08746  21802852.9914   21802856.2734
  -3083058.15745  -2296697.09145  24592052.3124   24592056.4504
  11226985.70246   8855579.95546  22872463.1974   22872466.9484
  -9081884.90147  -4113229.22946  20606898.8984   20606905.6154
 15  1 19  0  5 30.0000000  0  7G02G29G10G31G05G12G25
   1080606.74047    949973.81446  22713344.8024   22713346.1264
 -11957692.59447  -9174763.89847  20339650.4854   20339654.8344
    667080.84345    539890.60645  24267020.9414   24267026.8844
  -7607580.21747  -5696722.61746  21805265.9214   21805269.5544
  -3129677.39545  -2333023.74945  24583181.2324   24583185.0654
  11351020.33746   8952230.26146  22896066.6094   22896070.8644
  -9014365.67047  -4060616.86246  20619747.3704   20619754.2154
 15  1 19  0  6  0.0000000  0  7G02G29G10G31G05G12G25
   1171270.69347   1020621.04046  22730597.7664   22730598.6224
 -11947279.64647  -9166649.90547  20341632.3004   20341636.1804
    700443.50345    565887.47845  24273369.2444   24273374.6484
  -7594324.78447  -5686393.71746  21807788.0424   21807791.3594
  -3176007.16445  -2369124.81245  24574364.6964   24574370.0764
  11475275.91246   9049052.74246  22919711.7914   22919715.6244
  -8946400.39647  -4007656.91446  20632680.6444   20632687.1854
 15  1 19  0  6 30.0000000  0  7G02G29G10G31G05G12G25
   1262347.64247   1091590.09746  22747929.3844   22747930.1694
 -11936431.81348  -9158197.05947  20343696.6064   20343700.1344
    734426.67845    592367.90845  24279835.7104   24279840.5044
  -7580489.87246  -5675613.26246  21810420.7434   21810424.4474
  -3222042.13545  -2404996.15945  24565604.8554   24565606.5204
  11599753.24247   9146047.99846  22943398.8794   22943402.1614
  -8877987.63047  -3954348.28646  20645699.1804   20645705.7804
 15  1 19  0  7  0.0000000  0  7G02G29G10G31G05G12G25
   1353834.78847   1162878.79646  22765338.4414   22765339.3794
 -11925149.54847  -9149405.67247  20345843.2954   20345847.2344
    769029.62945    619331.25745  24286420.6704   24286425.4294
  -7566075.61846  -5664381.36046  21813163.8084   21813167.3834
  -3267780.24745  -2440636.20145  24556900.7744   24556906.7174
  11724450.20647   9243214.40246  22967127.9664   22967131.6354
  -8809128.60347  -3900691.90446  20658802.6344   20658809.2224
 15  1 19  0  7 30.0000000  0  7G02G29G10G31G05G12G25
   1445728.71147   1234484.44746  22782825.4464   22782825.9154
 -11913434.70747  -9140277.21347  20348072.6554   20348076.7234
    804251.05645    646776.48445  24293123.2724   24293127.3404
  -7551082.79247  -5652698.64746  21816017.0384   21816020.3554
  -3313220.15045  -2476043.87145  24548253.6784   24548258.5314
  11849364.30146   9340550.01046  22990898.4354   22990901.8464
  -8739825.19347  -3846689.25546  20671990.8674   20671997.1504
 15  1 19  0  8  0.0000000  0  7G02G29G10G31G05G12G25
   1538027.67247   1306405.73546  22800389.5744   22800391.0634
 -11901287.17348  -9130811.58947  20350384.3924   20350387.5334
    840091.30244    674703.96045  24299942.9534   24299947.8414
  -7535510.53947  -5640564.43046  21818979.9214   21818983.0864
  -3358358.72845  -2511216.75845  24539664.4004   24539667.2494
  11974494.45046   9438053.98646  23014709.7774   23014713.5984
  -8670077.65247  -3792340.53246  20685263.2874   20685269.4414
 15  1 19  0  8 30.0000000  0  7G02G29G10G31G05G12G25
   1630736.11447   1378646.08746  22818031.1004   22818032.7884
 -11888701.11647  -9121004.26247  20352779.1354   20352782.7814
    876556.87944    703118.65845  24306882.3994   24306887.3704
  -7519351.75847  -5627973.16546  21822055.1644   21822058.7744
  -3403186.94045  -2546147.79445  24531132.9494   24531139.9244
  12099845.77946   9535730.28446  23038563.7614   23038567.7824
  -8599880.10747  -3737641.15846  20698621.4104   20698627.6354
 15  1 19  0  9  0.0000000  0  7G02G29G10G31G05G12G25
   1723847.54546   1451200.45146  22835749.7654   22835751.1954
 -11875681.30747  -9110858.95247  20355256.6824   20355260.9964
    913643.11044    732017.01945  24313938.9974   24313944.3194
  -7502610.72147  -5614928.20546  21825240.8184   21825244.3354
  -3447705.83345  -2580837.78945  24522662.4124   24522667.3114
  12225412.34446   9633574.33746  23062457.7884   23062462.5244
  -8529237.59047  -3682595.05946  20712064.2734   20712070.4044
 15  1 19  0  9 30.0000000  0  7G02G29G10G31G05G12G25
   1817361.88747   1524068.78646  22853544.6824   22853546.4284
 -11862225.87147  -9100374.18847  20357817.2504   20357821.5764
    951352.06445    761400.62345  24321115.6584   24321119.9834
  -7485284.73647  -5601427.44446  21828537.9544   21828541.0844
  -3491911.01145  -2615283.31045  24514249.8584   24514254.0784
  12351194.75546   9731586.56246  23086393.5524   23086398.1704
  -8458148.71647  -3627201.13146  20725592.1324   20725598.5204
 15  1 19  0 10  0.0000000  0  7G02G29G10G31G05G12G25
   1911275.48546   1597248.21146  22871415.9414   22871417.7114
 -11848336.28347  -9089551.13847  20360460.3184   20360464.1864
    989682.21245    791268.27845  24328409.2494   24328415.3094
  -7467374.93247  -5587471.73546  21831945.8544   21831949.3594
  -3535800.94646  -2649483.20045  24505898.1734   24505901.4204
  12477190.02046   9829764.65146  23110369.8704   23110373.2464
  -8386615.41247  -3571460.88646  20739204.3694   20739211.0274
 15  1 19  0 10 30.0000000  0  7G02G29G10G31G05G12G25
   2005586.49547   1670737.31146  22889362.8024   22889363.8454
 -11834013.05447  -9078390.18247  20363186.1194   20363190.2224
   1028633.53045    821619.90845  24335822.2494   24335827.1374
  -7448880.23747  -5573060.29646  21835465.7014   21835468.8894
  -3579372.66045  -2683435.13745  24497606.1134   24497612.1504
  12603397.71546   9928108.26346  23134386.5584   23134390.3334
  -8314638.03547  -3515374.64346  20752901.2644   20752907.5594
 15  1 19  0 11  0.0000000  0  7G02G29G10G31G05G12G25
   2100295.78747   1744536.78646  22907385.3024   22907386.1114
 -11819253.49647  -9066889.22447  20365994.6184   20365998.5684
   1068208.98645    852458.00345  24343352.2884   24343356.7424
  -7429797.71247  -5558190.80946  21839096.8294   21839099.4674
  -3622620.16245  -2717134.40045  24489376.2864   24489381.2794
  12729819.07346  10026618.38446  23158443.3844   23158448.3074
  -8242214.32047  -3458940.58946  20766682.9644   20766689.0364
 15  1 19  0 11 30.0000000  0  7G02G29G10G31G05G12G25
   2195402.39946   1818645.83146  22925483.4504   22925484.6814
 -11804056.72348  -9055047.57647  20368886.3334   20368890.1424
   1108409.37343    883782.95845  24351001.9874   24351006.4654
  -7410125.79346  -5542862.05146  21842840.2464   21842843.7044
  -3665539.78145  -2750578.16545  24481209.3174   24481211.7204
  12856453.99746  10125294.91746  23182541.7654   23182545.4694
  -8169343.78347  -3402158.36846  20780549.8234   20780556.2474
 15  1 19  0 12  0.0000000  0  7G02G29G10G31G05G12G25
   2290904.52546   1893063.07746  22943656.7324   22943658.3624
 -11788423.28948  -9042865.68547  20371861.4574   20371865.1974
   1149234.81844    915595.02545  24358771.1824   24358776.9264
  -7389863.85146  -5527073.51746  21846695.5144   21846699.4064
  -3708128.42945  -2783764.05645  24473104.8284   24473110.0914
  12983301.05046  10224136.76846  23206679.9614   23206683.3964
  -8096026.73047  -3345028.22446  20794501.4604   20794507.9074
 15  1 19  0 12 30.0000000  0  7G02G29G10G31G05G12G25
   2386797.40847   1967784.81446  22961905.0284   22961906.2244
 -11772355.70848  -9030345.47747  20374919.1004   20374922.8984
   1190682.33745    947891.76345  24366658.8234   24366663.2664
  -7369014.26246  -5510827.09546  21850663.1394   21850666.9844
  -3750386.23446  -2816692.15045  24465063.7604   24465068.4494
  13110356.26446  10323140.81346  23230857.4504   23230861.9054
  -8022266.56247  -3287552.77946  20808537.6264   20808543.9564
 15  1 19  0 13  0.0000000  0  7G02G29G10G31G05G12G25
   2483082.41246   2042812.10446  22980226.8244   22980227.6324
 -11755850.83548  -9017484.52747  20378059.6514   20378063.5204
   1232755.31845    980675.95345  24374664.8524   24374670.1624
  -7347572.79546  -5494119.46546  21854743.0914   21854746.4914
  -3792306.98446  -2849357.60345  24457086.4614   24457089.9194
  13237622.06946  10422308.92446  23255075.4064   23255079.5554
  -7948060.20347  -3229729.65646  20822658.9424   20822665.0614
 15  1 19  0 13 30.0000000  0  7G02G29G10G31G05G12G25
   2579753.98546   2118140.62146  22998622.6234   22998623.9364
 -11738912.62348  -9004285.92547  20381282.9264   20381286.5724
   1275449.89545   1013944.44045  24382789.4534   24382795.1034
  -7325542.65446  -5476953.11346  21858935.3614   21858939.3474
  -3833890.85146  -2881760.52745  24449173.3254   24449176.9124
  13365093.74746  10521637.48646  23279332.5724   23279337.1674
  -7873411.78847  -3171562.06846  20836864.0054   20836869.9834
 15  1 19  0 14  0.0000000  0  8G02G29G10G31G05G12G25G21
   2676813.64146   2193771.53146  23017092.6414   23017093.1684
 -11721537.86248  -8990747.15747  20384589.1424   20384592.9054
   1318769.67745   1047700.12045  24391032.7594   24391037.3664
  -7302920.32946  -5459325.34146  21863240.3924   21863243.4404
  -3875131.47945  -2913896.02545  24441325.0724   24441327.9324
  13492773.61146  10621128.25846  23303629.1054   23303633.9474
  -7798318.38947  -3113047.73446  20851153.7074   20851160.3414
    -38803.05242                  24790327.3014
 15  1 19  0 14 30.0000000  0  8G02G29G10G31G05G12G25G21
   1198842.45246   1042105.68346  22735844.1404   22735846.6374
 -13279146.49748 -10204468.15647  20088186.1184   20088190.3274
   -212704.13245   -145656.05745  24099602.6284   24099606.8834
  -8855124.55546  -6668835.13946  21567865.4324   21567868.8904
  -5491447.46145  -4173362.95345  24133750.1644   24133753.7284
  12045243.90146   9493183.00646  23028173.7024   23028178.2394
  -9298197.98347  -4281785.10246  20565736.0954   20565742.3434
  -1682621.37743                  24477520.1594
 15  1 19  0 15  0.0000000  0  8G02G29G10G31G05G12G25G21
   1296672.92646   1118337.21946  22754461.0854   22754462.3984
 -13260898.24848 -10190248.73047  20091658.6954   20091662.9504
   -168133.92045   -110925.98945  24108084.2084   24108089.4014
  -8831315.42846  -6650282.57546  21572396.6004   21572399.2724
  -5531992.77445  -4204956.68145  24126034.1974   24126037.3624
  12173336.56547   9592995.43146  23052548.8804   23052552.4444
  -9222215.27647  -4222577.81346  20580195.2174   20580201.4304
  -1750909.78743  -1238234.37945  24464525.2834   24464529.1164
 15  1 19  0 15 30.0000000  0  8G02G29G10G31G05G12G25G21
   1394883.40647   1194864.89146  22773149.8894   22773150.8974
 -13242216.50348 -10175691.53947  20095213.9304   20095217.8574
   -122941.36645    -75711.02645  24116683.8254   24116688.0564
  -8806914.74746  -6631269.06346  21577039.8844   21577042.5454
  -5572188.14146  -4236277.65845  24118385.5384   24118390.5674
  12301631.84346   9692965.73346  23076962.7794   23076965.1714
  -9145791.23747  -4163026.62246  20594738.1304   20594744.5424
  -1819092.15043  -1291363.58345  24451550.4454   24451555.1344
 15  1 19  0 16  0.0000000  0  8G02G29G10G31G05G12G25G21
   1493471.88447   1271687.10846  22791910.5264   22791910.9724
 -13223100.96948 -10160796.32747  20098851.2954   20098855.1754
    -77126.74745    -40011.28745  24125401.3364   24125405.5674
  -8781922.22947  -6611794.37646  21581795.9654   21581798.8954
  -5612030.71745  -4267323.77445  24110803.9224   24110807.5094
  12430127.89746   9793092.50046  23101414.8184   23101418.7344
  -9068926.32647  -4103131.89246  20609365.0474   20609371.3414
  -1887165.90243  -1344408.03543  24438596.2984   24438594.6804
 15  1 19  0 16 30.0000000  0  8G02G29G10G31G05G12G25G21
   1592435.99146   1348802.00846  22810742.8994   22810744.5054
 -13203552.68348 -10145563.89947  20102571.2804   20102575.0314
    -30690.98745     -3827.59445  24134238.4064   24134242.3334
  -8756337.81747  -6591858.48746  21586664.7724   21586667.6324
  -5651518.26545  -4298093.22745  24103289.3364   24103291.0594
  12558823.24846   9893374.55746  23125904.4404   23125908.8594
  -8991621.75347  -4042894.57146  20624075.6304   20624082.1354
  -1955130.14843  -1397367.04245  24425664.4014   24425667.8474
 15  1 19  0 17  0.0000000  0  8G02G29G10G31G05G12G25G21
   1691773.23646   1426207.67046  22829646.0454   22829647.6044
 -13183572.58248 -10129994.98347  20106373.4844   20106377.1534
     16365.26945     32839.63745  24143192.6254   24143197.3604
  -8730162.06147  -6571461.78946  21591645.6904   21591648.7504
  -5690648.46146  -4328584.24645  24095843.2444   24095847.2774
  12687716.44146   9993810.75446  23150432.1634   23150435.7264
  -8913878.45647  -3982315.38446  20638869.5984   20638875.9524
  -2022983.25144  -1450239.64345  24412751.9494   24412754.6104
 15  1 19  0 17 30.0000000  0  8G02G29G10G31G05G12G25G21
   1791481.72746   1503902.59746  22848619.7974   22848621.0634
 -13163160.41848 -10114089.39447  20110257.7194   20110261.5414
     64042.43045     69990.71545  24152265.5654   24152272.2934
  -8703393.87047  -6550603.46546  21596739.4454   21596742.8214
  -5729417.95146  -4358794.20845  24088465.7324   24088468.5694
  12816806.57046  10094400.42446  23174997.1644   23175001.7944
  -8835696.46847  -3921394.36346  20653747.1584   20653753.1364
  -2090722.69643  -1503023.57645  24399861.7954   24399865.6284
 15  1 19  0 18  0.0000000  0  8G02G29G10G31G05G12G25G21
   1891561.43147   1581886.80146  22867664.4434   22867665.6744
 -13142314.47848 -10097845.80547  20114224.5634   20114227.9634
    112341.64545    107626.47845  24161457.1394   24161462.6954
  -8676031.51047  -6529282.14546  21601946.4834   21601949.6014
  -5767822.20346  -4388719.51245  24081157.5974   24081162.2394
  12946094.02246  10195143.87446  23199599.9374   23199604.3914
  -8757074.66747  -3860130.65146  20668708.6344   20668714.7644
  -2158345.01343  -1555716.30345  24386993.3044   24386997.8294
 15  1 19  0 18 30.0000000  0  8G02G29G10G31G05G12G25G21
   1992010.51147   1660158.83346  22886779.3024   22886780.4984
 -13121035.12148 -10081264.49747  20118274.0324   20118277.5134
    161262.66544    145746.77745  24170765.7204   24170772.1554
  -8648074.50147  -6507497.46846  21607266.5304   21607269.5084
  -5805858.01045  -4418357.81045  24073918.9904   24073922.8464
  13075578.01446  10296040.45646  23224239.9234   23224243.5104
  -8678013.62047  -3798524.66146  20683753.6264   20683760.1324
  -2225848.16143  -1608316.07245  24374147.3394   24374154.1734
 15  1 19  0 19  0.0000000  0  8G02G29G10G31G05G12G25G21
   2092825.41347   1738715.90646  22905963.8884   22905965.0144
 -13099323.64748 -10064346.47447  20122405.3904   20122408.8484
    210803.39745    184349.87345  24180193.4334   24180198.6724
  -8619523.84647  -6485250.21846  21612699.5744   21612702.3294
  -5843524.22045  -4447708.00345  24066751.3554   24066755.4584
  13205255.66046  10397087.92146  23248916.5814   23248920.2274
  -8598515.42947  -3736578.03746  20698881.1554   20698887.5204
  -2293231.77043  -1660822.77845  24361324.9834   24361329.7424
 15  1 19  0 19 30.0000000  0  8G02G29G10G31G05G12G25G21
   2194000.86546   1817553.94546  22925216.1034   22925217.2994
 -13077183.71648 -10047094.58347  20126618.7024   20126622.2894
    260960.49045    223433.35645  24189737.8594   24189742.8184
  -8590382.56047  -6462542.72446  21618245.0934   21618248.2814
  -5880820.90346  -4476770.32845  24059654.0154   24059658.1774
  13335122.60746  10498282.92546  23273629.5574   23273634.2464
  -8518583.68747  -3674293.59146  20714091.8074   20714098.1254
  -2360496.94143  -1713237.17045  24348525.0314   24348529.3334
 15  1 19  0 20  0.0000000  0  8G02G29G10G31G05G12G25G21
   2295537.65446   1896673.52746  22944538.3104   22944540.2794
 -13054613.24048 -10029507.20047  20130913.6694   20130917.0684
    311736.22943    262998.85345  24199399.6714   24199404.2194
  -8560648.33047  -6439373.20446  21623903.2144   21623906.3444
  -5917742.82846  -4505540.63945  24052628.4814   24052632.9594
  13465180.06846  10599626.37046  23298378.5304   23298382.8204
  -8438216.36747  -3611669.71946  20729385.0134   20729391.4834
  -2427639.08245  -1765555.75245  24335749.6894   24335753.1354
 15  1 19  0 20 30.0000000  0  8G02G29G10G31G05G12G25G21
   2397434.99446   1976074.06046  22963928.4804   22963930.2864
 -13031612.17648 -10011584.29147  20135290.3514   20135293.9384
    363130.88844    303046.64845  24209180.3674   24209183.1804
  -8530319.81047  -6415740.58346  21629674.5014   21629677.7944
  -5954286.13746  -4534015.88846  24045674.5314   24045678.2584
  13595427.71246  10701117.99946  23323163.8034   23323168.9734
  -8357413.19847  -3548706.22346  20744761.6764   20744767.6894
  -2494655.54645  -1817776.27545  24322996.7354   24323000.2994
 15  1 19  0 21  0.0000000  0  8G02G29G10G31G05G12G25G21
   2499692.70946   2055755.40746  22983387.7474   22983389.2594
 -13008177.37048  -9993323.41847  20139749.9624   20139753.3384
    415146.37045    343578.18445  24219078.9964   24219083.7914
  -8499394.25447  -6391642.76046  21635559.2924   21635562.7034
  -5990445.57846  -4562192.05446  24038793.4594   24038797.0694
  13725867.11946  10802759.06446  23347986.1164   23347990.9114
  -8276172.39047  -3485401.68946  20760221.4954   20760228.2234
  -2561542.01345  -1869895.53945  24310268.0504   24310272.5174
 15  1 19  0 21 30.0000000  0  8G02G29G10G31G05G12G25G21
   2602305.82646   2135713.70346  23002914.4654   23002915.7894
 -12984312.09748  -9974727.11647  20144291.4154   20144294.6974
    467779.54043    384591.02445  24229094.7194   24229099.7604
  -8467874.17547  -6367081.65746  21641557.3124   21641560.6064
  -6026221.28346  -4590069.19445  24031985.3704   24031990.7854
  13856494.48946  10904546.61046  23372843.6214   23372847.3964
  -8194497.21947  -3421758.69046  20775763.5044   20775769.8574
  -2628299.26045  -1921914.18345  24297565.0044   24297564.9344
 15  1 19  0 22  0.0000000  0  8G02G29G10G31G05G12G25G21
   2705275.22546   2215949.61546  23022508.5364   23022509.7314
 -12960014.89948  -9955794.22047  20148914.9574   20148918.7904
    521031.98243    426086.46945  24239228.1554   24239232.1754
  -8435757.38147  -6342055.60046  21647668.8644   21647672.0764
  -6061607.65646  -4617642.93245  24025251.2934   24025255.3724
  13987310.77846  11006481.34846  23397736.9604   23397741.2384
  -8112386.21247  -3357776.10146  20791388.8524   20791394.7954
  -2694923.03245  -1973828.79445  24284886.6294   24284887.7194
 15  1 19  0 22 30.0000000  0  8G02G29G10G31G05G12G25G21
   2808595.59946   2296459.01146  23042170.0404   23042171.0834
 -12935289.05548  -9936527.33447  20153620.1624   20153623.7494
    574899.87544    468061.45545  24249479.1274   24249483.7934
  -8403046.88146  -6316566.90646  21653893.3174   21653897.1274
  -6096605.12546  -4644913.67546  24018591.6384   24018596.7254
  14118311.41846  11108559.75646  23422665.6594   23422669.9614
  -8029843.11947  -3293456.82546  20807096.1174   20807102.5414
  -2761414.61545  -2025640.40245  24272233.5344   24272236.8874
 15  1 19  0 23  0.0000000  0  8G02G29G10G31G05G12G25G21
   2912266.16346   2377241.26846  23061897.5474   23061899.5634
 -12910132.94548  -9916925.17947  20158407.3374   20158410.4084
    629384.14543    510516.70645  24259845.9434   24259854.1254
  -8369741.29046  -6290614.50246  21660231.1754   21660235.3834
  -6131209.80546  -4671878.29746  24012007.1734   24012011.7454
  14249496.47246  11210781.83446  23447629.3694   23447633.7884
  -7946867.09947  -3228800.18246  20822885.9074   20822892.7644
  -2827770.89844  -2077346.52045  24259605.8804   24259610.6154
 15  1 19  0 23 30.0000000  0  8G02G29G10G31G05G12G25G21
   3016281.02746   2458291.81746  23081691.2964   23081692.4574
 -12884551.30048  -9896991.43447  20163275.4624   20163278.9324
    684480.40743    553448.79445  24270330.7984   24270334.5374
  -8335844.36347  -6264201.32246  21666681.7854   21666685.6184
  -6165422.65946  -4698537.61246  24005496.6894   24005501.5304
  14380861.12846  11313143.86746  23472627.2194   23472631.6624
  -7863462.75647  -3163809.79346  20838757.1354   20838763.8634
  -2893993.51243  -2128948.54645  24247003.7514   24247010.1984
 15  1 19  0 24  0.0000000  0  8G02G29G10G31G05G12G25G21
   3120643.78846   2539613.47446  23101550.9144   23101552.4504
 -12858538.68848  -9876721.86847  20168225.2994   20168228.7694
    740193.49143    596861.66345  24280933.6294   24280935.9154
  -8301350.52647  -6237323.01846  21673245.7834   21673249.1824
  -6199235.32346  -4724885.07546  23999061.7814   23999065.8014
  14512409.51446  11415649.10146  23497660.2104   23497664.5594
  -7779625.07647  -3098481.74846  20854711.1224   20854717.6044
  -2960075.12245  -2180440.62645  24234429.2394   24234435.7104
 15  1 19  0 24 30.0000000  0  8G02G29G10G31G05G12G25G21
   3225351.19846   2621203.68046  23121475.4834   23121477.3364
 -12832096.73048  -9856117.73747  20173257.3224   20173260.6284
    796521.53043    640753.58645  24291651.1524   24291656.1224
  -8266260.73347  -6209980.33346  21679923.2284   21679926.0184
  -6232645.89946  -4750919.21546  23992703.9804   23992708.5524
  14644139.40946  11518295.78146  23522727.4294   23522732.3174
  -7695355.90647  -3032817.47646  20870746.7184   20870753.2594
  -3026014.78145  -2231822.18445  24221881.0514   24221885.0494
 15  1 19  0 25  0.0000000  0  8G02G29G10G31G05G12G25G21
   3330400.68046   2703060.43046  23141466.1684   23141468.4304
 -12805226.57948  -9835179.95647  20178370.2524   20178373.4994
    853463.33144    685123.87945  24302488.1554   24302491.0864
  -8230576.14147  -6182174.16646  21686713.9044   21686716.5414
  -6265652.60646  -4776638.68046  23986422.9454   23986428.6184
  14776048.75446  11621082.27346  23547828.5884   23547832.5154
  -7610656.67147  -2966818.11346  20886864.7844   20886870.7744
  -3091811.81345  -2283092.53245  24209360.5244   24209364.2514
 15  1 19  0 25 30.0000000  0  8G02G29G10G31G05G12G25G21
   3435785.93746   2785178.81746  23161519.9454   23161522.0904
 -12777932.90148  -9813912.16047  20183564.0344   20183567.4804
    911014.10243    729968.59845  24313439.4024   24313445.6974
  -8194300.55647  -6153907.48546  21693616.9634   21693620.0694
  -6298256.70746  -4802044.42046  23980218.8524   23980222.9544
  14908132.49446  11724004.63546  23572963.3414   23572967.1274
  -7525532.13947  -2900487.31046  20903063.1904   20903069.9194
  -3157468.14145  -2334253.26645  24196866.8834   24196869.4154
 15  1 19  0 26  0.0000000  0  8G02G29G10G31G05G12G25G21
   3541509.17346   2867560.54846  23181638.4784   23181640.1894
 -12750211.02248  -9792310.68847  20188839.2144   20188842.7904
    969176.80343    775290.25845  24324506.9554   24324515.0084
  -8157429.82947  -6125177.05346  21700632.9564   21700635.8994
  -6330451.34246  -4827131.10546  23974092.2184   23974096.0634
  15040393.45046  11827065.04346  23598132.2934   23598137.1924
  -7439978.96747  -2833822.50546  20919343.5954   20919350.2304
  -3222977.94645  -2385299.83145  24184400.3534   24184405.2414
 15  1 19  0 26 30.0000000  0  8G02G29G10G31G05G12G25G21
   3647568.86146   2950204.50046  23201820.9824   23201822.4824
 -12722060.90048  -9770375.52947  20194196.2374   20194199.5314
   1027951.66943    821088.87645  24335691.9314   24335697.1594
  -8119963.38447  -6095982.42946  21707762.8034   21707765.5224
  -6362233.04546  -4851896.03146  23968044.2774   23968047.7004
  15172831.44846  11930263.45346  23623333.8724   23623337.9754
  -7353997.06347  -2766823.63746  20935705.3504   20935711.7154
  -3288338.09945  -2436229.82445  24171962.6934   24171967.9794
 15  1 19  0 27  0.0000000  0  8G02G29G10G31G05G12G25G21
   3753960.29646   3033106.91246  23222066.4364   23222067.4684
 -12693486.19148  -9748109.52747  20199633.6994   20199637.0754
   1087334.97743    867361.58745  24346991.7874   24346997.5664
  -8081904.12747  -6066325.89246  21715005.6484   21715008.0874
  -6393601.94046  -4876339.27746  23962075.5334   23962078.6754
  15305442.05146  12033596.35246  23648569.3824   23648573.2854
  -7267589.98647  -2699493.47046  20952148.2884   20952154.7714
  -3353549.57245  -2487043.91245  24159553.5154   24159557.0554
 15  1 19  0 27 30.0000000  0  8G02G29G10G31G05G12G25G21
   3860680.58846   3116265.61446  23242374.7734   23242375.8044
 -12664487.74748  -9725513.34047  20205151.9794   20205155.2144
   1147325.14843    914107.21045  24358406.6104   24358412.0844
  -8043253.03947  -6036208.17146  21722360.4234   21722363.6704
  -6424556.05646  -4900459.30346  23956184.9324   23956188.6254
  15438223.29346  12137062.27346  23673836.2374   23673841.2184
  -7180759.20947  -2631833.11646  20968671.3404   20968678.0454
  -3418611.47845  -2537741.47445  24147172.3014   24147177.9984
 15  1 19  0 28  0.0000000  0  8G02G29G10G31G05G12G25G21
   3967727.64446   3199678.90346  23262744.9154   23262746.4164
 -12635066.24248  -9702587.49747  20210750.8404   20210753.6424
   1207921.69542    961325.24445  24369938.6504   24369944.0194
  -8004010.23747  -6005629.37046  21729827.5314   21729831.0714
  -6455092.59546  -4924253.97646  23950373.1024   23950377.4164
  15571173.94546  12240660.13546  23699136.4394   23699141.4324
  -7093505.41047  -2563843.13046  20985275.4634   20985282.0854
  -3483521.84645  -2588320.97345  24134819.6804   24134823.9364
 15  1 19  0 28 30.0000000  0  7G02G29G31G05G12G25G21
   4075103.67046   3283348.53646  23283178.0754   23283179.5524
 -12605217.72048  -9679328.91947  20216430.8814   20216433.6824
  -7964172.21446  -5974586.75246  21737408.1894   21737412.1044
  -6485205.00546  -4947718.15146  23944642.8494   23944647.1044
  15704296.66746  12344392.12246  23724468.6014   23724474.3214
  -7005825.38347  -2495521.02646  21001960.4084   21001966.8324
  -3548275.03644  -2638777.92045  24122498.0844   24122503.4414
 15  1 19  0 29  0.0000000  0  7G02G29G31G05G12G25G21
   4182804.65046   3367271.37846  23303673.0784   23303674.1214
 -12574944.50948  -9655739.40547  20222191.6384   20222195.0964
  -7923740.67347  -5943081.64946  21745102.3174   21745106.1624
  -6514892.84546  -4970851.51246  23938993.8494   23938998.4214
  15837588.78846  12448256.07946  23749833.0654   23749837.9184
  -6917721.77447  -2426868.87846  21018725.9234   21018732.1364
  -3612870.72445  -2689112.22845  24110205.4854   24110210.5374
 15  1 19  0 29 30.0000000  0  7G02G29G31G05G12G25G21
   4290828.72046   3451446.00146  23324229.4614   23324230.0124
 -12544246.94548  -9631819.22347  20228033.2254   20228036.6364
  -7882715.55447  -5911114.03546  21752909.3124   21752912.2424
  -6544152.17646  -4993650.94646  23933426.5944   23933429.6894
  15971049.08146  12552251.07646  23775230.1424   23775234.9014
  -6829195.12647  -2357887.08646  21035572.0694   21035578.6224
  -3677306.86645  -2739322.13445  24097944.0494   24097948.0584
 15  1 19  0 30  0.0000000  0  7G02G29G31G05G12G25G21
   4399175.62446   3535872.14846  23344847.4334   23344848.3004
 -12513123.70748  -9607567.34747  20233955.6024   20233958.7084
  -7841095.33046  -5878682.70846  21760829.3374   21760832.7134
  -6572979.13846  -5016113.47046  23927940.6104   23927944.5964
  16104677.81346  12656377.33446  23800659.0314   23800663.0404
  -6740244.39747  -2288574.84346  21052498.8924   21052505.3514
  -3741579.89045  -2789405.02845  24085713.2734   24085719.1584
 15  1 19  0 30 30.0000000  0  7G02G29G31G05G12G25G21
   4507839.60946   3620545.38246  23365525.1874   23365526.0774
 -12481578.42048  -9582986.59447  20239958.4564   20239961.4094
  -7798884.07346  -5845790.82046  21768861.5824   21768865.6734
  -6601375.00746  -5038240.07646  23922536.8854   23922540.8474
  16238470.18546  12760631.09745  23826118.2044   23826122.7404
  -6650874.01947  -2218935.60746  21069505.2664   21069511.6544
  -3805691.96245  -2839362.45945  24073513.8434   24073518.4734
 15  1 19  0 31  0.0000000  0  7G02G29G31G05G12G25G21
   4616820.21146   3705465.33446  23386263.6504   23386264.5414
 -12449610.41348  -9558076.45047  20246041.7534   20246045.2224
  -7756080.35946  -5812437.27446  21777006.8884   21777010.6744
  -6629335.10046  -5060027.11746  23917216.2774   23917220.7904
  16372426.98946  12865012.97545  23851609.5274   23851614.2754
  -6561083.13647  -2148968.70946  21086591.8274   21086598.4274
  -3869638.60745  -2889190.95845  24061344.5084   24061349.6664
 15  1 19  0 31 30.0000000  0  7G02G29G31G05G12G25G21
   4726114.16246   3790629.45946  23407061.6124   23407063.4644
 -12417221.17048  -9532838.07747  20252205.2174   20252208.6404
  -7712685.69146  -5778623.25646  21785264.8914   21785268.9594
  -6656858.13346  -5081473.59146  23911978.2644   23911982.7654
  16506545.57646  12969520.85245  23877131.7324   23877134.7454
  -6470873.81647  -2078675.75646  21103758.2104   21103765.0794
  -3933419.61045  -2938890.41845  24049206.8844   24049212.0774
 15  1 19  0 32  0.0000000  0  7G02G29G31G05G12G25G21
   4835720.10446   3876036.67446  23427919.0304   23427920.6124
 -12384409.86048  -9507270.81847  20258449.2844   20258452.2034
  -7668699.68647  -5744348.44146  21793635.5124   21793639.1464
  -6683940.74646  -5102576.89146  23906825.1914   23906827.6414
  16640825.78746  13074154.77346  23902684.7874   23902688.7024
  -6380245.90947  -2008056.61946  21121004.0574   21121010.7624
  -3997032.38845  -2988458.80045  24037102.4464   24037106.1274
 15  1 19  0 32 30.0000000  0  7G02G29G31G05G12G25G21
   4945638.57546   3961687.44446  23448835.9724   23448836.8284
 -12351175.21348  -9481373.68847  20264773.4764   20264776.4424
  -7624120.26747  -5709611.26546  21802118.7084   21802121.6154
  -6710577.89446  -5123333.07146  23901756.1684   23901759.4034
  16775268.47646  13178915.27045  23928268.2314   23928271.8884
  -6289198.12947  -1937110.33346  21138329.9694   21138336.2284
  -4060472.91345  -3037892.97045  24025029.7464   24025033.0874
 15  1 19  0 33  0.0000000  0  7G02G29G31G05G12G25G21
   5055864.10346   4047577.47946  23469810.7574   23469811.4374
 -12317520.44648  -9455149.19347  20271177.7784   20271180.9904
  -7578950.97247  -5674414.41646  21810713.9054   21810716.8704
  -6736770.48846  -5143742.86146  23896771.5994   23896774.8814
  16909869.17946  13283798.87945  23953882.0554   23953885.0444
  -6197734.42847  -1865839.94746  21155734.9354   21155740.9954
  -4123742.26845  -3087193.71645  24012989.8454   24012995.5424
 15  1 19  0 33 30.0000000  0  7G02G29G31G05G12G25G21
   5166394.47646   4133705.04946  23490843.6714   23490844.7264
 -12283446.46848  -9428598.04647  20277661.8354   20277664.9064
  -7533192.39346  -5638758.39546  21819421.5684   21819425.1204
  -6762515.76746  -5163804.07346  23891872.1954   23891875.9104
  17044626.46846  13388804.56345  23979524.5774   23979528.7154
  -6105855.80347  -1794246.23746  21173219.0034   21173225.2984
  -4186838.87345  -3136359.91945  24000983.5764   24000988.6874
 15  1 19  0 34  0.0000000  0  7G02G29G31G05G12G25G21
   5277227.44246   4220068.38646  23511935.0534   23511936.1084
 -12248953.58248  -9401720.46647  20284225.5674   20284228.8724
  -7486845.31647  -5602643.79046  21828240.8454   21828244.3734
  -6787811.32246  -5183514.83746  23887059.1224   23887062.7204
  17179538.78846  13493930.97645  24005198.3824   24005202.4034
  -6013563.17247  -1722329.90946  21190781.6724   21190788.3894
  -4249760.98245  -3185390.10745  23989009.9384   23989015.7174
 15  1 19  0 34 30.0000000  0  7G02G29G31G05G12G25G21
   5388361.57646   4306666.42846  23533082.9364   23533083.5224
 -12214041.79148  -9374516.46947  20290869.2084   20290872.2904
  -7439909.03047  -5566070.07046  21837172.5124   21837175.9474
  -6812653.95546  -5202872.68546  23882331.5374   23882336.9764
  17314605.62146  13599177.85245  24030900.6154   24030905.4914
  -5920856.71047  -1650091.12346  21208423.1514   21208429.8214
  -4312505.89045  -3234282.25645  23977069.5574   23977073.0624
 15  1 19  0 35  0.0000000  0  7G02G29G31G05G12G25G21
   5499795.23646   4393497.83846  23554288.5064   23554289.6084
 -12178711.71448  -9346986.54747  20297591.9104   20297594.9464
  -7392384.34847  -5529037.86646  21846216.4034   21846219.6854
  -6837041.11446  -5221875.63546  23877691.1254   23877695.0634
  17449826.47546  13704544.75845  24056632.6574   24056637.0534
  -5827737.03747  -1577530.36346  21226143.3114   21226149.9574
  -4375071.71145  -3283034.79645  23965163.5344   23965168.9144
 15  1 19  0 35 30.0000000  0  7G02G29G31G05G12G25G21
   5611528.18146   4480562.49146  23575550.5504   23575550.7144
 -12142961.12448  -9319128.94047  20304395.1664   20304398.4134
  -7344269.61947  -5491545.87946  21855372.3764   21855375.4714
  -6860968.35246  -5240520.17546  23873137.4374   23873141.7864
  17585201.10746  13810031.49045  24082393.2584   24082397.8884
  -5734203.37147  -1504646.98846  21243941.9944   21243948.5824
  -4437454.71545  -3331644.91745  23953292.1704   23953296.6124
 15  1 19  0 36  0.0000000  0  7G02G29G31G05G12G25G21
   5723556.19146   4567857.04746  23596868.3194   23596869.1754
 -12106793.07748  -9290946.03947  20311277.8854   20311281.0154
  -7295567.38847  -5453596.10446  21864640.0724   21864643.3194
  -6884435.66146  -5258806.37546  23868671.6014   23868677.2634
  17720726.97246  13915636.02545  24108183.0534   24108187.5774
  -5640258.52247  -1431443.23246  21261819.1394   21261825.8324
  -4499655.11145  -3380112.74045  23941456.3584   23941460.9884
 15  1 19  0 36 30.0000000  0  7G02G29G31G05G12G25G21
   5835876.75246   4655379.55946  23618242.5434   23618242.3674
 -12070208.50248  -9262438.56847  20318239.4014   20318242.6484
  -7246278.65547  -5415189.30346  21874019.5974   21874022.6924
  -6907440.53346  -5276732.23246  23864294.1654   23864297.8934
  17856401.70146  14021356.56345  24134000.8714   24134004.8334
  -5545903.77947  -1357920.05946  21279774.5194   21279780.8734
  -4561671.86245  -3428437.47745  23929654.8674   23929657.7744
 15  1 19  0 37  0.0000000  0  7G02G29G31G05G12G25G21
   5948489.72646   4743129.92446  23639671.8024   23639672.0724
 -12033205.68148  -9233605.19747  20325281.1914   20325284.3794
  -7196401.75247  -5376324.19946  21883510.9574   21883513.6654
  -6929978.11946  -5294293.92746  23860005.0634   23860009.6594
  17992226.90046  14127194.35545  24159847.3524   24159851.2554
  -5451138.13347  -1284076.72946  21297807.6024   21297814.0614
  -4623500.66445  -3476615.75245  23917889.3284   23917893.8064
 15  1 19  0 37 30.0000000  0  7G02G29G31G05G12G25G21
   6061391.94246   4831105.67646  23661156.4564   23661156.8204
 -11995786.82347  -9204447.63947  20332401.7014   20332404.7264
  -7145938.90847  -5337002.51346  21893113.6104   21893116.5294
  -6952047.55646  -5311490.84746  23855805.2764   23855809.0504
  18128199.46246  14233147.00145  24185722.2824   24185726.3154
  -5355963.60647  -1209914.77646  21315918.7334   21315925.1344
  -4685140.75645  -3524646.99145  23906159.2724   23906164.2424
 15  1 19  0 38  0.0000000  0  7G02G29G31G05G12G25G21
   6174582.63446   4919306.21346  23682696.0734   23682697.5624
 -11957950.38148  -9174964.68847  20339601.7864   20339604.7164
  -7094889.10847  -5297223.45446  21902828.0064   21902831.2064
  -6973644.77346  -5328319.76246  23851695.4474   23851699.9364
  18264319.95746  14339214.88845  24211625.3794   24211629.7514
  -5260379.66647  -1135433.80446  21334107.8594   21334114.5644
  -4746589.41145  -3572529.04545  23894466.1234   23894471.5514
 15  1 19  0 38 30.0000000  0  7G02G29G31G05G12G25G21
   6288058.45146   5007728.92646  23704289.9914   23704291.7494
 -11919698.45248  -9145157.99347  20346880.6854   20346883.5574
  -7043254.10347  -5256988.38946  21912653.8724   21912657.2014
  -6994768.78146  -5344779.96046  23847675.6074   23847681.2574
  18400585.54746  14445395.84845  24237556.1364   24237560.7434
  -5164388.57047  -1060635.54946  21352373.8994   21352380.2284
  -4807845.81345  -3620261.32545  23882809.4934   23882814.6164
 15  1 19  0 39  0.0000000  0  7G02G29G31G05G12G25G21
   4826399.66546   3868774.00746  23426145.0294   23426146.7064
 -13456451.36748 -10342627.80647  20054446.4054   20054449.7694
  -8566454.44447  -6443897.75246  21622798.3384   21622801.6674
  -8590839.39446  -6588471.30946  23543953.5464   23543959.1144
  16961578.17546  13324091.37445  23963722.5524   23963725.7404
  -6643409.72747  -2213119.57746  21070925.7924   21070932.2044
  -6444331.70945  -4895445.11345  23571396.9434   23571400.2484
 15  1 19  0 39 30.0000000  0  7G02G29G31G05G12G25G21
   4940438.49446   3957635.43046  23447845.8434   23447846.8394
 -13417371.19548 -10312175.72047  20061883.1824   20061886.4054
  -8513652.91947  -6402753.70846  21632846.2384   21632849.4154
  -8611011.33646  -6604189.64446  23540115.0524   23540120.1164
  17098128.57846  13430494.26845  23989706.6734   23989710.6584
  -6546608.87547  -2137690.36646  21089346.7354   21089352.9244
  -6505199.55845  -4942874.60245  23559813.7954   23559818.8244
 15  1 19  0 40  0.0000000  0  7G02G29G31G05G12G25G21
   5054756.35346   4046714.31546  23469600.0304   23469601.5774
 -13377876.79748 -10281400.86547  20069398.7594   20069401.4324
  -8460268.07047  -6361155.13546  21643004.9144   21643008.2904
  -8630702.55446  -6619533.38446  23536367.9404   23536371.7734
  17234820.79345  13537007.64245  24015718.1184   24015722.7844
  -6449403.45147  -2061945.89146  21107844.2204   21107850.9724
  -6565869.54345  -4990149.88845  23548268.0644   23548272.3784
 15  1 19  0 40 30.0000000  0  7G02G29G31G05G12G25G21
   5169349.72446   4136007.82946  23491406.6124   23491407.4684
 -13337970.43448 -10250305.00547  20076992.5434   20076995.7904
  -8406302.08847  -6319103.72246  21653274.1714   21653277.2304
  -8649912.43746  -6634502.07646  23532712.3024   23532716.3114
  17371651.41445  13643628.89345  24041755.9814   24041762.4754
  -6351796.00647  -1985888.12746  21126418.2214   21126424.7854
  -6626341.30945  -5037270.74345  23536760.7934   23536764.8374
 15  1 19  0 41  0.0000000  0  7G02G29G31G05G12G25G21
   5284215.70946   4225513.80646  23513265.0494   23513265.6234
 -13297653.40348 -10218889.13047  20084664.7244   20084668.1464
  -8351756.44747  -6276600.62746  21663653.6524   21663657.1804
  -8668639.12046  -6649094.25446  23529148.3294   23529153.0534
  17508618.80845  13750356.67545  24067820.2244   24067826.3664
  -6253788.13647  -1909518.37246  21145068.4344   21145075.0804
  -6686613.84145  -5084236.33745  23525291.3994   23525296.0884
 15  1 19  0 41 30.0000000  0  7G02G29G31G05G12G25G21
   5399352.74046   4315230.96246  23535174.5784   23535174.2734
 -13256925.36448 -10187152.99547  20092414.7834   20092417.9844
  -8296631.70647  -6233646.28446  21674143.6304   21674147.5224
  -8686880.48646  -6663308.26846  23525677.8604   23525682.5844
  17645722.45146  13857190.67945  24093910.4324   24093916.4344
  -6155380.70447  -1832837.25246  21163794.8664   21163800.8324
  -6746685.40645  -5131045.32945  23513860.3254   23513867.1124
 15  1 19  0 42  0.0000000  0  7G02G29G31G05G12G25G21
   5514759.19546   4405158.06946  23557135.7634   23557136.4084
 -13215786.72848 -10155096.91247  20100243.4574   20100246.6454
  -8240928.05747  -6190240.85546  21684744.0184   21684747.5814
  -8704633.11846  -6677141.41346  23522299.2024   23522302.6844
  17782960.97946  13964129.75845  24120026.4104   24120030.0564
  -6056574.27847  -1755845.25746  21182596.9594   21182603.4304
  -6806553.49145  -5177695.81645  23502468.3514   23502472.1374
 15  1 19  0 42 30.0000000  0  8G02G29G10G31G05G12G25G21
   5630431.19446   4495292.07246  23579147.7824   23579148.4034
 -13174239.80448 -10122722.69247  20108149.5514   20108153.0914
  -3078265.17141                  24453991.9284
  -8184648.23047  -6146386.45746  21695453.9014   21695457.2064
  -8721896.64546  -6690593.46746  23519013.8484   23519018.2444
  17920331.78946  14071171.96145  24146166.6894   24146170.3934
  -5957371.36547  -1678544.28746  21201474.9014   21201481.2904
  -6866217.59545  -5224187.30545  23491114.1844   23491116.6694
 15  1 19  0 43  0.0000000  0  7G02G29G31G05G12G25G21
   5746370.17046   4585634.13246  23601210.0714   23601210.4234
 -13132281.83448 -10090028.17147  20116133.7974   20116137.0684
  -8127789.57247  -6102081.01846  21706273.6024   21706276.9314
  -8738665.33646  -6703659.94646  23515823.4334   23515827.8414
  18057836.60946  14178318.52945  24172333.1754   24172337.0194
  -5857769.61747  -1600932.56046  21220428.4144   21220434.6624
  -6925672.88645  -5270516.09845  23479800.5974   23479803.3634
 15  1 19  0 43 30.0000000  0  7G02G29G31G05G12G25G21
   5862569.83346   4676179.31246  23623322.0624   23623323.0004
 -13089917.50848 -10057017.01147  20124195.4264   20124198.8964
  -8070357.25747  -6057328.58046  21717202.6034   21717205.8734
  -8754941.28446  -6716342.45346  23512725.8584   23512729.2114
  18195469.65845  14285565.04045  24198523.5724   24198528.7074
  -5757774.27447  -1523014.12546  21239456.8544   21239463.0434
  -6984921.59245  -5316683.92245  23468525.6214   23468528.8334
 15  1 19  0 44  0.0000000  0  7G02G29G31G05G12G25G21
   5979030.48146   4766927.86846  23645483.7904   23645484.7514
 -13047145.06748 -10023687.86047  20132334.8084   20132338.0314
  -8012349.75247  -6012127.93446  21728241.0864   21728244.2744
  -8770719.84846  -6728637.36646  23509722.9804   23509726.7784
  18333232.65345  14392912.78345  24224739.9474   24224744.6714
  -5657384.23147  -1444788.14646  21258560.4254   21258566.9434
  -7043959.94745  -5362687.80345  23457290.4434   23457294.3584
 15  1 19  0 44 30.0000000  0  7G02G29G31G05G12G25G21
   6095750.02746   4857878.15046  23667694.6744   23667695.3664
 -13003964.45548  -9990040.63047  20140551.7294   20140554.5784
  -7953767.42147  -5966479.37546  21739389.1444   21739392.2854
  -8785998.29346  -6740542.63746  23506815.5354   23506820.4594
  18471124.77245  14500361.18945  24250979.2474   24250984.1474
  -5556599.99447  -1366254.99646  21277739.2904   21277745.6674
  -7102785.69045  -5408526.04745  23446096.4744   23446101.0814
 15  1 19  0 45  0.0000000  0  7G02G29G31G05G12G25G21
   6212721.96646   4949025.08546  23689953.6204   23689955.6484
 -12960381.28448  -9956079.70547  20148845.3004   20148848.4534
  -7894616.00947  -5920387.37646  21750645.0524   21750648.3234
  -8800779.62546  -6752060.54346  23504002.9474   23504007.6364
  18609139.42445  14607905.05445  24277242.3334   24277247.6664
  -5455427.48247  -1287419.27846  21296991.6244   21296998.1184
  -7161402.04945  -5454201.10945  23434942.6874   23434947.5874
 15  1 19  0 45 30.0000000  0  7G02G29G31G05G12G25G21
   6329950.48346   5040371.95646  23712261.4024   23712263.4654
 -12916389.91648  -9921800.69947  20157216.6384   20157219.8744
  -7834890.24647  -5873847.82746  21762010.3584   21762013.8634
  -8815054.96146  -6763184.12646  23501286.6694   23501289.9284
  18747281.64746  14715548.34345  24303530.4194   24303535.6234
  -5353861.37147  -1208276.88146  21316319.2104   21316325.0834
  -7219800.77445  -5499706.60245  23423829.5884   23423832.3434
 15  1 19  0 46  0.0000000  0  7G02G29G31G05G12G25G21
   6447431.40946   5131915.50346  23734617.0064   23734618.5884
 -12871993.13048  -9887205.78147  20165664.8204   20165668.5014
  -7774592.96047  -5826862.93446  21773484.5414   21773487.9054
  -8828824.10846  -6773913.27146  23498666.4174   23498670.2974
  18885548.15146  14823288.43645  24329841.8134   24329845.1194
  -5251904.88847  -1128830.30746  21335720.8294   21335726.8074
  -7277982.06745  -5545042.68145  23412758.3114   23412762.6014
 15  1 19  0 46 30.0000000  0  7G02G29G31G05G12G25G21
   6565161.78446   5223653.44846  23757020.5044   23757021.5004
 -12827192.30448  -9852296.03247  20174190.3074   20174194.1634
  -7713726.20647  -5779434.30746  21785067.2164   21785070.7324
  -8842086.01446  -6784247.17346  23496142.5154   23496146.1964
  19023937.16345  14931124.03745  24356176.2384   24356180.7864
  -5149559.75947  -1049080.86946  21355196.4594   21355202.9074
  -7335945.18245  -5590208.68945  23401727.6464   23401730.9524
 15  1 19  0 47  0.0000000  0  7G02G29G31G05G12G25G21
   6683139.85446   5315584.38646  23779471.2234   23779472.1374
 -12781987.46248  -9817071.48647  20182792.4814   20182796.1034
  -7652290.48147  -5731562.32146  21796758.2084   21796761.5254
  -8854837.86246  -6794183.62646  23493715.5314   23493719.4694
  19162447.70345  15039054.30845  24382534.0214   24382538.9444
  -5046826.74647   -969029.17446  21374745.6794   21374752.3844
  -7393687.69845  -5635202.85845  23390739.6634   23390745.9004
 15  1 19  0 47 30.0000000  0  7G02G29G31G05G12G25G21
   6801364.14646   5407707.20046  23801968.5344   23801968.7694
 -12736378.48448  -9781532.00547  20191471.7244   20191475.0294
  -7590286.31347  -5683247.39446  21808556.9444   21808559.9924
  -8867077.01746  -6803720.56546  23491386.9764   23491390.5634
  19301078.80145  15147078.48045  24408914.4284   24408921.0284
  -4943706.56747   -888675.79446  21394368.7514   21394375.6674
  -7451207.72045  -5680023.64845  23379794.4424   23379799.8114
 15  1 19  0 48  0.0000000  0  7G02G29G31G05G12G25G21
   6919831.59846   5500019.50046  23824512.1684   23824512.2274
 -12690367.10148  -9745678.97047  20200227.3414   20200230.7294
  -7527715.90847  -5634491.24146  21820463.7104   21820466.8174
  -8878802.64046  -6812857.39246  23489155.6764   23489159.6624
  19439828.02045  15255194.79545  24435317.1984   24435322.5204
  -4840201.20647   -808022.29546  21414065.3114   21414071.7934
  -7508504.53545  -5724670.50645  23368891.3034   23368894.6324
 15  1 19  0 48 30.0000000  0  7G02G29G31G05G12G25G21
   7038540.63946   5592520.04645  23847101.4954   23847102.0464
 -12643954.07848  -9709512.96847  20209059.3614   20209062.5964
  -7464579.87247  -5585294.34646  21832478.1334   21832481.0634
  -8890012.25146  -6821592.12746  23487022.6734   23487025.5224
  19578694.31845  15363402.26645  24461742.9414   24461748.6734
  -4736311.38947   -727069.20746  21433834.9934   21433841.8744
  -7565575.63145  -5769141.49345  23358030.9904   23358034.8934
 15  1 19  0 49  0.0000000  0  7G02G29G31G05G12G25G21
   7157485.93446   5685204.67646  23869736.4174   23869737.4484
 -12597142.68848  -9673036.54647  20217967.3514   20217970.1764
  -7400882.44647  -5535659.99446  21844599.3204   21844602.3684
  -8900706.81446  -6829925.49146  23484986.9134   23484990.9224
  19717673.72445  15471697.88745  24488189.7394   24488193.3034
  -4632041.38947   -645819.86946  21453676.6414   21453683.6984
  -7622422.76045  -5813437.93045  23347213.2774   23347217.2154
 15  1 19  0 49 30.0000000  0  7G02G29G31G05G12G25G21
   7276668.30146   5778074.03545  23892415.5294   23892415.8584
 -12549930.62148  -9636247.89947  20226951.4854   20226954.4974
  -7336621.82447  -5485586.79746  21856827.8924   21856831.1154
  -8910881.48946  -6837853.80746  23483051.1404   23483055.5474
  19856767.68245  15580082.74145  24514658.8054   24514663.0484
  -4527389.58447   -564273.03446  21473591.2784   21473598.0534
  -7679041.35846  -5857556.27945  23336439.4894   23336442.7594
 15  1 19  0 50  0.0000000  0  7G02G29G31G05G12G25G21
   7396085.92646   5871126.71045  23915139.6964   23915141.4314
 -12502318.54848  -9599147.56847  20236011.6044   20236014.6994
  -7271798.90847  -5435075.44446  21869163.0404   21869166.5224
  -8920534.18546  -6845375.33246  23481213.9684   23481218.4574
  19995974.47245  15688555.54445  24541149.2074   24541153.0054
  -4422356.72347   -482429.27246  21493578.6344   21493584.8934
  -7735429.70246  -5901495.24745  23325708.9474   23325712.7104
 15  1 19  0 50 30.0000000  0  7G02G29G31G05G12G25G21
   7515734.36945   5964359.24945  23937908.0134   23937910.0774
 -12454309.60148  -9561738.00247  20245147.3714   20245150.5944
  -7206417.07047  -5384128.57346  21881604.9824   21881608.3934
  -8929664.94146  -6852490.19446  23479476.4844   23479481.0084
  20135291.57145  15797114.32045  24567660.3424   24567664.4794
  -4316946.31447   -400291.30846  21513637.3414   21513644.0814
  -7791587.91645  -5945254.84145  23315021.5444   23315026.5384
 15  1 19  0 51  0.0000000  0  7G02G29G31G05G12G25G21
   7635611.56945   6057770.05445  23960720.1894   23960722.7334
 -12405903.83848  -9524019.22247  20254358.6754   20254361.9104
  -7140477.77247  -5332747.32146  21894152.6734   21894155.6734
  -8938271.71746  -6859196.74246  23477838.7494   23477844.1884
  20274717.04545  15905757.53345  24594191.7364   24594200.5164
  -4211159.72447   -317860.21746  21533768.0544   21533774.9584
  -7847514.60445  -5988834.07645  23304379.4054   23304385.6184
 15  1 19  0 51 30.0000000  0  7G02G29G31G05G12G25G21
   7755716.60545   6151358.37545  23983575.4954   23983577.8164
 -12357101.01648  -9485991.04547  20263645.6284   20263649.0274
  -7073980.87547  -5280931.57446  21906807.0234   21906810.3884
  -8946351.20046  -6865492.40546  23476301.4774   23476305.4864
  20414250.74445  16014485.10645  24620744.3014   24620752.8114
  -4104996.57847   -235135.72746  21553970.4714   21553976.7664
  -7903206.73445  -6032230.54245  23293781.3954   23293786.2714
 15  1 19  0 52  0.0000000  0  7G02G29G31G05G12G25G21
   7876045.33945   6245121.00145  24006472.8444   24006475.3644
 -12307904.06048  -9447655.75447  20273007.3144   20273010.6904
  -7006929.91847  -5228684.10246  21919566.0374   21919569.4604
  -8953903.98646  -6871377.65646  23474864.0524   23474868.2954
  20553889.36844  16123294.39545  24647316.6944   24647322.4734
  -3998460.29747   -152120.47046  21574243.6424   21574250.1124
  -7958665.01546  -6075444.75745  23283228.2544   23283232.7784
 15  1 19  0 52 30.0000000  0  7G02G29G31G05G12G25G21
   7996598.49645   6339058.52845  24029413.4914   24029415.4964
 -12258310.93048  -9409011.74747  20282444.6644   20282448.2154
  -6939323.26147  -5176003.60946  21932431.2684   21932434.9144
  -8960925.26746  -6876848.77746  23473527.6264   23473531.9524
  20693634.31143  16232186.55945  24673908.9454   24673914.6074
  -3891549.42847    -68813.29246  21594588.0724   21594595.0234
  -8013884.82846  -6118473.15545  23272720.1474   23272723.5474
 15  1 19  0 53  0.0000000  0  7G02G29G31G05G12G25G21
   8117373.94145   6433169.24845  24052396.8474   24052398.1484
 -12208321.99348  -9370059.33747  20291957.1784   20291960.9874
  -6871161.93547  -5122890.92046  21945401.8734   21945404.7334
  -8967413.13146  -6881904.27546  23472293.3254   23472297.6154
  20833484.13643  16341160.44345  24700521.2694   24700529.9314
  -3784265.20447     14784.80246  21615003.7514   21615010.5624
  -8068864.50645  -6161314.44745  23262257.5894   23262261.8914
 15  1 19  0 53 30.0000000  0  7G02G29G31G05G12G25G21
   8238370.25945   6527452.09845  24075421.1714   24075423.4344
 -12157937.19848  -9330798.44247  20301545.3924   20301548.8274
  -6802446.85647  -5069346.70946  21958477.7324   21958480.7214
  -8973365.10446  -6886542.15146  23471160.8784   23471164.3944
  20973438.47044  16450215.75245  24727153.6654   24727160.9914
  -3676608.26447     98673.32146  21635490.0694   21635496.7864
  -8123601.86645  -6203966.91645  23251841.3624   23251846.3914
 15  1 19  0 54  0.0000000  0  7G02G29G31G05G12G25G21
   8359580.23745   6621901.42345  24098487.1154   24098489.4944
 -12107162.50348  -9291233.73547  20311207.3054   20311210.6574
  -6733184.29947  -5015375.89946  21971658.3394   21971661.3294
  -8978784.39146  -6890764.95246  23470129.1924   23470132.8254
  21113490.48344  16559347.10845  24753804.9064   24753809.5844
  -3568584.59647    182847.58346  21656046.1044   21656052.0364
  -8178100.22245  -6246433.11645  23241470.7034   23241475.7564
 15  1 19  0 54 30.0000000  0  7G02G29G31G05G12G25G21
   8481005.44145   6716518.45245  24121593.3714   24121595.4924
 -12055995.10648  -9251363.01847  20320943.9734   20320947.6314
  -6663372.03647  -4960976.76646  21984943.4014   21984946.2614
  -8983665.69946  -6894568.56446  23469200.2544   23469204.5564
  21253642.31545  16668556.36845  24780475.1034   24780477.2014
  -3460192.14047    267309.23346  21676672.5974   21676678.7634
  -8232354.98045  -6288709.53945  23231146.1154   23231150.4404
 15  1 19  0 55  0.0000000  0  7G02G29G31G05G12G25G21
   8602646.02845   6811303.29945  24144741.3304   24144742.5494
 -12004433.58747  -9211185.20347  20330755.8984   20330759.6374
  -6593009.78247  -4906149.04946  21998332.8754   21998336.3684
  -8988004.78546  -6897949.64446  23468375.2584   23468378.7984
  21393895.16044  16777844.33445  24807164.7984   24807169.8974
  -3351429.88147    352059.00446  21697369.4154   21697375.5924
  -8286361.72145  -6330792.70345  23220869.2434   23220874.7764
 15  1 19  0 55 30.0000000  0  7G02G29G31G05G12G25G21
   8724498.00745   6906252.89545  24167928.8404   24167930.7744
 -11952480.16948  -9170702.01847  20340642.5704   20340646.1454
  -6522100.33847  -4850894.95046  22011826.1884   22011829.7284
  -8991801.94046  -6900908.43246  23467652.3044   23467656.6764
  21534245.65444  16887208.35845  24833872.5724   24833876.3234
  -3242300.84847    437094.60246  21718135.6564   21718141.7634
  -8340120.56446  -6372682.67945  23210639.8164   23210643.0984
 15  1 19  0 56  0.0000000  0  7G02G29G31G05G12G25G21
   8846557.79445   7001364.40045  24191156.2874   24191157.6704
 -11900137.30648  -9129915.37147  20350602.7844   20350606.0784
  -6450646.45847  -4795216.61946  22025423.8704   22025426.6244
  -8995056.64646  -6903444.54246  23467032.8964   23467036.8474
  21674691.15444  16996646.39645  24860598.8464   24860603.7344
  -3132807.88447    522413.78746  21738971.6804   21738978.2334
  -8393631.58946  -6414379.56346  23200457.0274   23200459.8524
 15  1 19  0 56 30.0000000  0  7G02G29G31G05G12G25G21
   8968827.56146   7096639.52745  24214423.4014   24214425.8044
 -11847401.86548  -9088822.80447  20360638.0884   20360641.3114
  -6378645.55847  -4739112.04046  22039124.7314   22039127.8374
  -8997763.10646  -6905553.45346  23466517.6204   23466521.5114
  21815234.29445  17106160.56345  24887343.8594   24887348.7244
  -3022947.97047    608018.90346  21759877.4834   21759884.3994
  -8446888.90646  -6455878.73945  23190321.7084   23190325.6584
 15  1 19  0 57  0.0000000  0  7G02G29G31G05G12G25G21
   9091302.65145   7192074.63345  24237729.3744   24237731.4844
 -11794276.55048  -9047426.44847  20370747.4864   20370751.0614
  -6306101.74547  -4682584.40946  22052929.5304   22052932.7074
  -8999922.49746  -6907236.09546  23466106.3154   23466110.2064
  21955871.17943  17215747.72545  24914104.9024   24914107.9974
  -2912725.18847    693906.76946  21780851.9514   21780858.5984
  -8499893.89546  -6497181.29445  23180235.2684   23180239.4064
 15  1 19  0 57 30.0000000  0  7G02G29G31G05G12G25G21
   9213978.83645   7287666.41845  24261073.9334   24261074.9304
 -11740764.34648  -9005728.61447  20380930.6674   20380934.4074
  -6233018.67647  -4625636.57246  22066836.6164   22066839.9804
  -9001535.14146  -6908492.66746  23465800.2634   23465803.9554
  22096598.08043  17325405.01845  24940883.9264   24940891.3694
  -2802142.96747    780074.72146  21801895.3054   21801901.8574
  -8552647.02946  -6538287.61145  23170197.1124   23170200.9804
 15  1 19  0 58  0.0000000  0  7G02G29G31G05G12G25G21
   9336857.18245   7383415.74945  24284457.0464   24284458.5704
 -11686863.03948  -8963727.59147  20391187.7114   20391191.2514
  -6159394.43347  -4568267.05446  22080847.1694   22080850.6394
  -9002595.54946  -6909318.91846  23465597.8114   23465601.3984
  22237417.17644  17435134.19245  24967681.2604   24967686.5004
  -2691199.06547    866524.48246  21823007.2794   21823013.6444
  -8605143.25846  -6579193.75146  23160207.1144   23160212.6824
 15  1 19  0 58 30.0000000  0  7G02G29G31G05G12G25G21
   9459935.10545   7479320.61445  24307877.9324   24307879.6434
 -11632573.60348  -8921424.13347  20401518.6414   20401522.2864
  -6085231.10647  -4510477.46446  22094960.1044   22094962.8704
  -9003103.69946  -6909714.86046  23465501.6234   23465505.3514
  22378326.39145  17544933.58845  24994495.8914   24994496.8644
  -2579895.61947    953254.41046  21844187.4314   21844194.1124
  -8657381.73945  -6619899.04045  23150266.3474   23150271.1414
 15  1 19  0 59  0.0000000  0  7G02G29G31G05G12G25G21
   9583207.84945   7575377.29045  24331336.1804   24331338.3954
 -11577899.66748  -8878821.05247  20411922.6414   20411926.4514
  -6010533.28547  -4452271.39546  22109174.1684   22109177.4034
  -9003060.18946  -6909680.98946  23465509.6454   23465514.1114
  22519321.36344  17654799.85245  25021326.7494   25021330.8754
  -2468236.79147   1040261.27246  21865435.4774   21865442.2874
  -8709363.58546  -6660404.35246  23140374.7754   23140378.7964
 15  1 19  0 59 30.0000000  0  7G02G29G31G05G12G25G21
   9706676.75945   7671586.86845  24354831.4244   24354832.9834
 -11522838.80448  -8835916.49147  20422400.5714   20422403.8884
  -5935299.07447  -4393647.32946  22123490.8554   22123494.8064
  -9002459.79946  -6909213.14446  23465623.5754   23465626.4354
  22660404.24744  17764734.46245  25048174.2544   25048176.7624
  -2356220.48247   1127546.69346  21886751.1674   21886757.9434
  -8761083.99946  -6700705.94545  23130532.2564   23130537.0274
 15  1 19  1  0  0.0000000  0  7G02G29G31G05G12G25G21
   9830339.08745   7767947.13445  24378364.1274   24378365.4764
 -11467391.90947  -8792711.10747  20432951.5404   20432955.0454
  -5859530.22647  -4334606.68046  22137909.0364   22137912.5884
  -9001301.50246  -6908310.54046  23465844.5044   23465848.3494
  22801573.43943  17874736.43145  25075036.8614   25075043.0394
  -2243848.40347   1215109.33746  21908135.1054   21908141.9744
  -8812541.67246  -6740802.81645  23120741.0654   23120745.9534
 15  1 19  1  0 30.0000000  0  7G02G29G31G05G12G25G21
   9954190.09945   7864454.41145  24401931.7074   24401931.3784
 -11411562.72848  -8749207.83947  20443575.5754   20443578.8694
  -5783231.63847  -4275153.25446  22152428.1734   22152431.9124
  -8999586.84246  -6906974.42546  23466170.5634   23466174.2444
  22942824.44343  17984802.21445  25101916.7994   25101925.0394
  -2131124.69447   1302945.96646  21929585.7974   21929591.9524
  -8863738.13546  -6780696.14246  23110998.0244   23111002.0564
 15  1 19  1  1  0.0000000  0  7G02G29G31G05G12G25G21
  10078228.38245   7961107.63445  24425535.2594   24425534.9894
 -11355351.95447  -8705407.23547  20454272.0134   20454275.5304
  -5706404.14047  -4215287.68146  22167047.7474   22167051.5214
  -8997313.62846  -6905203.08246  23466603.0934   23466606.4344
  23084156.45542  18094930.95145  25128810.3664   25128817.9854
  -2018050.32347   1391055.83246  21951103.2484   21951109.2734
  -8914671.53646  -6820384.49446  23101306.0054   23101309.6984
 15  1 19  1  1 30.0000000  0  7G02G29G31G05G12G25G21
  10202454.65945   8057907.36345  24449174.9944   24449176.2484
 -11298756.97447  -8661307.24147  20465041.5824   20465044.9934
  -5629046.49047  -4155009.00946  22181768.5374   22181771.9134
  -8994477.54846  -6902993.16246  23467142.8564   23467146.9824
  23225570.93241  18205124.11045  25155719.2614   25155733.1754
  -1904623.96347   1479439.98646  21972687.5564   21972694.5784
  -8965337.24746  -6859864.21046  23091664.6854   23091669.8314
 15  1 19  1  2  0.0000000  0  7G02G29G31G05G12G25G21
  10326868.25545   8154853.01545  24472849.9684   24472850.5664
 -11241777.30047  -8616907.48647  20475884.5434   20475888.0014
  -5551158.94547  -4094317.43646  22196590.4524   22196593.9574
  -8991075.57447  -6900342.26446  23467790.4914   23467794.4304
  23367068.00443  18315381.61544  25182646.3154   25182654.2514
  -1790845.12247   1568098.80146  21994339.2794   21994345.9844
  -9015731.93846  -6899132.79345  23082074.4334   23082079.8254
 15  1 19  1  2 30.0000000  0  7G02G29G31G05G12G25G21
  10451464.39645   8251940.93445  24496559.1964   24496560.7204
 -11184415.95547  -8572210.32947  20486800.1274   20486803.7494
  -5472746.02347  -4033216.46446  22211511.8644   22211515.2984
  -8987109.00346  -6897251.40646  23468545.2174   23468548.8974
  23508643.72843  18425700.09842  25209587.3554   25209602.0904
  -1676717.89947   1657029.10146  22016056.7614   22016062.9744
  -9065857.05546  -6938191.29446  23072535.8844   23072539.2134
 15  1 19  1  3  0.0000000  0  8G02G29G10G31G05G12G25G21
  10576240.42145   8349169.00745  24520304.1714   24520305.3554
 -11126674.38747  -8527216.89547  20497787.9404   20497791.8674
  -3134219.63042                  25149843.9584
  -5393809.83347  -3971707.76946  22226532.8984   22226536.5794
  -8982577.02346  -6893719.98846  23469407.2184   23469410.1954
  23650295.96142                  25236543.8654
  -1562244.57646   1746229.07446  22037840.1994   22037847.4084
  -9115711.97446  -6977039.28345  23063048.5804   23063053.1284
 15  1 19  1  3 30.0000000  0  8G02G29G10G31G05G12G25G21
  10701196.82645   8446537.64445  24544082.0034   24544082.3324
 -11068551.17347  -8481926.07747  20508848.3544   20508851.9064
  -3034188.94542                  25168878.3554
  -5314349.93247  -3909790.97046  22241653.9134   22241657.3364
  -8977475.95446  -6889745.11546  23470378.3114   23470381.3004
  23792025.76242  -2451521.60844  25263513.8694   25263512.1584
  -1447424.19647   1835699.46546  22059690.0484   22059696.6254
  -9165292.57546  -7015673.46146  23053614.4174   23053618.3684
 15  1 19  1  4  0.0000000  0  8G02G29G10G31G05G12G25G21
   9250913.35545   7316446.64445  24268102.4834   24268104.7104
 -12585467.68247  -9663938.94647  20220188.9114   20220192.1464
  -4509090.64141                  24888213.8774
  -6809787.47947  -5075067.00846  21957081.2594   21957084.5064
 -10547226.29446  -8112927.15346  23171664.6734   23171667.3344
  22358414.08042  -3568621.62743  24990707.9504   24990704.1284
  -2907676.65946    697840.39146  21781812.8104   21781819.3514
 -10790021.77946  -8281696.20946  22744438.3254   22744442.0064
 15  1 19  1  4 30.0000000  0  8G02G29G10G31G05G12G25G21
   9376220.60545   7414088.67245  24291947.6484   24291949.5114
 -12526587.41747  -9618058.21547  20231393.3194   20231396.9174
  -4408092.64441                  24907432.9234
  -6729288.59247  -5012340.61346  21972400.0254   21972403.3654
 -10540985.92546  -8108064.49446  23172851.6394   23172855.2854
  22500290.93741                  25017704.0124
  -2792169.72847    787845.75746  21803793.1454   21803799.9674
 -10839053.16446  -8319902.45246  22735107.9094   22735111.4614
 15  1 19  1  5  0.0000000  0  6G02G29G31G05G25G21
   9501698.14445   7511863.36745  24315825.3814   24315827.4444
 -12467331.86447  -9571885.05847  20242669.3574   20242673.0264
  -6648274.93747  -4949213.12346  21987816.2534   21987819.0904
 -10534176.05246  -8102758.08246  23174147.7384   23174151.6774
  -2676323.70747    878115.35046  21825838.2404   21825844.8754
 -10887809.68146  -8357894.51646  22725830.2324   22725834.5934
 15  1 19  1  5 30.0000000  0  6G02G29G31G05G25G21
   9627347.83745   7609772.24445  24339734.9454   24339737.4664
 -12407698.02347  -9525417.13047  20254017.1374   20254020.6544
  -6566744.72747  -4885683.12346  22003331.2524   22003334.2644
 -10526791.46147  -8097003.79646  23175553.2094   23175556.0574
  -2560136.14246    968651.09146  21847947.9294   21847954.9854
 -10936286.08246  -8395668.29046  22716605.1224   22716609.2834
 15  1 19  1  6  0.0000000  0  6G02G29G31G05G25G21
   9753166.32445   7707812.65145  24363678.1314   24363679.3504
 -12347687.72347  -9478655.87546  20265436.8424   20265440.3714
  -6484700.88247  -4821752.88646  22018943.3234   22018946.4414
 -10518832.31847  -8090801.82746  23177067.6724   23177071.1774
  -2443609.79247   1059450.82946  21870122.3184   21870129.4094
 -10984482.42746  -8433223.84746  22707433.9954   22707438.3444
 15  1 19  1  6 30.0000000  0  6G02G29G31G05G25G21
   9879150.82445   7805982.40445  24387652.0964   24387653.1634
 -12287302.40547  -9431602.37846  20276927.7294   20276931.5504
  -6402145.79847  -4757424.28146  22034653.4044   22034656.8504
 -10510297.87746  -8084151.54046  23178691.4124   23178696.0074
  -2326746.82146   1150512.86846  21892360.2474   21892366.9994
 -11032397.67346  -8470560.38446  22698316.2564   22698319.8314
 15  1 19  1  7  0.0000000  0  6G02G29G31G05G25G21
  10005298.96645   7904279.67245  24411657.2484   24411658.7614
 -12226543.88147  -9384258.07247  20288489.5864   20288493.1374
  -6319081.87047  -4692699.16546  22050459.6744   22050463.8244
 -10501187.46346  -8077052.50046  23180424.8744   23180429.2584
  -2209549.18646   1241835.68446  21914662.2864   21914668.8854
 -11080031.00446  -8507677.23946  22689251.8424   22689255.4414
 15  1 19  1  7 30.0000000  0  6G02G29G31G05G25G21
  10131610.02245   8002703.88945  24435693.7214   24435696.2064
 -12165411.74047  -9336622.64546  20300122.6214   20300126.5014
  -6235510.22147  -4627578.43146  22066363.2384   22066366.6494
 -10491498.97046  -8069502.99446  23182268.4804   23182272.4424
  -2092017.39346   1333418.88746  21937027.9254   21937034.9824
 -11127379.78746  -8544572.34346  22680241.3894   22680245.2224
 15  1 19  1  8  0.0000000  0  6G02G29G31G05G25G21
  10258081.96045   8101253.47745  24459760.3134   24459761.2044
 -12103905.71447  -9288695.87547  20311826.8304   20311830.7214
  -6151431.92447  -4562062.91246  22082362.5724   22082365.9604
 -10481230.39146  -8061501.42746  23184222.9914   23184226.8244
  -1974152.21747   1425261.85546  21959456.8614   21959464.1054
 -11174442.11646  -8581244.25846  22671285.3734   22671289.5704
 15  1 19  1  8 30.0000000  0  6G02G29G31G05G25G21
  10384710.55045   8199925.07845  24483856.3344   24483858.6434
 -12042029.65147  -9240480.76847  20323601.6484   20323605.3994
  -6066851.34446  -4496155.97646  22098457.4084   22098461.1834
 -10470382.89546  -8053048.81346  23186286.6344   23186290.5964
  -1855957.61447   1517361.51946  21981948.7574   21981955.2984
 -11221219.50246  -8617694.14346  22662384.1064   22662387.7754
 15  1 19  1  9  0.0000000  0  6G02G29G31G05G25G21
  10511495.09745   8298718.25845  24507982.9834   24507985.0004
 -11979782.68647  -9191976.63847  20335447.1524   20335450.7864
  -5981768.93746  -4429858.01446  22114648.0384   22114652.0004
 -10458954.39046  -8044143.43946  23188461.8044   23188465.7784
  -1737433.73346   1609717.76546  22004503.3444   22004510.2834
 -11267708.83046  -8653919.54646  22653537.3364   22653540.9584
 15  1 19  1  9 30.0000000  0  6G02G29G31G05G25G21
  10638434.09745   8397631.76945  24532139.3724   24532140.4044
 -11917165.26147  -9143183.84547  20347362.8304   20347366.2174
  -5896186.57846  -4363170.48846  22130933.8224   22130937.7144
 -10446943.14247  -8034783.98446  23190747.6834   23190751.5744
  -1618581.67046   1702329.74146  22027119.8514   22027126.5094
 -11313908.05246  -8689918.91346  22644745.9744   22644749.9244
 15  1 19  1 10  0.0000000  0  6G02G29G31G05G25G21
  10765526.45545   8496664.77145  24556323.7904   24556324.5764
 -11854177.72547  -9094102.64047  20359348.7984   20359352.1394
  -5810104.97647  -4296093.95246  22147314.6894   22147318.6164
 -10434347.36146  -8024969.05246  23193144.2494   23193147.7544
  -1499401.93646   1795197.03746  22049799.0234   22049805.4814
 -11359814.75646  -8725690.33846  22636010.4444   22636013.3984
 15  1 19  1 10 30.0000000  0  6G02G29G31G05G25G21
  10892768.35245   8595814.29545  24580536.9944   24580537.6624
 -11790822.35747  -9044734.83047  20371405.0064   20371408.3704
  -5723528.14447  -4228631.52746  22163790.1094   22163793.9314
 -10421167.02246  -8014698.61546  23195652.3284   23195655.7274
  -1379898.01046   1888316.96446  22072539.8894   22072546.0544
 -11405430.02846  -8761234.66446  22627329.4754   22627333.1914
 15  1 19  1 11  0.0000000  0  6G02G29G31G05G25G21
  11020162.28145   8695082.28145  24604779.8334   24604779.7984
 -11727095.42847  -8995077.49547  20383531.3814   20383535.0744
  -5636453.56247  -4160781.21946  22180359.6944   22180363.1404
 -10407397.19647  -8003968.82546  23198272.9334   23198275.7934
  -1260066.67446   1981691.98846  22095343.4564   22095350.7004
 -11450747.45146  -8796546.91646  22618706.0094   22618710.4874
 15  1 19  1 11 30.0000000  0  6G02G29G31G05G25G21
  11147701.42445   8794463.45845  24629049.2764   24629050.1324
 -11663002.79747  -8945135.20047  20395727.9274   20395731.4674
  -5548888.24547  -4092548.53946  22197022.7434   22197026.5064
 -10393041.89447  -7992782.80346  23201004.4584   23201008.0334
  -1139914.65046   2075316.91946  22118207.2644   22118214.5914
 -11495771.14546  -8831630.28146  22610137.7944   22610143.1754
 15  1 19  1 12  0.0000000  0  6G02G29G31G05G25G21
  11275382.33345   8893955.07745  24653346.1804   24653347.5284
 -11598546.49547  -8894909.52946  20407993.4214   20407997.0204
  -5460835.28246  -4023935.85146  22213778.4214   22213782.2664
 -10378101.31046  -7981140.74046  23203847.4144   23203849.8994
  -1019444.60746   2169189.66546  22141132.0534   22141138.5944
 -11540500.49946  -8866484.30146  22601626.8014   22601631.2564
 15  1 19  1 12 30.0000000  0  6G02G29G31G05G25G21
  11403206.76645   8993558.48345  24677670.3244   24677671.5784
 -11533723.85747  -8844398.37846  20420328.7644   20420332.6684
  -5372293.24947  -3954942.07246  22230627.4594   22230630.9054
 -10362570.67546  -7969038.90546  23206802.7944   23206806.6624
   -898654.45346   2263311.83646  22164117.5564   22164123.8514
 -11584930.81146  -8901105.30246  22593172.0324   22593176.3934
 15  1 19  1 13  0.0000000  0  6G02G29G31G05G25G21
  11531173.12145   9093272.52645  24702022.2494   24702021.7574
 -11468535.30747  -8793602.11346  20432733.9604   20432738.0634
  -5283263.94847  -3885568.61246  22247569.2484   22247572.9994
 -10346448.50346  -7956476.15246  23209870.4864   23209873.7684
   -777545.19546   2357682.66646  22187163.8704   22187170.4464
 -11629060.54046  -8935492.07046  22584774.1684   22584776.7824
 15  1 19  1 13 30.0000000  0  6G02G29G31G05G25G21
  11659277.91045   9193094.41745  24726399.9844   24726398.8584
 -11402983.23447  -8742522.57946  20445207.9304   20445211.8464
  -5193750.61446  -3815817.98646  22264603.6604   22264608.1144
 -10329735.65147  -7943453.13746  23213051.0524   23213054.4044
   -656120.13147   2452299.55346  22210270.6954   22210277.4824
 -11672889.37246  -8969644.39346  22576433.9904   22576436.6984
 15  1 19  1 14  0.0000000  0  6G02G29G31G05G25G21
  11787518.86945   9293022.45445  24750802.7444   24750803.7644
 -11337068.94147  -8691160.79247  20457751.0984   20457754.6154
  -5103756.10147  -3745692.39646  22281728.8574   22281732.6674
 -10312431.78747  -7929969.61046  23216344.0044   23216347.4264
   -534381.26646   2547160.96646  22233436.4194   22233443.3824
 -11716416.53946  -9003561.63946  22568150.6334   22568154.5374
 15  1 19  1 14 30.0000000  0  6G02G29G31G05G25G21
  11915894.16445   9393055.16045  24775231.0394   24775230.8874
 -11270792.28847  -8639516.64747  20470363.2294   20470367.3094
  -5013281.47047  -3675192.71046  22298945.6194   22298949.0654
 -10294534.99447  -7916024.02546  23219749.5524   23219752.6234
   -412329.36446   2642266.31546  22256662.3904   22256668.7794
 -11759640.64246  -9037242.75046  22559925.6574   22559930.7334
 15  1 19  1 15  0.0000000  0  6G02G29G31G05G25G21
  12044405.13945   9493193.52545  24799686.4314   24799687.2514
 -11204151.66347  -8587588.89147  20483044.5694   20483048.4494
  -4922326.31147  -3604318.56846  22316253.6324   22316256.3754
 -10276042.31946  -7901614.13146  23223268.2744   23223270.9584
   -289963.23246   2737616.53046  22279948.0284   22279955.1674
 -11802556.97646  -9070684.02046  22551758.8774   22551764.0354
 15  1 19  1 15 30.0000000  0  6G02G29G31G05G25G21
  12173046.26145   9593433.39445  24824165.8704   24824166.6324
 -11137151.41947  -8535380.90747  20495794.0044   20495798.0244
  -4830896.22447  -3533074.37446  22333652.4324   22333655.4804
 -10256955.28446  -7886741.10246  23226900.7044   23226904.1624
   -167287.96346   2833207.60846  22303292.1144   22303298.9134
 -11845167.55946  -9103887.06346  22543650.2554   22543655.6364
 15  1 19  1 16  0.0000000  0  6G02G29G31G05G25G21
  12301817.47045   9693774.57145  24848670.6594   24848671.4214
 -11069790.59647  -8482891.95047  20508612.6224   20508616.5724
  -4738991.51247  -3461460.33346  22351141.2184   22351145.0394
 -10237271.74047  -7871403.22746  23230646.1434   23230649.3674
    -44303.19846   2929039.86846  22326695.8864   22326702.1694
 -11887469.76846  -9136849.82246  22535600.4894   22535605.1544
 15  1 19  1 16 30.0000000  0  6G02G29G31G05G25G21
  12430715.20045   9794214.34345  24873198.0074   24873199.2024
 -11002071.27047  -8430123.64147  20521499.1904   20521503.0344
  -4646615.67247  -3389479.17246  22368719.7174   22368723.9484
 -10216992.67147  -7855601.33546  23234505.3114   23234508.5584
     78988.03946   3025110.96146  22350156.7814   22350163.0414
 -11929463.64346  -9169572.29646  22527609.3034   22527613.3484
 15  1 19  1 17  0.0000000  0  6G02G29G31G05G25G21
  12559737.19045   9894750.95645  24897750.2504   24897750.6954
 -10933995.18747  -8377077.35047  20534453.7524   20534457.6324
  -4553771.46946  -3317133.07046  22386387.2694   22386391.1604
 -10196117.52546  -7839334.96846  23238477.6974   23238481.4254
    202583.74046   3121419.27146  22373676.4254   22373683.2244
 -11971148.14746  -9202053.68746  22519676.9844   22519680.5594
 15  1 19  1 17 30.0000000  0  6G02G29G31G05G25G21
  12688881.41845   9995382.84745  24922325.5854   24922321.6594
 -10865562.67447  -8323753.30947  20547475.8834   20547479.8694
  -4460460.95546  -3244423.60046  22404143.8394   22404147.0164
 -10174645.52547  -7822603.52346  23242563.4234   23242567.4324
    326482.01246   3217963.35846  22397253.4364   22397260.2464
 -12012522.37646  -9234293.33446  22511803.5054   22511807.4554
 15  1 19  1 18  0.0000000  0  6G02G29G31G05G25G21
  12818144.94345  10096107.65245  24946923.9534   24946927.9384
 -10796775.81647  -8270153.16547  20560565.3794   20560569.4934
  -4366687.94647  -3171353.75646  22421988.4744   22421991.6504
 -10152577.24146  -7805407.44646  23246762.7094   23246766.3904
    450680.23646   3314741.16046  22420887.4494   22420894.2714
 -12053586.26946  -9266291.16746  22503989.3724   22503993.1934
 15  1 19  1 18 30.0000000  0  7G02G29G31G05G25G21G16
  12947527.46244  10196925.20245  24971544.0474   24971547.0484
 -10727634.08247  -8216276.49447  20573722.6404   20573726.4614
  -4272452.88846  -3097923.84846  22439920.5734   22439924.3004
 -10129910.40846  -7787744.96946  23251076.3174   23251079.7634
    575178.50846   3411752.77446  22444578.7034   22444584.9164
 -12094336.77646  -9298044.77546  22496234.9694   22496238.6964
  -4767654.65943                  24433369.8844
 15  1 19  1 19  0.0000000  0  7G02G29G31G05G25G21G16
  13077031.57343  10297837.55245  24996187.9324   24996189.1874
 -10658133.53547  -8162120.22747  20586948.1814   20586952.4244
  -4177753.02946  -3024131.76846  22457941.2434   22457945.2054
 -10106639.51046  -7769611.81546  23255504.2224   23255508.1374
    699979.89946   3509000.54746  22468328.2454   22468334.5524
 -12134767.59046  -9329549.30046  22488541.7814   22488545.7314
  -4840616.01843  -3682798.11255  24419484.5324   24419490.7444
 15  1 19  1 19 30.0000000  0  7G02G29G31G05G25G21G16
  13206648.83343  10398837.93044  25020852.8184   25020850.7794
 -10588281.72947  -8107690.24947  20600240.6494   20600244.9394
  -4082597.32846  -2949984.47446  22476048.8284   22476052.9314
 -10082770.75346  -7751012.76346  23260046.6774   23260051.3314
    825076.06746   3606478.07046  22492133.0524   22492140.0044
 -12174884.35146  -9360809.09946  22480907.4514   22480911.0744
  -4913467.35543  -3739565.36844  24405622.1484   24405630.2254
 15  1 19  1 20  0.0000000  0  7G02G29G31G05G25G21G16
  13336381.23543  10499928.14045  25045541.2964   25045549.6074
 -10518075.83947  -8052984.36647  20613600.1994   20613604.3134
  -3986984.48946  -2875480.98546  22494243.5334   22494247.6354
 -10058299.64346  -7731944.33346  23264703.3144   23264706.6904
    950469.31146   3704187.07646  22515994.5614   22516001.5244
 -12214682.27246  -9391820.45446  22473333.9074   22473337.5764
  -4986202.84843  -3796242.47045  24391781.2534   24391785.2854
 15  1 19  1 20 30.0000000  0  7G02G29G31G05G25G21G16
  13466226.21043  10601105.93744  25070249.3514   25070250.1844
 -10447517.21147  -7998003.61547  20627027.2984   20627031.3904
  -3890917.20547  -2800623.39046  22512524.6144   22512528.0724
 -10033226.01746  -7712406.42246  23269474.4924   23269477.5054
   1076157.42546   3802125.82946  22539911.8334   22539918.9844
 -12254160.65846  -9422582.81346  22465821.2314   22465825.8614
  -5058821.06943  -3852828.06745  24377963.2564   24377963.8434
 15  1 19  1 21  0.0000000  0  7G02G29G31G05G25G21G16
  13596182.99143  10702371.09845  25094979.4284   25094980.2964
 -10376605.58647  -7942747.79947  20640521.0674   20640525.3344
  -3794396.70447  -2725412.64046  22530891.9664   22530895.1434
 -10007548.71346  -7692398.14346  23274360.6644   23274364.1104
   1202139.78846   3900293.86946  22563886.1214   22563892.8964
 -12293316.90546  -9453094.15446  22458370.1474   22458373.6524
  -5131318.66343  -3909319.64545  24364167.0854   24364175.3374
 15  1 19  1 21 30.0000000  0  7G02G29G31G05G25G21G16
  13726246.39743  10803719.14245  25119730.2104   25119734.4294
 -10305345.36447  -7887220.35847  20654081.8664   20654085.8874
  -3697428.42247  -2649852.97546  22549344.4524   22549348.0514
  -9981269.91546  -7671921.14246  23279361.5034   23279365.3364
   1328411.47546   3998687.38746  22587914.4694   22587920.9744
 -12332153.22646  -9483356.22046  22450979.7134   22450983.0074
  -5203697.41143  -3965718.69345  24350393.6534   24350398.3414
 15  1 19  1 22  0.0000000  0  7G02G29G31G05G25G21G16
  13856415.69942  10905149.78545  25144499.9904   25144500.5064
 -10233735.88247  -7831420.77147  20667708.4704   20667712.5724
  -3600013.73147  -2573945.44046  22567881.4084   22567884.5034
  -9954387.91646  -7650974.13246  23284477.2264   23284480.8954
   1454972.12546   4097306.02646  22611998.1064   22612004.0254
 -12370667.88946  -9513367.64446  22443650.6314   22443653.4094
  -5275953.95443  -4022022.41045  24336643.4614   24336647.0834
 15  1 19  1 22 30.0000000  0  7G02G29G31G05G25G21G16
  13986689.171 2                  25169291.346
 -10161777.71947  -7775349.47747  20681401.6284   20681405.4844
  -3502154.75747  -2497691.74446  22586503.5994   22586507.0924
  -9926902.18247  -7629556.65146  23289707.5594   23289709.7044
   1581820.15946   4196148.59946  22636136.4584   22636143.2684
 -12408858.27546  -9543126.36146  22436383.3864   22436387.0434
  -5348086.36644  -4078229.50545  24322917.4834   24322923.3674
 15  1 19  1 23  0.0000000  0  7G02G29G31G05G25G21G16
  14117066.087 2                  25194100.165
 -10089470.88847  -7719006.49147  20695161.0264   20695165.1284
  -3403852.69647  -2421092.77546  22605210.1264   22605213.8194
  -9898811.83846  -7607668.05046  23295052.7854   23295055.7394
   1708954.96446   4295214.66646  22660329.5954   22660337.2034
 -12446723.04546  -9572631.34846  22429178.5584   22429181.4304
  -5420091.39145  -4134337.34645  24309215.4654   24309218.8764
 15  1 19  1 23 30.0000000  0  7G02G29G31G05G25G21G16
  14247544.047 2                  25218929.671
 -10016817.46947  -7662393.45447  20708986.8164   20708990.9434
  -3305110.68047  -2344150.98646  22624000.0784   22624003.0564
  -9870116.72946  -7585308.21846  23300513.1524   23300515.3794
   1836374.16846   4394502.31946  22684576.3674   22684583.8224
 -12484261.67246  -9601882.19746  22422034.3714   22422037.4664
  -5491967.85145  -4190345.01845  24295537.1384   24295543.6674
 15  1 19  1 24  0.0000000  0  7G02G29G31G05G25G21G16
  14378122.025 1                  25243777.746
  -9943816.26947  -7605509.39447  20722878.1374   20722882.4394
  -3205929.61047  -2266867.10446  22642873.7094   22642877.0034
  -9840815.15546  -7562475.81846  23306089.3744   23306092.7384
   1964077.47246   4494011.34746  22708877.9554   22708885.5284
 -12521471.52046  -9630876.86146  22414953.7684   22414958.0474
  -5563712.43445  -4246249.95345  24281885.3594   24281889.1924
 15  1 19  1 24 30.0000000  0  7G02G29G31G05G25G21G16
  -4695766.170 1                  25268642.815
  -9870472.07747  -7548358.08047  20736835.4074   20736839.8264
  -3106315.77347  -2189245.97946  22661829.5394   22661833.1964
  -9810910.01246  -7539173.07746  23311780.1004   23311783.2424
   2092059.61946   4593737.66046  22733231.8794   22733239.7334
 -12558354.99046  -9659617.21246  22407935.0154   22407938.8834
  -5635326.69145  -4302053.26945  24268257.2554   24268261.4524
 15  1 19  1 25  0.0000000  0  7G02G29G31G05G25G21G16
  -4564997.961 1                  25293529.221
  -9796783.54547  -7490938.45747  20750857.6334   20750861.7354
  -3006269.36147  -2111287.78246  22680867.5814   22680871.5784
  -9780398.86646  -7515398.14446  23317585.9704   23317588.6424
   2220321.11146   4693681.66146  22757639.3724   22757646.5464
 -12594908.85646  -9688100.72646  22400978.9894   22400983.1274
  -5706805.92445  -4357751.44845  24254655.4574   24254661.5414
 15  1 19  1 25 30.0000000  0  7G02G29G31G05G25G21G16
  -4434136.958 1                  25318431.432
  -9722752.17347  -7433251.68747  20764945.5134   20764949.5224
  -2905793.05947  -2032994.59446  22699987.7534   22699992.0904
  -9749282.05546  -7491151.24246  23323507.3534   23323510.6584
   2348859.68246   4793841.56546  22782099.5064   22782106.7154
 -12631132.89346  -9716327.21646  22394085.7054   22394089.4094
  -5778149.18044  -4413343.64645  24241078.3594   24241081.4424
 15  1 19  1 26  0.0000000  0  7G02G29G31G05G25G21G16
  -4303184.961 2                  25343351.415
  -9648378.95347  -7375298.55647  20779098.3774   20779102.1754
  -2804889.23747  -1954368.27246  22719189.4254   22719193.5634
  -9717559.34146  -7466432.24946  23329543.7954   23329547.2304
   2477673.80846   4894216.15546  22806612.1684   22806618.2994
 -12667025.03146  -9744295.08246  22387255.6564   22387258.9744
  -5849354.20243  -4468828.09745  24227528.2024   24227530.8754
 15  1 19  1 26 30.0000000  0  7G02G29G31G05G25G21G16
  -4172141.642 1                  25368286.690
  -9573662.76547  -7317078.15647  20793316.2174   20793320.2614
  -2703558.54047  -1875409.34846  22738471.8824   22738475.1294
  -9685228.17247  -7441239.12546  23335696.3674   23335700.1184
   2606763.67846   4994805.61846  22831177.0974   22831184.4234
 -12702582.94546  -9772002.52846  22380489.5104   22380492.4174
  -5920417.06443  -4524201.75645  24214006.1364   24214013.4634
 15  1 19  1 27  0.0000000  0  7G02G29G31G05G25G21G16
  -4041010.678 1                  25393241.317
  -9498605.90747  -7258592.31247  20807599.1304   20807602.6714
  -2601805.01347  -1796120.94946  22757834.9804   22757838.0864
  -9652290.53846  -7415573.42746  23341964.1244   23341967.5594
   2736125.86046   5095607.27846  22855793.9754   22855801.2674
 -12737806.92246  -9799449.76646  22373786.6614   22373789.5574
  -5991337.24245  -4579464.25845  24200510.9484   24200516.6694
 15  1 19  1 27 30.0000000  0  7G02G29G31G05G25G21G16
  -3909794.206 1                  25418211.454
  -9423209.56047  -7199841.91947  20821946.6404   20821950.4734
  -2499631.32347  -1716505.13046  22777277.9534   22777281.3524
  -9618745.74446  -7389434.60646  23348347.3524   23348350.6574
   2865758.42446   5196619.63246  22880462.5644   22880469.4104
 -12772695.90846  -9826635.98146  22367147.2684   22367150.7494
  -6062112.91544  -4634614.15145  24187042.3004   24187048.0324
 15  1 19  1 28  0.0000000  0  7G02G29G31G05G25G21G16
                                  25443197.083
  -9347473.29647  -7140826.64747  20836358.6054   20836362.5204
  -2397038.53346  -1636562.74446  22796801.0794   22796804.7244
  -9584592.31246  -7362821.52446  23354846.4714   23354850.4444
   2995661.21246   5297842.55046  22905181.8794   22905189.2994
 -12807247.70846  -9853559.45546  22360572.0014   22360575.1904
  -6132740.80743  -4689648.90445  24173601.7844   24173607.1534
 15  1 19  1 28 30.0000000  0  6G29G31G05G25G21G16
 -10846814.59947  -8309144.54747  20551043.5414   20551047.5384
  -3869444.93046  -2783892.44546  22516611.2354   22516615.1504
 -11125248.42446  -8563332.76046  23061669.3984   23061672.5054
   1550417.68746   4171678.73646  22630161.1234   22630168.0394
 -14416881.52746 -11107819.55546  22054268.8324   22054272.3724
  -7778640.30744  -5972168.08145  23860397.6854   23860400.1944
 15  1 19  1 29  0.0000000  0  6G29G31G05G25G21G16
 -10770398.50647  -8249599.54447  20565585.0024   20565588.9284
  -3766019.19346  -2703300.99446  22536292.4954   22536296.3054
 -11089875.77846  -8535769.67646  23068400.6424   23068404.3814
   1680857.86746   4273320.39446  22654983.6014   22654989.6734
 -14450753.94646 -11134213.63346  22047823.4584   22047827.1744
  -7848964.15045  -6026965.91045  23847016.6594   23847019.2264
 15  1 19  1 29 30.0000000  0  6G29G31G05G25G21G16
 -10693644.39647  -8189791.14847  20580190.8144   20580194.5774
  -3662181.06746  -2622388.20746  22556052.2614   22556055.8024
 -11053893.31747  -8507731.39346  23075247.8884   23075250.8774
   1811563.84546   4375169.17046  22679855.4434   22679861.3864
 -14484284.41146 -11160341.24646  22041442.5514   22041446.9824
  -7919132.76145  -6081642.79345  23833662.9484   23833666.2654
 15  1 19  1 30  0.0000000  0  6G29G31G05G25G21G16
 -10616552.23547  -8129719.31947  20594860.8744   20594865.2114
  -3557932.10646  -2541155.27746  22575890.2384   22575894.2584
 -11017300.16746  -8479217.23246  23082210.8904   23082213.6454
   1942534.87346   4477224.48846  22704779.0084   22704785.0574
 -14517471.77746 -11186201.51446  22035127.5934   22035131.1684
  -7989143.82145  -6136196.85245  23820340.8364   23820346.1234
 15  1 19  1 30 30.0000000  0  6G29G31G05G25G21G16
 -10539127.64647  -8069388.47347  20609594.1494   20609598.2874
  -3453279.47546  -2459607.81146  22595804.7654   22595808.9264
 -10980100.90946  -8450230.77046  23089290.3804   23089293.1704
   2073764.52446   4579481.33746  22729751.3404   22729757.7994
 -14550319.39646 -11211797.04146  22028877.0214   22028881.0884
  -8058999.22544  -6190629.61545  23807047.9564   23807052.9734
 15  1 19  1 31  0.0000000  0  6G29G31G05G25G21G16
 -10461367.94147  -8008796.50747  20624391.4564   20624395.4654
  -3348221.87546  -2377744.77146  22615796.3874   22615800.1274
 -10942291.65147  -8420768.97846  23096485.0494   23096486.9244
   2205254.59246   4681941.10446  22754772.8804   22754779.3394
 -14582823.07846 -11237124.58046  22022691.6714   22022695.6214
  -8128693.59245  -6244936.88645  23793785.7134   23793790.5664
 15  1 19  1 31 30.0000000  0  6G29G31G05G25G21G16
 -10383275.03347  -7947944.89947  20639252.3704   20639256.4384
  -3242763.39946  -2295569.35346  22635864.7504   22635868.2204
 -10903873.91946  -8390833.05746  23103795.5094   23103798.1354
   2337002.14346   4784601.50446  22779843.3174   22779850.1394
 -14614982.60546 -11262183.92046  22016571.7214   22016575.4144
  -8198226.02045  -6299117.97745  23780554.4524   23780558.2974
 15  1 19  1 32  0.0000000  0  6G29G31G05G25G21G16
 -10304848.84747  -7886833.59247  20654176.5404   20654180.4084
  -3136905.80446  -2213082.94346  22656008.8564   22656012.7594
 -10864846.71146  -8360422.23146  23111222.2664   23111224.3764
   2469006.39646   4887461.91946  22804962.8414   22804970.4614
 -14646795.87546 -11286973.43646  22010517.8454   22010521.2804
  -8267593.33545  -6353170.38245  23767354.0584   23767357.3754
 15  1 19  1 32 30.0000000  0  6G29G31G05G25G21G16
 -10226093.11147  -7825465.48247  20669162.8444   20669166.8064
  -3030654.29346  -2130289.57946  22676227.8974   22676232.1644
 -10825213.08446  -8329538.85146  23118763.7494   23118766.6564
   2601262.87046   4990518.89546  22830130.5244   22830137.0304
 -14678264.98146 -11311494.79046  22004529.2144   22004532.8364
  -8336796.11345  -6407094.60445  23754185.4014   23754186.7964
 15  1 19  1 33  0.0000000  0  6G29G31G05G25G21G16
 -10147004.32847  -7763837.86447  20684212.8874   20684216.8024
  -2924006.80646  -2047187.66846  22696522.2244   22696525.8354
 -10784968.29946  -8298179.30046  23126422.4184   23126425.9004
   2733774.22146   5093774.46946  22855346.8794   22855353.3734
 -14709384.26546 -11335743.52446  21998607.2824   21998611.5964
  -8405827.82145  -6460885.48445  23741048.5454   23741053.0234
 15  1 19  1 33 30.0000000  0  6G29G31G05G25G21G16
 -10067586.00947  -7701953.46447  20699325.5434   20699329.5174
  -2816968.78846  -1963781.44746  22716890.6234   22716894.6444
 -10744114.94047  -8266345.49346  23134197.0614   23134199.7574
   2866536.10746   5197225.27046  22880610.6624   22880617.6954
 -14740155.64446 -11359721.18546  21992752.0274   21992755.9314
  -8474689.09745  -6514543.61745  23727944.1594   23727948.6614
 15  1 19  1 34  0.0000000  0  6G29G31G05G25G21G16
  -9987837.82547  -7639812.02347  20714501.5314   20714505.4464
  -2709541.67346  -1880072.00646  22737333.2044   22737338.2804
 -10702652.49447  -8234037.04646  23142086.7884   23142090.0004
   2999547.69146   5300870.59446  22905922.0034   22905928.2634
 -14770577.32846 -11383426.36446  21986962.9374   21986966.9464
  -8543376.95644  -6568066.58445  23714873.4384   23714879.0534
 15  1 19  1 34 30.0000000  0  6G29G31G05G25G21G16
  -9907757.23347  -7577411.56447  20729740.2044   20729743.7914
  -2601724.38246  -1796058.55246  22757850.3584   22757854.4614
 -10660576.99547  -8201250.92946  23150093.6844   23150097.0244
   3132810.92946   5404712.06246  22931280.9934   22931288.4244
 -14800643.96246 -11406854.88046  21981241.3844   21981244.8784
  -8611885.36444  -6621449.84145  23701837.1574   23701842.3624
 15  1 19  1 35  0.0000000  0  6G29G31G05G25G21G16
  -9827347.25747  -7514754.44847  20745041.8244   20745045.6344
  -2493521.72746  -1711744.81346  22778440.5314   22778445.8534
 -10617890.93046  -8167989.04646  23158216.0714   23158218.8374
   3266321.98046   5508746.61646  22956687.7584   22956694.7094
 -14830357.24046 -11430008.06546  21975587.1784   21975590.7774
  -8680214.10644  -6674693.10945  23688833.5244   23688839.5144
 15  1 19  1 35 30.0000000  0  6G29G31G05G25G21G16
  -9746611.47147  -7451843.44947  20760405.2244   20760409.0464
  -2384938.60246  -1627134.61746  22799103.1124   22799108.0364
 -10574596.92946  -8134253.44446  23166454.3134   23166457.8294
   3400076.72046   5612971.06446  22982139.6704   22982146.7504
 -14859718.21246 -11452886.71846  21969999.7614   21970003.2664
  -8748363.42944  -6727796.48745  23675865.9544   23675867.6654
 15  1 19  1 36  0.0000000  0  6G29G31G05G25G21G16
  -9665548.69947  -7388677.65747  20775831.0394   20775835.5404
  -2275976.03546  -1542228.75046  22819838.2484   22819842.4454
 -10530693.48747  -8100042.94046  23174809.5794   23174812.6514
   3534074.90046   5717385.22046  23007639.1194   23007646.4464
 -14888724.60446 -11475489.09846  21964480.1864   21964484.2774
  -8816329.75145  -6780757.24545  23662932.3734   23662935.0574
 15  1 19  1 36 30.0000000  0  6G29G31G05G25G21G16
  -9584160.10747  -7325257.99347  20791318.6644   20791322.4394
  -2166636.77546  -1457029.36046  22840644.7234   22840650.1274
 -10486180.67646  -8065357.62646  23183280.0634   23183283.4634
   3668314.80446   5821987.73646  23033183.9284   23033191.6524
 -14917375.23046 -11497814.24046  21959028.2504   21959031.8724
  -8884110.78645  -6833573.54345  23650034.2904   23650036.8804
 15  1 19  1 37  0.0000000  0  6G29G31G05G25G21G16
  -9502445.28747  -7261584.10647  20806868.6614   20806872.4474
  -2056922.57746  -1371537.80446  22861522.6454   22861527.3574
 -10441058.30947  -8030197.33046  23191866.7444   23191869.4174
   3802795.35546   5926777.73546  23058774.6404   23058782.1314
 -14945668.45446 -11519860.91946  21953643.9574   21953647.8614
  -8951703.78245  -6886243.45345  23637171.5934   23637175.2044
 15  1 19  1 37 30.0000000  0  6G29G31G05G25G21G16
  -9420408.90147  -7197659.65047  20822479.4754   20822483.2614
  -1946839.51446  -1285758.82846  22882471.1334   22882475.4934
 -10395330.02247  -7994564.87546  23200568.3194   23200571.7774
   3937511.47246   6031751.30946  23084410.1904   23084418.5834
 -14973606.97046 -11541631.19446  21948327.1874   21948330.9854
  -9019109.60745  -6938767.43945  23624344.9484   23624348.8404
 15  1 19  1 38  0.0000000  0  6G29G31G05G25G21G16
  -9338048.41747  -7133482.63747  20838152.1894   20838156.2804
  -1836386.75946  -1199691.78646  22903489.8494   22903494.3974
 -10348992.28346  -7958457.55346  23209386.1454   23209390.0724
   4072464.81946   6136909.76946  23110090.6834   23110098.2444
 -15001186.24946 -11563121.54146  21943078.9694   21943082.8024
  -9086322.59045  -6991141.17145  23611555.1684   23611558.3454
 15  1 19  1 38 30.0000000  0  6G29G31G05G25G21G16
  -9255363.23747  -7069052.62547  20853886.4364   20853890.4224
  -1725565.20446  -1113337.35746  22924578.1754   22924582.3604
 -10302044.20446  -7921874.62546  23218319.7914   23218322.3354
   4207655.01346   6242252.74846  23135817.0494   23135825.8054
 -15028404.00646 -11584330.16846  21937899.7744   21937904.2524
  -9153339.08446  -7043361.81945  23598802.3744   23598805.2224
 15  1 19  1 39  0.0000000  0  6G29G31G05G25G21G16
  -9172355.23947  -7004371.08147  20869682.4794   20869686.4874
  -1614379.47046  -1026699.15446  22945736.2274   22945741.1624
 -10254487.43546  -7884817.36646  23227369.8384   23227372.9444
   4343079.12346   6347778.01246  23161587.5124   23161595.8234
 -15055260.44546 -11605257.26546  21932789.0614   21932792.8584
  -9220158.18845  -7095428.62545  23586086.6914   23586091.3214
 15  1 19  1 39 30.0000000  0  6G29G31G05G25G21G16
  -9089025.24147  -6939438.62647  20885539.7014   20885543.8164
  -1502831.40146   -939778.58046  22966962.7894   22966967.9824
 -10206321.76846  -7847285.65546  23236535.2114   23236538.6344
   4478735.79446   6453484.47846  23187401.8724   23187410.6874
 -15081754.56646 -11625902.04246  21927747.7964   21927751.4894
  -9286777.18246  -7147339.48445  23573409.6094   23573413.7004
 15  1 19  1 40  0.0000000  0  6G29G31G05G25G21G16
  -9005373.49147  -6874255.44847  20901457.9804   20901462.2364
  -1390922.86846   -852577.17346  22988258.2284   22988262.8704
 -10157546.74046  -7809279.14146  23245816.9064   23245820.2234
   4614623.91646   6559371.30546  23213260.8534   23213267.6524
 -15107884.21446 -11646262.80146  21922775.4354   21922778.4834
  -9353193.50246  -7199092.46745  23560771.2644   23560774.2884
 15  1 19  1 40 30.0000000  0  6G29G31G05G25G21G16
  -8921400.65747  -6808822.06247  20917437.5034   20917441.5594
  -1278656.77346   -765097.11046  23009622.0264   23009626.1764
 -10108163.14146  -7770798.42446  23255214.1754   23255216.9654
   4750741.74746   6665437.12446  23239163.3184   23239169.5894
 -15133648.86346 -11666339.15946  21917872.2864   21917875.2404
  -9419404.59845  -7250685.50745  23548171.6464   23548174.5064
 15  1 19  1 41  0.0000000  0  6G29G31G05G25G21G16
  -8837108.81447  -6743140.12247  20933477.9014   20933482.2504
  -1166036.58146   -677341.13346  23031052.7134   23031057.5784
 -10058172.20546  -7731844.46346  23264727.4664   23264730.5724
   4887086.35446   6771679.66446  23265108.6184   23265115.9564
 -15159048.59946 -11686131.16546  21913039.1834   21913042.4774
  -9485409.06045  -7302117.51945  23535610.1524   23535613.7284
 15  1 19  1 41 30.0000000  0  6G29G31G05G25G21G16
  -8752494.80347  -6677207.13047  20949579.1414   20949582.9984
  -1053061.46346   -589308.60146  23052551.1674   23052555.6694
 -10007570.92547  -7692414.88446  23274356.4094   23274359.3874
   5023659.68946   6878100.42046  23291097.8164   23291104.5804
 -15184079.07246 -11705635.44346  21908276.2784   21908278.7874
  -9551201.10045  -7353384.00345  23523090.6374   23523095.1854
 15  1 19  1 42  0.0000000  0  6G29G31G05G25G21G16
  -8667562.30747  -6611025.96547  20965741.4294   20965745.8014
   -939737.00146   -501003.86146  23074115.8264   23074121.3594
  -9956362.43547  -7652512.18646  23284100.8054   23284103.6894
   5160456.99046   6984695.66546  23317129.6494   23317136.5304
 -15208742.09146 -11724853.36446  21903582.7844   21903586.1484
  -9616781.38345  -7404485.51245  23510612.0914   23510616.5344
 15  1 19  1 42 30.0000000  0  6G29G31G05G25G21G16
  -8582312.77647  -6544597.75447  20981963.6854   20981967.9514
   -826066.15046   -412429.20246  23095747.2274   23095751.6704
  -9904547.52146  -7612136.93646  23293961.2394   23293964.4984
   5297476.18646   7091463.86446  23343203.5944   23343211.2844
 -15233036.89346 -11743784.38646  21898959.6624   21898963.0614
  -9682148.10545  -7455420.61145  23498172.7464   23498175.6064
 15  1 19  1 43  0.0000000  0  6G29G31G05G25G21G16
  -8496749.85447  -6477925.34247  20998246.2254   20998250.6324
   -712053.62446   -323588.29946  23117443.3364   23117447.2164
  -9852128.71546  -7571291.11846  23303935.9854   23303939.3034
   5434713.57446   7198402.07146  23369318.6774   23369326.3554
 -15256965.71747 -11762430.20846  21894406.0964   21894409.1914
  -9747300.58445  -7506188.74445  23485775.1014   23485779.5214
 15  1 19  1 43 30.0000000  0  6G29G31G05G25G21G16
  -8410872.79747  -6411008.14447  21014587.8364   21014592.4204
   -597701.76546   -234482.99646  23139203.6534   23139208.2014
  -9799106.33746  -7529974.96446  23314025.5094   23314028.5804
   5572167.70946   7305509.14446  23395475.6604   23395483.6084
 -15280526.03546 -11780788.88746  21889922.9384   21889926.5014
  -9812236.37745  -7556788.01045  23473417.4024   23473421.2824
 15  1 19  1 44  0.0000000  0  6G29G31G05G25G21G16
  -8324684.82247  -6343848.67947  21030988.7574   21030993.3884
   -483015.23446   -145116.91246  23161027.7954   23161031.8984
  -9745482.88346  -7488190.45246  23324230.0994   23324232.9134
   5709834.80246   7412782.19446  23421672.5834   23421680.5664
 -15303719.29646 -11798861.55346  21885509.2984   21885513.1554
  -9876955.12945  -7607218.18045  23461102.2244   23461106.3154
 15  1 19  1 44 30.0000000  0  6G29G31G05G25G21G16
  -8238182.83447  -6276444.52447  21047449.5294   21047453.5734
   -367992.62046    -55488.93346  23182915.6624   23182919.6714
  -9691254.61646  -7445934.66446  23334549.2854   23334551.8874
   5847717.13946   7520222.93546  23447911.5854   23447918.7944
 -15326540.76646 -11816644.49946  21881166.1944   21881170.0274
  -9941450.36845  -7657474.16045  23448829.1654   23448833.2094
 15  1 19  1 45  0.0000000  0  6G29G31G05G25G21G16
  -8151370.78347  -6208798.75447  21063969.2444   21063973.3474
   -252640.29746     34395.94546  23204866.7164   23204870.2564
  -9636425.44046  -7403210.60646  23344983.0664   23344985.9974
   5985809.76746   7627827.53946  23474189.2974   23474195.8144
 -15348993.23746 -11834139.91146  21876893.9044   21876897.8204
 -10005722.90645  -7707556.61645  23436598.4084   23436601.6784
 15  1 19  1 45 30.0000000  0  6G29G31G05G25G21G16
  -8064250.15447  -6140912.53847  21080547.9344   21080552.6234
   -136961.26146    124535.42346  23226880.0454   23226885.1684
  -9580997.03247  -7360019.61446  23355530.9304   23355533.2634
   6124110.15246   7735594.03646  23500506.9804   23500513.7444
 -15371076.13147 -11851347.32746  21872691.8014   21872695.1304
 -10069771.34245  -7757464.41745  23424410.1394   23424414.8284
 15  1 19  1 46  0.0000000  0  6G29G31G05G25G21G16
  -7976822.00047  -6072786.72047  21097185.1334   21097189.2244
    -20957.82246    214927.67246  23248955.0054   23248958.8734
  -9524969.06747  -7316361.43546  23366192.5444   23366194.9834
   6262616.97046   7843521.39745  23526863.8114   23526871.7934
 -15392788.21846 -11868265.82646  21868560.0644   21868563.9684
 -10133593.02045  -7807195.59045  23412265.2524   23412270.1644
 15  1 19  1 46 30.0000000  0  6G29G31G05G25G21G16
  -7889086.45047  -6004421.35547  21113880.6414   21113884.5684
     95368.09746    305571.20846  23271090.9044   23271094.6434
  -9468341.77946  -7272236.28846  23376967.6754   23376970.4064
   6401329.01846   7951608.70146  23553260.1694   23553266.8744
 -15414128.24046 -11884894.41046  21864498.9894   21864502.4004
 -10197184.63545  -7856747.49945  23400164.3014   23400167.0674
 15  1 19  1 47  0.0000000  0  6G29G31G05G25G21G16
  -7801042.35047  -5935815.56047  21130634.7664   21130638.6574
    212014.45846    396464.44146  23293287.9024   23293290.9144
  -9411115.16246  -7227644.12546  23387858.2754   23387860.7024
   6540245.45846   8059855.25246  23579694.7534   23579702.0914
 -15435094.68146 -11901231.87446  21860509.1464   21860512.4644
 -10260543.18045  -7906117.81645  23388108.1044   23388111.8904
 15  1 19  1 47 30.0000000  0  6G29G31G05G25G21G16
  -7712693.60047  -5866972.35647  21147446.8424   21147450.4874
    328975.93146    487603.21246  23315545.0614   23315548.8244
  -9353292.29446  -7182587.35846  23398861.2694   23398864.3054
   6679362.01546   8168257.73846  23606168.0344   23606175.6184
 -15455688.42346 -11917278.95546  21856589.9714   21856593.5114
 -10323668.61746  -7955306.50245  23376095.2564   23376097.8584
 15  1 19  1 48  0.0000000  0  6G29G31G05G25G21G16
  -7624039.40047  -5797891.14947  21164317.3924   21164321.4714
    446252.07046    578987.17746  23337861.8244   23337865.4934
  -9294871.65047  -7137064.77646  23409978.4144   23409981.2864
   6818679.12046   8276816.47445  23632678.8304   23632685.2304
 -15475907.17346 -11933033.79846  21852742.8464   21852746.3624
 -10386556.19046  -8004309.76145  23364128.2754   23364132.4714
 15  1 19  1 48 30.0000000  0  6G29G31G05G25G21G16
  -7535081.07147  -5728572.95647  21181245.6144   21181249.2134
    563839.00146    670613.32246  23360238.0774   23360240.9374
  -9235855.08246  -7091077.83746  23421208.7944   23421212.4984
   6958193.71546   8385529.11145  23659227.7714   23659235.5904
 -15495751.39646 -11948496.80946  21848966.8804   21848970.5844
 -10449205.00346  -8053127.03945  23352206.4984   23352209.6164
 15  1 19  1 49  0.0000000  0  6G29G31G05G25G21G16
  -7445822.57847  -5659020.87547  21198230.6674   21198234.5704
    681731.83246    762477.83946  23382672.4584   23382675.8464
  -9176245.62646  -7044628.89346  23432552.2604   23432555.4254
   7097901.96445   8494392.69945  23685813.2794   23685820.7934
 -15515222.48646 -11963669.08746  21845261.5314   21845264.9074
 -10511614.85346  -8101758.07245  23340330.6584   23340335.1014
 15  1 19  1 49 30.0000000  0  6G29G31G05G25G21G16
  -7356262.20347  -5589233.56847  21215273.8234   21215277.9144
    799928.94246    854579.45746  23405164.8194   23405168.2074
  -9116042.93347  -6997717.68846  23444008.3794   23444011.3564
   7237803.07345   8603406.48745  23712435.4144   23712441.6274
 -15534318.31546 -11978548.94346  21841627.5894   21841631.2584
 -10573782.47746  -8150200.34745  23328500.3604   23328503.8414
 15  1 19  1 50  0.0000000  0  6G29G31G05G25G21G16
  -7266399.84647  -5519210.93747  21232373.8204   21232377.9704
    918429.04246    946917.17346  23427714.2134   23427716.4754
  -9055246.42446  -6950343.78246  23455577.4104   23455579.9664
   7377896.87146   8712570.49245  23739094.5924   23739101.6494
 -15553036.75646 -11993134.71846  21838065.5574   21838068.9804
 -10635703.30746  -8198450.35045  23316717.0084   23316720.1264
 15  1 19  1 50 30.0000000  0  6G29G31G05G25G21G16
  -7176240.80447  -5448957.11747  21249530.5634   21249534.6544
   1037225.30046   1039485.65646  23450320.8724   23450323.0764
  -8993861.03946  -6902511.00946  23467258.7364   23467261.7024
   7518177.49246   8821880.04545  23765789.0414   23765796.2624
 -15571380.82946 -12007428.80546  21834574.6244   21834578.3404
 -10697379.31946  -8246509.59345  23304980.5924   23304983.3934
 15  1 19  1 51  0.0000000  0  6G29G31G05G25G21G16
  -7085783.55947  -5378470.95347  21266743.9274   21266747.4094
   1156317.26146   1132284.52146  23472983.1864   23472985.4484
  -8931884.99246  -6854217.98746  23479052.2624   23479055.9084
   7658645.23845   8931335.35745  23792518.8404   23792527.0574
 -15589347.77346 -12021429.00346  21831155.6664   21831159.4174
 -10758806.23046  -8294374.67045  23293291.2844   23293294.3784
 15  1 19  1 51 30.0000000  0  6G29G31G05G25G21G16
  -6995028.21647  -5307752.50447  21284013.9574   21284017.7204
   1275702.47746   1225311.91446  23495701.2774   23495704.1844
  -8869319.02146  -6805465.28846  23490958.1524   23490962.1144
   7799298.74345   9040935.46445  23819284.5714   23819292.4254
 -15606936.60146 -12035134.55946  21827808.8194   21827812.4174
 -10819980.92346  -8342043.24945  23281650.2914   23281652.7064
 15  1 19  1 52  0.0000000  0  6G29G31G05G25G21G16
  -6903976.11847  -5236802.81347  21301340.8504   21301344.8824
   1395378.24246   1318565.71546  23518474.9924   23518478.5794
  -8806164.17346  -6756253.70846  23502976.2684   23502980.0314
   7940136.22946   9150678.94145  23846085.3224   23846092.7894
 -15624147.09446 -12048545.31246  21824533.6364   21824536.6374
 -10880900.96346  -8389513.38145  23270057.3294   23270060.2834
 15  1 19  1 52 30.0000000  0  6G29G31G05G25G21G16
  -6812629.23747  -5165623.41747  21318723.2474   21318727.5604
   1515340.50046   1412042.76346  23541303.0034   23541306.4964
  -8742422.85246  -6706585.13646  23515105.9814   23515109.1234
   8081154.33246   9260563.13345  23872920.3934   23872927.0514
 -15640979.49846 -12061661.45446  21821330.7194   21821333.8374
 -10941565.33746  -8436784.33045  23258513.2894   23258517.2744
 15  1 19  1 53  0.0000000  0  6G29G31G05G25G21G16
  -8296404.93147  -6321812.27246  21036370.2004   21036374.5844
     60170.34846    278143.90146  23264393.7984   23264396.0254
 -10253513.25246  -7884058.18146  23227554.7964   23227557.9384
   6646936.44945   8142990.75145  23599997.5294   23600003.7074
 -17232853.25346 -13302082.54446  21518407.1734   21518411.1944
 -12577393.34346  -9711455.50645  22947225.9044   22947228.6944
 15  1 19  1 53 30.0000000  0  6G29G31G05G25G21G16
  -8204471.49947  -6250175.82747  21053864.5814   21053868.3794
    180696.00646    372059.92746  23287328.7284   23287331.6234
 -10188602.15046  -7833478.09946  23239906.7934   23239909.3604
   6788310.07345   8253151.99245  23626899.2914   23626908.2584
 -17248927.65446 -13314608.06146  21515348.3294   21515351.6114
 -12637539.85846  -9758322.91045  22935780.0704   22935784.3134
 15  1 19  1 54  0.0000000  0  6G29G31G05G25G21G16
  -8112247.62147  -6178313.05147  21071414.2514   21071418.3304
    301497.83346    466191.18446  23310315.9364   23310320.3444
 -10123109.23546  -7782444.67246  23252370.1004   23252372.7374
   6929857.14245   8363448.38545  23653835.5894   23653844.2874
 -17264624.05046 -13326838.98946  21512361.4004   21512365.3044
 -12697425.73446  -9804987.23145  22924384.3804   22924388.5414
 15  1 19  1 54 30.0000000  0  6G29G31G05G25G21G16
  -8019729.27947  -6106220.82547  21089019.8034   21089024.2574
    422578.03046    560539.39946  23333356.9664   23333362.6984
 -10057030.19846  -7730954.50746  23264944.4294   23264947.4424
   7071581.06445   8473882.57545  23680804.9724   23680813.1194
 -17279936.26546 -13338770.56346  21509447.3364   21509451.3814
 -12757042.81146  -9851442.09045  22913039.2644   22913044.1994
 15  1 19  1 55  0.0000000  0  6G29G31G05G25G21G16
  -7926920.21147  -6033902.05447  21106680.8244   21106684.6814
    543930.31146    655099.58646  23356449.8694   23356453.9364
  -9990369.67646  -7679011.24346  23277629.4664   23277632.5494
   7213476.31345   8584450.27745  23707806.2264   23707812.4044
 -17294867.36346 -13350405.15346  21506605.7904   21506609.2954
 -12816392.57346  -9897688.62245  22901745.1754   22901748.8324
 15  1 19  1 55 30.0000000  0  6G29G31G05G25G21G16
  -7833824.62647  -5961360.03647  21124396.4634   21124399.8744
    665549.04746    749867.40446  23379593.5704   23379596.7004
  -9923131.95946  -7626618.20246  23290424.3814   23290428.0154
   7355538.17445   8695147.79645  23734839.8614   23734848.5244
 -17309419.70346 -13361744.61746  21503836.9274   21503840.5614
 -12875475.50346  -9943727.25245  22890502.2734   22890507.0084
 15  1 19  1 56  0.0000000  0  6G29G31G05G25G21G16
  -7740441.69447  -5888594.11247  21142166.6824   21142170.2924
    787433.06646    844841.93846  23402786.7674   23402791.4214
  -9855316.13546  -7573774.71746  23303329.2634   23303332.9904
   7497766.57545   8805975.07145  23761904.3214   23761913.2884
 -17323590.78946 -13372786.98746  21501140.0284   21501143.4624
 -12934287.31246  -9989554.62645  22879310.4794   22879313.5394
 15  1 19  1 56 30.0000000  0  6G29G31G05G25G21G16
  -7646764.78747  -5815599.11047  21159992.7994   21159996.8324
    909586.99046    940026.77246  23426031.8764   23426037.2454
  -9786916.00546  -7520475.90346  23316345.1184   23316348.9984
   7640167.02045   8916936.41145  23789003.2974   23789010.7284
 -17337372.76946 -13383526.16446  21498517.3994   21498520.6584
 -12992818.32145 -10035163.18445  22868172.7604   22868177.4134
 15  1 19  1 57  0.0000000  0  6G29G31G05G25G21G16
  -7552801.07947  -5742380.62847  21177873.4164   21177877.2494
   1032001.65946   1035414.82046  23449326.2904   23449329.8414
  -9717939.24346  -7466727.76846  23329471.1554   23329474.8944
   7782731.34445   9028025.49245  23816132.3754   23816141.2374
 -17350771.34046 -13393966.58746  21495967.8194   21495971.7224
 -13051072.28246 -10080555.85745  22857086.9164   22857091.1944
 15  1 19  1 57 30.0000000  0  6G29G31G05G25G21G16
  -7458552.47847  -5668940.15647  21195808.3834   21195811.9584
   1154672.95246   1131002.78946  23472670.2674   23472675.6134
  -9648388.48246  -7412532.35346  23342706.2534   23342709.6764
   7925456.53345   9139239.92445  23843292.0454   23843301.2474
 -17363787.32546 -13404108.90546  21493491.1324   21493494.7774
 -13109048.04846 -10125731.79345  22846054.7124   22846059.3894
 15  1 19  1 58  0.0000000  0  6G29G31G05G25G21G16
  -7364018.85147  -5595277.58947  21213797.5824   21213801.2284
   1277599.25146   1226789.48446  23496062.1764   23496067.2174
  -9578263.15446  -7357889.21646  23356050.6184   23356054.1224
   8068341.98645   9250579.22245  23870482.2864   23870491.5114
 -17376418.60846 -13413951.43046  21491087.4354   21491090.9874
 -13166742.14846 -10170688.21646  22835076.1104   22835079.4754
 15  1 19  1 58 30.0000000  0  6G29G31G05G25G21G16
  -7269202.63547  -5521394.80247  21231840.3454   21231844.2834
   1400776.25146   1322771.54446  23519501.9094   23519505.6014
  -9507566.11746  -7302800.63046  23369504.1984   23369507.6334
   8211384.19545   9362040.64745  23897702.1154   23897712.1614
 -17388666.65446 -13423495.35346  21488756.5674   21488760.0264
 -13224153.65846 -10215424.46446  22824150.7024   22824154.6884
 15  1 19  1 59  0.0000000  0  6G29G31G05G25G21G16
  -7174103.30647  -5447291.41346  21249936.9974   21249941.7564
   1524202.35146   1418947.69546  23542989.2774   23542994.5634
  -9436297.20146  -7247266.40246  23383065.9134   23383069.0554
   8354582.64145   9473623.82845  23924952.1164   23924960.1934
 -17400529.02146 -13432738.76046  21486499.1794   21486502.3094
 -13281278.79546 -10259937.55546  22813280.4204   22813284.1134
 15  1 19  1 59 30.0000000  0  6G29G31G05G25G21G16
  -7078722.30447  -5372968.54546  21268087.2154   21268091.0844
   1647873.82046   1515315.03846  23566523.2874   23566528.8904
  -9364458.61946  -7191288.28546  23396736.4764   23396739.3944
   8497934.71145   9585326.73645  23952230.7904   23952238.9024
 -17412006.30446 -13441682.09446  21484315.0484   21484318.4364
 -13338115.64746 -10304226.01446  22802464.8074   22802468.7584
 15  1 19  2  0  0.0000000  0  6G29G31G05G25G21G16
  -6983060.59947  -5298426.96247  21286291.3574   21286294.9094
   1771787.99146   1611871.47146  23590103.7694   23590108.6924
  -9292051.68346  -7134867.31546  23410514.7704   23410517.9244
   8641438.38245   9697147.74745  23979539.0384   23979546.9854
 -17423097.79146 -13450324.81046  21482204.4124   21482207.5774
 -13394662.29646 -10348288.34346  22791704.5264   22791708.4184
 15  1 19  2  0 30.0000000  0  7G18G29G31G05G25G21G16
  -7915012.456 3                  24843794.674
  -6887117.04447  -5223665.75046  21304548.6574   21304552.5614
   1895944.28046   1708616.62746  23613729.5084   23613733.5884
  -9219075.50246  -7078002.77446  23424402.0804   23424404.2144
   8785094.28645   9809087.38145  24006876.0624   24006881.8294
 -17433801.14346 -13458665.07946  21480167.7014   21480171.4284
 -13450913.73646 -10392120.63146  22781000.0104   22781003.6324
 15  1 19  2  1  0.0000000  0  7G18G29G31G05G25G21G16
  -7981914.49642                  24831063.5084
  -6790893.19047  -5148686.12946  21322859.4104   21322863.5364
   2020338.74846   1805547.32146  23637401.6774   23637405.3934
  -9145532.47446  -7020696.51746  23438396.2694   23438399.7044
   8928899.35845   9921143.24545  24034241.4094   24034248.5484
 -17444116.45946 -13466702.97846  21478204.9484   21478208.3714
 -13506868.36046 -10435721.65445  22770352.2184   22770356.3094
 15  1 19  2  1 30.0000000  0  7G18G29G31G05G25G21G16
  -8048805.06443  -6146685.79943  24818333.6934   24818336.7994
  -6694388.68847  -5073487.82246  21341223.7624   21341227.5724
   2144969.84146   1902662.43546  23661118.2814   23661121.6224
  -9071422.45746  -6962948.43546  23452499.2404   23452502.4284
   9072853.11445  10033314.94545  24061635.1614   24061642.3944
 -17454041.96646 -13474437.11946  21476316.1184   21476319.6944
 -13562522.53246 -10479088.52146  22759761.2574   22759765.4894
 15  1 19  2  2  0.0000000  0  7G18G29G31G05G25G21G16
  -8115684.531 3                  24805607.603
  -6597607.77347  -4998074.13246  21359640.5824   21359644.3564
   2269831.52446   1999957.22146  23684878.2394   23684881.5454
  -8996750.16246  -6904762.21546  23466708.9504   23466711.8574
   9216950.34945  10145598.51845  24089055.2594   24089062.8314
 -17463581.11446 -13481870.22246  21474500.8864   21474504.0754
 -13617877.68746 -10522222.40346  22749227.9584   22749231.8614
 15  1 19  2  2 30.0000000  0  7G18G29G31G05G25G21G16
  -8182548.59643                  24792883.5024
  -6500549.27647  -4922444.14046  21378110.1604   21378114.0284
   2394922.90846   2097431.01046  23708682.3724   23708684.7754
  -8921514.81946  -6846137.25746  23481025.8014   23481028.5324
   9361191.32045  10257994.07945  24116503.9604   24116510.8294
 -17472730.95446 -13488999.97046  21472759.6894   21472763.1004
 -13672928.81746 -10565119.39346  22738752.0524   22738754.9944
 15  1 19  2  3  0.0000000  0  7G18G29G31G05G25G21G16
  -8249396.79942  -6153623.88542  24780163.0344   24780168.8134
  -6403215.56447  -4846599.69146  21396632.0324   21396636.2164
   2520239.49546   2195080.25746  23732529.6044   23732533.0384
  -8845719.49046  -6787075.94746  23495449.2994   23495451.4324
   9505572.38345  10370498.78645  24143978.2224   24143986.7564
 -17481492.88446 -13495827.44146  21471092.2204   21471095.5604
 -13727675.24946 -10607778.92046  22728334.0934   22728338.4774
 15  1 19  2  3 30.0000000  0  7G18G29G31G05G25G21G16
  -8316225.917 2                  24767444.940
  -6305607.23747  -4770541.25646  21415206.2474   21415210.4784
   2645778.48946   2292902.86046  23756418.5704   23756421.7004
  -8769365.56246  -6727579.36846  23509979.1624   23509982.3274
   9650092.03645  10483111.46645  24171479.7234   24171487.9294
 -17489865.39546 -13502351.46946  21469498.9184   21469502.6454
 -13782114.00746 -10650198.72146  22717974.7164   22717978.4904
 15  1 19  2  4  0.0000000  0  7G18G29G31G05G25G21G16
  -8383031.856 3                  24754733.773
  -6207723.22047  -4694268.00646  21433833.0024   21433836.8944
   2771538.92746   2390897.97646  23780350.1494   23780353.5834
  -8692452.37346  -6667647.01146  23524614.9694   23524618.2524
   9794750.30245  10595832.18345  24199007.5284   24199016.5774
 -17497846.78246 -13508570.72846  21467980.2274   21467983.8144
 -13836241.03446 -10692375.61646  22707674.7484   22707678.6164
 15  1 19  2  4 30.0000000  0  7G18G29G31G05G25G21G16
  -8449814.819 2                  24742023.399
  -6109567.48447  -4617783.03746  21452511.5894   21452515.4224
   2897515.35046   2489061.40746  23804322.7814   23804325.8764
  -8614984.17646  -6607282.16846  23539356.6054   23539359.3604
   9939542.59445  10708657.30245  24226560.7814   24226570.3114
 -17505439.18446 -13514486.85546  21466535.1534   21466538.5414
 -13890056.64646 -10734309.86746  22697434.3754   22697438.5484
 15  1 19  2  5  0.0000000  0  7G18G29G31G05G25G21G16
  -8516570.096 1                  24729320.275
  -6011137.94947  -4541084.71846  21471242.1894   21471245.9044
   3023707.30246   2587392.76346  23828336.4794   23828340.8754
  -8536960.42746  -6546484.42646  23554203.9854   23554206.5404
  10084469.15745  10821587.05645  24254139.3864   24254148.2244
 -17512640.32946 -13520098.10946  21465164.9114   21465168.6274
 -13943556.27846 -10775997.89346  22687253.4194   22687257.6984
 15  1 19  2  5 30.0000000  0  7G18G29G31G05G25G21G16
  -8583298.842 3                  24716624.297
  -5912439.72447  -4464177.01446  21490023.7734   21490027.5124
   3150107.91146   2685886.73846  23852389.5174   23852393.8314
  -8458386.21946  -6485257.78746  23569155.6124   23569158.8004
  10229524.30745  10934617.07745  24281741.8814   24281749.4184
 -17519453.40046 -13525406.97246  21463868.8224   21463871.9754
 -13996741.00946 -10817440.55046  22677132.2454   22677136.5004
 15  1 19  2  6  0.0000000  0  7G18G29G31G05G25G21G16
  -8649994.730 3                  24703931.796
  -5813469.16547  -4387057.11246  21508857.4814   21508861.0094
   3276718.40646   2784544.25345  23876482.0054   23876485.3114
  -8379259.04746  -6423600.30246  23584212.9104   23584216.3104
  10374710.28745  11047748.97245  24309370.1224   24309377.5304
 -17525873.72446 -13530409.79646  21462646.7674   21462650.2134
 -14049604.45746 -10858632.84546  22667072.8774   22667077.1444
 15  1 19  2  6 30.0000000  0  7G18G29G31G05G25G21G16
  -8716655.00043                  24691246.5604
  -5714227.58747  -4309726.02646  21527742.3014   21527745.6544
   3403536.17746   2883363.28346  23900615.3454   23900618.6284
  -8299580.27946  -6361512.93746  23599375.1874   23599380.5444
  10520025.27444  11160981.42545  24337022.2104   24337030.6744
 -17531900.97146 -13535106.32846  21461499.8154   21461503.2964
 -14102144.00946 -10899572.73446  22657074.8404   22657078.5444
 15  1 19  2  7  0.0000000  0  7G18G29G31G05G25G21G16
  -8783278.95842  -6169143.94043  24678568.9994   24678563.8764
  -5614717.69947  -4232185.85946  21546678.5144   21546681.7144
   3530555.95145   2982339.70145  23924785.9354   23924790.1674
  -8219353.48946  -6298998.55546  23614642.0404   23614646.7884
  10665465.45245  11274311.36945  24364699.0144   24364704.1604
 -17537536.68146 -13539497.79346  21460427.4254   21460431.1534
 -14154359.23146 -10940259.92446  22647138.6464   22647142.3394
 15  1 19  2  7 30.0000000  0  7G18G29G31G05G25G21G16
  -8849864.122 2                  24665895.462
  -5514939.97647  -4154436.99846  21565665.4804   21565669.1964
   3657775.60146   3081471.85546  23948995.7024   23949000.6484
  -8138580.11946  -6236058.29846  23630013.0514   23630017.8104
  10811029.28044  11387737.77545  24392398.8664   24392404.7504
 -17542779.94346 -13543583.41146  21459429.8484   21459433.2364
 -14206247.11046 -10980692.04946  22637264.5674   22637268.0724
 15  1 19  2  8  0.0000000  0  7G18G29G31G05G25G21G16
  -8916404.377 1                  24653234.106
  -5414892.09747  -4076477.60646  21584704.0254   21584707.8004
   3785195.68246   3180760.20746  23973242.7954   23973246.6054
  -8057258.20146  -6172690.56146  23645488.0934   23645492.7004
  10956718.21944  11501261.59845  24420122.5314   24420131.7804
 -17547627.34646 -13547360.57646  21458507.2424   21458510.5014
 -14257802.58046 -11020865.16046  22627453.9184   22627457.2714
 15  1 19  2  8 30.0000000  0  7G18G29G31G05G25G21G16
  -8982898.887 1                  24640581.772
  -5314576.10747  -3998309.32046  21603793.5294   21603797.3624
   3912811.19146   3280200.83145  23997526.8994   23997531.3064
  -7975391.08346  -6108898.01646  23661067.0914   23661070.9604
  11102528.72645  11614880.12645  24447869.7174   24447876.4814
 -17552080.17146 -13550830.22446  21457659.6024   21457663.2364
 -14309023.95446 -11060777.92446  22617706.5514   22617710.4664
 15  1 19  2  9  0.0000000  0  7G18G29G31G05G25G21G16
  -9049344.232 2                  24627938.258
  -5213991.94647  -3919932.05346  21622933.8734   21622938.0574
   4040620.90945   3379792.80545  24021847.5754   24021851.5374
  -7892979.10346  -6044680.89246  23676749.4274   23676753.2374
  11248460.12844  11728592.90945  24475639.1054   24475647.1944
 -17556136.81846 -13553991.15846  21456887.5874   21456891.3034
 -14359907.82946 -11100427.69446  22608023.8804   22608027.5844
 15  1 19  2  9 30.0000000  0  7G18G29G31G05G25G21G16
  -9115738.496 3                  24615303.589
  -5113140.97747  -3841346.88246  21642125.3514   21642129.1844
   4168620.97445   3479533.13345  24046205.3474   24046209.4964
  -7810024.74146  -5980041.12346  23692535.0924   23692538.0934
  11394509.81644  11842397.85745  24503432.0164   24503440.1524
 -17559797.82346 -13556843.86846  21456190.9364   21456194.2304
 -14410452.66346 -11139813.25546  22598405.4624   22598409.8234
 15  1 19  2 10  0.0000000  0  7G18G29G31G05G25G21G16
  -9182079.610 3                  24602679.199
  -5012025.13847  -3762555.31346  21661367.0094   21661370.8194
   4296807.60145   3579418.76245  24070598.7654   24070603.8764
  -7726530.57646  -5914980.74746  23708423.6584   23708426.3184
  11540674.84143  11956292.69445  24531246.1344   24531255.3594
 -17563063.83446 -13559388.72446  21455569.5784   21455572.7664
 -14460656.85046 -11178933.39446  22588852.1854   22588855.6794
 15  1 19  2 10 30.0000000  0  7G18G29G31G05G25G21G16
  -9248366.98243                  24590064.8374
  -4910646.94347  -3683559.32046  21680658.7244   21680661.8894
   4425176.59745   3679446.53845  24095026.0194   24095030.6614
  -7642499.73646  -5849502.14946  23724414.0794   23724417.6894
  11686951.85743  12070274.75345  24559081.4404   24559088.2154
 -17565936.11746 -13561626.84946  21455022.8224   21455025.7874
 -14510519.63846 -11217787.49046  22579363.4404   22579367.4024
 15  1 19  2 11  0.0000000  0  7G18G29G31G05G25G21G16
  -9314597.42143  -6151756.39744  24577461.9394   24577461.7634
  -4809006.38347  -3604358.89246  21700000.1904   21700003.8594
   4553725.56245   3779614.54045  24119488.2414   24119493.1294
  -7557933.57446  -5783606.45246  23740506.2344   23740508.6724
  11833339.57243  12184343.12045  24586938.3044   24586947.0374
 -17568413.41846 -13563557.12646  21454551.3314   21454554.1214
 -14560037.84346 -11256373.09646  22569940.4444   22569943.9374
 15  1 19  2 11 30.0000000  0  7G18G29G31G05G25G21G16
  -9380768.93843  -6203318.64343  24564870.3314   24564877.7984
  -4707104.95147  -3524955.18546  21719391.4814   21719395.0454
   4682450.83645   3879919.94345  24143984.2934   24143990.3774
  -7472834.42146  -5717295.42846  23756700.5154   23756702.9294
  11979835.57443  12298495.78345  24614815.0624   24614822.2834
 -17570496.32946 -13565180.16646  21454154.7774   21454158.4584
 -14609209.51146 -11294688.65946  22560583.3454   22560587.3424
 15  1 19  2 12  0.0000000  0  7G18G29G31G05G25G21G16
  -9446879.01743  -6254832.75444  24552289.0674   24552288.7044
  -4604943.51247  -3445348.87146  21738832.0024   21738835.4374
   4811349.83245   3980360.70945  24168512.6684   24168518.9164
  -7387203.55146  -5650570.07046  23772995.3374   23772997.9514
  12126437.89542  12412731.44345  24642712.9744   24642721.7434
 -17572184.60146 -13566495.70346  21453833.8714   21453837.4824
 -14658032.48546 -11332732.52246  22551292.3424   22551296.1874
 15  1 19  2 12 30.0000000  0  7G18G29G31G05G25G21G16
  -9512923.41943  -6306295.83244  24539720.8004   24539730.5294
  -4502521.16547  -3365539.27846  21758322.3254   21758325.5494
   4940421.37545   4080935.93945  24193074.1654   24193080.6474
  -7301041.08946  -5583430.49146  23789391.3374   23789394.4674
  12273146.61442  12527049.91345  24670631.1714   24670639.8224
 -17573475.83246 -13567501.84146  21453588.1574   21453591.6154
 -14706502.11646 -11370501.07146  22542069.6244   22542072.8834
 15  1 19  2 13  0.0000000  0  7G18G29G31G05G25G21G16
  -9578900.53645  -6357706.75244  24527167.0024   24527177.0724
  -4399839.65747  -3285527.72346  21777862.0884   21777865.7574
   5069661.77645   4181642.69245  24217668.3174   24217672.3964
  -7214349.73446  -5515878.79446  23805888.8014   23805891.3574
  12419958.81043  12641449.05345  24698567.3294   24698575.7454
 -17574370.96946 -13568199.34946  21453417.6494   21453421.5644
 -14754617.09646 -11407993.25746  22532913.1794   22532916.8124
 15  1 19  2 13 30.0000000  0  7G18G29G31G05G25G21G16
  -9644808.90143  -6409063.82345  24514624.5094   24514628.0854
  -4296901.04647  -3205315.83346  21797450.3994   21797454.3384
   5199066.93645   4282477.89445  24242293.0554   24242296.8534
  -7127132.83946  -5447917.57646  23822485.2824   23822487.8264
  12566871.29543  12755926.26445  24726524.0934   24726530.1894
 -17574870.74846 -13568588.78046  21453322.8144   21453325.8154
 -14802375.96546 -11445207.96446  22523825.1094   22523829.0014
 15  1 19  2 14  0.0000000  0  7G18G29G31G05G25G21G16
  -9710644.29143  -6460364.07745  24502096.3244   24502100.4384
  -4193704.12947  -3124902.66546  21817088.2424   21817091.6184
   5328635.99345   4383440.76245  24266949.4344   24266953.3254
  -7039389.76746  -5379546.32946  23839182.0044   23839184.5244
  12713884.45443  12870482.10444  24754499.6374   24754505.0414
 -17574972.93946 -13568668.37446  21453302.9364   21453305.8904
 -14849774.20846 -11482141.65646  22514805.4754   22514808.7224
 15  1 19  2 14 30.0000000  0  7G18G29G31G05G25G21G16
  -9776405.08745  -6511606.29444  24489582.7924   24489588.3254
  -4090250.92947  -3044289.80346  21836775.1394   21836778.7734
   5458364.59245   4484527.97845  24291635.9214   24291639.9414
  -6951124.00646  -5310767.82446  23855978.6314   23855980.8584
  12860994.76243  12985113.40345  24782494.4784   24782505.4154
 -17574678.87346 -13568439.19346  21453359.2414   21453362.3364
 -14896811.27446 -11518793.91546  22505854.4924   22505858.4194
 15  1 19  2 15  0.0000000  0  7G18G29G31G05G25G21G16
  -9842089.02745  -6562788.59145  24477082.8084   24477087.4504
  -3986542.65047  -2963478.17146  21856510.0304   21856513.5354
   5588249.67845   4585737.13745  24316352.3624   24316356.5474
  -6862337.43946  -5241583.49746  23872874.2174   23872877.3474
  13008200.14743  13099818.86745  24810507.3894   24810513.2624
 -17573988.73646 -13567901.34746  21453490.5584   21453493.5004
 -14943484.82046 -11555162.88846  22496972.8764   22496976.2764
 15  1 19  2 15 30.0000000  0  7G18G29G31G05G25G21G16
  -9907695.82243  -6613910.78645  24464598.9634   24464605.9264
  -3882582.49347  -2882470.26446  21876292.9844   21876297.4274
   5718286.67945   4687064.67045  24341096.9704   24341101.9634
  -6773033.61846  -5171996.12346  23889868.0564   23889871.2094
  13155496.96443  13214595.68945  24838536.5424   24838542.8374
 -17572903.90346 -13567055.98046  21453696.3514   21453699.6454
 -14989793.73846 -11591247.73246  22488160.7264   22488164.5244
 15  1 19  2 16  0.0000000  0  7G18G29G31G05G25G21G16
  -9973220.47444  -6664968.96045  24452129.5984   24452136.5504
  -3778368.07547  -2801264.23246  21896124.1134   21896127.8054
   5848474.77645   4788509.91845  24365872.1894   24365877.5224
  -6683212.53846  -5102005.65146  23906960.5244   23906963.5954
  13302885.48543  13329443.77844  24866582.9614   24866588.8224
 -17571421.70046 -13565900.93646  21453978.2554   21453981.6424
 -15035733.78646 -11627045.15246  22479418.5954   22479422.2284
 15  1 19  2 16 30.0000000  0  7G18G29G31G05G25G21G16
 -10038661.05744  -6715961.59245  24439676.3654   24439682.4254
  -3673901.64647  -2719861.82846  21916003.5954   21916006.9834
   5978810.67745   4890070.36445  24390674.1054   24390677.0944
  -6592876.53146  -5031613.94046  23924150.8054   23924153.4664
  13450363.31043                  24894647.2174
 -17569543.12346 -13564437.07046  21454336.0824   21454339.2584
 -15081302.87946 -11662553.53846  22470747.1354   22470750.4994
 15  1 19  2 17  0.0000000  0  7G18G29G31G05G25G21G16
 -10104013.33143  -6766885.46145  24427240.0374   24427244.2574
  -3569182.24247  -2638262.31246  21935930.9864   21935934.7844
   6109293.05145   4991744.91645  24415503.3184   24415508.6634
  -6502026.02646  -4960821.30446  23941439.2154   23941441.6184
  13597929.87143                  24922727.4574
 -17567266.42346 -13562662.99846  21454769.2574   21454772.4814
 -15126497.23546 -11697769.91346  22462146.7474   22462150.3574
 15  1 19  2 17 30.0000000  0  7G18G29G31G05G25G21G16
 -11744697.72445  -8045340.78445  24115028.8914   24115032.5134
  -5039627.69447  -3784063.96546  21656114.6104   21656118.3024
   4664502.49945   3865934.10745  24140568.3524   24140572.8074
  -7986080.39646  -6117227.29346  23659032.7894   23659036.0124
  12170167.57542                  24651034.3984
 -19140011.51346 -14788178.62346  21155485.9904   21155489.6594
 -16746736.67046 -12960294.12746  22153825.0114   22153829.3604
 15  1 19  2 18  0.0000000  0  7G18G29G31G05G25G21G16
 -11809868.15344  -8096122.92745  24102626.9594   24102631.6834
  -4934406.53147  -3702073.47346  21676137.6664   21676140.6324
   4795267.01545   3967828.51545  24165452.8714   24165457.5014
  -7894208.46446  -6045638.75646  23676515.5864   23676518.5164
  12317904.10343  -7277340.06945  24679148.0364   24679154.7064
 -19136939.00246 -14785784.45246  21156070.3344   21156073.6054
 -16791176.27446 -12994922.38446  22145368.3494   22145372.4994
 15  1 19  2 18 30.0000000  0  7G18G29G31G05G25G21G16
 -11874944.06444  -8146831.45045  24090243.2554   24090250.2894
  -4828936.70247  -3619889.19346  21696207.6954   21696211.3284
   4926168.04645   4069829.34145  24190363.3254   24190366.3374
  -7801829.31746  -5973654.99246  23694094.3404   23694097.1764
  12465722.38943  -7162156.93045  24707276.1804   24707284.7374
 -19133469.16446 -14783080.66646  21156730.7344   21156734.0054
 -16835235.30046 -13029254.10246  22136984.5314   22136988.6344
 15  1 19  2 19  0.0000000  0  7G18G29G31G05G25G21G16
 -11939924.94344  -8197465.87045  24077878.3074   24077884.1104
  -4723220.34347  -3537512.82346  21716324.7654   21716328.9624
   5057200.84745   4171932.80045  24215297.0844   24215299.4874
  -7708946.67746  -5901278.92846  23711769.3594   23711772.8294
  12613618.75743  -7046912.95744  24735420.2704   24735428.3824
 -19129603.57146 -14780068.51246  21157466.1214   21157469.5204
 -16878913.08846 -13063288.73746  22128672.7714   22128677.1444
 15  1 19  2 19 30.0000000  0  7G18G29G31G05G25G21G16
 -12004807.71644  -8248023.88945  24065532.1394   24065538.9614
  -4617257.85847  -3454944.66146  21736488.9714   21736492.6524
   5188362.79145   4274136.89545  24240256.8934   24240261.7224
  -7615561.76046  -5828511.44346  23729540.0124   23729544.6654
  12761591.77542  -6931609.28345  24763578.7784   24763585.2134
 -19125341.50946 -14776747.43546  21158277.4154   21158280.7564
 -16922206.88046 -13097024.16746  22120434.4444   22120439.1804
 15  1 19  2 20  0.0000000  0  7G18G29G31G05G25G21G16
 -12069588.55144  -8298502.47045  24053203.7964   24053209.4584
  -4511048.92547  -3372184.47946  21756699.8134   21756703.1654
   5319652.50545   4376440.58045  24265239.5544   24265243.2584
  -7521675.65046  -5755353.41546  23747406.1354   23747410.4614
  12909640.78341  -6816246.40743  24791751.2794   24791759.9654
 -19120681.53546 -14773116.30546  21159163.9684   21159167.2274
 -16965112.40546 -13130457.03846  22112269.8414   22112273.8384
 15  1 19  2 20 30.0000000  0  7G18G29G31G05G25G21G16
 -12134266.51245  -8348900.80845  24040896.3014   24040902.1164
  -4404596.40547  -3289234.48946  21776957.0144   21776960.7064
   5451065.46645   4478840.26245  24290247.1274   24290253.5864
  -7427292.05146  -5681807.72946  23765366.4214   23765369.8914
  13057762.08441  -6700827.23144  24819937.4024   24819951.3044
 -19115625.70146 -14769176.69346  21160126.1574   21160129.2404
 -17007629.50346 -13163587.23646  22104179.1154   22104183.1604
 15  1 19  2 21  0.0000000  0  7G18G29G31G05G25G21G16
 -12198837.92044  -8399216.18045  24028608.1444   24028613.7004
  -4297899.85047  -3206094.33946  21797260.6834   21797264.4224
   5582599.71045   4581334.50045  24315277.5074   24315281.0004
  -7332411.59346  -5607874.89646  23783421.8224   23783425.0924
  13205954.97141                  24848137.3204
 -19110172.41146 -14764927.38446  21161164.1764   21161167.5054
 -17049754.58146 -13196411.97646  22096162.7874   22096166.3154
 15  1 19  2 21 30.0000000  0  7G18G29G31G05G25G21G16
 -12263299.94845  -8449446.35145  24016342.0764   24016346.0274
  -4190959.32247  -3122764.06846  21817610.7664   21817614.4714
   5714253.16345   4683921.56645  24340329.5704   24340333.1574
  -7237036.10046  -5533556.33546  23801570.8764   23801574.1824
  13354217.96341                  24876350.9284
 -19104320.87446 -14760367.77646  21162277.5184   21162280.4954
 -17091484.66346 -13228928.93146  22088222.0494   22088225.4364
 15  1 19  2 22  0.0000000  0  7G18G29G31G05G25G21G16
 -12327650.67345  -8499589.71845  24004096.2504   24004101.3374
  -4083776.22047  -3039244.78446  21838007.2774   21838010.4424
   5846022.06645   4786598.60845  24365404.7784   24365408.8694
  -7141168.11546  -5458854.00346  23819814.2034   23819817.6614
  13502548.71141                  24904580.0554
 -19098072.55546 -14755498.98046  21163466.5184   21163469.6014
 -17132818.04446 -13261136.75146  22080356.6554   22080360.9934
 15  1 19  2 22 30.0000000  0  7G18G29G31G05G25G21G16
 -12391888.99545  -8549645.51645  23991872.0404   23991877.4214
  -3976353.29347  -2955538.62346  21858449.1724   21858452.5364
   5977902.43845   4889362.56245  24390501.4424   24390503.9744
  -7044811.36846  -5383770.81246  23838150.4264   23838154.3524
  13650943.48341                  24932816.0724
 -19091427.93146 -14750321.36446  21164730.9814   21164734.6744
 -17173753.75646 -13293034.70746  22072566.8084   22072570.6304
 15  1 19  2 23  0.0000000  0  6G18G29G31G05G21G16
 -12456011.32245  -8599610.94845  23979670.0754   23979675.5964
  -3868690.36547  -2871645.46246  21878936.6264   21878940.3304
   6109892.13345   4992211.64545  24415618.1284   24415622.2904
  -6947966.96546  -5308307.64246  23856579.2274   23856582.0524
 -19084386.39246 -14744834.48546  21166070.8774   21166074.0774
 -17214288.55246 -13324620.26346  22064853.4484   22064857.0004
 15  1 19  2 23 30.0000000  0  6G18G29G31G05G21G16
 -12520015.14645  -8649484.07345  23967491.2284   23967498.1094
  -3760788.03547  -2787565.74646  21899469.6554   21899473.4644
   6241988.64845   5095143.96845  24440755.4384   24440759.0724
  -6850636.54146  -5232465.74246  23875100.3754   23875104.1264
 -19076947.73846 -14739038.14446  21167486.5074   21167489.6254
 -17254419.62146 -13355891.22646  22057216.5904   22057220.2594
 15  1 19  2 24  0.0000000  0  7G18G29G27G31G05G21G16
 -12583897.76445  -8699262.73945  23955334.1644   23955339.7794
  -3652647.01747  -2703300.03646  21920048.3764   21920052.6904
  -9459203.42441                  24413711.9884
   6374188.73544   5198157.05745  24465911.9184   24465917.8614
  -6752822.67046  -5156247.12646  23893714.1064   23893717.4464
 -19069111.80446 -14732932.24446  21168977.8084   21168981.0554
 -17294144.86146 -13386845.94946  22049657.1704   22049661.1094
 15  1 19  2 24 30.0000000  0  7G18G29G27G31G05G21G16
 -12647657.87645  -8748945.88845  23943201.5074   23943206.4424
  -3544269.84147  -2618850.30746  21940671.6904   21940676.0744
  -9526023.46441                  24400996.5774
   6506488.49645   5301247.73645  24491087.9784   24491089.4554
  -6654528.74546  -5079654.47546  23912418.7464   23912421.8294
 -19060879.93846 -14726517.82346  21170544.1474   21170546.7724
 -17333463.30246 -13417483.68246  22042174.8804   22042178.7484
 15  1 19  2 25  0.0000000  0  6G18G29G31G05G21G16
 -12711292.72745  -8798531.49045  23931091.8924   23931096.7214
  -3435656.49747  -2534216.55746  21961340.3364   21961343.9114
   6638885.41845   5404414.16245  24516283.2134   24516286.2144
  -6555756.21946  -5002688.84946  23931214.5454   23931218.6364
 -19052251.48946 -14719794.33646  21172185.9864   21172189.8434
 -17372371.89147 -13447802.06146  22034770.8804   22034774.7484
 15  1 19  2 25 30.0000000  0  6G18G29G31G05G21G16
 -12774797.86345  -8848015.98545  23919007.4184   23919012.5644
  -3326806.10047  -2449398.07846  21982053.7604   21982057.5114
   6771378.46145   5507655.51045  24541495.5164   24541497.7444
  -6456505.41646  -4925350.57846  23950101.0614   23950104.0394
 -19043224.83146 -14712760.54446  21173903.7064   21173907.6804
 -17410866.69046 -13477798.01546  22027445.6594   22027449.0704
 15  1 19  2 26  0.0000000  0  6G18G29G31G05G21G16
 -12838171.33845  -8897397.89845  23906947.8374   23906954.0154
  -3217720.33247  -2364396.19846  22002812.2594   22002815.6594
   6903964.51945   5610969.35445  24566725.2594   24566727.2864
  -6356779.04646  -4847641.71946  23969078.2144   23969081.4504
 -19033800.44846 -14705416.81646  21175696.9004   21175700.5344
 -17448945.68547 -13507469.96946  22020199.4314   22020202.9244
 15  1 19  2 26 30.0000000  0  6G18G29G31G05G21G16
 -12901407.55045  -8946672.86645  23894913.8314   23894918.7074
  -3108397.09947  -2279209.28746  22023615.6904   22023619.4294
   7036643.55644   5714355.59645  24591973.2484   24591970.4824
  -6256576.85946  -4769562.08846  23988146.4504   23988148.8654
 -19023975.78346 -14697761.20346  21177566.7434   21177570.5174
 -17486603.35646 -13536813.62846  22013033.1534   22013036.5764
 15  1 19  2 27  0.0000000  0  6G18G29G31G05G21G16
 -12964508.20845  -8995842.20645  23882905.9914   23882912.6144
  -2998841.09347  -2193840.98046  22044463.3514   22044467.4184
   7169408.49344   5817808.73745  24617238.0794   24617240.3894
  -6155904.85046  -4691116.35246  24007304.0324   24007306.8224
 -19013755.02646 -14689796.96646  21179511.6334   21179514.8454
 -17523841.81746 -13565830.62746  22005946.9884   22005950.9504
 15  1 19  2 27 30.0000000  0  6G18G29G31G05G21G16
 -13027471.48345  -9044904.43845  23870924.6204   23870930.3174
  -2889053.87247  -2108292.51146  22065355.4164   22065358.8274
   7302256.10043   5921326.36345  24642517.4354   24642518.1734
  -6054765.81245  -4612306.71646  24026549.9114   24026552.6774
 -19003138.46546 -14681524.30846  21181531.7974   21181534.6924
 -17560659.19746 -13594519.53146  21998940.8574   21998944.6674
 15  1 19  2 28  0.0000000  0  6G18G29G31G05G21G16
 -13090295.61445  -9093858.31545  23858969.9824   23858975.1054
  -2779037.07447  -2022565.14446  22086290.7814   22086294.8604
   7435182.50844   6024905.35045  24667812.5144   24667815.6204
  -5953162.41045  -4533135.22246  24045884.4994   24045886.9144
 -18992126.72246 -14672943.69946  21183627.4594   21183630.7884
 -17597054.08046 -13622879.17446  21992015.1244   21992018.7354
 15  1 19  2 28 30.0000000  0  6G18G29G31G05G21G16
 -13152974.10145  -9142698.66645  23847042.1664   23847047.5464
  -2668787.90347  -1936656.70846  22107270.6484   22107274.6924
   7568188.71845   6128546.57245  24693123.4754   24693124.1554
  -5851093.54845  -4453601.08346  24065307.3504   24065310.5974
 -18980716.36346 -14664052.48746  21185798.5714   21185801.3614
 -17633020.39247 -13650904.88046  21985171.1634   21985174.3874
 15  1 19  2 29  0.0000000  0  6G18G29G31G05G21G16
 -13215505.33645  -9191424.25745  23835143.1614   23835149.0344
  -2558307.77047  -1850568.31146  22128294.0494   22128297.9184
   7701271.38244   6232247.35345  24718448.4914   24718451.2344
  -5748562.05046  -4373706.38946  24084818.6064   24084822.9324
 -18968907.88546 -14654851.06146  21188045.1644   21188048.6924
 -17668556.15647 -13678595.09446  21978409.0934   21978412.3524
 15  1 19  2 29 30.0000000  0  6G18G29G31G05G21G16
 -13277885.65845  -9240032.25345  23823272.1804   23823275.0874
  -2447596.77647  -1764300.02146  22149362.0434   22149365.7834
   7834428.35845   6336006.02845  24743788.2004   24743785.6454
  -5645569.31046  -4293452.33146  24104417.4084   24104420.1634
 -18956701.20746 -14645339.34146  21190368.6074   21190372.3824
 -17703658.59146 -13705947.65446  21971729.3254   21971732.8534
 15  1 19  2 30  0.0000000  0  6G18G29G31G05G21G16
 -13340118.16445  -9288525.04245  23811430.0364   23811435.0064
  -2336661.32047  -1677856.81746  22170472.2234   22170476.0094
   7967651.49244   6439816.26245  24769139.3464   24769135.8174
  -5542123.33945  -4212845.07246  24124101.6174   24124105.1574
 -18944101.22746 -14635521.13946  21192765.9584   21192769.6034
 -17738331.01746 -13732965.10246  21965131.3114   21965135.1914
 15  1 19  2 30 30.0000000  0  6G18G29G31G05G21G16
 -13402197.96345  -9336898.84745  23799615.9954   23799622.1144
  -2225499.95047  -1591237.58146  22191625.5194   22191629.5174
   8100939.87243   6543677.29445  24794502.8394   24794502.2534
  -5438223.91446  -4131884.47946  24143874.1484   24143877.1134
 -18931105.97546 -14625394.97046  21195239.0964   21195242.9534
 -17772568.36346 -13759643.54946  21958616.0614   21958620.0704
 15  1 19  2 31  0.0000000  0  6G18G29G31G05G21G16
 -13464123.43945  -9385152.44245  23787832.5304   23787838.9304
  -2114113.85647  -1504443.22846  22212821.5774   22212825.0234
   8234290.48342   6647586.75144  24819877.9014   24819882.4724
  -5333873.78646  -4050572.68146  24163731.1934   24163734.1234
 -18917716.54746 -14614961.63146  21197786.8664   21197789.9844
 -17806369.04746 -13785981.72346  21952184.1484   21952188.7434
 15  1 19  2 31 30.0000000  0  6G18G29G31G05G21G16
 -13525889.53646  -9433281.80645  23776078.7704   23776084.8774
  -2002501.99347  -1417472.94446  22234060.8054   22234064.8254
   8367702.76443   6751544.51545  24845265.9144   24845268.8924
  -5229073.08546  -3968909.78546  24183673.7884   24183677.1064
 -18903929.68246 -14604218.60846  21200410.8364   21200413.7674
 -17839728.55046 -13811976.14446  21945836.0324   21945840.5104
 15  1 19  2 32  0.0000000  0  6G18G29G31G05G21G16
 -13587494.80246  -9481285.90545  23764355.3614   23764358.9714
  -1890665.66047  -1330327.77046  22255342.5354   22255345.8874
   8501172.60443   6855546.93745  24870663.8204   24870665.7664
  -5123825.28946  -3886898.49946  24203701.7054   24203703.9444
 -18889747.21246 -14593167.28846  21203109.6194   21203112.7494
 -17872645.49647 -13837625.69846  21939572.1184   21939575.9634
 15  1 19  2 32 30.0000000  0  6G18G29G31G05G21G16
 -13648938.31746  -9529163.91945  23752662.9914   23752666.3324
  -1778607.61047  -1243009.81046  22276666.4914   22276669.7734
   8634695.89543   6959591.11445  24896073.0374   24896073.9514
  -5018133.99446  -3804541.66046  24223814.2804   24223817.3394
 -18875171.44846 -14581809.50446  21205883.2374   21205886.1914
 -17905119.57247 -13862930.18346  21933392.6734   21933396.1434
 15  1 19  2 33  0.0000000  0  6G18G29G31G05G21G16
 -13710214.08546  -9576911.20745  23741003.1704   23741007.4254
  -1666325.62947  -1155517.37746  22298033.3634   22298036.7744
   8768272.94343   7063677.02345  24921492.8484   24921491.4064
  -4911998.50246  -3721838.67146  24244011.0104   24244015.4884
 -18860198.39446 -14570142.12946  21208732.3704   21208735.5234
 -17937144.92347 -13887885.01646  21927298.2934   21927301.6224
 15  1 19  2 33 30.0000000  0  6G18G29G31G05G21G16
 -13771324.30346  -9624529.53345  23729374.1114   23729377.8974
  -1553824.74847  -1067854.37046  22319441.2054   22319444.2884
   8901896.70444   7167799.43445  24946919.9754   24946926.1764
  -4805425.44846  -3638794.73046  24264291.5494   24264295.1714
 -18844833.19746 -14558169.18846  21211655.9144   21211658.7864
 -17968723.64047 -13912491.78846  21921288.9534   21921292.7744
 15  1 19  2 34  0.0000000  0  6G18G29G31G05G21G16
 -13832262.99746  -9672014.14645  23717777.4014   23717781.8904
  -1441102.67347   -980018.98446  22340891.2644   22340895.1324
   9035567.68243   7271958.60645  24972355.9564   24972362.2274
  -4698414.12946  -3555409.28646  24284655.0134   24284657.8614
 -18829071.94246 -14545887.64346  21214655.5444   21214658.8854
 -17999850.27446 -13936746.32446  21915365.6584   21915369.3984
 15  1 19  2 34 30.0000000  0  6G18G29G31G05G21G16
 -13893028.75245  -9719364.06045  23706214.0784   23706219.4354
  -1328161.26547   -892012.70246  22362383.8344   22362387.7844
   9169282.04943   7376151.60245  24997800.1544   24997804.0924
  -4590967.64146  -3471684.74746  24305101.3964   24305104.9724
 -18812915.92546 -14533298.51846  21217729.8694   21217732.7414
 -18030523.49446 -13960647.52546  21909528.9104   21909532.4854
 15  1 19  2 35  0.0000000  0  6G18G29G31G05G21G16
 -13953619.38846  -9766577.52145  23694684.3614   23694689.5194
  -1215001.55047   -803836.31946  22383917.1834   22383920.5354
   9303036.37243   7480375.78244  25023252.7574   25023258.6424
  -4483089.12046  -3387623.57946  24325629.9864   24325632.3304
 -18796366.34246 -14520402.75146  21220879.1664   21220882.1784
 -18060741.67646 -13984194.18046  21903778.5574   21903782.5074
 15  1 19  2 35 30.0000000  0  6G18G29G31G05G21G16
 -14014034.34146  -9813654.05545  23683187.6964   23683192.2684
  -1101626.36547   -715492.03646  22405491.7894   22405495.5404
   9436826.54443   7584627.80145  25048713.6034   25048718.2804
  -4374782.58746  -3303228.86246  24346240.1014   24346244.3444
 -18779425.27046 -14507201.90746  21224102.9344   21224105.9004
 -18090504.33546 -14007385.82746  21898114.8564   21898119.0414
 15  1 19  2 36  0.0000000  0  6G18G29G31G05G21G16
 -14074269.77646  -9860590.76145  23671725.1834   23671730.1184
   -988035.23347   -626979.47346  22427107.3424   22427110.5534
   9570650.81042   7688906.48145  25074178.6584   25074180.8394
  -4266048.89145  -3218501.32746  24366930.9024   24366933.9024
 -18762091.25646 -14493694.84446  21227401.3094   21227404.1114
 -18119807.68947 -14030219.57746  21892538.4164   21892542.3194
 15  1 19  2 36 30.0000000  0  6G18G29G31G05G21G16
 -14134320.66646  -9907383.59445  23660297.9224   23660303.6434
   -874226.23246   -538297.12946  22448764.2774   22448768.4974
   9704508.73941                  25099652.3324
  -4156888.13045  -3133440.99945  24387704.1114   24387707.9564
 -18744361.98746 -14479879.81846  21230774.9544   21230778.1894
 -18148647.57047 -14052692.19446  21887050.6094   21887054.0564
 15  1 19  2 37  0.0000000  0  6G18G29G27G05G21G16
 -14194187.48746  -9954033.04845  23648905.7164   23648908.4354
   -760204.20647   -449448.80746  22470462.1414   22470465.9504
  -9502209.13843                  24087804.9174
  -4047306.02046  -3048052.35646  24408557.1544   24408559.8854
 -18726240.57646 -14465759.21346  21234223.5464   21234226.6414
 -18177024.51846 -14074804.11646  21881651.1224   21881654.0874
 15  1 19  2 37 30.0000000  0  6G18G29G27G05G21G16
 -14253868.40446 -10000537.60945  23637548.3884   23637552.3514
   -645970.05447   -360435.19646  22492200.3654   22492203.4954
  -9566942.47443                  24075487.3304
  -3937305.34645  -2962337.57046  24429489.0154   24429492.2864
 -18707728.19946 -14451333.97646  21237746.2854   21237749.1334
 -18204937.26047 -14096554.28646  21876338.8854   21876342.3674
 15  1 19  2 38  0.0000000  0  6G18G29G27G05G21G16
 -14313360.77646 -10046895.27745  23626227.6994   23626231.9774
   -531524.28147   -271256.68446  22513978.6284   22513981.8754
  -9631582.86443  -7387416.83143  24063187.1744   24063196.6804
  -3826888.55246  -2876298.47445  24450500.4774   24450504.3344
 -18688824.75946 -14436603.99346  21241343.5214   21241346.2764
 -18232382.50946 -14117940.21046  21871116.3074   21871120.0234
 15  1 19  2 38 30.0000000  0  6G18G29G27G05G21G16
 -14372662.36246 -10093104.26145  23614942.5544   23614948.4624
   -416867.85747   -181914.03246  22535797.2714   22535800.4244
  -9696129.41543  -7437712.89245  24050904.7774   24050904.1094
  -3716057.72146  -2789936.79845  24471591.2024   24471594.6024
 -18669530.09146 -14421569.18246  21245015.2124   21245017.6624
 -18259359.03047 -14138960.87746  21865982.8614   21865986.5424
 15  1 19  2 39  0.0000000  0  6G18G29G27G05G21G16
 -14431772.79846 -10139164.30845  23603694.5674   23603699.4784
   -302003.88147    -92409.66746  22557655.0784   22557657.9624
  -9760583.02743  -7487936.47545  24038639.1694   24038641.0334
  -3604817.78846  -2703256.30645  24492759.3304   24492762.4724
 -18649847.91746 -14406232.44746  21248760.1374   21248763.2674
 -18285866.79447 -14159616.27346  21860938.6034   21860942.2144
 15  1 19  2 39 30.0000000  0  6G18G29G27G05G21G16
 -14490684.99646 -10185069.92045  23592484.1704   23592487.8394
   -186928.72847     -2740.72646  22579552.8464   22579556.6434
  -9824937.93543  -7538083.02644  24026392.8244   24026397.7364
  -3493166.48946  -2616255.31545  24514005.8354   24514009.0354
 -18629773.16446 -14390589.78046  21252580.5524   21252583.7524
 -18311898.82547 -14179900.96446  21855985.2244   21855988.7644
 15  1 19  2 40  0.0000000  0  6G18G29G27G05G21G16
 -14549399.36546 -10230821.33545  23581310.7334   23581315.7974
    -71646.12447     87089.86246  22601490.2114   22601494.9114
  -9889196.00143  -7588154.19945  24014164.5664   24014169.4074
  -3381109.52945  -2528938.19745  24535329.4814   24535333.2214
 -18609308.81646 -14374643.54046  21256474.8394   21256478.0514
 -18337456.01647 -14199815.64546  21851121.7634   21851125.4444
 15  1 19  2 40 30.0000000  0  6G18G29G27G05G21G16
 -14607911.92146 -10276415.50345  23570176.2334   23570180.2894
     43844.21347    177082.33446  22623467.7424   22623471.6574
  -9953354.81642  -7638148.09845  24001954.1494   24001963.6564
  -3268647.89546  -2441305.75345  24556730.4024   24556735.0684
 -18588453.83946 -14358392.91546  21260443.4094   21260446.5394
 -18362534.78047 -14219357.53846  21846349.3374   21846353.0644
 15  1 19  2 41  0.0000000  0  6G18G29G27G05G21G16
 -14666222.23546 -10321852.05745  23559080.2954   23559084.2344
    159539.68847    267234.64546  22645483.8224   22645487.6314
 -10017415.15043  -7688065.17845  23989765.0144   23989769.7624
  -3155786.15546  -2353361.54445  24578207.2624   24578210.9434
 -18567210.38646 -14341839.52646  21264485.9164   21264488.4124
 -18387135.12547 -14238526.63646  21841667.7844   21841671.6884
 15  1 19  2 41 30.0000000  0  6G18G29G27G05G21G16
 -14724327.37046 -10367128.78645  23548023.2084   23548028.3664
    275440.06147    357546.59646  22667539.0134   22667542.0494
 -10081375.19043  -7737904.21645  23977593.7534   23977599.3924
  -3042526.00746  -2265106.86945  24599759.6154   24599764.7854
 -18545578.23046 -14324983.26246  21268602.2374   21268604.7454
 -18411253.92347 -14257320.50046  21837078.1774   21837082.4214
 15  1 19  2 42  0.0000000  0  6G18G29G27G05G21G16
 -16357648.35046 -11639846.41545  23237212.3524   23237217.0764
  -1183873.68647   -779581.02546  22389840.8334   22389843.8454
 -11720657.79843  -9015267.21445  23665648.8284   23665653.5174
  -4504288.16045  -3404142.31145  24321595.3264   24321599.6634
 -20098979.60946 -15535425.84446  20972999.9644   20973003.1414
 -20010312.38747 -15503340.06946  21532787.3374   21532791.3814
 15  1 19  2 42 30.0000000  0  6G18G29G27G05G21G16
 -16415334.41246 -11684796.55845  23226235.1094   23226239.9744
  -1067565.56647   -688951.33246  22411973.2894   22411977.6034
 -11784412.66943  -9064946.27245  23653516.3554   23653522.7204
  -4390237.67245  -3315271.78845  24343299.3124   24343303.3564
 -20076570.69246 -15517964.30446  20977264.0684   20977267.2454
 -20033461.62947 -15521378.42846  21528382.2294   21528385.8514
 15  1 19  2 43  0.0000000  0  6G18G29G27G05G21G16
 -16472807.91646 -11729581.09245  23215298.6404   23215302.3324
   -951055.25547   -598164.09646  22434144.8454   22434149.0774
 -11848064.03543  -9114544.74745  23641404.2044   23641411.1554
  -4275796.70446  -3226097.01445  24365076.4834   24365080.7034
 -20053774.26446 -15500200.82346  20981602.0654   20981605.0544
 -20056123.18346 -15539036.77946  21524070.0334   21524073.6674
 15  1 19  2 43 30.0000000  0  6G18G29G27G05G21G16
 -16530068.40846 -11774199.64446  23204402.4674   23204405.3624
   -834345.39947   -507221.36546  22456353.7844   22456357.7814
 -11911612.16344  -9164062.70345  23629310.6374   23629316.7804
  -4160969.12945  -3136620.99945  24386927.3964   24386931.1474
 -20030592.32946 -15482136.97046  20986013.5034   20986016.7154
 -20078297.41946 -15556315.38746  21519850.0134   21519854.1744
 15  1 19  2 44  0.0000000  0  6G18G29G27G05G21G16
 -16587108.57646 -11818646.50346  23193547.9544   23193551.2134
   -717432.30747   -416120.28746  22478601.7154   22478605.3374
 -11975051.61844  -9213495.96145  23617239.5304   23617246.5514
  -4045753.25745  -3046842.34045  24408851.9654   24408857.6974
 -20007020.55746 -15463769.36646  20990499.2224   20990502.3994
 -20099977.09046 -15573208.62946  21515724.4424   21515728.1464
 15  1 19  2 44 30.0000000  0  6G18G29G27G05G21G16
 -16643926.00246 -11862919.79845  23182735.3994   23182739.1274
   -600317.14847   -324861.74346  22500887.8654   22500891.6874
 -12038381.01144  -9262843.45045  23605187.2114   23605193.5414
  -3930151.68045  -2956763.23145  24430850.2214   24430853.4564
 -19983060.03246 -15445098.82746  20995058.4024   20995061.4034
 -20121160.72247 -15589715.35446  21511693.8674   21511697.3134
 15  1 19  2 45  0.0000000  0  6G18G29G27G05G21G16
 -16700521.43646 -11907020.12046  23171965.7804   23171969.0854
   -483003.57847   -233448.60546  22523211.9414   22523215.7164
 -12101602.46344  -9312106.91345  23593156.6834   23593162.1694
  -3814170.01444  -2866387.92845  24452920.2264   24452925.0324
 -19958713.47746 -15426127.45246  20999691.6454   20999694.7514
 -20141848.88547 -15605836.00246  21507756.8454   21507760.6674
 15  1 19  2 45 30.0000000  0  6G18G29G27G05G21G16
 -16756894.94846 -11950947.52846  23161238.1344   23161242.5884
   -365494.97247   -141883.47646  22545573.2474   22545576.7054
 -12164716.93245  -9361286.94445  23581146.5194   23581152.8614
  -3697813.05845  -2775720.14045  24475062.4344   24475065.8344
 -19933983.72846 -15406857.50346  21004397.5144   21004400.3744
 -20162041.98547 -15621570.88946  21503914.1734   21503918.1354
 15  1 19  2 46  0.0000000  0  6G18G29G27G05G21G16
 -16813042.57946 -11994698.91445  23150553.6404   23150558.5754
   -247790.38047    -50165.63846  22567971.7094   22567975.0624
 -12227721.73144  -9410381.56645  23569156.5084   23569163.1544
  -3581081.50545  -2684760.56545  24497276.5764   24497278.8384
 -19908869.86646 -15387288.25646  21009176.4034   21009179.4744
 -20181736.56547 -15636917.31346  21500166.3394   21500170.4894
 15  1 19  2 46 30.0000000  0  6G18G29G27G05G21G16
 -16868962.75046 -12038273.09346  23139912.3514   23139917.5214
   -129892.29647     41702.96846  22590406.6364   22590410.5404
 -12290617.06245  -9459390.95745  23557189.0254   23557196.0234
  -3463979.27144  -2593512.10045  24519559.9934   24519562.7944
 -19883373.85046 -15367421.25246  21014028.3704   21014030.8324
 -20200932.14947 -15651874.88946  21496513.4344   21496517.1624
 15  1 19  2 47  0.0000000  0  6G18G29G27G05G21G16
 -16924653.46946 -12081668.44846  23129314.5734   23129318.4534
    -11801.88447    133721.43846  22612878.6624   22612882.8944
 -12353401.77745  -9508314.05545  23545241.0384   23545246.9934
  -3346509.62544  -2501977.31345  24541913.5014   24541918.4364
 -19857495.29746 -15347256.11846  21018952.6794   21018955.3404
 -20219626.69147 -15666442.06746  21492956.4124   21492960.1274
 15  1 19  2 47 30.0000000  0  6G18G29G27G05G21G16
 -16980110.96746 -12124882.08946  23118761.7724   23118765.7574
    106482.21647    225890.84546  22635387.5424   22635390.3914
 -12416073.12145  -9557148.84245  23533315.1134   23533322.0414
  -3228673.16945  -2410156.73845  24564336.9844   24564342.1774
 -19831233.29946 -15326792.20846  21023950.4714   21023953.3084
 -20237816.95747 -15680616.30946  21489494.7744   21489497.7864
 15  1 19  2 48  0.0000000  0  6G18G29G27G05G21G16
 -17035335.38946 -12167914.08446  23108252.8814   23108257.2304
    224955.09447    318207.35446  22657932.1424   22657935.2254
 -12478633.13045  -9605896.83445  23521409.7474   23521416.4524
  -3110475.89245  -2318054.95545  24586829.5964   24586835.7744
 -19804591.94046 -15306032.70246  21029020.0774   21029022.7624
 -20255503.63447 -15694398.13946  21486129.1504   21486132.3384
 15  1 19  2 48 30.0000000  0  6G18G29G27G05G21G16
 -17090322.31946 -12210761.02246  23097789.3614   23097793.3114
    343618.92347    410672.62746  22680513.3014   22680516.3604
 -12541077.80545  -9654554.98545  23509527.2254   23509533.0744
  -2991917.43745  -2225671.68645  24609390.6244   24609400.2484
 -19777568.61546 -15284975.56346  21034162.2514   21034165.3344
 -20272682.14447 -15707783.98246  21482859.8954   21482863.8224
 15  1 19  2 49  0.0000000  0  6G18G29G27G05G21G16
 -17145069.56846 -12253421.18846  23087371.2714   23087374.7884
    462472.35446    503285.66546  22703130.1534   22703133.2244
 -12603406.50344  -9703122.79245  23497666.5384   23497671.8604
  -2873000.97545  -2133009.66145  24632019.9264   24632020.7124
 -19750164.20646 -15263621.50846  21039377.1214   21039379.9584
 -20289351.19747 -15720772.86046  21479687.8994   21479691.1464
 15  1 19  2 49 30.0000000  0  6G18G29G27G05G21G16
 -17199574.31946 -12295892.39646  23076999.0774   23077003.6254
    581515.40947    596046.46746  22725783.3494   22725786.9124
 -12665617.39245  -9751598.79145  23485827.8064   23485831.6984
  -2753728.89745  -2040070.36845  24654716.2974   24654720.5524
 -19722378.83346 -15241970.58346  21044664.8184   21044667.9834
 -20305508.56147 -15733362.99046  21476613.2854   21476617.1064
 15  1 19  2 50  0.0000000  0  6G18G29G27G05G21G16
 -17253835.13246 -12338173.54046  23066673.4944   23066679.0744
    700745.97347    688953.38046  22748472.1574   22748475.5334
 -12727710.22043  -9799982.79745  23474012.1164   23474016.6764
  -2634104.36045  -1946856.40845  24677480.0074   24677484.8834
 -19694213.91246 -15220023.87846  21050023.7624   21050026.8344
 -20321152.91647 -15745553.39446  21473636.6224   21473640.3384
 15  1 19  2 50 30.0000000  0  6G18G29G27G05G21G16
 -17307850.47246 -12380263.43546  23056394.7934   23056399.1064
    820162.34647    782005.04846  22771196.4944   22771200.3744
 -12789684.53544  -9848274.44145  23462219.4934   23462225.7764
  -2514130.87045  -1853370.62645  24700309.3074   24700313.5974
 -19665670.56946 -15197782.30546  21055455.6714   21055459.2464
 -20336283.46947 -15757343.41646  21470757.0844   21470760.8354
 15  1 19  2 51  0.0000000  0  6G18G29G27G05G21G16
 -17361616.71546 -12422159.22246  23046163.3614   23046168.8934
    939764.17447    875201.25946  22793956.1664   22793959.2604
 -12851538.51344  -9896472.30945  23450448.6184   23450454.3624
  -2393810.45944  -1759614.45645  24723205.9854   24723208.4944
 -19636748.18446 -15175245.36646  21060959.5984   21060962.5994
 -20350897.57547 -15768731.05146  21467976.1724   21467979.9234
 15  1 19  2 51 30.0000000  0  6G18G29G27G05G21G16
 -17415133.19346 -12463860.33946  23035979.5604   23035983.1704
   1059549.35047    968540.31546  22816750.4454   22816753.9384
 -12913272.05945  -9944576.40345  23438701.0594   23438706.4864
  -2273146.52644  -1665590.66445  24746167.5134   24746172.9174
 -19607448.94046 -15152414.76846  21066535.0204   21066537.8804
 -20364994.48847 -15779715.67546  21465293.7634   21465297.4094
 15  1 19  2 52  0.0000000  0  6G18G29G27G05G21G16
 -17468395.21446 -12505363.19246  23025844.1524   23025848.2204
   1179519.41347   1062023.44046  22839580.1524   22839583.1304
 -12974881.62345  -9992583.74745  23426976.9384   23426982.3194
  -2152139.78243  -1571299.66645  24769193.9564   24769197.8124
 -19577770.55546 -15129288.75446  21072182.7734   21072185.7744
 -20378569.99647 -15790293.98646  21462710.3334   21462713.8854
 15  1 19  2 52 30.0000000  0  6G18G29G27G05G21G16
 -17521401.37146 -12546666.67146  23015757.3804   23015762.1164
   1299672.35346   1155649.10146  22862443.9724   22862447.3124
 -13036367.02445 -10040494.47045  23415276.7264   23415281.5564
  -2030794.33545  -1476744.75745  24792286.1924   24792290.5414
 -19547714.86446 -15105868.75346  21077901.9854   21077904.7864
 -20391623.37047 -15800465.44646  21460226.2054   21460229.8154
 15  1 19  2 53  0.0000000  0  6G18G29G27G05G21G16
 -17574150.77846 -12587770.11146  23005719.1334   23005723.9274
   1420006.23347   1249415.70746  22885343.2764   22885346.8054
 -13097728.33245 -10088308.42045  23403600.0644   23403606.3364
  -1909113.62945  -1381928.65845  24815441.0054   24815442.3654
 -19517283.86546 -15082156.27746  21083692.9294   21083695.5204
 -20404154.57947 -15810230.01746  21457842.0884   21457845.1824
 15  1 19  2 53 30.0000000  0  6G18G29G27G05G21G16
 -17626637.95246 -12628669.18946  22995731.5594   22995736.3194
   1540522.65046   1343324.58446  22908276.6674   22908280.0904
 -13158961.62945 -10136022.69645  23391947.7124   23391953.9254
  -1787097.73645  -1286851.32745  24838659.9814   24838665.7594
 -19486475.28746 -15058149.58746  21089555.4184   21089558.1144
 -20416158.61147 -15819583.78446  21455557.4204   21455561.1954
 15  1 19  2 54  0.0000000  0  6G18G29G27G05G21G16
 -17678862.08346 -12669363.31646  22985793.6064   22985798.6824
   1661219.63546   1437374.17446  22931244.0014   22931248.3504
 -13220066.69645 -10183637.06245  23380320.1524   23380326.4704
  -1664750.31644  -1191515.66545  24861941.7584   24861946.2364
 -19455290.33146 -15033849.59446  21095489.5564   21095492.7564
 -20427634.76547 -15828526.22346  21453373.6814   21453376.7524
 15  1 19  2 54 30.0000000  0  6G18G29G27G05G21G16
 -17730820.90346 -12709850.69546  22975906.1974   22975910.8744
   1782096.30446   1531563.72646  22954246.7134   22954250.1824
 -13281042.45745 -10231150.65245  23368716.5814   23368722.7934
  -1542074.00644  -1095923.80645  24885286.6474   24885289.3324
 -19423730.22746 -15009257.29046  21101495.3764   21101498.3064
 -20438581.48147 -15837056.13546  21451290.7154   21451293.5984
 15  1 19  2 55  0.0000000  0  6G18G29G27G05G21G16
 -17782508.36146 -12750126.65046  22966070.5344   22966075.8804
   1903155.29446   1625895.40346  22977283.3764   22977285.7444
 -13341883.88745 -10278559.51345  23357138.8404   23357144.0444
  -1419067.88945  -1000074.85345  24908693.9304   24908698.4904
 -19391790.92646 -14984369.50046  21107573.3844   21107575.8114
 -20448993.28247 -15845169.21846  21449309.4974   21449312.6274
 15  1 19  2 55 30.0000000  0  6G18G29G27G05G21G16
 -17833926.50446 -12790192.73746  22956286.1644   22956290.8774
   2024391.33746   1720365.03246  23000353.5584   23000357.2984
 -13402594.28245 -10325866.26245  23345586.1534   23345592.9644
  -1295739.24845   -903974.65045  24932162.2674   24932164.7764
 -19359478.25646 -14959190.78346  21113722.0854   21113724.5824
 -20458873.23047 -15852867.86946  21447429.0044   21447431.8294
 15  1 19  2 56  0.0000000  0  6G18G29G27G05G21G16
 -17885073.78746 -12830047.74546  22946552.8084   22946557.6024
   2145802.71346   1814971.26746  23023457.4144   23023462.0794
 -13463173.17145 -10373070.53945  23334058.5174   23334063.9914
  -1172091.68745   -807625.88145  24955692.2614   24955694.7584
 -19326793.01146 -14933721.74946  21119941.9614   21119944.2234
 -20468219.71247 -15860150.83246  21445650.3084   21445653.4504
 15  1 19  2 56 30.0000000  0  6G18G29G27G05G21G16
 -17935949.56746 -12869691.18946  22936871.4974   22936875.7534
   2267387.04846   1909712.30046  23046594.4904   23046598.3704
 -13523620.69746 -10420172.45445  23322556.0404   23322560.5654
  -1048128.92745   -711031.54545  24979281.8714   24979284.4744
 -19293737.37746 -14907964.11146  21126232.0674   21126234.8464
 -20477033.14847 -15867018.44246  21443973.5184   21443976.5424
 15  1 19  2 57  0.0000000  0  6G18G29G27G05G21G16
 -17986544.44346 -12909115.77346  22927243.4924   22927247.6654
   2389150.42646   2004592.82946  23069765.4484   23069768.6484
 -13583928.68046 -10467165.66045  23311078.8024   23311084.5584
   -923846.73745   -614188.30645  25002931.4904   25002935.2304
 -19260305.21746 -14881913.07646  21132594.0524   21132597.0884
 -20485304.55447 -15873463.69446  21442399.4024   21442402.4034
 15  1 19  2 57 30.0000000  0  6G18G29G27G05G21G16
 -18036859.12646 -12948321.99246  22917668.5234   22917672.8614
   2511088.86446   2099609.75946  23092969.0154   23092973.5054
 -13644098.64146 -10514051.28245  23299629.0424   23299634.6924
   -799250.80844   -517100.62445  25026641.1574   25026642.9394
 -19226499.46146 -14855570.92246  21139027.4504   21139030.3934
 -20493035.44347 -15879487.76546  21440928.2764   21440931.3354
 15  1 19  2 58  0.0000000  0  6G18G29G27G05G21G16
 -18086893.02246 -12987309.42946  22908147.6434   22908151.7104
   2633199.97046   2194761.26246  23116206.4644   23116211.0364
 -13704131.02646 -10560829.75846  23288205.1644   23288210.1104
   -674345.69543   -419771.98945  25050410.0314   25050412.8564
 -19192322.96346 -14828939.86346  21145530.4854   21145533.6384
 -20500225.52047 -15885090.44146  21439559.9144   21439563.3834
 15  1 19  2 58 30.0000000  0  6G18G29G27G05G21G16
 -18136644.41946 -13026076.74546  22898680.5834   22898685.7874
   2755481.81946   2290045.79746  23139475.7154   23139480.1924
 -13764025.36946 -10607500.66046  23276807.7264   23276813.7044
   -549134.65643   -322204.95445  25074236.3174   25074238.6264
 -19157777.02046 -14802020.92446  21152104.4484   21152107.8594
 -20506873.97047 -15890271.04446  21438294.6674   21438298.2074
 15  1 19  2 59  0.0000000  0  6G18G29G27G05G21G16
 -18186108.24346 -13064619.96146  22889267.8094   22889272.3454
   2877936.69346   2385465.14446  23162778.5734   23162781.9844
 -13823777.43046 -10654060.69546  23265437.2584   23265442.4864
   -423617.24342   -224399.16644  25098122.8104   25098124.4164
 -19122858.78946 -14774811.91246  21158749.0744   21158752.4274
 -20512976.31747 -15895026.11446  21437133.7304   21437137.5284
 15  1 19  2 59 30.0000000  0  6G18G29G27G05G21G16
 -18235281.51446 -13102936.77146  22879910.3994   22879914.5494
   3000564.40346   2481019.17946  23186113.8494   23186117.1084
 -13883385.11846 -10700508.24046  23254094.3674   23254100.1464
   -297795.94041   -126356.55844  25122063.5894   25122068.0784
 -19087568.27946 -14747312.80346  21165464.8304   21165468.4404
 -20518530.28847 -15899353.89246  21436077.0354   21436079.9074
 15  1 19  3  0  0.0000000  0  6G18G29G27G05G21G16
 -18284163.15946 -13141026.34346  22870608.3614   22870611.8784
   3123362.74546   2576706.16846  23209481.3564   23209485.9274
 -13942848.60246 -10746843.43246  23242778.6174   23242784.8304
   -171674.22142    -28079.80043  25146064.7444   25146070.2414
 -19051907.45546 -14719525.14746  21172250.9494   21172254.2074
 -20523535.93147 -15903254.39746  21435124.2834   21435126.7564
 15  1 19  3  0 30.0000000  0  6G18G29G27G05G21G16
 -18332750.16946 -13178886.32646  22861362.7734   22861366.6414
   3246331.51646   2672525.96746  23232881.8144   23232885.5764
 -14002165.53146 -10793064.40646  23231491.0854   23231497.0284
    -45254.07642     70429.24344  25170120.9174   25170128.0334
 -19015875.97646 -14691448.66046  21179107.2534   21179110.3134
 -20527990.07346 -15906725.16046  21434276.4044   21434279.7334
 15  1 19  3  1  0.0000000  0  6G18G29G27G05G21G16
 -18381042.27146 -13216516.50246  22852172.9574   22852177.7164
   3369468.18546   2768476.59846  23256314.0374   23256317.9294
 -14061336.54546 -10839171.70246  23220231.3564   23220236.9124
     81460.10643                  25194235.3624
 -18979476.54446 -14663085.45546  21186034.0204   21186036.9154
 -20531893.24446 -15909766.57146  21433533.6964   21433538.0564
 15  1 19  3  1 30.0000000  0  6G18G29G27G05G21G16
 -18429036.28946 -13253914.42446  22843040.1274   22843044.1364
   3492772.60946   2864557.95046  23279778.0604   23279782.2914
 -14120359.42046 -10885163.53246  23209000.0434   23209005.9164
    208466.27242                  25218403.9984
 -18942708.45746 -14634435.00246  21193030.7614   21193034.0664
 -20535243.32047 -15912377.02446  21432896.1254   21432899.6534
 15  1 19  3  2  0.0000000  0  6G18G29G27G05G21G16
 -18476731.17446 -13291079.25446  22833963.9904   22833967.7294
   3616242.28346   2960768.03746  23303273.4294   23303276.9344
 -14179234.27746 -10931040.00846  23197796.4244   23197802.5204
    335760.49842                  25242626.8614
 -18905574.45946 -14605499.42346  21200096.8734   21200100.1204
 -20538040.02247 -15914556.26746  21432363.5094   21432366.8034
 15  1 19  3  2 30.0000000  0  6G18G29G27G05G21G16
 -18524126.90246 -13328010.97246  22824945.0534   22824949.4494
   3739874.42046   3057104.74746  23326799.8344   23326803.5034
 -14237961.90346 -10976801.78046  23186620.7504   23186626.6004
    463337.72043                  25266904.2364
 -18868076.67946 -14576280.38446  21207232.4894   21207235.5714
 -20540284.05347 -15916304.86646  21431936.8954   21431940.3414
 15  1 19  3  3  0.0000000  0  6G18G29G27G05G21G16
 -18571215.88746 -13364703.65846  22815984.0374   22815988.6674
   3863673.68546   3153571.69446  23350357.4524   23350361.4854
 -14296535.40546 -11022443.43046  23175474.3434   23175479.7124
    591200.87541                  25291235.5504
 -18830210.35246 -14546774.14746  21214438.2804   21214441.7854
 -20541968.03947 -15917617.07846  21431616.5904   21431620.0124
 15  1 19  3  3 30.0000000  0  7G18G29G27G05G22G21G16
 -18617994.44546 -13401154.46746  22807082.3524   22807086.6074
   3987640.75146   3250169.36146  23373947.7794   23373952.7604
 -14354951.66646 -11067962.51246  23164357.7074   23164364.0374
    719349.19341                  25315621.3284
 -11071319.49944                  25046264.8154
 -18791974.07946 -14516979.64946  21221714.6894   21221717.7724
 -20543088.61547 -15918490.25846  21431403.5464   21431406.6764
 15  1 19  3  4  0.0000000  0  7G18G29G27G05G22G21G16
 -18664466.69946 -13437366.58646  22798239.1144   22798242.8304
   4111767.93446   3346891.81546  23397568.7154   23397573.0764
 -14413216.23946 -11113363.43746  23153270.3384   23153276.7274
 -10908074.12041                  25340061.5274
 -11147872.28344                  25031696.9404
 -18753375.74246 -14486903.02146  21229059.4014   21229062.3674
 -20543651.61347 -15918928.96346  21431296.2064   21431299.3954
 15  1 19  3  4 30.0000000  0  7G18G29G27G13G22G21G16
 -18710626.66047 -13473335.37446  22789455.3274   22789459.0784
   4236058.14646   3443741.30246  23421220.4734   23421224.1664
 -14471324.10446 -11158642.29546  23142213.0544   23142218.8104
 -11051044.78441                  25531764.8364
 -11224415.21543  -8603138.43645  25017130.2504   25017133.7084
 -18714412.56146 -14456542.09646  21236473.9624   21236476.7524
 -20543651.92446 -15918929.22046  21431296.3304   21431300.0344
 15  1 19  3  5  0.0000000  0  7G18G29G27G13G22G21G16
 -18756472.84346 -13509059.65346  22780731.0394   22780735.0014
   4360509.46246   3540716.32546  23444902.6924   23444907.3344
 -14529274.58646 -11203798.48946  23131185.5404   23131191.2834
 -11039803.43042                  25526098.9054
 -11300946.55244  -8662773.26145  25002567.6354   25002570.0144
 -18675085.28646 -14425897.45846  21243957.5494   21243960.8664
 -20543089.12746 -15918490.66846  21431402.8294   21431407.2484
 15  1 19  3  5 30.0000000  0  7G18G29G27G13G22G21G16
 -18802000.73247 -13544535.91846  22772067.3034   22772070.7374
   4485123.63246   3637818.24746  23468615.9914   23468620.2354
 -14587063.84046 -11248829.10646  23120188.4414   23120194.5604
 -11069175.06941                  25520508.5554
 -11377461.30444  -8722395.12145  24988007.3514   24988012.5444
 -18635392.13746 -14394967.72746  21251510.9694   21251513.8994
 -20541958.50446 -15917609.66446  21431618.1624   21431621.9724
 15  1 19  3  6  0.0000000  0  7G18G29G27G13G22G21G16
 -18847210.09847 -13579763.96546  22763464.2644   22763469.1524
   4609897.78846   3735044.85046  23492359.7884   23492363.8324
 -14644692.42746 -11293734.49346  23109222.3234   23109228.1484
 -11098136.54242                  25514997.0054
 -11453959.32045  -8782003.95845  24973449.9804   24973451.7034
 -18595335.64646 -14363754.87646  21259133.4474   21259136.2374
 -20540261.02547 -15916286.96346  21431941.6654   21431945.5094
 15  1 19  3  6 30.0000000  0  7G18G29G27G13G22G21G16
 -20467519.23246 -14842342.48646  22455129.6594   22455133.8794
   3159416.31046   2604799.50146  23216341.7154   23216346.6384
 -16277579.82246 -12566114.28946  22798493.8334   22798499.7184
 -12702105.38541                  25209771.6574
 -13105859.55044 -10069198.96745  24659103.7634   24659103.0134
 -20130334.18146 -15559857.63546  20967032.8244   20967035.9074
 -22113414.25647 -17142120.64946  21132580.2684   21132583.6564
 15  1 19  3  7  0.0000000  0  6G18G29G27G22G21G16
 -20512084.29847 -14877068.49546  22446649.0074   22446653.6604
   3284509.32146   2702274.54246  23240147.1104   23240151.5174
 -16334881.82346 -12610765.22246  22787589.8314   22787595.1654
 -13182315.65243 -10128775.11645  24644554.4344   24644554.7624
 -20089552.55946 -15528079.75546  20974793.3074   20974796.8474
 -22110577.66946 -17139910.31746  21133119.9294   21133124.1604
 15  1 19  3  7 30.0000000  0  6G18G29G27G22G21G16
 -20556323.24546 -14911540.36346  22438230.7544   22438235.3374
   3409760.56146   2799872.88746  23263981.5514   23263984.7634
 -16392018.02245 -12655286.92645  22776715.9934   22776721.3624
 -13258747.00444 -10188331.97045  24630010.2334   24630011.3934
 -20048408.86646 -15496019.74046  20982622.9844   20982626.0204
 -22107169.04646 -17137254.23746  21133768.1964   21133772.2874
 15  1 19  3  8  0.0000000  0  6G18G29G27G22G21G16
 -20600237.65447 -14945759.36946  22429874.1744   22429878.5234
   3535165.36246   2897590.87346  23287845.2954   23287849.3044
 -16448990.82446 -12699681.30745  22765875.0754   22765880.7954
 -13335154.85245 -10247870.58245  24615471.0144   24615476.8874
 -20006906.88946 -15463680.53446  20990520.3644   20990523.4244
 -22103190.87146 -17134154.38046  21134525.5164   21134529.1734
 15  1 19  3  8 30.0000000  0  6G18G29G27G22G21G16
 -20643824.37847 -14979723.02146  22421579.6504   22421583.2724
   3660724.17846   2995428.87146  23311738.1474   23311742.1454
 -16505797.48646 -12743946.23146  22755065.1894   22755071.2964
 -13411535.53744 -10307388.00945  24600936.0034   24600937.7384
 -19965046.81146 -15431062.29846  20998486.1334   20998488.6074
 -22098640.74346 -17130608.82546  21135391.2564   21135394.9834
 15  1 19  3  9  0.0000000  0  6G18G29G27G22G21G16
 -20687080.14647 -15013428.76946  22413348.3444   22413352.2364
   3786437.00246   3093386.88046  23335660.7104   23335664.8954
 -16562435.72346 -12788079.91346  22744287.8944   22744294.0724
 -13487885.80643 -10366881.72545  24586405.6884   24586409.2284
 -19922828.08846 -15398164.59546  21006519.9264   21006523.1264
 -22093516.23746 -17126615.69946  21136366.6144   21136370.4944
 15  1 19  3  9 30.0000000  0  6G18G29G27G22G21G16
 -20730005.23647 -15046876.87846  22405180.0144   22405184.6684
   3912300.78546   3191462.52746  23359611.0774   23359615.0404
 -16618906.32646 -12832082.96446  22733542.0244   22733547.2764
 -13564205.56743 -10426351.64945  24571882.8004   24571887.2894
 -19880253.46946 -15364989.56546  21014621.9194   21014624.6044
 -22087818.26747 -17122175.72146  21137451.2944   21137454.9864
 15  1 19  3 10  0.0000000  0  6G18G29G27G22G21G16
 -20772594.10247 -15080062.95246  22397075.6674   22397079.8404
   4038317.75346   3289657.53246  23383591.9754   23383596.1014
 -16675204.68746 -12875951.80546  22722828.5064   22722834.3214
 -13640489.15743 -10485793.37845  24557366.5604   24557368.8814
 -19837320.54146 -15331535.32446  21022791.5604   21022794.9244
 -22081542.25647 -17117285.33346  21138645.4994   21138649.0974
 15  1 19  3 10 30.0000000  0  6G18G29G27G22G21G16
 -20814846.64247 -15112986.96146  22389035.3884   22389039.5974
   4164485.34646   3387969.89346  23407600.9924   23407603.6414
 -16731331.10046 -12919686.63046  22712147.7044   22712153.4834
 -13716736.19543 -10545206.61545  24542857.2204   24542864.7804
 -19794031.88646 -15297803.90446  21031029.1174   21031032.5404
 -22074689.16447 -17111945.26746  21139949.5874   21139953.2564
 15  1 19  3 11  0.0000000  0  6G18G29G27G22G21G16
 -20856759.61047 -15145646.35146  22381059.2134   22381063.3404
   4290803.37246   3486399.48446  23431638.2494   23431641.7194
 -16787283.50746 -12963285.89146  22701500.2544   22701506.0804
 -13792943.20843 -10604588.69545  24528355.9664   24528359.0494
 -19750387.45546 -15263795.26646  21039334.4604   21039337.9534
 -22067256.66747 -17106153.70046  21141363.9914   21141367.6134
 15  1 19  3 11 30.0000000  0  7G18G29G27G13G22G21G16
 -20898331.86547 -15178040.25346  22373148.4804   22373152.5014
   4417270.23546   3584945.04146  23455704.3264   23455710.3514
 -16843061.21246 -13006749.03746  22690886.6054   22690892.2324
 -12624384.98942                  25159866.4674
 -13869108.88344 -10663938.52445  24513862.5074   24513866.5514
 -19706388.49946 -15229510.36346  21047707.1534   21047710.7634
 -22059244.60047 -17099910.51046  21142888.3504   21142892.1604
 15  1 19  3 12  0.0000000  0  7G18G29G27G13G22G21G16
 -20939559.27347 -15210165.46946  22365303.0064   22365306.9104
   4543887.23246   3683607.61746  23479798.4144   23479802.7874
 -16898660.54146 -13050073.19546  22680306.1434   22680311.5114
 -12648231.96943                  25155328.5354
 -13945228.59344 -10723252.58845  24499376.7644   24499378.3004
 -19662033.78246 -15194948.23346  21056147.7094   21056150.9564
 -22050649.33347 -17093212.90946  21144524.1644   21144527.5174
 15  1 19  3 12 30.0000000  0  7G18G29G27G13G22G21G16
 -20980441.28447 -15242021.54146  22357523.3684   22357527.7284
   4670651.62246   3782385.02546  23503920.6904   23503924.6994
 -16954081.91046 -13093258.66446  22669759.7774   22669765.1344
 -12671636.23342                  25150873.5484
 -14021301.69145 -10782530.32445  24484900.3144   24484900.5844
 -19617325.46046 -15160110.58746  21064655.0904   21064658.3734
 -22041471.52647 -17086061.37146  21146270.6334   21146273.4694
 15  1 19  3 13  0.0000000  0  7G18G29G27G13G22G21G16
 -21020976.19947 -15273607.12046  22349809.8054   22349814.4824
   4797562.29446   3881276.41046  23528071.6364   23528075.9274
 -17009323.91646 -13136304.40146  22659247.9264   22659253.8224
 -12694595.57443                  25146505.9864
 -14097325.78845 -10841769.83045  24470433.3624   24470436.5514
 -19572264.43146 -15124998.09546  21073230.2204   21073233.7254
 -22031710.47547 -17078455.36946  21148128.2374   21148131.7654
 15  1 19  3 13 30.0000000  0  7G18G29G27G13G22G21G16
 -21061160.80547 -15304919.73546  22342163.1924   22342167.2604
   4924619.35746   3980281.88946  23552249.8694   23552254.4054
 -17064384.37646 -13179208.61046  22648769.5734   22648775.3644
 -12717106.96043  -9831283.35345  25142220.4794   25142223.5154
 -14173297.98345 -10900969.03345  24455976.2214   24455978.3544
 -19526850.92146 -15089610.95046  21081872.2534   21081874.9844
 -22021363.57447 -17070392.85646  21150097.1664   21150100.6364
 15  1 19  3 14  0.0000000  0  7G18G29G27G13G22G21G16
 -21100993.40547 -15335958.10146  22334583.0024   22334586.7654
   5051821.87146   4079400.68546  23576455.4534   23576459.3804
 -17119261.96546 -13221970.36846  22638327.1454   22638332.4324
 -12739167.64043  -9848473.47445  25138023.7584   25138029.6424
 -14249215.84045 -10960125.76545  24441529.7484   24441535.3044
 -19481085.74046 -15053949.76446  21090580.6674   21090583.0814
 -22010430.32547 -17061873.44646  21152177.8404   21152181.0294
 15  1 19  3 14 30.0000000  0  7G18G29G27G13G22G21G16
 -21140473.32947 -15366721.62946  22327070.1264   22327074.2414
   5179167.16646   4178630.74946  23600688.8944   23600692.1644
 -17173956.52546 -13264589.46646  22627918.8864   22627924.7354
 -12760776.76943  -9865311.72144  25133912.4514   25133920.5754
 -14325078.35445 -11019239.41645  24427093.3824   24427097.8484
 -19434970.75546 -15018015.99646  21099356.1254   21099359.1734
 -21998911.02446 -17052897.37246  21154369.4974   21154372.7334
 15  1 19  3 15  0.0000000  0  7G18G29G27G13G22G21G16
 -21179597.58747 -15397207.98946  22319625.0844   22319629.1294
   5306655.58946   4277972.34546  23624949.2014   23624952.9874
 -17228465.54646 -13307064.03046  22617546.3074   22617552.2854
 -12781930.81745  -9881795.30245  25129887.0934   25129891.3724
 -14400881.91845 -11078307.11645  24412667.9474   24412674.1014
 -19388505.49046 -14981809.31646  21108198.1904   21108201.5774
 -21986803.56746 -17043462.97946  21156673.1574   21156677.1894
 15  1 19  3 15 30.0000000  0  7G18G29G27G13G22G21G16
 -21218365.06647 -15427416.42746  22312248.1084   22312252.1414
   5434284.97646   4377423.77946  23649235.8784   23649240.3794
 -17282788.61246 -13349393.70446  22607208.7054   22607214.5544
 -12802628.43945  -9897923.34645  25125948.3214   25125951.0174
 -14476625.50545 -11137328.05645  24398254.9514   24398258.7254
 -19341691.89246 -14945331.18446  21117106.7634   21117109.5414
 -21974107.82447 -17033570.18946  21159089.5144   21159093.2424
 15  1 19  3 16  0.0000000  0  7G18G29G27G13G22G21G16
 -21256772.95647 -15457344.67746  22304939.2684   22304943.1014
   5562055.46146   4476985.15346  23673550.0184   23673553.7694
 -17336923.57946 -13391576.77946  22596906.9964   22596913.3144
 -12822866.33544  -9913693.15944  25122096.7534   25122098.5814
 -14552306.21745 -11196300.05945  24383853.0964   24383855.6874
 -19294530.04346 -14908581.70046  21126081.3634   21126084.2594
 -21960822.69547 -17023218.13446  21161617.7944   21161621.6274
 15  1 19  3 16 30.0000000  0  7G18G29G27G13G22G21G16
 -21294818.24747 -15486990.38346  22297699.2314   22297702.9474
   5689966.97346   4576656.40546  23697890.6184   23697894.9444
 -17390867.98146 -13433611.38346  22586641.4994   22586648.4974
 -12842641.59945  -9929102.35945  25118334.0994   25118334.1704
 -14627920.06645 -11255219.90645  24369464.6564   24369467.0014
 -19247019.63846 -14871560.60946  21135122.1094   21135125.2864
 -21946945.37847 -17012404.65946  21164258.5944   21164262.1704
 15  1 19  3 17  0.0000000  0  7G18G29G27G13G22G21G16
 -21332497.29747 -15516350.81446  22290529.3084   22290533.1884
   5818020.67446   4676438.47046  23722258.8174   23722263.2604
 -17444618.17246 -13475494.59846  22576413.6934   22576419.9184
 -12861949.59045  -9944147.52044  25114659.5444   25114662.4394
 -14703462.86445 -11314084.42345  24355090.3904   24355096.5914
 -19199159.09546 -14834266.68746  21144229.9464   21144233.2404
 -21932472.60046 -17001127.17146  21167012.5644   21167016.0464
 15  1 19  3 17 30.0000000  0  7G18G29G27G13G22G21G16
 -21369809.56547 -15545425.33846  22283429.0594   22283432.5644
   5946213.71846   4776329.10846  23746652.7144   23746658.0364
 -17498174.80846 -13517227.05246  22566222.5934   22566228.2324
 -12880789.82644  -9958828.22944  25111073.4804   25111074.7934
 -14778933.92644 -11372893.00645  24340728.3414   24340734.4484
 -19150951.41146 -14796702.26146  21153403.3534   21153406.6124
 -21917405.83446 -16989386.84146  21169879.5174   21169883.2924
 15  1 19  3 18  0.0000000  0  7G18G29G27G13G22G21G16
 -21406757.00347 -15574215.53446  22276397.8194   22276401.4064
   6074541.10846   4876324.42446  23771072.5714   23771076.3814
 -17551540.13346 -13558810.40946  22556067.3204   22556073.0174
 -12899164.26545  -9973145.89345  25107577.8354   25107578.0354
 -14854335.19345 -11431647.24845  24326379.4914   24326383.8634
 -19102401.53346 -14758871.18546  21162642.1734   21162645.6434
 -21901748.24346 -16977186.10846  21172858.9594   21172863.0974
 15  1 19  3 18 30.0000000  0  7G18G29G27G13G22G21G16
 -21443334.67847 -15602717.54646  22269437.4974   22269441.4594
   6203005.09546   4976426.18646  23795518.7974   23795523.3574
 -17604709.84846 -13600241.32846  22545949.1734   22545955.2224
 -12917067.38543  -9987096.42745  25104169.9014   25104171.8714
 -14929661.21845 -11490342.82845  24312045.3834   24312047.4004
 -19053506.91346 -14720771.48946  21171946.2704   21171949.3414
 -21885495.65047 -16964521.75546  21175951.7524   21175955.3394
 15  1 19  3 19  0.0000000  0  7G18G29G27G13G22G21G16
 -21479537.98747 -15630927.84346  22262548.2194   22262552.2634
   6331607.85446   5076636.07346  23819991.2784   23819996.4014
 -17657679.61946 -13641516.47746  22535869.5734   22535875.4344
 -12934493.31243 -10000674.97945  25100852.7744   25100851.0514
 -15004906.57345 -11548975.55045  24297726.9634   24297726.7524
 -19004265.03346 -14682401.19246  21181317.0004   21181319.9654
 -21868644.66947 -16951391.12046  21179158.8364   21179162.5054
 15  1 19  3 19 30.0000000  0  8G18G29G27G13G22G15G21G16
 -21515367.07747 -15658846.67246  22255730.3794   22255734.0954
   6460346.07346   5176951.53546  23844488.8394   23844492.7424
 -17710449.79846 -13682636.10946  22525827.7554   22525833.1474
 -12951442.32144 -10013882.01245  25097628.4244   25097630.9324
 -15080070.86045 -11607545.12345  24283423.9814   24283425.4114
 -12618726.96243                  25020759.7364
 -18954679.16046 -14643762.85546  21190752.9684   21190756.6024
 -21851196.78847 -16937795.36346  21182478.7884   21182482.4574
 15  1 19  3 20  0.0000000  0  8G18G29G27G13G22G15G21G16
 -21550820.80447 -15686472.91646  22248983.5334   22248987.0964
   6589218.21146   5277371.33046  23869012.7994   23869016.8434
 -17763019.72646 -13723599.67946  22515823.7184   22515829.7904
 -12967912.70444 -10026716.19845  25094493.8534   25094498.2964
 -15155152.78145 -11666050.55045  24269136.4234   24269137.5494
 -12660444.36042                  25012820.9944
 -18904750.85146 -14604857.66646  21200254.0794   21200257.2084
 -21833150.71447 -16923733.50546  21185912.9594   21185916.3004
 15  1 19  3 20 30.0000000  0  8G18G29G27G13G22G15G21G16
 -21585897.28647 -15713805.09446  22242308.5914   22242313.2804
   6718222.83346   5377894.35946  23893561.8954   23893567.0644
 -17815388.39646 -13764406.42246  22505858.2174   22505864.4424
 -12983903.30245 -10039176.32745  25091451.3054   25091452.9934
 -15230150.21345 -11724490.09945  24254864.5294   24254866.4754
 -12701872.21542  -9820799.21054  25004936.2394   25004940.1194
 -18854481.49846 -14565686.74346  21209819.6104   21209823.0094
 -21814506.73047 -16909205.72446  21189460.5214   21189464.1084
 15  1 19  3 21  0.0000000  0  8G18G29G27G13G22G15G21G16
 -21620593.07747 -15740840.67946  22235706.0964   22235710.1874
   6847361.08546   5478521.54946  23918135.6904   23918141.7274
 -17867552.58346 -13805053.80146  22495931.6404   22495938.1114
 -12999410.05543 -10051259.53845  25088499.7254   25088502.0814
 -15305058.74645 -11782860.40345  24240609.6344   24240612.1894
 -12743005.84243  -9852851.33144  24997111.1434   24997111.1084
 -18803869.65546 -14526248.94746  21219450.8244   21219454.1534
 -21795262.32547 -16894210.07446  21193122.8314   21193126.5234
 15  1 19  3 21 30.0000000  0  8G18G29G27G13G22G15G21G16
 -21654908.50647 -15767579.80946  22229175.6864   22229179.8594
   6976629.42546   5579250.04546  23942734.7164   23942740.7994
 -17919512.97546 -13845542.39946  22486043.7424   22486049.9554
 -13014432.58343 -10062965.29745  25085641.1834   25085643.0584
 -15379878.41045 -11841161.37745  24226371.2544   24226371.4884
 -12783844.51044  -9884673.56045  24989338.9424   24989344.9084
 -18752918.68546 -14486546.87946  21229146.3404   21229149.7754
 -21775419.01147 -16878747.74246  21196898.7344   21196902.9544
 15  1 19  3 22  0.0000000  0  9G07G18G29G27G13G22G15G21G16
 -12606798.126 1                  24903533.668
 -21688838.64147 -15794018.79046  22222719.3234   22222723.4734
   7106030.28946   5680081.85146  23967359.0954   23967362.7294
 -17971264.83946 -13885868.52946  22476195.8494   22476202.4374
 -13028965.58944 -10074289.80545  25082876.6724   25082881.3034
 -15454603.53845 -11899388.74745  24212152.3554   24212154.3364
 -12824382.26143  -9916261.39045  24981624.0374   24981624.2604
 -18701625.99546 -14446578.55346  21238907.1704   21238910.9914
 -21754972.69547 -16862815.55046  21200789.7584   21200793.1454
 15  1 19  3 22 30.0000000  0  9G07G18G29G27G13G22G15G21G16
 -12615813.455 1                  24901818.549
 -21722382.16347 -15820156.51946  22216335.8734   22216340.1284
   7235561.75446   5781015.39746  23992008.2964   23992011.5784
 -18022807.26646 -13926031.45746  22466387.9514   22466394.0114
 -13043007.59145 -10085231.55145  25080204.3144   25080206.1434
 -15529232.58045 -11957541.26645  24197950.8274   24197952.5154
 -12864616.79543  -9947612.95945  24973967.6594   24973972.7704
 -18649993.29946 -14406345.29046  21248732.3594   21248735.4074
 -21733923.45547 -16846413.56746  21204795.4974   21204798.8844
 15  1 19  3 23  0.0000000  0  9G07G18G29G27G13G22G15G21G16
 -12624301.698 1                  24900206.447
 -21755541.21247 -15845994.73146  22210026.2794   22210030.1004
   7365219.33246   5882047.24245  24016680.8694   24016684.7494
 -18074142.53046 -13966032.97046  22456619.2044   22456625.2414
 -13056559.95445 -10095791.81345  25077625.5764   25077629.4564
 -15603766.80445 -12015619.87345  24183767.1764   24183767.9504
 -12904549.11044  -9978729.05145  24966368.7444   24966374.3364
 -18598024.70846 -14365850.28546  21258621.6604   21258625.1294
 -21712274.26147 -16829544.07446  21208915.0444   21208917.9754
 15  1 19  3 23 30.0000000  0  9G07G18G29G27G13G22G15G21G16
 -12632259.823 1                  24898688.501
 -21788311.71647 -15871530.16846  22203790.3634   22203793.8214
   7495004.21646   5983178.25445  24041377.7334   24041382.7034
 -18125267.22846 -14005870.37546  22446890.0484   22446896.0274
 -13069618.59345 -10105967.37245  25075140.8134   25075141.7394
 -15678201.85145 -12073621.18345  24169602.7664   24169604.2324
 -12944173.92544 -10009605.48345  24958828.8984   24958832.9664
 -18545719.19646 -14325092.74446  21268575.3384   21268578.7724
 -21690022.49947 -16812205.04046  21213149.4664   21213152.8784
 15  1 19  3 24  0.0000000  0  8G18G29G27G13G22G15G21G16
 -21820690.03247 -15896759.97746  22197628.6904   22197631.9494
   7624916.94546   6084408.89746  24066100.3424   24066105.3474
 -18176178.01246 -14045541.11146  22437201.8114   22437207.7894
 -13082180.13445 -10115755.52045  25072750.5734   25072755.8254
 -15752534.30545 -12131542.55745  24155457.7554   24155459.9824
 -12983486.60443 -10040238.67245  24951347.2994   24951351.4844
 -18493075.74146 -14284071.87646  21278592.9614   21278596.0094
 -21667165.43346 -16794394.34246  21217498.4984   21217502.4254
 15  1 19  3 24 30.0000000  0  8G18G29G27G13G22G15G21G16
 -21852675.86647 -15921683.99046  22191541.7534   22191545.5164
   7754955.23846   6185737.38746  24090846.4144   24090848.9934
 -18226874.83846 -14085045.12546  22427554.8514   22427560.9934
 -13094243.56745 -10125155.64445  25070454.5514   25070457.1304
 -15826761.80245 -12189382.13845  24141332.8944   24141337.0674
 -13022485.67643 -10070627.46045  24943926.6054   24943933.0754
 -18440097.14646 -14242789.86146  21288674.3664   21288677.9764
 -21643704.37647 -16776112.99046  21221963.0754   21221966.8384
 15  1 19  3 25  0.0000000  0  8G18G29G27G13G22G15G21G16
 -21884268.69147 -15946301.68646  22185529.8574   22185534.0654
   7885116.81946   6287161.92446  24115614.5794   24115617.5914
 -18277357.62346 -14124382.37046  22417948.6464   22417954.5304
 -13105808.63545 -10134167.35545  25068254.7294   25068259.7114
 -15900884.49845 -12247140.06945  24127227.1274   24127231.3364
 -13061169.73343 -10100770.87045  24936564.5094   24936568.1784
 -18386785.36546 -14201248.21046  21298819.2514   21298822.6984
 -21619640.02246 -16757361.56246  21226542.0894   21226545.6534
 15  1 19  3 25 30.0000000  0  8G18G29G27G13G22G15G21G16
 -21915464.46547 -15970610.03346  22179593.6164   22179597.8244
   8015403.46846   6388683.95245  24140407.2164   24140411.1784
 -18327622.31546 -14163549.64546  22408383.5794   22408389.5454
 -13116870.26545 -10142786.83545  25066148.9154   25066152.3744
 -15974897.08445 -12304812.20345  24113143.1184   24113145.8144
 -13099533.14844 -10130664.43145  24929264.4924   24929270.1064
 -18333138.44146 -14159445.41346  21309028.0374   21309031.3664
 -21594969.14047 -16738137.50446  21231236.9884   21231240.5754
 15  1 19  3 26  0.0000000  0  8G18G29G27G13G22G15G21G16
 -21946262.86447 -15994608.70646  22173732.9344   22173736.8614
   8145812.29146   6490301.12645  24165223.6554   24165227.3714
 -18377668.86046 -14202546.89846  22398859.6304   22398865.7844
 -13127427.72645 -10151013.35045  25064140.7004   25064142.5294
 -16048798.39845 -12362397.57945  24099080.1694   24099085.3504
 -13137574.73145 -10160307.19645  24922026.2054   24922029.3114
 -18279158.91246 -14117383.44546  21319299.6074   21319302.8304
 -21569692.98147 -16718441.79946  21236047.1614   21236050.8304
 15  1 19  3 26 30.0000000  0  8G18G29G27G13G22G15G21G16
 -21976661.80347 -16018296.10946  22167948.0154   22167952.2824
   8276343.31946   6592013.57245  24190062.7014   24190066.9324
 -18427495.37046 -14241372.73046  22389378.3344   22389384.5584
 -13137478.97445 -10158845.50645  25062227.9354   25062231.9794
 -16122585.75445 -12419894.19945  24085039.0894   24085043.5204
 -13175290.88645 -10189696.31145  24914848.4634   24914851.8864
 -18224847.08646 -14075062.53546  21329635.1164   21329638.8204
 -21543810.17047 -16698273.37246  21240972.3824   21240975.8404
 15  1 19  3 27  0.0000000  0  9G07G18G29G27G13G22G15G21G16
                                  24890937.863
 -22006659.72847 -16041671.07246  22162239.5454   22162243.4024
   8406994.41546   6693819.58945  24214924.5894   24214930.3214
 -18477100.67046 -14280026.22746  22379938.4954   22379943.8994
 -13147022.51645 -10166282.02745  25060411.4624   25060415.7644
 -16196257.77645 -12477300.92845  24071019.8184   24071022.8784
 -13212679.36944 -10218830.17645  24907733.2844   24907738.7824
 -18170204.50346 -14032483.89946  21340033.4284   21340037.0274
 -21517320.83546 -16677632.33546  21246013.1304   21246016.9284
 15  1 19  3 27 30.0000000  0  9G07G18G29G27G13G22G15G21G16
 -12606896.786 2                  24890238.181
 -22036254.84647 -16064732.12146  22156607.5464   22156611.4024
   8537764.94846   6795718.63445  24239809.9884   24239811.6414
 -18526482.92846 -14318505.89846  22370541.4284   22370546.9964
 -13156055.78145 -10173320.89145  25058692.0124   25058695.2004
 -16269811.27345 -12534615.32445  24057022.7194   24057026.0954
 -13249736.93645 -10247706.20445  24900682.2784   24900687.2954
 -18115231.38246 -13989647.70246  21350494.5114   21350497.9344
 -21490224.25647 -16656518.12946  21251169.4694   21251172.9504
 15  1 19  3 28  0.0000000  0  9G07G18G29G27G13G22G15G21G16
 -12610017.665 2                  24889645.828
 -22065441.41847 -16087474.85446  22151053.3684   22151057.3894
   8668658.81346   6897713.75945  24264718.7934   24264721.1724
 -18575636.88946 -14356807.70846  22361187.6344   22361193.4134
 -13164573.18445 -10179957.86045  25057071.0144   25057074.4834
 -16343239.93445 -12591832.43945  24043050.2724   24043051.8904
 -13286456.73645 -10276318.96045  24893693.8544   24893696.6214
 -18059924.78046 -13946551.65546  21361018.6764   21361022.1574
 -21462515.98847 -16634927.27646  21256442.3924   21256446.0024
 15  1 19  3 28 30.0000000  0  9G07G18G29G27G13G22G15G21G16
 -12612596.50141                  24889154.0564
 -22094222.25647 -16109901.45246  22145576.8994   22145581.0724
   8799669.71246   6999800.13445  24289648.6784   24289653.2154
 -18624565.43546 -14394933.83846  22351876.8704   22351882.7434
 -13172577.64545 -10186195.06845  25055548.2594   25055553.2174
 -16416546.14045 -12648954.09945  24029100.1564   24029103.5564
 -13322840.48145 -10304669.89745  24886770.5964   24886773.6084
 -18004290.22946 -13903200.05746  21371605.4634   21371609.2494
 -21434200.17946 -16612862.99746  21261830.7354   21261834.8384
 15  1 19  3 29  0.0000000  0  8G18G29G27G13G22G15G21G16
 -22122594.56947 -16132009.62646  22140177.7454   22140181.2734
   8930797.91446   7101977.86845  24314601.5534   24314605.7614
 -18673265.83646 -14432882.18046  22342609.4264   22342615.2524
 -13180065.52645 -10192029.77645  25054122.9554   25054126.3084
 -16489726.41545 -12705977.64945  24015173.9224   24015178.4944
 -13358884.42845 -10332756.03745  24879911.7704   24879914.1384
 -17948327.35846 -13859592.63246  21382255.1984   21382258.5854
 -21405275.47947 -16590324.27546  21267334.9064   21267338.7044
 15  1 19  3 29 30.0000000  0  8G18G29G27G13G22G15G21G16
 -22150557.86047 -16153799.19246  22134856.2674   22134860.1714
   9062041.68146   7204245.68445  24339576.6864   24339579.6634
 -18721737.44746 -14470652.26846  22333385.7964   22333391.4234
 -13187035.97845 -10197461.32245  25052796.2374   25052802.3094
 -16562779.08145 -12762901.75645  24001272.7114   24001275.3724
 -13394586.42545 -10360575.75945  24873117.9394   24873119.4864
 -17892037.74246 -13815730.60046  21392966.8454   21392970.4094
 -21375742.03447 -16567311.20146  21272954.9314   21272958.5774
 15  1 19  3 30  0.0000000  0  8G18G29G27G13G22G15G21G16
 -22178110.01947 -16175268.37346  22129613.3284   22129617.5724
   9193399.70045   7306602.53545  24364573.4184   24364578.0484
 -18769978.94846 -14508243.04346  22324205.5014   22324211.0464
 -13193487.65744 -10202488.48145  25051568.5134   25051567.7394
 -16635702.47545 -12819725.17845  23987396.0524   23987399.7094
 -13429943.95545 -10388127.08545  24866390.3754   24866392.7894
 -17835422.66646 -13771614.95446  21403740.2034   21403743.6034
 -21345599.49546 -16543823.51946  21278690.5584   21278694.1454
 15  1 19  3 30 30.0000000  0  8G18G29G27G13G22G15G21G16
 -22205250.73747 -16196416.96146  22124448.5044   22124452.3494
   9324869.95745   7409046.84045  24389591.1904   24389596.5704
 -18817989.82546 -14545654.07546  22315069.2434   22315075.7024
 -13199419.26544 -10207110.61345  25050439.7914   25050443.0614
 -16708495.51745 -12876446.96145  23973543.9504   23973549.1324
 -13464955.14046 -10415408.49645  24859727.9664   24859728.7634
 -17778483.96446 -13727247.13646  21414575.3794   21414578.7204
 -21314849.00347 -16519862.09846  21284542.4554   21284546.0424
 15  1 19  3 31  0.0000000  0  8G18G29G27G13G22G15G21G16
 -23807396.85247 -17444842.47346  21819570.3644   21819573.6584
   7881038.63446   6283983.38645  24114839.7344   24114844.0134
 -20441187.41646 -15810483.34546  22006184.9444   22006191.2044
 -14780246.75145 -11438924.22445  24749618.8534   24749622.6624
 -18356574.13645 -14160664.03645  23659925.3274   23659929.0434
 -15075035.68145 -11670016.63145  24553339.4004   24553342.4714
 -19296637.87346 -14910224.22546  21125680.0414   21125683.2414
 -22858906.35347 -17723023.68246  20990718.2154   20990721.6144
 15  1 19  3 31 30.0000000  0  8G18G29G27G13G22G15G21G16
 -23833704.18947 -17465341.66946  21814564.3664   21814567.6134
   8012736.30446   6386604.88545  24139901.1454   24139903.8764
 -20488726.60646 -15847526.87446  21997139.0414   21997145.1374
 -14785127.41645 -11442727.30445  24748690.3264   24748693.7024
 -18429091.44745 -14217171.02545  23646125.1804   23646126.2714
 -15109339.94545 -11696747.20745  24546810.9964   24546814.1494
 -19239048.89146 -14865349.69446  21136638.7874   21136642.3864
 -22826933.78346 -17698110.00246  20996802.2894   20996805.9824
 15  1 19  3 32  0.0000000  0  8G18G29G27G13G22G15G21G16
 -23859593.46647 -17485515.08546  21809637.8294   21809641.1464
   8144545.42346   6489313.22345  24164982.9654   24164987.3724
 -20536028.54646 -15884385.54346  21988137.6884   21988143.7254
 -14789480.93545 -11446119.68445  24747861.1744   24747859.8974
 -18501468.74445 -14273568.86445  23632352.1524   23632356.2084
 -15143287.23245 -11723199.65445  24540351.4724   24540354.1684
 -19181137.24646 -14820223.73146  21147658.9744   21147662.4914
 -22794349.60746 -17672719.72946  21003002.7004   21003006.6154
 15  1 19  3 32 30.0000000  0  8G18G29G27G13G22G15G21G16
 -23885060.43647 -17505359.45446  21804791.4874   21804795.3324
   8276467.32745   6592109.43645  24190086.4944   24190091.9454
 -20583089.23446 -15921056.20846  21979182.2394   21979188.0654
 -14793303.03145 -11449097.90645  24747134.7324   24747133.8174
 -18573701.18645 -14329853.82545  23618606.4104   23618608.9424
 -15176872.67745 -11749370.09945  24533960.3254   24533963.3844
 -19122900.66046 -14774844.57146  21158741.2054   21158744.1714
 -22761151.81447 -17646851.33546  21009320.0754   21009323.4864
 15  1 19  3 33  0.0000000  0  8G18G29G27G13G22G15G21G16
 -23910105.21947 -17524874.78846  21800025.3464   21800029.0744
   8408499.29645   6694991.47445  24215211.5464   24215217.7354
 -20629908.80846 -15957538.97946  21970272.2834   21970278.2854
 -14796593.73044 -11451662.12645  24746507.5304   24746512.0434
 -18645788.19445 -14386025.44645  23604888.7974   23604895.2564
 -15210095.15446 -11775257.70445  24527638.7144   24527640.7774
 -19064341.84446 -14729214.34546  21169884.2504   21169887.6854
 -22727342.37147 -17620506.32346  21015753.8464   21015757.4804
 15  1 19  3 33 30.0000000  0  8G18G29G27G13G22G15G21G16
 -23934727.51247 -17544060.95146  21795339.9614   21795344.4044
   8540638.97145   6797957.40045  24240357.1534   24240363.2964
 -20676487.15346 -15993833.80846  21961409.1154   21961414.7654
 -14799352.54345 -11453811.81345  24745983.4244   24745987.0464
 -18717728.77645 -14442083.01745  23591199.6854   23591204.9834
 -15242953.02545 -11800861.19345  24521385.4464   24521388.8804
 -19005463.65746 -14683335.23546  21181088.5364   21181092.4164
 -22692922.03747 -17593685.29246  21022303.8774   21022307.7574
 15  1 19  3 34  0.0000000  0  8G18G29G27G13G22G15G21G16
 -23958922.91847 -17562914.50846  21790735.7944   21790740.1434
   8672888.70645   6901009.07545  24265523.5384   24265526.3864
 -20722819.46646 -16029936.88846  21952592.2774   21952598.2554
 -14801574.72945 -11455543.35945  24745560.4114   24745563.5534
 -18789517.26145 -14498022.04645  23577538.6754   23577543.9974
 -15275440.64045 -11826176.15745  24515202.9404   24515206.5154
 -18946263.49246 -14637205.24346  21192354.3044   21192358.5014
 -22657887.17747 -17566385.41346  21028970.7194   21028974.2594
 15  1 19  3 34 30.0000000  0  8G18G29G27G13G22G15G21G16
 -23982691.85247 -17581435.72946  21786212.7624   21786216.3144
   8805245.52346   7004144.21245  24290710.5994   24290713.1784
 -20768906.20046 -16065848.63946  21943822.2524   21943828.3594
 -14803260.55145 -11456857.00245  24745239.3844   24745240.9084
 -18861153.59446 -14553842.55145  23563907.3384   23563910.6094
 -15307557.07145 -11851201.93245  24509091.8514   24509097.5014
 -18886744.73446 -14590826.99546  21203680.3384   21203684.3244
 -22622240.12947 -17538608.50046  21035754.3264   21035757.9134
 15  1 19  3 35  0.0000000  0  8G18G29G27G13G22G15G21G16
 -24006031.93747 -17599622.77546  21781770.9854   21781774.4794
   8937708.52646   7107362.12245  24315917.6784   24315921.2654
 -20814745.23646 -16101567.33646  21935098.9424   21935105.0854
 -14804407.76745 -11457750.87245  24745020.7134   24745024.3934
 -18932634.91146 -14609542.23245  23550304.7224   23550306.5864
 -15339299.31145 -11875936.14245  24503051.5904   24503055.4344
 -18826906.90646 -14544200.12346  21215067.0724   21215070.6944
 -22585980.24047 -17510354.03946  21042653.9804   21042657.7194
 15  1 19  3 35 30.0000000  0  8G18G29G27G13G22G15G21G16
 -24028942.88147 -17617475.42646  21777411.2114   21777414.7284
   9070275.70245   7210661.16945  24341144.0604   24341149.9334
 -20860336.19646 -16137092.75246  21926423.2194   21926429.1624
 -14805015.91545 -11458224.70445  24744905.2594   24744910.6394
 -19003959.62046 -14665119.89545  23536731.6524   23536735.6374
 -15370665.53246 -11900377.28145  24497083.0234   24497087.2674
 -18766752.19246 -14497326.32746  21226514.1764   21226517.3874
 -22549108.29047 -17481622.64646  21049670.4804   21049674.3834
 15  1 19  3 36  0.0000000  0  8G18G29G27G13G22G15G21G16
 -24051421.96247 -17634991.56846  21773133.3104   21773136.7804
   9202947.74345   7314041.93645  24366390.5314   24366396.0414
 -20905675.99546 -16172422.46746  21917795.8254   21917801.7694
 -14805082.13645 -11458276.35945  24744892.9754   24744897.8044
 -19075124.08746 -14720572.68145  23523189.6824   23523191.6864
 -15401651.65045 -11924522.25745  24491185.5354   24491189.5674
 -18706280.36846 -14450205.43746  21238021.3904   21238025.2004
 -22511622.75147 -17452413.13946  21056804.1384   21056807.5724
 15  1 19  3 36 30.0000000  0  8G18G29G27G13G22G15G21G16
 -24073469.94847 -17652171.79946  21768937.9094   21768942.2344
   9335721.22145   7417501.71345  24391656.9494   24391661.1924
 -20950765.39347 -16207557.06646  21909215.5764   21909221.1914
 -14804606.81245 -11457905.97545  24744982.7174   24744987.2884
 -19146128.10646 -14775900.45545  23509677.8194   23509680.4564
 -15432257.21345 -11948370.69845  24485361.6534   24485366.6934
 -18645494.54546 -14402839.86946  21249588.4204   21249592.1244
 -22473526.57447 -17422727.82046  21064053.5104   21064056.9924
 15  1 19  3 37  0.0000000  0  8G18G29G27G13G22G15G21G16
 -24095083.30847 -17669013.34846  21764824.7474   21764828.7914
   9468597.19746   7521041.40245  24416942.1274   24416945.8074
 -20995600.79046 -16242493.73446  21900683.8704   21900689.3204
 -14803586.22245 -11457110.69445  24745177.4224   24745179.8374
 -19216967.40446 -14831099.87545  23496197.5414   23496200.6004
 -15462477.53246 -11971918.94445  24479611.1164   24479615.2774
 -18584393.80846 -14355228.92346  21261215.5604   21261218.9834
 -22434816.72147 -17392564.29746  21071419.3364   21071423.1454
 15  1 19  3 37 30.0000000  0  9G18G29G27G13G19G22G15G21G16
 -24116260.43547 -17685514.99146  21760795.4674   21760799.5694
   9601574.96346   7624660.38545  24442247.1334   24442251.5644
 -21040180.36846 -16277231.06746  21892200.0514   21892206.0414
 -14802019.26645 -11455889.64645  24745475.0924   24745481.2344
 -14204698.34642                  24316300.6984
 -19287639.40446 -14886168.91945  23482748.8114   23482752.9024
 -15492309.77545 -11995164.82945  24473933.4914   24473939.5174
 -18522978.75246 -14307373.03846  21272902.3584   21272905.6164
 -22395493.23547 -17361922.62246  21078902.4684   21078906.1614
 15  1 19  3 38  0.0000000  0  9G18G29G27G13G19G22G15G21G16
 -24137000.99747 -17701676.46246  21756848.3204   21756851.8484
   9734652.43146   7728357.04145  24467571.3784   24467576.8284
 -21084503.47046 -16311768.54646  21883765.9804   21883771.6534
 -14799905.09045 -11454242.28645  24745878.1224   24745880.3964
 -14275330.05941                  24302859.5204
 -19358142.89846 -14941106.66545  23469332.4694   23469336.3964
 -15521752.07145 -12018106.84745  24468330.8234   24468336.5564
 -18461250.93746 -14259273.43746  21284648.4034   21284652.2484
 -22355557.33946 -17330803.75046  21086502.0014   21086505.4244
 15  1 19  3 38 30.0000000  0  9G18G29G27G13G19G22G15G21G16
 -24157305.26047 -17717497.94246  21752984.2964   21752987.7894
   9867826.90245   7832129.33445  24492913.2074   24492918.4244
 -21128570.35446 -16346106.39146  21875380.5324   21875386.0064
 -14797243.70945 -11452168.48745  24746384.3654   24746386.1474
 -14345874.30041                  24289434.5004
 -19428477.51745 -14995912.85445  23455948.3264   23455952.7814
 -15550803.71745 -12040744.47345  24462802.3994   24462808.1074
 -18399213.05246 -14210932.23646  21296454.0354   21296458.0094
 -22315011.32347 -17299209.45046  21094218.0004   21094221.2824
 15  1 19  3 39  0.0000000  0 10G07G18G29G27G13G19G22G15G21G16
                                  24603282.317
 -24177168.25547 -17732975.57346  21749204.8774   21749208.3824
  10001100.36946   7935978.75345  24518274.7474   24518279.3774
 -21172376.25446 -16380240.83946  21867044.4284   21867050.4184
 -14794030.74844 -11449664.90945  24746995.1464   24746999.3074
 -14416326.96741                  24276028.5654
 -19498637.42346 -15050582.85245  23442597.4634   23442601.2264
 -15579458.87345 -12063073.14845  24457349.7734   24457354.8844
 -18336863.54746 -14162348.21046  21308319.2654   21308323.1924
 -22273851.37247 -17267136.78446  21102050.7254   21102053.7964
 15  1 19  3 39 30.0000000  0 10G07G18G29G27G13G19G22G15G21G16
 -14169468.910 2                  24605118.082
 -24196591.52847 -17748110.56046  21745508.7834   21745512.0184
  10134469.40945   8039902.62945  24543653.3454   24543658.0694
 -21215922.26346 -16414172.77146  21858757.9644   21858764.2244
 -14790267.47745 -11446732.45045  24747711.2524   24747715.8124
 -14486689.16841                  24262639.1024
 -19568622.86246 -15105116.90946  23429279.5844   23429282.6904
 -15607717.63845 -12085092.92245  24451971.4974   24451977.6754
 -18274205.48446 -14113523.76246  21320242.4934   21320246.3494
 -22232080.56947 -17234588.10946  21109999.0994   21110002.6514
 15  1 19  3 40  0.0000000  0  9G07G18G29G27G13G22G15G21G16
 -14159279.79742                  24607058.4634
 -24215571.10447 -17762899.80246  21741896.8384   21741900.0854
  10267935.32345   8143902.00045  24569050.1324   24569055.4774
 -21259204.10547 -16447898.90746  21850521.7224   21850527.4194
 -14785949.69944 -11443367.97245  24748532.8234   24748540.3494
 -19638429.14146 -15159511.37346  23415995.9294   23415998.2734
 -15635574.64645 -12106799.68645  24446671.4204   24446676.8474
 -18211236.79746 -14064457.25346  21332225.0734   21332228.6834
 -22189696.36147 -17201561.46446  21118064.6694   21118068.4904
 15  1 19  3 40 30.0000000  0  9G07G18G29G27G13G22G15G21G16
 -14148528.12642 -11043877.67342  24609105.0394   24609113.1394
 -24234108.64447 -17777344.60246  21738369.2994   21738373.0504
  10401494.23145   8247973.82445  24594466.5324   24594470.9164
 -21302223.10446 -16481420.20346  21842335.4454   21842341.4824
 -14781078.76645 -11439572.40345  24749460.1664   24749462.0884
 -19708056.62746 -15213766.51645  23402745.4984   23402749.0154
 -15663030.27045 -12128193.59645  24441446.6404   24441450.3924
 -18147961.79746 -14015152.07246  21344265.8894   21344269.5584
 -22146701.81047 -17168059.21546  21126246.3744   21126249.9844
 15  1 19  3 41  0.0000000  0  9G07G18G29G27G13G22G15G21G16
 -14137209.92841 -11035058.27743  24611257.5754   24611271.6294
 -24252199.42547 -17791441.29046  21734926.4454   21734930.2664
  10535148.49445   8352119.98045  24619899.6044   24619905.0084
 -21344974.45146 -16514732.92246  21834199.6864   21834205.8174
 -14775649.70945 -11435341.95945  24750492.9544   24750496.0254
 -19777499.87646 -15267878.09745  23389530.9654   23389535.7014
 -15690078.43245 -12149270.08345  24436299.9104   24436305.6434
 -18084377.98646 -13965606.24546  21356365.5174   21356369.5034
 -22103093.64947 -17134078.83946  21134544.6164   21134548.3094
 15  1 19  3 41 30.0000000  0  8G18G29G27G13G22G15G21G16
 -24269838.28447 -17805185.82946  21731570.1324   21731573.8364
  10668900.84345   8456342.53845  24645352.8184   24645358.7854
 -21387452.81647 -16547832.94446  21826116.6724   21826122.5454
 -14769658.62745 -11430673.57845  24751633.3294   24751633.7984
 -19846752.86846 -15321841.44845  23376352.4554   23376357.3674
 -15716713.06546 -12170024.28645  24431230.8084   24431234.6304
 -18020482.96346 -13915817.92846  21368524.3764   21368527.6464
 -22058868.47347 -17099617.66946  21142960.3804   21142963.6274
 15  1 19  3 42  0.0000000  0  8G18G29G27G13G22G15G21G16
 -24287027.38747 -17818579.91146  21728299.1074   21728303.0224
  10802746.93046   8560638.12445  24670823.1324   24670827.1524
 -21429659.82247 -16580721.52346  21818085.3384   21818091.0004
 -14763106.76645 -11425568.18945  24752880.5934   24752882.0114
 -19915816.48846 -15375657.23046  23363210.5574   23363212.9484
 -15742934.87145 -12190456.82945  24426240.7514   24426246.4954
 -17956280.68146 -13865790.18546  21380741.8054   21380744.9594
 -22014029.86847 -17064678.50146  21151492.9594   21151495.8314
 15  1 19  3 42 30.0000000  0  8G18G29G27G13G22G15G21G16
 -24303767.24247 -17831623.91346  21725113.5704   21725116.9104
  10936683.46345   8665004.19945  24696309.7254   24696313.6884
 -21471595.98246 -16613399.06946  21810104.6154   21810110.5464
 -14755994.75845 -11420026.34345  24754233.9104   24754237.4154
 -19984690.45646 -15429325.25746  23350104.1964   23350106.5754
 -15768743.19546 -12210567.23845  24421330.5004   24421334.4164
 -17891773.86146 -13815525.13146  21393017.1284   21393021.0554
 -21968580.62247 -17029263.51146  21160141.6674   21160145.0434
 15  1 19  3 43  0.0000000  0  8G18G29G27G13G22G15G21G16
 -24320059.02847 -17844318.79546  21722013.4044   21722017.1794
  11070707.59245   8769438.45745  24721814.8404   24721816.6454
 -21513261.88347 -16645865.99746  21802176.1214   21802182.1004
 -14748323.60044 -11414048.82545  24755693.4804   24755696.4224
 -20053374.78846 -15482845.48646  23337033.9594   23337037.0424
 -15794137.79846 -12230355.17445  24416498.1204   24416499.9024
 -17826965.58146 -13765025.18146  21405349.5764   21405353.1284
 -21922522.26547 -16993373.87746  21168905.9724   21168910.0284
 15  1 19  3 43 30.0000000  0  8G18G29G27G13G22G15G21G16
 -24335900.68247 -17856662.92446  21718998.7604   21719002.4414
  11204818.66845   8873940.55245  24747334.2104   24747339.3674
 -21554655.03347 -16678120.40246  21794299.2614   21794305.0984
 -14740091.06545 -11407633.92745  24757260.9494   24757264.2194
 -20121865.92346 -15536215.17046  23324000.4864   23324004.0154
 -15819115.36145 -12249818.12245  24411744.7014   24411746.8934
 -17761856.24346 -13714290.62746  21417739.5624   21417743.3024
 -21875854.85047 -16957009.66046  21177786.4074   21177789.7954
 15  1 19  3 44  0.0000000  0  9G07G18G29G27G13G22G15G21G16
 -14165021.093 1                  24626449.808
 -24351287.99047 -17868653.03446  21716070.5184   21716074.2934
  11339018.87244   8978512.02145  24772872.2344   24772875.7154
 -21595771.15246 -16710158.92146  21786475.0544   21786481.0564
 -14731293.30045 -11400778.48045  24758933.7024   24758934.9684
 -20190159.20046 -15589430.70946  23311004.5454   23311007.4524
 -15843670.55945 -12268952.13545  24407072.0044   24407074.0674
 -17696443.92346 -13663319.99546  21430186.7074   21430190.1894
 -21828576.20047 -16920169.16146  21186783.3024   21186786.4914
 15  1 19  3 44 30.0000000  0  9G07G18G29G27G13G22G15G21G16
 -14149726.905 1                  24629360.368
 -24366218.85547 -17880287.46546  21713229.4474   21713233.0464
  11473308.12645                  24798426.5714
 -21636607.45946 -16741979.41146  21778704.2304   21778709.9504
 -14721928.22545 -11393481.05045  24760716.2744   24760720.3414
 -20258251.06246 -15642489.28446  23298047.1864   23298050.8434
 -15867799.75346 -12287754.04945  24402480.4054   24402483.4294
 -17630728.43246 -13612113.12046  21442692.2844   21442695.8014
 -21780684.76847 -16882851.17446  21195896.9614   21195899.7164
 15  1 19  3 45  0.0000000  0  9G07G18G29G27G13G22G15G21G16
 -14133864.961 1                  24632377.656
 -24380694.89747 -17891567.47746  21710474.6934   21710477.6244
  11607682.26643                  24823996.0524
 -21677165.55047 -16773583.12446  21770986.6264   21770991.7014
 -14711997.72945 -11385742.97245  24762606.5104   24762609.7214
 -20326142.52046 -15695391.69646  23285128.0914   23285131.4784
 -15891503.83246 -12306224.73145  24397969.0434   24397972.1854
 -17564714.10146 -13560673.38846  21455254.3334   21455258.3424
 -21732184.93747 -16845059.09946  21205126.1384   21205129.9944
 15  1 19  3 45 30.0000000  0  9G07G18G29G27G13G22G15G21G16
 -14117431.956 2                  24635505.931
 -24394712.21847 -17902490.05246  21707807.3684   21707811.2484
  11742142.93344                  24849583.8114
 -21717440.99847 -16804966.60846  21763322.2324   21763327.1784
 -14701497.78645 -11377561.21745  24764603.8994   24764606.2674
 -20393828.33046 -15748133.85946  23272247.9854   23272250.5874
 -15914777.46345 -12324360.04445  24393540.1964   24393543.9124
 -17498398.91146 -13508999.22246  21467873.6874   21467877.6374
 -21683073.58847 -16806790.51246  21214471.7964   21214475.3364
 15  1 19  3 46  0.0000000  0  9G07G18G29G27G13G22G15G21G16
 -14100427.907 2                  24638740.588
 -24408270.06947 -17913054.61246  21705227.1054   21705230.8444
  11876688.64745 -10954044.85645  24875187.3574   24875193.1244
 -21757432.66046 -16836128.93746  21755711.6674   21755717.3174
 -14690427.68745 -11368935.13945  24766710.7054   24766713.2374
 -20461306.78046 -15800714.45346  23259406.8754   23259410.6154
 -15937618.31246 -12342158.11345  24389194.6524   24389198.1224
 -17431784.12346 -13457091.59746  21480550.2494   21480553.8484
 -21633352.12347 -16768046.53146  21223933.6544   21223936.7724
 15  1 19  3 46 30.0000000  0  9G07G18G29G27G13G22G15G21G16
 -14082853.823 2                  24642084.698
 -24421368.42847 -17923261.11046  21702734.6444   21702738.3964
  12011317.10645 -10849139.64445  24900806.6004   24900810.7494
 -21797140.06546 -16867069.73046  21748155.5104   21748161.5944
 -14678787.45245 -11359864.82245  24768925.0794   24768926.9554
 -20528576.61946 -15853132.52546  23246606.0214   23246610.1944
 -15960025.52646 -12359618.25245  24384930.5884   24384933.1554
 -17364872.04446 -13404952.31546  21493283.2884   21493286.8404
 -21583021.58547 -16728827.92246  21233510.9264   21233514.7364
 15  1 19  3 47  0.0000000  0  9G07G18G29G27G13G22G15G21G16
 -14064707.878 2                  24645536.310
 -24434004.77747 -17933107.60846  21700329.7994   21700333.7614
  12146029.07543 -10744169.38445  24926440.7364   24926445.4714
 -21836559.92147 -16897786.49546  21740654.1964   21740660.1974
 -14666574.04145 -11350347.83345  24771248.9484   24771252.0544
 -20595634.02946 -15905385.05246  23233845.2884   23233848.7934
 -15981994.71345 -12376737.01745  24380749.2344   24380751.9774
 -17297661.80647 -13352580.69846  21506072.8534   21506076.0294
 -21532081.38747 -16689134.27546  21243204.6404   21243207.6524
 15  1 19  3 47 30.0000000  0  9G07G18G29G27G13G22G15G21G16
 -14045991.392 1                  24649098.013
 -24446179.72847 -17942594.57446  21698013.3414   21698017.2334
  12280821.96745 -10639135.97045  24952090.5954   24952094.4404
 -21875692.24046 -16928279.21946  21733207.3424   21733213.2034
 -14653788.15245 -11340384.85145  24773682.4354   24773683.5254
 -20662478.36846 -15957471.55146  23221125.5734   23221128.7034
 -16003525.09246 -12393513.93545  24376652.5674   24376656.1664
 -17230156.01846 -13299978.78646  21518918.9364   21518922.3364
 -21480533.71247 -16648967.26546  21253013.8084   21253016.8794
 15  1 19  3 48  0.0000000  0  9G07G18G29G27G13G22G15G21G16
 -14026703.725 2                  24652770.357
 -24457891.11447 -17951720.32346  21695784.4364   21695788.1524
  12415695.21445 -10534040.02245  24977756.8944   24977759.8944
 -21914535.10046 -16958546.38246  21725816.1564   21725822.1694
 -14640428.43045 -11329974.65545  24776225.2644   24776227.1864
 -20729106.85146 -16009389.81546  23208446.8194   23208450.3354
 -16024613.93645 -12409946.76845  24372639.1014   24372643.8954
 -17162355.16946 -13247146.95646  21531820.7054   21531823.8824
 -21428378.06947 -16608326.50746  21262938.7874   21262941.8354
 15  1 19  3 48 30.0000000  0  9G07G18G29G27G13G22G15G21G16
 -14006843.672 2                  24656550.228
 -24469136.93847 -17960483.28946  21693644.3904   21693647.8834
  12550648.13545 -10428881.96745  25003437.5714   25003443.5034
 -21953085.87246 -16988585.93146  21718479.7154   21718485.6704
 -14626493.16446 -11319115.99045  24778876.9334   24778879.1954
 -20795515.98046 -16061137.18746  23195809.3734   23195812.5154
 -16045258.11046 -12426033.13745  24368711.2784   24368716.7874
 -17094259.43446 -13194085.35946  21544778.8654   21544782.4414
 -21375614.48347 -16567212.04046  21272979.4544   21272982.8424
 15  1 19  3 49  0.0000000  0  9G07G18G29G27G13G22G15G21G16
 -13986412.343 2                  24660437.536
 -24479918.01847 -17968884.12446  21691592.9644   21691596.4814
  12685678.78544 -10323663.33545  25029132.8854   25029130.5174
 -21991344.39746 -17018397.79446  21711199.7434   21711205.6394
 -14611982.60445 -11307809.05845  24781637.7364   24781640.8544
 -20861705.26846 -16112713.23946  23183213.5794   23183217.2364
 -16065456.49146 -12441772.13445  24364867.8204   24364870.8444
 -17025871.24946 -13140795.86446  21557792.6264   21557796.7174
 -21322245.65847 -16525625.94546  21283135.1904   21283138.3084
 15  1 19  3 49 30.0000000  0  8G18G29G27G13G22G15G21G16
 -24490229.85147 -17976919.31146  21689631.0224   21689634.3754
  12820789.16745 -10218382.62745  25054844.6604   25054847.8254
 -22029305.82247 -17047978.12946  21703975.9754   21703981.4254
 -14596892.58045 -11296050.62245  24784509.8954   24784513.1894
 -20927669.27546 -16164113.75446  23170661.4084   23170665.1944
 -16085203.46045 -12457159.34645  24361109.0484   24361112.5414
 -16957188.22046 -13087276.63046  21570862.7704   21570867.0254
 -21268267.47447 -16483565.02746  21293406.7484   21293410.4644
 15  1 19  3 50  0.0000000  0  8G18G29G27G13G22G15G21G16
 -24500074.75347 -17984590.64446  21687757.2854   21687761.0604
  12955975.01043 -10113043.15545  25080570.3294   25080572.0284
 -22066971.69646 -17077328.16446  21696808.0684   21696813.8584
 -14581225.31645 -11283842.33745  24787490.5244   24787491.9774
 -20993408.57746 -16215339.17446  23158151.5884   23158155.2804
 -16104500.00446 -12472195.60345  24357437.5844   24357441.2884
 -16888214.55746 -13033530.91946  21583987.8964   21583991.5534
 -21213684.61047 -16441032.94046  21303793.4374   21303796.5444
 15  1 19  3 50 30.0000000  0  8G18G29G27G13G22G15G21G16
 -24509448.50447 -17991894.85946  21685973.6924   21685977.3024
  13091238.20843 -10007643.32245  25106309.1004   25106316.7904
 -22104337.46447 -17106444.33846  21689698.0564   21689703.9404
 -14564976.57645 -11271180.97545  24790582.9094   24790586.9544
 -21058918.09546 -16266385.56146  23145685.5194   23145688.3204
 -16123340.81046 -12486876.71245  24353853.2474   24353857.7484
 -16818948.24446 -12979557.18646  21597168.9084   21597172.7414
 -21158494.99947 -16398028.05046  21314295.6884   21314299.3804
 15  1 19  3 51  0.0000000  0  8G18G29G27G13G22G15G21G16
 -24518352.70947 -17998833.19746  21684279.3504   21684283.0544
  13226574.85443  -9902186.28845  25132063.4274   25132071.5864
 -22141404.38447 -17135327.63346  21682644.2924   21682650.2124
 -14548148.60945 -11258068.23745  24793784.5974   24793788.3134
 -21124198.77546 -16317253.59246  23133263.0154   23133265.9694
 -16141726.47045 -12501203.18345  24350353.4224   24350357.0914
 -16749393.08146 -12925358.35746  21610404.6454   21610408.1864
 -21102701.78947 -16354552.83446  21324913.0204   21324916.2324
 15  1 19  3 51 30.0000000  0  9G07G18G29G27G13G22G15G21G16
 -14165508.189 1                  24681512.004
 -24526783.92247 -18005402.96146  21682674.6014   21682678.2944
  13361986.73943  -9796670.56745  25157830.5744   25157836.0374
 -22178168.02046 -17163974.61146  21675648.5714   21675654.6784
 -14530738.33345 -11244501.71845  24797098.3784   24797103.2314
 -21189245.44746 -16367939.29946  23120885.2814   23120887.2044
 -16159651.72146 -12515170.90645  24346943.1154   24346946.4564
 -16679547.21646 -12870933.01246  21623696.0824   21623699.5404
 -21046302.59047 -16310605.43346  21335645.5044   21335648.2004
 15  1 19  3 52  0.0000000  0  9G07G18G29G27G13G22G15G21G16
 -14141636.872 2                  24686054.315
 -24534741.78947 -18011603.87846  21681160.4514   21681163.9804
  13497471.80443  -9691097.89145  25183612.1924   25183614.4314
 -22214627.54747 -17192384.65346  21668710.1994   21668716.0964
 -14512745.06945 -11230481.09845  24800521.5944   24800525.6034
 -21254056.36146 -16418441.30546  23108551.9574   23108555.0404
 -16177115.34646 -12528778.89245  24343619.5454   24343623.2144
 -16609412.31947 -12816282.44546  21637042.4594   21637046.0234
 -20989299.33347 -16266187.31746  21346492.7264   21346496.3844
 15  1 19  3 52 30.0000000  0  9G07G18G29G27G13G22G15G21G16
 -14117194.012 2                  24690707.215
 -24542227.41847 -18017436.81546  21679736.0024   21679739.3784
  13633026.69744  -9585470.88145  25209408.4634   25209412.5304
 -22250783.43447 -17220558.07046  21661830.2954   21661836.2614
 -14494170.14545 -11216007.06245  24804057.8654   24804058.1824
 -21318631.62746 -16468759.71646  23096263.6294   23096267.0164
 -16194117.01845 -12542026.97545  24340383.4104   24340387.8184
 -16538991.69447 -12761409.22646  21650443.1194   21650446.6954
 -20931695.34647 -16221301.10346  21357454.2934   21357457.6694
 15  1 19  3 53  0.0000000  0  9G07G18G29G27G13G22G15G21G16
 -14092179.588 3                  24695467.198
 -24549240.00247 -18022901.14746  21678401.1324   21678405.1774
  13768651.11743  -9479789.59045  25235217.5714   25235214.3944
 -22286634.21547 -17248493.74646  21655008.0034   21655014.0644
 -14475013.08345 -11201079.50745  24807701.8864   24807707.1724
 -21382968.96746 -16518892.67946  23084020.3454   23084023.7334
 -16210654.90045 -12554913.57745  24337237.1484   24337242.5994
 -16468286.05947 -12706313.93646  21663898.0624   21663901.8834
 -20873490.61547 -16175946.77346  21368530.2624   21368533.8854
 15  1 19  3 53 30.0000000  0  9G07G18G29G27G13G22G15G21G16
 -14066590.554 1                  24700337.088
 -24555775.55847 -18027993.80246  21677157.9654   21677161.6934
  13904346.54843  -9374052.89445  25261038.3774   25261044.3444
 -22322174.99947 -17276187.84746  21648244.5384   21648250.5524
 -14455269.61245 -11185694.94145  24811459.9064   24811461.4424
 -21447063.11846 -16568836.17046  23071824.0444   23071827.1744
 -16226723.20645 -12567434.33945  24334179.2994   24334181.7374
 -16397293.34247 -12650994.94246  21677407.3744   21677410.9734
 -20814682.98547 -16130122.65946  21379721.4014   21379725.1054
 15  1 19  3 54  0.0000000  0  8G18G29G27G13G22G15G21G16
 -24561832.45947 -18032713.45446  21676005.3364   21676008.5244
  14040113.02543  -9268260.94145  25286873.7874   25286876.5544
 -22357403.31347 -17303638.50746  21641541.2624   21641546.8884
 -14434938.52544 -11169852.56745  24815328.1264   24815332.2064
 -21510910.78646 -16618587.58146  23059673.9324   23059676.8864
 -16242318.89746 -12579586.81945  24331211.8864   24331213.9494
 -16326013.65247 -12595452.34746  21690971.4304   21690975.2634
 -20755272.53947 -16083828.82346  21391026.6744   21391029.9564
 15  1 19  3 54 30.0000000  0  8G18G29G27G13G22G15G21G16
 -24567412.03247 -18037061.15746  21674943.3174   21674946.8224
  14175946.67943  -9162416.56444  25312722.4774   25312726.5684
 -22392320.14647 -17330846.42946  21634896.9254   21634902.8684
 -14414021.52645 -11153553.64945  24819308.7434   24819308.9194
 -21574512.47446 -16668147.33446  23047571.2734   23047574.4034
 -16257442.48746 -12591371.40645  24328334.3394   24328337.2464
 -16254450.48947 -12539688.84946  21704589.3724   21704593.0184
 -20695262.47847 -16037067.74346  21402446.2904   21402449.4434
 15  1 19  3 55  0.0000000  0  8G18G29G27G13G22G15G21G16
 -24572512.79647 -18041035.76646  21673972.7344   21673976.4964
  14311847.02643  -9056520.25644  25338583.0424   25338587.5434
 -22426923.24846 -17357809.87246  21628311.7934   21628317.7594
 -14392517.28445 -11136796.99445  24823400.9784   24823402.4314
 -21637865.35746 -16717513.19046  23035515.3654   23035519.2224
 -16272091.25246 -12602786.02845  24325546.2474   24325547.6544
 -16182604.37247 -12483704.87646  21718261.0634   21718264.7084
 -20634653.58547 -15989840.05046  21413979.4274   21413983.1314
 15  1 19  3 55 30.0000000  0  8G18G29G27G13G22G15G21G16
 -26152553.54147 -19272236.34446  21373300.8804   21373304.5374
  12872398.25343 -10178168.65345  25064665.5964   25064668.6794
 -24036631.57447 -18612128.06946  21321994.7454   21322000.5594
 -15945843.72244 -12347181.29645  24527812.2594   24527817.1594
 -23276388.62146 -17994284.56446  22723714.6924   22723717.4114
 -17861682.81946 -13841428.79245  24023056.4714   24023058.5814
 -17685893.29747 -13655098.84746  21432194.9564   21432198.7424
 -22148863.72347 -17169744.07146  21125834.8024   21125838.2834
 15  1 19  3 56  0.0000000  0  8G18G29G27G13G22G15G21G16
 -26156693.46147 -19275462.26146  21372513.4084   21372516.7964
  13008429.95742 -10072170.12545  25090551.1364   25090555.7194
 -24070601.64447 -18638598.24746  21315530.1554   21315535.9574
 -15923162.09045 -12329507.30645  24532128.6004   24532127.1474
 -23339236.13746 -18043256.63646  22711755.1154   22711758.9374
 -17875374.62346 -13852097.70245  24020451.5594   24020454.0094
 -17613483.31947 -13598675.49846  21445974.1274   21445977.6094
 -22087059.06447 -17121584.62646  21137596.1004   21137599.1944
 15  1 19  3 56 30.0000000  0  8G18G29G27G13G22G15G21G16
 -26160352.36147 -19278313.34346  21371817.1064   21371819.7444
  13144524.77143  -9966122.24144  25116450.2194   25116460.3004
 -24104253.27447 -18664820.29946  21309126.6934   21309132.4954
 -15899891.69345 -12311374.54345  24536557.0954   24536560.7174
 -23401828.40646 -18092029.84946  22699844.3564   22699847.9084
 -17888585.36746 -13862391.75945  24017938.4284   24017940.5034
 -17540793.42447 -13542034.02246  21459806.5554   21459809.9554
 -22024657.70047 -17072960.21446  21149470.6304   21149473.8424
 15  1 19  3 57  0.0000000  0  8G18G29G27G13G22G15G21G16
 -26163528.52047 -19280788.25346  21371212.6114   21371215.8704
  13280682.57943  -9860025.35842  25142359.2164   25142371.2434
 -24137584.11047 -18690792.37646  21302784.3984   21302790.0484
 -15876031.07445 -12292781.85645  24541097.7094   24541098.7994
 -23464162.84146 -18140602.10546  22687982.9134   22687986.6174
 -17901311.81046 -13872308.43645  24015515.7904   24015517.3734
 -17467823.61347 -13485174.44246  21473692.0864   21473695.6024
 -21961660.47747 -17023871.48346  21161458.5464   21161461.5824
 15  1 19  3 57 30.0000000  0  8G18G29G27G13G22G15G21G16
 -26166220.95547 -19282886.24746  21370700.1754   21370703.6574
  13416902.62243                  25168282.2484
 -24170592.33347 -18716513.08246  21296503.0754   21296508.6204
 -15851579.23845 -12273728.44145  24545750.9374   24545759.0144
 -23526236.47146 -18188971.15646  22676170.4734   22676173.1814
 -17913552.18346 -13881846.40445  24013186.3934   24013188.0234
 -17394574.86347 -13428097.49746  21487630.9884   21487634.5174
 -21898067.66847 -16974318.66546  21173559.7414   21173563.1054
 15  1 19  3 58  0.0000000  0  9G18G29G27G13G19G22G15G21G16
 -26168431.94747 -19284609.11146  21370279.5424   21370283.1534
  13553180.82443                  25194214.5954
 -24203279.30247 -18741983.44246  21290282.6694   21290288.4014
 -15826538.80043 -12254216.39045  24550515.8264   24550520.3624
 -15804740.23342                  23482249.7904
 -23588050.02146 -18237137.52246  22664407.8174   22664409.5524
 -17925307.05345 -13891006.03245  24010948.8244   24010951.8364
 -17321051.02747 -13370806.20946  21501622.1664   21501625.4604
 -21833883.69347 -16924305.18046  21185773.6444   21185776.8564
 15  1 19  3 58 30.0000000  0  9G18G29G27G13G19G22G15G21G16
 -26170156.08147 -19285952.60246  21369951.3734   21369955.2414
  13689520.80041                  25220159.3864
 -24235638.56447 -18767198.45746  21284125.1104   21284130.6194
 -15800904.39443 -12234241.55444  24555393.1684   24555397.9044
 -15870531.73943                  23469731.2644
 -23649596.72546 -18285095.96446  22652695.8484   22652697.7014
 -17936569.77845 -13899782.17945  24008806.0714   24008808.6494
 -17247248.26947 -13313297.57546  21515666.2404   21515669.6164
 -21769105.15547 -16873828.41746  21198100.8994   21198103.7704
 15  1 19  3 59  0.0000000  0  8G18G27G13G19G22G15G21G16
 -26171396.64747 -19286919.26846  21369715.2934   21369718.7404
 -24267672.87647 -18792160.25946  21278028.9994   21278034.7554
 -15774679.96543 -12213806.97645  24560383.9854   24560388.8144
 -15936176.17843 -12299854.57045  23457238.5604   23457245.5704
 -23710878.71646 -18332848.13946  22641033.7924   22641036.4884
 -17947342.38845 -13908176.39945  24006756.0154   24006758.5714
 -17173171.94047 -13255575.76146  21529762.3624   21529765.6214
 -21703736.97747 -16822892.20346  21210540.0674   21210542.7634
 15  1 19  3 59 30.0000000  0  8G18G27G13G19G22G15G21G16
 -26172151.21747 -19287507.23746  21369571.7194   21369575.0954
 -24299378.95147 -18816866.30346  21271995.6694   21272001.1324
 -15747863.37243 -12192910.97945  24565486.9584   24565492.6904
 -16001670.28442 -12350889.03345  23444774.1744   23444776.3784
 -23771892.30446 -18380391.16646  22629423.4124   22629426.8234
 -17957621.58345 -13916186.17645  24004800.2764   24004803.7114
 -17098821.12847 -13197640.08546  21543910.9784   21543914.5064
 -21637778.22947 -16771495.80646  21223091.6544   21223094.7254
 15  1 19  4  0  0.0000000  0  8G18G27G13G19G22G15G21G16
 -26172416.46547 -19287713.91346  21369520.8314   21369524.4424
 -24330752.35947 -18841313.11846  21266025.3734   21266030.6484
 -15720451.54443 -12171551.01545  24570703.8674   24570710.5134
 -16067009.72843 -12401802.85245  23432340.9004   23432341.8494
 -23832632.50346 -18427721.18946  22617864.9254   22617868.3014
 -17967402.52246 -13923807.65545  24002938.9714   24002941.4794
 -17024194.53647 -13139489.50746  21558111.7574   21558115.5674
 -21571227.82847 -16719638.35946  21235755.7674   21235758.5104
 15  1 19  4  0 30.0000000  0  8G18G27G13G19G22G15G21G16
 -26172192.83047 -19287539.66246  21369563.8524   21369567.3804
 -24361792.62047 -18865500.34346  21260118.5874   21260124.5894
 -15692444.90844 -12149727.64145  24576032.8544   24576038.2814
 -16132194.18743 -12452595.93145  23419936.0604   23419934.5714
 -23893098.15346 -18474837.25946  22606358.7694   22606361.6174
 -17976684.20946 -13931040.16245  24001172.4184   24001175.9824
 -16949294.04747 -13081125.50046  21572365.4054   21572368.6644
 -21504087.92047 -16667321.58346  21248531.8974   21248535.3434
 15  1 19  4  1  0.0000000  0  8G18G27G13G19G22G15G21G16
 -26171479.62347 -19286983.90846  21369699.2584   21369703.2084
 -24392497.99747 -18889426.59346  21254275.7594   21254281.7494
 -15663842.88644 -12127440.36245  24581475.4004   24581480.9104
 -16197221.88043 -12503266.83645  23407563.0994   23407563.9554
 -23953287.01646 -18521737.66446  22594905.2244   22594907.1474
 -17985464.80945 -13937882.17745  23999501.3694   23999504.9914
 -16874120.33847 -13022548.58246  21586670.3424   21586673.5184
 -21436359.42847 -16614546.15046  21261420.1064   21261423.4594
 15  1 19  4  1 30.0000000  0  8G18G27G13G19G22G15G21G16
 -26170280.72547 -19286049.68546  21369927.7154   21369931.5134
 -24422871.58347 -18913094.34446  21248495.7174   21248501.4144
 -15634650.39544 -12104692.96545  24587030.8174   24587032.3764
 -16262096.09044 -12553818.11545  23395217.6144   23395220.2514
 -24013201.65146 -18568424.38146  22583503.8814   22583505.2294
 -17993747.07746 -13944335.86445  23997925.3524   23997929.0914
 -16798679.03347 -12963763.16746  21601026.4024   21601029.8024
 -21368048.72447 -16561317.04846  21274419.1674   21274422.8244
 15  1 19  4  2  0.0000000  0  8G18G27G13G19G22G15G21G16
 -26168591.62947 -19284733.50446  21370248.8564   21370252.5494
 -24452908.24947 -18936499.54246  21242779.6294   21242785.5144
 -15604863.22443 -12081482.23645  24592699.2144   24592703.5634
 -16326811.70345 -12604245.85745  23382902.3054   23382904.6614
 -24072836.53646 -18614893.13946  22572155.4184   22572158.0794
 -18001525.38946 -13950396.86945  23996445.4554   23996449.7224
 -16722967.72947 -12904767.35646  21615433.6204   21615437.5944
 -21299152.85047 -16507631.98546  21287530.0374   21287533.0264
 15  1 19  4  2 30.0000000  0  8G18G27G13G19G22G15G21G16
 -26166410.28547 -19283033.76346  21370663.8634   21370667.7904
 -24482604.40047 -18959639.38846  21237128.5234   21237134.4664
 -15574479.24343 -12057806.31645  24598479.8224   24598486.6684
 -16391365.43145 -12654547.44545  23370617.5084   23370619.2904
 -24132187.33046 -18661140.41146  22560861.4824   22560864.1314
 -18008795.80246 -13956062.10245  23995061.9654   23995064.9904
 -16646985.40647 -12845560.34846  21629892.7534   21629896.3994
 -21229670.75047 -16453490.10846  21300751.7084   21300754.9674
 15  1 19  4  3  0.0000000  0  8G18G27G13G19G22G15G21G16
 -26163741.06347 -19280953.85246  21371171.8754   21371175.5674
 -24511963.58847 -18982516.69746  21231541.8604   21231547.4524
 -15543503.36843 -12033669.35145  24604375.5974   24604377.6134
 -16455760.74145 -12704725.62045  23358363.4864   23358367.9874
 -24191257.15546 -18707168.75246  22549620.8184   22549624.0064
 -18015561.71546 -13961334.22845  23993774.2534   23993777.8054
 -16570738.07947 -12786146.85746  21644402.0494   21644405.8244
 -21159609.54847 -16398896.99346  21314084.0224   21314087.6454
 15  1 19  4  3 30.0000000  0  8G18G27G13G19G22G15G21G16
 -26160577.17447 -19278488.48846  21371774.1064   21371777.5994
 -24540977.80547 -19005125.18346  21226020.6874   21226026.5834
 -15511928.98043 -12009065.94845  24610383.2014   24610384.3384
 -16519989.87745 -12754774.29245  23346141.4734   23346144.1114
 -24250037.70546 -18752971.77046  22538435.2674   22538438.4554
 -18021815.06446 -13966206.91946  23992584.6994   23992587.8174
 -16494220.57247 -12726522.82846  21658962.6874   21658966.2274
 -21088964.23847 -16343848.71846  21327527.4574   21327530.6464
 15  1 19  4  4  0.0000000  0  8G18G27G13G19G22G15G21G16
 -26156922.18647 -19275640.43146  21372469.6524   21372473.0754
 -24569649.74047 -19027466.93946  21220564.4474   21220570.4134
 -15479759.96243 -11983999.08445  24616504.6694   24616509.7564
 -16584055.46645 -12804695.49045  23333949.3894   23333951.9684
 -24308530.95046 -18798550.94246  22527304.1554   22527306.6524
 -18027558.23046 -13970682.09346  23991491.8734   23991494.7924
 -16417438.09547 -12666692.33246  21673573.9654   21673577.7044
 -21017740.05547 -16288349.36346  21341080.9814   21341084.3694
 15  1 19  4  4 30.0000000  0  8G18G27G13G19G22G15G21G16
 -26152775.34847 -19272409.11746  21373258.7864   21373261.8684
 -24597977.85147 -19049540.79746  21215173.9354   21215179.9604
 -15446996.31943 -11958469.12643  24622738.7344   24622739.9064
 -16647956.17345 -12854488.23045  23321790.4214   23321794.6874
 -24366734.95946 -18843904.69146  22516227.9654   22516231.2484
 -18032789.41946 -13974758.34446  23990496.4904   23990499.9834
 -16340391.57647 -12606656.08546  21688235.7004   21688238.9004
 -20945938.51347 -16232400.11146  21354744.1994   21354748.1614
 15  1 19  4  5  0.0000000  0  8G18G27G13G19G22G15G21G16
 -26148134.36247 -19268792.74746  21374141.6084   21374145.1834
 -24625958.45547 -19071343.86046  21209849.0704   21209854.9784
 -15413635.82843 -11932473.89144  24629088.2374   24629086.8064
 -16711688.17145 -12904149.52945  23309662.4424   23309666.1114
 -24424645.75446 -18889029.99946  22505208.2864   22505211.8614
 -18037504.64946 -13978432.52646  23989598.5494   23989601.9604
 -16263080.02847 -12546413.32746  21702947.3964   21702950.9604
 -20873558.47947 -16176000.11646  21368517.9104   21368521.1924
 15  1 19  4  5 30.0000000  0  8G18G27G13G19G22G15G21G16
 -26142998.67547 -19264790.92146  21375118.9894   21375123.1624
 -24653589.97047 -19092874.92046  21204591.3464   21204597.3134
 -15379678.49443 -11906013.61845  24635549.2914   24635548.6114
 -16775249.87145 -12953678.11345  23297566.9464   23297570.3344
 -24482260.75446 -18933924.77746  22494244.6844   22494247.0994
 -18041702.22046 -13981703.32645  23988800.0184   23988804.1914
 -16185504.54347 -12485964.90646  21717709.5124   21717712.8534
 -20800601.52247 -16119150.55846  21382401.0284   21382404.6504
 15  1 19  4  6  0.0000000  0  8G18G27G13G19G22G15G21G16
 -26137369.73247 -19260404.72146  21376190.3844   21376193.9134
 -24680872.53747 -19114134.06946  21199399.7914   21199405.6754
 -15345125.65644 -11879089.32045  24642125.6164   24642131.2784
 -16838641.80145 -13003074.44245  23285504.3474   23285507.5014
 -24539579.65147 -18978588.83146  22483337.3434   22483340.0504
 -18045382.46346 -13984571.04745  23988100.3124   23988103.3604
 -16107667.67247 -12425312.80346  21732521.2774   21732524.5954
 -20727070.93147 -16061854.01346  21396393.6094   21396397.0444
 15  1 19  4  6 30.0000000  0  8G18G27G13G19G22G15G21G16
 -26131245.20847 -19255632.35046  21377355.6454   21377358.9154
 -24707803.03147 -19135118.87546  21194274.8184   21194280.7264
 -15309975.97943 -11851699.87545  24648814.5754   24648818.8194
 -16901860.88046 -13052336.04945  23273473.9524   23273476.8484
 -24596599.11547 -19023019.53446  22472486.8004   22472489.3794
 -18048541.72646 -13987032.78846  23987499.2704   23987501.3694
 -16029568.88947 -12364456.61346  21747383.1094   21747386.6264
 -20652966.92647 -16004110.64346  21410495.0074   21410498.1374
 15  1 19  4  7  0.0000000  0  8G18G27G13G19G22G15G21G16
 -26124622.49847 -19250471.79746  21378616.1164   21378619.6684
 -24734377.77847 -19155826.45946  21189217.6974   21189223.6404
 -15274227.02142 -11823843.72545  24655616.4114   24655621.0534
 -16964903.11646 -13101459.88146  23261477.5224   23261480.2064
 -24653314.82347 -19067213.55146  22461694.0324   22461695.9784
 -18051176.42446 -13989085.77746  23986997.5194   23987000.3794
 -15951207.06447 -12303395.45146  21762294.9704   21762298.4284
 -20578288.25947 -15945919.48546  21424705.7454   21424709.5544
 15  1 19  4  7 30.0000000  0  8G18G27G13G19G22G15G21G16
 -26117499.14147 -19244921.11746  21379971.5234   21379974.9344
 -24760592.99647 -19176253.90746  21184229.3244   21184235.1034
 -15237876.80842 -11795518.82744  24662535.6544   24662542.4414
 -17027764.92045 -13150443.10545  23249514.6234   23249517.8114
 -24709722.83746 -19111167.79446  22450959.7094   22450963.1904
 -18053282.58846 -13990726.92246  23986596.7574   23986600.0154
 -15872580.98347 -12242128.38046  21777256.9194   21777260.5064
 -20503034.68747 -15887280.34446  21439026.1034   21439029.6194
 15  1 19  4  8  0.0000000  0  8G18G27G13G19G22G15G21G16
 -26109876.86547 -19238981.68346  21381421.8024   21381425.4484
 -24786449.11147 -19196401.53146  21179309.1454   21179314.9244
 -15200927.43642 -11766726.96742  24669564.0944   24669570.0604
 -17090446.84345 -13199286.16945  23237587.2794   23237591.1124
 -24765822.79247 -19154882.04346  22440284.3064   22440287.6704
 -18054860.75446 -13991956.65046  23986295.6984   23986298.5944
 -15793693.71247 -12180657.78146  21792268.5904   21792272.0254
 -20427209.19547 -15828195.56946  21453455.1994   21453458.7044
 15  1 19  4  8 30.0000000  0  8G18G27G13G19G22G15G21G16
 -26101758.42347 -19232655.62946  21382967.1024   21382970.8654
 -24811947.76347 -19216270.61846  21174457.0384   21174462.4894
 -15163382.20243                  24676710.0384
 -17152950.50945 -13247990.30045  23225693.1564   23225696.2044
 -24821615.81947 -19198357.06546  22429667.2264   22429670.7074
 -18055912.39645 -13992776.12045  23986095.2624   23986099.6224
 -15714549.24547 -12118986.77946  21807329.5844   21807333.0194
 -20350817.08247 -15768669.25546  21467992.6334   21467995.7044
 15  1 19  4  9  0.0000000  0  8G18G27G13G19G22G15G21G16
 -26093143.41147 -19225942.63846  21384606.4314   21384609.8544
 -24837087.31547 -19235859.89246  21169673.0244   21169678.7444
 -15125241.04743                  24683967.4424
 -17215274.20845 -13296554.17045  23213832.6174   23213835.3484
 -24877099.99047 -19241591.37646  22419108.8644   22419111.8064
 -18056435.90146 -13993184.06546  23985996.0214   23985998.6354
 -15635148.95847 -12057116.42746  21822439.0094   21822442.2214
 -20273859.37847 -15708702.22746  21482636.8684   21482640.2674
 15  1 19  4  9 30.0000000  0  8G18G27G13G19G22G15G21G16
 -26084028.04247 -19218839.73946  21386340.9034   21386344.9244
 -24861863.17847 -19255165.75246  21164958.2604   21164964.2854
 -15086500.99144                  24691340.7694
 -17277413.40445 -13344974.33745  23202008.2754   23202010.1044
 -24932270.21447 -19284581.05346  22408610.1694   22408612.9124
 -18056426.56045 -13993176.77845  23985997.1834   23986000.7704
 -15555490.53947 -11995044.93546  21837597.3094   21837600.7204
 -20196334.54347 -15648293.27446  21497389.3774   21497392.6014
 15  1 19  4 10  0.0000000  0  8G18G27G13G19G22G15G21G16
 -26074413.09447 -19211347.57246  21388170.4144   21388173.7784
 -24886274.37147 -19274187.47846  21160312.8204   21160318.7874
 -15047162.71944                  24698826.0574
 -17339367.11446 -13393249.92046  23190218.8874   23190221.3604
 -24987125.35947 -19327325.27746  22398171.6024   22398174.3454
 -18055883.40646 -13992753.50345  23986101.3824   23986104.2424
 -15475575.47447 -11932773.46446  21852804.5754   21852808.0454
 -20118244.83947 -15587444.17846  21512249.1224   21512252.2994
 15  1 19  4 10 30.0000000  0  8G18G27G13G19G22G15G21G16
 -26064299.03247 -19203466.47546  21390094.9074   21390098.9984
 -24910320.32347 -19292924.57846  21155737.0134   21155743.0034
 -15007227.53544 -12246943.14944  24706425.3314   24706427.3124
 -17401134.83846 -13441380.63046  23178464.8324   23178466.7904
 -25041664.11047 -19369822.92146  22387793.3574   22387796.2534
 -18054805.96546 -13991913.93445  23986306.4494   23986307.9154
 -15395405.80647 -11870303.60646  21868060.1704   21868064.2144
 -20039593.16247 -15526157.16246  21527216.2194   21527219.6774
 15  1 19  4 11  0.0000000  0  8G18G27G13G19G22G15G21G16
 -26053685.11947 -19195195.90446  21392115.0584   21392118.7154
 -24933999.05947 -19311375.52946  21151231.3174   21151237.2954
 -14966694.89544 -12215359.29745  24714138.1214   24714138.5784
 -17462714.56046 -13489364.80346  23166746.1674   23166749.6494
 -25095884.33547 -19412072.36046  22377475.4284   22377477.7734
 -18053192.34946 -13990656.56346  23986613.0164   23986616.4974
 -15314982.25347 -11807635.90946  21883364.2354   21883367.9744
 -19960380.84247 -15464433.31646  21542289.9414   21542293.4114
 15  1 19  4 11 30.0000000  0  8G18G27G13G19G22G15G21G16
 -26042567.33647 -19186532.69746  21394230.5434   21394234.5644
 -24957305.00747 -19329536.00446  21146796.1704   21146802.2074
 -14925561.36744 -12183307.09843  24721965.9354   24721963.3684
 -17524100.68046 -13537198.17946  23155064.9944   23155067.9954
 -25149779.82247 -19454068.81546  22367219.2164   22367221.8534
 -18051036.79646 -13988976.86746  23987023.8204   23987026.7274
 -15234302.06747 -11744768.23746  21898717.2514   21898720.5104
 -19880604.79647 -15402270.15446  21557470.6644   21557473.8294
 15  1 19  4 12  0.0000000  0  8G18G27G13G19G22G15G21G16
 -26030948.50047 -19177479.05846  21396441.4604   21396445.3634
 -24980240.03047 -19347407.45646  21142431.6714   21142437.6724
 -14883830.42943 -12150789.22743  24729906.5554   24729921.2314
 -17585294.99946 -13584882.05546  23143420.4614   23143423.1334
 -25203352.17147 -19495813.41746  22357024.9824   22357027.9944
 -18048341.85946 -13986876.91346  23987536.3454   23987538.4324
 -15153369.23247 -11681703.69146  21914118.3424   21914121.9294
 -19800270.09147 -15339671.68346  21572757.9254   21572761.9814
 15  1 19  4 12 30.0000000  0  8G18G27G13G19G22G15G21G16
 -26018825.53447 -19168032.60246  21398748.3004   21398751.8984
 -25002799.42947 -19364986.22146  21138138.9434   21138144.8044
 -14841499.09244                  24737963.2834
 -17646292.91546 -13632412.86746  23131812.7954   23131815.6094
 -25256595.86547 -19537301.94746  22346892.8904   22346895.6334
 -18045102.48846 -13984352.70646  23988152.8184   23988155.3154
 -15072181.44347 -11618440.48546  21929567.8444   21929571.7364
 -19719375.80647 -15276637.19846  21588151.5164   21588154.9044
 15  1 19  4 13  0.0000000  0  8G18G27G13G19G22G15G21G16
 -26006199.48447 -19158194.11546  21401151.0884   21401154.5584
 -25024983.31447 -19382272.37046  21133917.6494   21133923.3814
 -14798568.98543                  24746131.1714
 -17707094.33746 -13679790.59646  23120242.2914   23120245.1404
 -25309510.99347 -19578534.49046  22336823.4684   22336826.9614
 -18041318.83946 -13981404.42246  23988872.4844   23988876.1184
 -14990741.65247 -11554980.90346  21945065.2334   21945068.9734
 -19637925.24947 -15213169.25946  21603650.8974   21603654.8364
 15  1 19  4 13 30.0000000  0  8G18G27G13G19G22G15G21G16
 -25993069.13947 -19147962.67946  21403649.8234   21403653.5624
 -25046788.96847 -19399263.80946  21129767.8974   21129773.6654
 -14755040.01442                  24754413.8414
 -17767696.58645 -13727013.11546  23108709.8464   23108714.3244
 -25362094.43447 -19619508.57346  22326817.0744   22326820.0984
 -18036988.24146 -13978029.92446  23989697.2084   23989700.4784
 -14909049.90047 -11491324.99546  21960610.6814   21960614.1284
 -19555920.00347 -15149269.10646  21619256.1624   21619260.1244
 15  1 19  4 14  0.0000000  0  8G18G27G13G19G22G15G21G16
 -25979434.01547 -19137337.91146  21406244.5444   21406247.8614
 -25068214.67147 -19415959.15546  21125690.6394   21125696.5944
 -14710912.03141                  24762811.6924
 -17828097.78345 -13774079.00446  23097216.3064   23097219.4014
 -25414343.82447 -19660222.35546  22316874.5274   22316877.2354
 -18032109.60146 -13974228.35546  23990625.4204   23990629.3354
 -14827106.25347 -11427472.80546  21976203.9424   21976207.8344
 -19473360.01147 -15084936.68746  21634966.8754   21634970.6034
 15  1 19  4 14 30.0000000  0  8G18G27G13G19G22G15G21G16
 -25965295.57947 -19126320.94546  21408934.7564   21408938.2504
 -25089260.36947 -19432358.40246  21121685.7874   21121691.8124
 -14666186.92441                  24771322.7224
 -17888297.91346 -13820988.20046  23085760.8674   23085763.3644
 -25466258.62047 -19700675.42446  22306995.2874   22306998.1364
 -18026682.26646 -13969999.23746  23991657.7624   23991660.6694
 -14744913.24447 -11363426.31246  21991844.7894   21991848.2354
 -19390248.35047 -15020174.36846  21650782.4314   21650785.7954
 15  1 19  4 15  0.0000000  0  7G18G27G19G22G15G21G16
 -25950651.36547 -19114909.87946  21411721.5894   21411725.0354
 -25109922.19247 -19448458.53346  21117754.0974   21117759.8994
 -17948293.00746 -13867737.61046  23074344.1974   23074347.1984
 -25517834.81947 -19740864.66046  22297180.4824   22297182.8504
 -18020703.55546 -13965340.47646  23992795.6654   23992800.2014
 -14662470.30047 -11299185.06646  22007533.3714   22007537.0994
 -19306585.14447 -14954982.29346  21666703.2564   21666706.3164
 15  1 19  4 15 30.0000000  0  7G18G27G19G22G15G21G16
 -25935501.92147 -19103105.13046  21414604.6144   21414608.2364
 -25130199.41847 -19464258.96846  21113895.7054   21113901.6604
 -18008082.16046 -13914326.56446  23062966.3254   23062969.5604
 -25569071.39947 -19780789.24946  22287430.4994   22287433.1374
 -18014172.51546 -13960251.35146  23994038.3394   23994041.8554
 -14579778.68647 -11234750.04546  22023269.0234   22023272.4344
 -19222373.22747 -14889362.62946  21682728.3154   21682731.7844
 15  1 19  4 16  0.0000000  0  7G18G27G19G22G15G21G16
 -25919851.17047 -19090909.74146  21417583.0444   21417586.5844
 -25150094.44247 -19479761.58046  21110109.4624   21110115.4994
 -18067667.84946 -13960756.96046  23051627.8004   23051631.2354
 -25619969.98947 -19820450.45746  22277745.0504   22277746.7144
 -18007091.76646 -13954733.87946  23995385.7754   23995389.2454
 -14496843.77647 -11170125.44446  22039051.2434   22039054.0444
 -19137618.46647 -14823319.98846  21698856.7334   21698859.8874
 15  1 19  4 16 30.0000000  0  7G18G27G19G22G15G21G16
 -25903697.43347 -19078322.42446  21420656.7174   21420660.3754
 -25169604.18847 -19494964.00046  21106397.1124   21106403.0434
 -18127046.87846 -14007026.33646  23040328.5004   23040332.1224
 -25670527.55747 -19859845.94546  22268124.0274   22268126.0204
 -17999458.56446 -13948785.91046  23996838.4754   23996841.9564
 -14413664.66847 -11105310.55146  22054879.6504   22054883.0384
 -19052320.51647 -14756854.08346  21715088.0584   21715091.3764
 15  1 19  4 17  0.0000000  0  7G18G27G19G22G15G21G16
 -25887036.52947 -19065339.90246  21423827.3744   21423830.8674
 -25188723.09247 -19509861.87146  21102758.6304   21102764.5384
 -18186213.53346 -14053130.22946  23029069.2214   23029071.9884
 -25720737.93747 -19898970.83946  22258569.4064   22258571.7854
 -17991267.39946 -13942403.18546  23998397.6014   23998400.9534
 -14330238.20247 -11040302.92446  22070755.0994   22070758.4164
 -18966477.67847 -14689963.58846  21731423.6344   21731426.8464
 15  1 19  4 17 30.0000000  0  7G18G27G19G22G15G21G16
 -25869869.44247 -19051962.94646  21427093.8544   21427097.7584
 -25207450.44247 -19524454.58946  21099194.9814   21099200.9474
 -18245167.04346 -14099068.02546  23017850.6194   23017852.9404
 -25770600.05247 -19937824.38546  22249080.9914   22249083.4764
 -17982518.14846 -13935585.53346  24000062.4674   24000064.6824
 -14246566.10247 -10975103.88146  22086677.6714   22086681.1414
 -18880092.62547 -14622650.61446  21747862.1924   21747865.2284
 15  1 19  4 18  0.0000000  0  7G18G27G19G22G15G21G16
 -25852196.46947 -19038191.80146  21430456.9554   21430461.1634
 -25225785.17847 -19538741.41346  21095706.2504   21095712.2754
 -18303906.15146 -14144838.74746  23006672.8394   23006675.0784
 -25820112.77847 -19976405.72246  22239658.8694   22239661.3304
 -17973210.09846 -13928332.52346  24001833.2034   24001835.9584
 -14162650.28647 -10909714.93246  22102646.0314   22102649.5604
 -18793167.63947 -14554916.89146  21764403.3084   21764407.3874
 15  1 19  4 18 30.0000000  0  7G18G27G19G22G15G21G16
 -25834018.29647 -19024026.98646  21433916.2054   21433920.1084
 -25243726.50747 -19552721.67746  21092291.8524   21092297.8894
 -18362430.05346 -14190441.80246  22995536.1624   22995539.8314
 -25869274.61147 -20014713.60946  22230303.8614   22230306.7564
 -17963342.54346 -13920643.51546  24003710.8374   24003713.7094
 -14078491.99547 -10844137.04346  22118660.6744   22118663.8624
 -18705705.24147 -14486764.39646  21781046.6864   21781050.6024
 15  1 19  4 19  0.0000000  0  7G18G27G19G22G15G21G16
 -25815332.52847 -19009466.65746  21437471.9714   21437475.9684
 -25261270.47447 -19566392.31446  21088953.7234   21088959.7134
 -18420734.70646 -14235874.00946  22984441.3324   22984444.5084
 -25918081.40547 -20052744.84246  22221016.0524   22221018.8074
 -17952912.06546 -13912515.82846  24005695.7524   24005698.9524
 -13994090.11247 -10778369.34646  22134721.8654   22134725.1004
 -18617704.86647 -14418192.71146  21797792.7914   21797796.3774
 15  1 19  4 19 30.0000000  0  7G18G27G19G22G15G21G16
 -25796143.53147 -18994514.18946  21441123.3094   21441127.3304
 -25278420.30147 -19579755.81146  21085690.0974   21085696.1224
 -18478823.08346 -14281137.68046  22973387.4924   22973390.1534
 -25966536.13347 -20090501.75346  22211795.5754   22211797.6734
 -17941922.24946 -13903952.33346  24007787.1524   24007789.5434
 -13909449.93447 -10712415.95746  22150828.4514   22150831.7804
 -18529173.56747 -14349207.32746  21814640.1084   21814643.2264
 15  1 19  4 20  0.0000000  0  7G18G27G19G22G15G21G16
 -27351868.40547 -20206767.33046  21145079.0154   21145082.4504
 -26870592.59747 -20820409.54446  20782709.4644   20782715.4664
 -20112113.05346 -15553831.15046  22662582.5024   22662584.9404
 -27590055.74347 -21355581.95646  21902849.8254   21902852.4514
 -19505789.14246 -15122549.90546  23710193.7144   23710196.6334
 -15399987.49647 -11873873.78246  21867188.7034   21867191.5044
 -20015527.35947 -15507405.13246  21531796.3344   21531800.0034
 15  1 19  4 20 30.0000000  0  7G18G27G19G22G15G21G16
 -27331668.65847 -20191027.27346  21148922.6744   21148926.3784
 -26886944.84947 -20833151.56546  20779597.8664   20779603.9144
 -20169758.99546 -15598750.05946  22651613.1104   22651615.7704
 -27637795.56047 -21392781.83346  21893765.1924   21893768.0054
 -19493672.61446 -15113108.42246  23712499.4264   23712502.3344
 -15314869.53147 -11807548.08546  21883386.1634   21883389.2224
 -19925934.58947 -15437592.60446  21548844.8434   21548849.1454
 15  1 19  4 21  0.0000000  0  7G18G27G19G22G15G21G16
 -27310966.87947 -20174896.02346  21152862.2814   21152866.3964
 -26902899.34047 -20845583.63446  20776562.0314   20776568.0454
 -20227184.85146 -15643497.46546  22640685.1044   22640687.7894
 -27685178.54047 -21429703.66546  21884748.5634   21884751.1774
 -19480994.28046 -15103229.20846  23714911.2784   23714913.8104
 -15229517.66547 -11741040.11946  21899627.9654   21899630.8374
 -19835817.69747 -15367371.68546  21565993.7874   21565997.5624
 15  1 19  4 21 30.0000000  0  7G18G27G19G22G15G21G16
 -27289760.32847 -20158371.43446  21156897.9334   21156901.4734
 -26918451.60547 -20857702.29646  20773602.4564   20773608.3414
 -20284385.57946 -15688069.46846  22629800.2874   22629803.2294
 -27732199.83547 -21466343.59646  21875800.7604   21875803.5854
 -19467750.26046 -15092909.21346  23717431.7974   23717434.9744
 -15143929.25747 -11674347.85346  21915914.8494   21915917.8384
 -19745175.85247 -15296741.73746  21583242.5884   21583246.0704
 15  1 19  4 22  0.0000000  0  7G18G27G19G22G15G21G16
 -27268048.93747 -20141453.46846  21161029.2524   21161033.0034
 -26933600.26847 -20869506.46346  20770719.6044   20770725.6524
 -20341359.76946 -15732464.94846  22618958.6104   22618961.3414
 -27778857.77047 -21502700.37946  21866922.0154   21866924.8044
 -19453939.11946 -15082147.27646  23720060.6344   23720063.9634
 -15058105.63747 -11607472.30346  21932246.6514   21932249.5934
 -19654010.50747 -15225703.86346  21600590.6064   21600594.0064
 15  1 19  4 22 30.0000000  0  7G18G27G19G22G15G21G16
 -27245830.86347 -20124140.69546  21165257.2364   21165260.7884
 -26948341.80247 -20880993.38046  20767914.3534   20767920.4014
 -20398103.80746 -15776681.09246  22608160.9754   22608163.4254
 -27825148.51947 -21538771.04046  21858113.3464   21858115.7964
 -19439558.49546 -15070941.56746  23722796.9794   23722798.3034
 -14972046.15347 -11540412.95446  21948623.3104   21948626.5924
 -19562322.55147 -15154258.73546  21618038.3314   21618042.2344
 15  1 19  4 23  0.0000000  0  7G18G27G19G22G15G21G16
 -27223110.63147 -20106436.61846  21169580.6944   21169584.8794
 -26962679.02947 -20892165.25146  20765186.1304   20765192.1674
 -20454620.13646 -15820719.77346  22597405.6514   22597408.6054
 -27871074.48547 -21574557.49746  21849373.7154   21849375.6504
 -19424611.57046 -15059294.57846  23725640.9474   23725645.0264
 -14885754.85847 -11473172.97146  21965043.8124   21965047.2584
 -19470117.50747 -15082410.68446  21635584.1194   21635588.0814
 15  1 19  4 23 30.0000000  0  7G18G27G19G22G15G21G16
 -27199886.29047 -20088339.73446  21174000.0144   21174004.6564
 -26976608.44047 -20903019.33746  20762535.4794   20762541.4114
 -20510905.36946 -15864578.37046  22586694.8094   22586698.1494
 -27916632.00247 -21610056.86346  21840704.2674   21840706.3654
 -19409095.15546 -15047203.84346  23728593.2304   23728596.2084
 -14799232.12047 -11405752.65046  21981508.6664   21981512.1244
 -19377395.72747 -15010159.91446  21653228.4824   21653232.6194
 15  1 19  4 24  0.0000000  0  7G18G27G19G22G15G21G16
 -27176155.54347 -20069848.24746  21178516.0484   21178520.2564
 -26990126.08147 -20913552.56846  20759963.3134   20759969.2444
 -20566954.90546 -15908253.31846  22576029.1764   22576031.2284
 -27961816.74847 -21645265.78246  21832105.9674   21832108.3464
 -19393006.04946 -15034666.85146  23731654.7894   23731658.5994
 -14712475.28447 -11338149.91846  21998017.5484   21998020.5844
 -19284156.95147 -14937506.30946  21670971.4904   21670975.5464
 15  1 19  4 24 30.0000000  0  7G18G27G19G22G15G21G16
 -27151921.25347 -20050964.37446  21183127.6914   21183131.4434
 -27003233.11647 -20923765.82746  20757469.1374   20757475.1394
 -20622769.92846 -15951745.54846  22565407.6364   22565410.5314
 -28006629.59547 -21680184.84046  21823578.6514   21823580.8664
 -19376345.92946 -15021684.96246  23734825.1674   23734829.1294
 -14625488.60147 -11270368.09246  22014570.7154   22014574.4434
 -19190406.06147 -14864453.68446  21688811.3474   21688815.6614
 15  1 19  4 25  0.0000000  0  7G18G27G19G22G15G21G16
 -27127182.96547 -20031687.79046  21187835.1694   21187838.9794
 -27015927.71747 -20933657.73946  20755053.1544   20755059.1794
 -20678348.34746 -15995053.42946  22554831.8564   22554835.3494
 -28051068.44347 -21714812.44646  21815122.1254   21815124.8564
 -19359113.64746 -15008257.17746  23738103.6374   23738107.0364
 -14538272.41847 -11202407.42746  22031167.2474   22031171.2204
 -19096144.66346 -14791003.25346  21706748.6714   21706753.4184
 15  1 19  4 25 30.0000000  0  7G18G27G19G22G15G21G16
 -27101939.39547 -20012017.47246  21192638.6184   21192642.4984
 -27028206.80247 -20943225.87646  20752716.7884   20752722.4854
 -20733686.91846 -16038174.39846  22544301.4834   22544305.4454
 -28095130.19747 -21749146.24846  21806737.3254   21806740.1614
 -19341306.78246 -14994381.70146  23741492.6884   23741496.2994
 -14450826.59047 -11134267.82946  22047807.8734   22047811.5314
 -19001373.69047 -14717155.76246  21724783.2324   21724786.7264
 15  1 19  4 26  0.0000000  0  7G18G27G19G22G15G21G16
 -27076194.24147 -19991956.32046  21197537.8904   21197542.5904
 -27040072.41547 -20952471.81446  20750458.8324   20750464.8454
 -20788787.25546 -16081109.73046  22533815.9314   22533818.0884
 -28138816.28147 -21783187.34446  21798424.1014   21798426.7154
 -19322927.87646 -14980060.49546  23744989.9704   23744992.5374
 -14363154.85347 -11065952.18946  22064491.1264   22064494.9004
 -18906098.45447 -14642915.33946  21742913.6044   21742917.6834
 15  1 19  4 26 30.0000000  0  7G18G27G19G22G15G21G16
 -27049943.46747 -19971501.17546  21202533.1824   21202537.3084
 -27051518.80547 -20961391.09346  20748280.8214   20748286.4714
 -20843643.43746 -16123854.81946  22523377.2434   22523379.1654
 -28182120.34947 -21816930.73646  21790183.4174   21790186.4304
 -19303971.48046 -14965289.23946  23748597.8864   23748600.4304
 -14275254.04847 -10997458.05646  22081218.1904   22081221.5194
 -18810316.51847 -14568280.10046  21761140.2564   21761143.5494
 15  1 19  4 27  0.0000000  0  7G18G27G19G22G15G21G16
 -27023188.23147 -19950652.93546  21207624.7164   21207627.8924
 -27062545.24947 -20969983.14747  20746182.7084   20746188.3584
 -20898254.60946 -16166408.99046  22512985.0804   22512987.3774
 -28225042.19247 -21850376.32346  21782015.4784   21782018.6554
 -19284438.26946 -14950068.53246  23752314.4994   23752316.3044
 -14187126.27847 -10928787.07446  22097988.0694   22097991.5504
 -18714031.68947 -14493253.02046  21779462.8654   21779466.8744
 15  1 19  4 27 30.0000000  0  7G18G27G19G22G15G21G16
 -26995930.36747 -19929413.02946  21212811.6394   21212815.0624
 -27073151.97847 -20978248.13847  20744164.0864   20744170.0414
 -20952620.51046 -16208772.02946  22502639.1074   22502640.7714
 -28267581.11147 -21883523.50946  21773920.6914   21773923.2694
 -19264328.60746 -14934398.64746  23756141.2284   23756145.2484
 -14098773.70947 -10859940.93146  22114801.0334   22114804.4204
 -18617247.10747 -14417836.50346  21797879.9874   21797883.5864
 15  1 19  4 28  0.0000000  0  7G18G27G19G22G15G21G16
 -26968167.71247 -19907779.78646  21218094.7014   21218098.5814
 -27083335.25647 -20986183.16746  20742226.3594   20742232.2434
 -21006737.33846 -16250940.96046  22492341.1174   22492344.3054
 -28309733.54647 -21916369.61346  21765899.6524   21765902.2664
 -19243639.28546 -14918277.10946  23760078.2714   23760081.2494
 -14010194.80047 -10790918.41046  22131657.0514   22131660.1234
 -18519962.64547 -14342030.48546  21816392.8664   21816396.5824
 15  1 19  4 28 30.0000000  0  7G18G27G19G22G15G21G16
 -26939900.20847 -19885753.15846  21223473.5224   21223477.8484
 -27093093.23247 -20993786.78546  20740369.1104   20740375.0534
 -21060602.80046 -16292914.03646  22482090.8934   22482093.4954
 -28351497.09947 -21948912.65046  21757952.2654   21757954.7504
 -19222369.68146 -14901703.36646  23764125.7924   23764129.0154
 -13921390.62147 -10721720.35346  22148556.0854   22148559.3914
 -18422180.65447 -14265836.75646  21835000.3484   21835004.2284
 15  1 19  4 29  0.0000000  0  7G18G27G19G22G15G21G16
 -26911128.58247 -19863333.70846  21228949.1084   21228953.3864
 -27102424.74047 -21001058.08046  20738593.6514   20738599.5704
 -21114215.51746 -16334690.16046  22471888.9094   22471891.7344
 -28392870.55947 -21981151.70246  21750079.0564   21750081.7884
 -19200519.50246 -14884677.21846  23768284.2094   23768286.9754
 -13832362.09847 -10652347.47546  22165497.5354   22165500.9234
 -18323903.31147 -14189257.02946  21853702.1864   21853705.9374
 15  1 19  4 29 30.0000000  0  7G18G27G19G22G15G21G16
 -26881852.64347 -19840521.28246  21234520.1704   21234524.1324
 -27111327.87047 -21007995.60246  20736899.4474   20736905.3554
 -21167573.23046 -16376267.58446  22461735.4984   22461738.1474
 -28433851.30947 -22013084.74546  21742280.9054   21742283.8594
 -19178086.96246 -14867197.29446  23772552.6064   23772555.7124
 -13743109.52347 -10582800.01346  22182481.9044   22182485.4914
 -18225132.68347 -14112292.94646  21872497.1674   21872501.0354
 15  1 19  4 30  0.0000000  0  7G18G27G19G22G15G21G16
 -26852074.08447 -19817317.20946  21240186.7914   21240190.5074
 -27119802.61747 -21014599.29346  20735286.6094   20735292.5994
 -21220675.61246 -16417646.07046  22451630.4584   22451633.1774
 -28474439.42547 -22044711.85546  21734557.2644   21734559.9134
 -19155073.15346 -14849264.45046  23776931.6344   23776934.7174
 -13653635.31947 -10513079.84346  22199508.2814   22199511.5994
 -18125872.53647 -14034947.43346  21891386.0404   21891390.3774
 15  1 19  4 30 30.0000000  0  7G18G27G19G22G15G21G16
 -26821791.10947 -19793720.06546  21245949.2504   21245953.0484
 -27127845.32647 -21020866.34846  20733755.8584   20733761.7894
 -21273518.52746 -16458822.35746  22441574.7224   22441576.6684
 -28514630.91447 -22076029.83246  21726908.7894   21726910.6764
 -19131475.30346 -14830876.51946  23781422.0894   23781425.3004
 -13563938.20947 -10443185.97846  22216576.8784   22216579.6684
 -18026123.00947 -13957220.56346  21910367.6464   21910371.3394
 15  1 19  4 31  0.0000000  0  7G18G27G19G22G15G21G16
 -26791005.95347 -19769731.62446  21251807.2104   21251811.1264
 -27135456.61647 -21026797.21746  20732307.7054   20732313.6714
 -21326102.55046 -16499796.92846  22431567.8264   22431570.3114
 -28554426.43747 -22107039.16846  21719335.8844   21719338.3454
 -19107294.93246 -14812034.66246  23786023.9214   23786026.3594
 -13474021.39547 -10373120.91646  22233687.5004   22233690.3024
 -17925887.89647 -13879115.34646  21929441.9774   21929445.2014
 15  1 19  4 31 30.0000000  0  7G18G27G19G22G15G21G16
 -26759718.22347 -19745351.57646  21257761.2184   21257765.3334
 -27142634.43947 -21032390.33946  20730942.0044   20730947.8774
 -21378425.04146 -16540567.66946  22421611.0354   22421613.4384
 -28593823.67047 -22137738.23446  21711838.8144   21711841.1824
 -19082530.41346 -14792737.60746  23790736.3594   23790739.8644
 -13383885.03847 -10302884.79446  22250840.0384   22250843.2734
 -17825169.18347 -13800633.29046  21948608.1004   21948611.3824
 15  1 19  4 32  0.0000000  0  7G18G27G19G22G15G21G16
 -26727928.70247 -19720580.51546  21263810.7014   21263814.5694
 -27149377.50147 -21037644.65147  20729658.7324   20729664.6634
 -21430484.46446 -16581133.48146  22411704.8964   22411707.4044
 -28632820.81847 -22168125.52746  21704417.8564   21704420.0834
 -19057181.61246 -14772985.28946  23795559.6544   23795563.9444
 -13293530.23747 -10232478.47346  22268033.8814   22268037.0704
 -17723969.16047 -13721776.15746  21967865.8294   21967868.9824
 15  1 19  4 32 30.0000000  0  7G18G27G19G22G15G21G16
 -26695635.58447 -19695417.03946  21269955.6954   21269959.5164
 -27155682.17847 -21042557.39047  20728459.0214   20728464.8944
 -21482276.89446 -16621491.23046  22401849.0914   22401851.0834
 -28671414.28247 -22198198.26846  21697073.8084   21697075.9294
 -19031245.98746 -14752775.68246  23800495.2324   23800499.5224
 -13202955.48147 -10161900.74346  22285269.9094   22285272.9694
 -17622288.20947 -13642544.29046  21987215.1354   21987218.5584
 15  1 19  4 33  0.0000000  0  7G18G27G19G22G15G21G16
 -26662840.92947 -19669862.76346  21276196.6444   21276200.9224
 -27161548.78548 -21047128.78547  20727342.7924   20727348.5364
 -21533802.16346 -16661640.79646  22392043.7194   22392046.1574
 -28709604.01847 -22227956.42546  21689806.2244   21689808.8964
 -19004724.46346 -14732109.55346  23805542.5214   23805545.5214
 -13112163.08647 -10091153.42846  22302546.9994   22302550.2584
 -17520130.30047 -13562940.75746  22006655.0784   22006658.0204
 15  1 19  4 33 30.0000000  0  7G18G27G19G22G15G21G16
 -26629545.20547 -19643918.02746  21282532.5194   21282536.2704
 -27166975.98748 -21051357.78947  20726310.1364   20726315.7044
 -21585058.56546 -16701580.84046  22382290.2754   22382293.0534
 -28747388.54847 -22257398.88046  21682616.0814   21682618.5664
 -18977616.53246 -14710986.48546  23810700.7834   23810705.0624
 -13021153.75247 -10020237.07546  22319865.6734   22319868.8614
 -17417497.76447 -13482967.36646  22026185.3004   22026188.6054
 15  1 19  4 34  0.0000000  0  8G18G04G27G19G22G15G21G16
 -26595750.47247 -19617584.45246  21288963.1034   21288967.1354
 -17342469.78043                  25251622.1864
 -27171963.83747 -21055244.43046  20725360.8224   20725366.5654
 -21636045.68346 -16741311.08246  22372587.8584   22372590.1914
 -28784767.64747 -22286525.40546  21675503.2694   21675505.2734
 -18949923.20146 -14689407.25746  23815970.3434   23815975.1024
 -12929931.00147  -9949154.41046  22337224.5524   22337227.7054
 -17314395.35947 -13402627.84246  22045805.2024   22045809.0004
 15  1 19  4 34 30.0000000  0  8G18G04G27G19G22G15G21G16
 -26561453.16647 -19590859.28046  21295489.7334   21295493.7894
 -17419545.56542                  25236953.2214
 -27176507.09247 -21058784.62747  20724496.3714   20724502.2914
 -21686758.06446 -16780827.23746  22362937.7764   22362940.1324
 -28821735.92447 -22315331.82546  21668468.2194   21668470.3414
 -18921640.22446 -14667368.57546  23821352.3984   23821355.7744
 -12838491.16547  -9877902.60146  22354625.2454   22354628.5394
 -17210820.34547 -13321920.06646  22065514.7604   22065518.6054
 15  1 19  4 35  0.0000000  0  8G18G04G27G19G22G15G21G16
 -26526653.06847 -19563742.30546  21302111.8674   21302115.7474
 -17496562.90243                  25222298.8784
 -27180603.66047 -21061976.76547  20723716.6554   20723722.5744
 -21737193.09146 -16820127.26446  22353339.8724   22353342.4984
 -28858290.93347 -22343816.18046  21661512.1364   21661514.2464
 -18892766.36846 -14644869.47446  23826847.2844   23826850.6364
 -12746834.33047  -9806481.70746  22372066.6144   22372069.9784
 -17106774.39847 -13240845.32946  22085314.0674   22085317.3494
 15  1 19  4 35 30.0000000  0  7G18G27G19G22G15G21G16
 -26491354.25247 -19536236.72746  21308829.2774   21308833.2514
 -27184255.83247 -21064822.61447  20723021.7474   20723027.7374
 -21787352.64646 -16859212.62446  22343794.9444   22343797.2774
 -28894434.98647 -22371980.33546  21654633.9744   21654636.2954
 -18863305.14346 -14621912.63846  23832453.7244   23832456.7844
 -12654965.22747  -9734895.40946  22389549.0224   22389552.3984
 -17002264.17947 -13159408.81246  22105201.8854   22105205.0744
 15  1 19  4 36  0.0000000  0  7G18G27G19G22G15G21G16
 -26455557.50547 -19508343.15146  21315641.4724   21315645.0824
 -27187462.36347 -21067321.23647  20722411.4874   20722417.2784
 -21837234.89746 -16898081.91046  22334302.8044   22334305.0204
 -28930166.61747 -22399823.13646  21647834.4484   21647836.6174
 -18833256.13546 -14598497.80946  23838171.7634   23838174.7994
 -12562884.86947  -9663144.48346  22407071.2794   22407074.1634
 -16897292.61746 -13077612.78146  22125177.0094   22125180.0454
 15  1 19  4 36 30.0000000  0  7G18G27G19G22G15G21G16
 -26419262.54147 -19480061.34046  21322548.0014   21322551.3414
 -27190221.15847 -21069470.92846  20721886.3274   20721892.2474
 -21886837.41646 -16936733.25046  22324863.9024   22324865.9654
 -28965483.46447 -22427342.73346  21641113.8474   21641115.6644
 -18802618.26746 -14574624.13746  23844001.6984   23844005.3324
 -12470593.32447  -9591228.98746  22424633.6624   22424636.8274
 -16791860.74147 -12995458.05246  22145240.0044   22145243.2864
 15  1 19  4 37  0.0000000  0  7G18G27G19G22G15G21G16
 -26382468.90047 -19451390.95746  21329549.2644   21329553.2264
 -27192529.74147 -21071269.83547  20721447.3794   20721453.3574
 -21936157.29046 -16975164.32946  22315478.5034   22315481.2344
 -29000382.65047 -22454536.80746  21634472.6694   21634474.9784
 -18771390.27446 -14550290.62446  23849943.7834   23849948.2144
 -12378090.39147  -9519148.80346  22442236.3724   22442239.6544
 -16685970.08547 -12912945.84146  22165390.1914   22165393.5914
 15  1 19  4 37 30.0000000  0  7G18G27G19G22G15G21G16
 -26345177.01747 -19422332.34646  21336645.7984   21336649.9954
 -27194386.50647 -21072716.65347  20721093.8674   20721099.8454
 -21985192.59746 -17013373.65346  22306146.9074   22306150.2954
 -29034862.66047 -22481404.31846  21627911.3174   21627913.3334
 -18739571.42746 -14525496.74146  23855998.9964   23856002.3364
 -12285376.58047  -9446904.29246  22459879.5954   22459882.8074
 -16579622.89447 -12830077.88346  22185627.5604   22185631.1474
 15  1 19  4 38  0.0000000  0  7G18G27G19G22G15G21G16
 -26307388.68347 -19392886.88146  21343836.4904   21343840.6284
 -27195791.63648 -21073811.57547  20720826.4994   20720832.3254
 -22033942.95346 -17051360.93046  22296870.2274   22296873.1114
 -29068923.68747 -22507945.32546  21621429.6604   21621432.2504
 -18707162.95646 -14500243.38346  23862166.2724   23862169.0394
 -12192454.12147  -9374497.19346  22477561.7814   22477565.4394
 -16472823.25046 -12746857.35646  22205950.9784   22205954.9404
 15  1 19  4 38 30.0000000  0  7G18G27G19G22G15G21G16
 -26269104.24947 -19363054.84446  21351122.1914   21351126.1644
 -27196743.65947 -21074553.42047  20720645.1644   20720651.2834
 -22082406.18346 -17089124.47946  22287648.2824   22287650.9904
 -29102563.83747 -22534158.39946  21615028.1904   21615030.5574
 -18674164.44546 -14474530.21546  23868445.3094   23868447.8414
 -12099324.05647  -9301928.32846  22495283.8804   22495287.1044
 -16365573.56547 -12663286.15846  22226360.1664   22226363.8234
 15  1 19  4 39  0.0000000  0  7G18G27G19G22G15G21G16
 -26230322.61047 -19332835.37246  21358501.7064   21358505.5634
 -27197239.22447 -21074939.55147  20720551.0014   20720557.0154
 -22130578.79846 -17126661.59546  22278481.4444   22278483.9884
 -29135779.31047 -22560040.53746  21608707.5754   21608709.6504
 -18640573.76246 -14448355.63846  23874837.4444   23874840.1994
 -12005985.13347  -9229196.70746  22513045.8254   22513048.9784
 -16257874.23747 -12579364.59446  22246854.7064   22246858.5164
 15  1 19  4 39 30.0000000  0  7G18G27G19G22G15G21G16
 -26191045.86047 -19302230.10446  21365975.6394   21365979.3554
 -27197278.56148 -21074970.20847  20720543.6094   20720549.5994
 -22178460.37346 -17163971.91246  22269369.6964   22269372.6384
 -29168570.71347 -22585592.27146  21602467.4024   21602469.5594
 -18606392.20646 -14421720.63146  23881342.1064   23881346.1274
 -11912439.79047  -9156304.25246  22530847.0174   22530849.7134
 -16149729.41546 -12495095.89546  22267433.8264   22267437.7424
 15  1 19  4 40  0.0000000  0  7G18G27G19G22G15G21G16
 -26151272.84347 -19271238.12946  21373544.2924   21373548.4074
 -27196858.70547 -21074643.03047  20720623.3554   20720629.3804
 -22226047.39746 -17201052.71346  22260314.1134   22260317.0904
 -29200934.75247 -22610810.97746  21596308.9354   21596310.6474
 -18571617.95546 -14394623.81446  23887959.7824   23887963.3464
 -11818687.26446  -9083250.36346  22548687.2654   22548690.6534
 -16041140.03246 -12410480.78246  22288097.1684   22288101.1074
 15  1 19  4 40 30.0000000  0  7G18G27G19G22G15G21G16
 -26111006.38947 -19239861.66746  21381206.8674   21381211.2284
 -27195980.45547 -21073958.67347  20720790.2474   20720796.0974
 -22273340.11746 -17237904.18046  22251314.5644   22251317.0844
 -29232871.93747 -22635697.08746  21590231.3004   21590233.3394
 -18536252.86346 -14367066.62146  23894689.3164   23894692.8914
 -11724730.08947  -9010036.99446  22566566.9404   22566569.8124
 -15932110.04046 -12325522.34746  22308845.0884   22308849.6124
 15  1 19  4 41  0.0000000  0  7G18G27G19G22G15G21G16
 -26070243.99947 -19208098.75546  21388963.8604   21388967.6934
 -27194639.45447 -21072913.72747  20721045.6444   20721051.6114
 -22320333.48846 -17274522.41046  22242372.1764   22242374.3684
 -29264377.39347 -22660246.77046  21584236.0774   21584237.8704
 -18500293.86746 -14339046.61246  23901532.2854   23901534.8994
 -11630566.42347  -8936662.72646  22584485.7354   22584488.5484
 -15822639.53346 -12240220.65146  22329676.7574   22329681.2464
 15  1 19  4 41 30.0000000  0  7G18G27G19G22G15G21G16
 -26028989.62347 -19175952.47046  21396814.2364   21396818.1164
 -27192837.62248 -21071509.70947  20721388.7384   20721394.7864
 -22367029.10446 -17310908.61046  22233486.0164   22233488.5724
 -29295453.48747 -22684461.87046  21578322.4564   21578324.4494
 -18463744.12646 -14310566.28346  23908487.1734   23908490.2564
 -11536200.27246  -8863130.65846  22602442.8734   22602445.7224
 -15712734.18246 -12154580.11946  22350590.6074   22350594.7224
 15  1 19  4 42  0.0000000  0  7G18G27G19G22G15G21G16
 -25987241.25947 -19143421.26046  21404758.9464   21404763.0374
 -27190570.99047 -21069743.52147  20721819.9554   20721825.8164
 -22413422.22146 -17347059.10146  22224657.8444   22224660.4934
 -29326096.20247 -22708339.27146  21572491.2354   21572493.6154
 -18426600.53346 -14281623.19146  23915555.5344   23915558.4534
 -11441629.85346  -8789439.44746  22620438.7104   22620442.4854
 -15602394.12646 -12068600.85946  22371588.0954   22371592.2334
 15  1 19  4 42 30.0000000  0  7G18G27G19G22G15G21G16
 -25944999.48647 -19110505.58846  21412797.1344   21412801.3304
 -27187838.03247 -21067613.93847  20722339.9444   20722345.8994
 -22459511.23746 -17382972.61746  22215887.5294   22215891.1394
 -29356303.65547 -22731877.53046  21566742.9244   21566744.9994
 -18388863.29246 -14252217.53946  23922736.3864   23922739.4454
 -11346855.69746  -8715589.46846  22638473.7984   22638477.5494
 -15491621.39946 -11982284.44446  22392667.4854   22392671.3534
 15  1 19  4 43  0.0000000  0  7G18G27G19G22G15G21G16
 -25902265.51447 -19077206.37746  21420929.0534   21420932.6514
 -27184638.15247 -21065120.52947  20722948.6374   20722954.6044
 -22505294.68446 -17418648.02246  22207175.1414   22207178.6934
 -29386075.13147 -22755076.09446  21561077.6404   21561080.2784
 -18350532.79446 -14222349.60446  23930030.3024   23930033.3734
 -11251878.99847  -8641581.66346  22656547.4104   22656550.8444
 -15380419.14746 -11895633.33146  22413828.5394   22413832.9354
 15  1 19  4 43 30.0000000  0  7G18G27G19G22G15G21G16
 -25859041.24047 -19043525.11146  21429154.2124   21429158.3144
 -27180971.31448 -21062263.25447  20723646.8474   20723652.7664
 -22550771.54346 -17454084.54546  22198521.5324   22198524.2754
 -29415410.07047 -22777934.46346  21555495.4184   21555498.0444
 -18311610.17746 -14192020.29046  23937437.3024   23937441.1704
 -11156702.45647  -8567418.11646  22674658.8374   22674661.6394
 -15268791.52546 -11808650.78246  22435070.4674   22435073.7734
 15  1 19  4 44  0.0000000  0  7G18G27G19G22G15G21G16
 -25815324.34747 -19009459.99346  21437473.2094   21437477.3004
 -27176833.27647 -21059038.80947  20724434.1004   20724440.1724
 -22595937.62846 -17489278.92746  22189926.7144   22189929.3864
 -29444304.43947 -22800449.54446  21549996.8094   21549999.3534
 -18272092.14346 -14161227.02146  23944957.1094   23944961.2824
 -11061323.41246  -8493096.80246  22692809.0834   22692812.7054
 -15156738.07646 -11721336.41146  22456393.4484   22456397.3634
 15  1 19  4 44 30.0000000  0  7G18G27G19G22G15G21G16
 -27346537.18647 -20202612.84846  21146093.3504   21146097.1014
 -28747645.43348 -22283048.27647  20425518.3624   20425524.4104
 -24216215.07246 -18751832.78446  21881597.9134   21881600.6914
 -31048180.55747 -24050223.13846  21244789.4744   21244791.8544
 -19807400.85146 -15357571.46246  23652798.2614   23652801.0394
 -12541162.41047  -9646218.12946  22411205.1794   22411208.5794
 -16619680.39446 -12861291.47946  22178004.9844   22178008.7584
 15  1 19  4 45  0.0000000  0  7G18G27G19G22G15G21G16
 -27301842.45547 -20167785.76546  21154598.2754   21154602.3774
 -28742566.01148 -22279090.29947  20426485.0574   20426490.9654
 -24260757.67746 -18786541.30146  21873121.7374   21873124.0814
 -31076194.44247 -24072052.14546  21239458.5084   21239461.5204
 -19766697.77146 -15325854.74646  23660543.7664   23660546.9544
 -12445385.45446  -9571586.74546  22429430.8654   22429433.7144
 -16506787.75146 -12773323.20446  22199487.4694   22199491.6544
 15  1 19  4 45 30.0000000  0  7G18G27G19G22G15G21G16
 -27256660.35347 -20132578.92846  21163196.2614   21163200.2004
 -28737014.56248 -22274764.50947  20427541.7274   20427547.6704
 -24304986.65846 -18821005.44246  21864705.6344   21864707.5684
 -31103766.24447 -24093536.66246  21234211.8104   21234214.0614
 -19725402.18746 -15293676.35446  23668401.6274   23668405.0154
 -12349411.28346  -9496801.70546  22447694.1034   22447697.2574
 -16393479.76546 -12685031.27846  22221049.2644   22221053.4374
 15  1 19  4 46  0.0000000  0  7G18G27G19G22G15G21G16
 -27210991.27547 -20096992.62646  21171886.7524   21171890.2924
 -28730989.21248 -22270069.45647  20428688.2634   20428694.0064
 -24348899.26846 -18855223.07946  21856349.1134   21856351.3054
 -31130894.02147 -24114675.18946  21229049.6044   21229051.7144
 -19683514.48046 -15261036.59846  23676372.2074   23676375.5014
 -12253240.27046  -9421863.29246  22465994.9124   22465998.1364
 -16279758.61946 -12596417.41146  22242689.7334   22242693.8124
 15  1 19  4 46 30.0000000  0  7G18G27G19G22G15G21G16
 -27164837.50947 -20061028.64246  21180669.7014   21180673.7814
 -28724490.37548 -22265005.43847  20429925.1674   20429931.1924
 -24392495.64646 -18889194.27746  21848052.5934   21848055.3484
 -31157578.52647 -24135468.31246  21223971.8164   21223974.3134
 -19641036.03246 -15227936.48146  23684455.5274   23684460.1114
 -12156875.06646  -9346773.54746  22484332.4854   22484335.8494
 -16165628.84646 -12507485.12746  22264407.8624   22264411.5894
 15  1 19  4 47  0.0000000  0  7G18G27G19G22G15G21G16
 -27118196.21847 -20024684.76646  21189545.0304   21189548.6054
 -28717513.35548 -22259568.81247  20431252.5064   20431258.3914
 -24435769.95746 -18922914.49946  21839817.7764   21839820.2144
 -31183814.75647 -24155912.12646  21218979.0414   21218981.1624
 -19597963.46246 -15194373.44446  23692652.4624   23692657.2684
 -12060312.59046  -9271530.07946  22502707.9274   22502711.4674
 -16051089.45046 -12418233.67846  22286203.7484   22286207.3944
 15  1 19  4 47 30.0000000  0  8G18G04G27G19G22G15G21G16
 -27071071.60047 -19987964.27346  21198512.5064   21198516.7854
 -18915069.49241                  24560149.3094
 -28710060.39448 -22253761.31247  20432670.7924   20432676.8294
 -24478724.06146 -18956385.22146  21831644.1364   21831646.5634
 -31209604.89747 -24176008.34046  21214071.4494   21214073.8174
 -19554300.21646 -15160350.15046  23700961.4964   23700964.7554
 -11963557.18346  -9196136.28246  22521119.4704   22521123.3854
 -15936146.22446 -12328667.55846  22308077.3464   22308081.4024
 15  1 19  4 48  0.0000000  0  8G18G04G27G19G22G15G21G16
 -27023464.17447 -19950867.57146  21207572.0354   21207575.7744
 -18990259.29142                  24545841.7844
 -28702129.69348 -22247581.55447  20434180.0464   20434186.0484
 -24521355.43146 -18989604.47146  21823531.5314   21823534.0634
 -31234946.99947 -24195755.43646  21209248.8404   21209251.3484
 -19510046.12446 -15125866.42946  23709382.4694   23709385.5874
 -11866609.27946  -9120592.45846  22539567.8294   22539571.5344
 -15820801.44646 -12238788.53046  22330026.7394   22330030.4194
 15  1 19  4 48 30.0000000  0  8G18G04G27G19G22G15G21G16
 -26975371.31047 -19913392.60646  21216723.5374   21216727.4294
 -19065361.82142 -14733148.06844  24531550.1964   24531557.1944
 -28693716.78148 -22241026.05447  20435780.6384   20435786.7224
 -24563658.72346 -19022568.06746  21815481.0214   21815484.1974
 -31259836.67347 -24215149.99646  21204512.8264   21204514.8304
 -19465198.04746 -15090919.88246  23717916.8264   23717919.9444
 -11769466.01546  -9044896.42246  22558054.0124   22558057.2474
 -15705054.42746 -12148596.07546  22352052.5474   22352056.2864
 15  1 19  4 49  0.0000000  0  8G18G04G27G19G22G15G21G16
 -26926796.11747 -19875541.78646  21225967.1094   21225971.0824
 -19140377.73043 -14791601.97444  24517275.9574   24517276.2154
 -28684822.03548 -22234095.07747  20437473.5364   20437479.5374
 -24605633.86346 -19055275.96446  21807493.8014   21807496.4274
 -31284273.97447 -24234192.03846  21199862.3874   21199864.8724
 -19419757.77446 -15055511.84446  23726563.6494   23726567.0134
 -11672129.93946  -8969050.14446  22576576.3674   22576579.8254
 -15588909.68646 -12058093.70746  22374154.4074   22374158.2644
 15  1 19  4 49 30.0000000  0  8G18G04G27G19G22G15G21G16
 -26877740.00447 -19837316.24846  21235302.3664   21235306.1524
 -19215307.50543 -14849988.86743  24503015.9874   24503013.8194
 -28675445.93948 -22226789.02347  20439257.7114   20439263.6074
 -24647280.39946 -19087727.81546  21799568.9904   21799571.5924
 -31308259.17947 -24252881.81446  21195298.3044   21195300.4384
 -19373727.08446 -15019643.78746  23735323.0294   23735326.5224
 -11574603.18746  -8893055.28146  22595135.3894   22595138.4964
 -15472371.25346 -11967284.58346  22396330.8564   22396334.4434
 15  1 19  4 50  0.0000000  0  8G18G04G27G19G22G15G21G16
 -26828203.69147 -19798716.51546  21244728.8924   21244732.1984
 -19290149.08441                  24488772.4314
 -28665586.48348 -22219106.34147  20441134.2244   20441140.1444
 -24688595.72346 -19119921.56146  21791706.5874   21791709.4244
 -31331790.27847 -24271217.73646  21190820.2684   21190822.0384
 -19327105.64846 -14983315.37246  23744194.9364   23744198.0074
 -11476885.69546  -8816911.79046  22613730.3824   22613733.5124
 -15355441.11846 -11876170.22146  22418581.8994   22418585.5454
 15  1 19  4 50 30.0000000  0  8G18G04G27G19G22G15G21G16
 -26778185.60547 -19759741.37146  21254246.9404   21254250.4454
 -19364899.49142                  24474550.5364
 -28655240.43248 -22211044.46647  20443102.4594   20443108.3434
 -24729575.71646 -19151854.02946  21783908.7144   21783911.6454
 -31354863.98047 -24289197.23646  21186429.4724   21186431.7114
 -19279891.53846 -14946525.16746  23753179.3444   23753182.2974
 -11378976.15746  -8740618.66546  22632361.8484   22632364.5914
 -15238119.91446 -11784751.16146  22440907.6664   22440910.9134
 15  1 19  4 51  0.0000000  0  8G18G04G27G19G22G15G21G16
 -26727687.71247 -19720392.35846  21263856.1944   21263860.1564
 -19439558.22442 -14754460.59845  24460341.8134   24460347.3464
 -28644407.35448 -22202603.10647  20445164.2564   20445170.1754
 -24770219.33046 -19183524.38346  21776174.2924   21776176.9064
 -31377479.77247 -24306819.93146  21182125.9334   21182128.1844
 -19232085.91246 -14909274.02846  23762276.5594   23762279.9584
 -11280876.14346  -8664177.11846  22651030.0274   22651033.4384
 -15120411.05746 -11693030.00746  22463306.7924   22463310.0634
 15  1 19  4 51 30.0000000  0  8G18G04G27G19G22G15G21G16
 -26676708.75047 -19680668.48246  21273557.1044   21273561.2194
 -19514122.17142 -14812562.29344  24446152.6184   24446158.3744
 -28633084.20248 -22193779.89047  20447318.9604   20447324.6574
 -24810522.81846 -19214929.69446  21768504.5044   21768507.2594
 -31399634.61147 -24324083.44046  21177909.8264   21177911.5494
 -19183687.00246 -14871560.59646  23771486.7944   23771490.1004
 -11182584.68846  -8587586.39346  22669733.9164   22669737.6684
 -15002315.38046 -11601007.44546  22485779.5024   22485783.7104
 15  1 19  4 52  0.0000000  0  8G18G04G27G19G22G15G21G16
 -26625252.87247 -19640572.97946  21283348.9904   21283353.1984
 -19588593.64443 -14870592.03744  24431982.5334   24431983.8114
 -28621272.95448 -22184576.30547  20449566.3984   20449572.4344
 -24850487.26646 -19246070.79846  21760899.6134   21760902.6264
 -31421330.33247 -24340989.21046  21173781.3654   21173783.1354
 -19134698.45746 -14833387.68146  23780808.8864   23780812.1094
 -11084105.54046  -8510849.40546  22688473.7854   22688477.4184
 -14883838.55346 -11508687.89046  22508324.8984   22508329.5634
 15  1 19  4 52 30.0000000  0  8G18G04G27G19G22G15G21G16
 -26573321.56147 -19600107.01746  21293231.0774   21293235.0164
 -19662971.93643                  24417828.2094
 -28608972.98548 -22174991.92947  20451907.1154   20451913.0234
 -24890111.06946 -19276946.50046  21753359.6104   21753362.5764
 -31442566.21347 -24357536.64546  21169740.5744   21169742.2854
 -19085120.97446 -14794755.86746  23790243.1484   23790246.9584
 -10985440.16746  -8433967.32446  22707249.4654   22707252.9704
 -14764983.83646 -11416073.83346  22530941.9384   22530946.6974
 15  1 19  4 53  0.0000000  0  8G18G04G27G19G22G15G21G16
 -26520913.96447 -19559269.92446  21303204.3334   21303207.9794
 -19737254.05643                  24403693.2204
 -28596181.49048 -22165024.52047  20454341.4334   20454347.4354
 -24929390.95346 -19307554.20646  21745885.1814   21745887.8184
 -31463339.30547 -24373723.48146  21165787.4894   21165789.9624
 -19034953.54646 -14755664.35946  23799789.1224   23799793.5064
 -10886587.15946  -8356939.00146  22726060.1094   22726063.3444
 -14645752.86946 -11323166.61746  22553630.9144   22553634.8064
 15  1 19  4 53 30.0000000  0  8G18G04G27G19G22G15G21G16
 -26468031.77847 -19518063.02046  21313267.3034   21313271.3114
 -19811439.98543                  24389575.1704
 -28582898.16748 -22154673.89047  20456868.7444   20456874.6994
 -24968325.67246 -19337892.95246  21738475.9774   21738478.6964
 -31483649.31447 -24389549.47746  21161922.3934   21161924.4454
 -18984197.23346 -14716113.98846  23809448.3834   23809451.7834
 -10787548.15046  -8279765.76546  22744906.7824   22744910.4284
 -14526148.46246 -11229968.41846  22576390.9514   22576394.6204
 15  1 19  4 54  0.0000000  0  8G18G04G27G19G22G15G21G16
 -26414674.89847 -19476486.21946  21323420.6644   21323424.0164
 -19885527.16643                  24375478.7184
 -28569120.66948 -22143938.17747  20459490.5304   20459496.5204
 -25006912.01646 -19367960.21446  21731132.7824   21731135.7364
 -31503493.76947 -24405012.66646  21158146.1854   21158148.4944
 -18932851.38346 -14676104.21746  23819219.0344   23819222.1174
 -10688322.28946  -8202446.93346  22763788.8624   22763792.6254
 -14406171.89646 -11136480.21346  22599221.8504   22599225.2854
 15  1 19  4 54 30.0000000  0  8G18G04G27G19G22G15G21G16
 -26360841.89347 -19434538.41446  21333664.7874   21333668.3744
 -19959512.18143                  24361398.7944
 -28554845.58748 -22132814.76047  20462207.1644   20462213.1894
 -25045145.99346 -19397752.91746  21723857.4534   21723860.1614
 -31522869.40547 -24420110.56346  21154459.2964   21154461.5234
 -18880913.88846 -14635633.47346  23829102.1844   23829105.2324
 -10588908.51546  -8124981.66946  22782706.9084   22782710.0734
 -14285824.17246 -11042702.79046  22622123.4934   22622128.5574
 15  1 19  4 55  0.0000000  0  8G18G04G27G19G22G15G21G16
 -26306539.08847 -19392224.54146  21343998.1884   21344001.9044
 -20033399.39742                  24347336.9694
 -28540077.30848 -22121307.00447  20465017.5414   20465023.4494
 -25083030.88246 -19427273.61446  21716648.3114   21716650.7964
 -31541780.28947 -24434846.31246  21150860.4154   21150862.4784
 -18828390.64746 -14594706.25546  23839097.1494   23839101.8264
 -10489312.84346  -8047374.67946  22801659.5594   22801663.0754
 -14165113.13146 -10948642.24446  22645093.7974   22645099.9054
 15  1 19  4 55 30.0000000  0  8G18G04G27G19G22G15G21G16
 -26251767.08247 -19349545.04546  21354420.8664   21354424.9224
 -20107186.76942 -14738859.97444  24333296.4984   24333303.6024
 -28524814.04448 -22109413.56147  20467922.1824   20467928.2434
 -25120563.89546 -19456520.11646  21709505.8344   21709508.4014
 -31560224.58947 -24449218.49246  21147350.7404   21147352.9914
 -18775281.78046 -14553322.70846  23849203.3424   23849207.5974
 -10389535.65346  -7969626.24046  22820646.1494   22820649.9004
 -14044041.26946 -10854300.57746  22668133.3844   22668137.5104
 15  1 19  4 56  0.0000000  0  8G18G04G27G19G22G15G21G16
 -26196524.63447 -19306498.97646  21364933.0254   21364936.9874
 -20180871.58542 -14796276.72343  24319276.9574   24319284.2604
 -28509052.92248 -22097132.16947  20470921.4094   20470927.3764
 -25157741.64546 -19485489.79346  21702431.3804   21702433.9124
 -31578199.63947 -24463225.02146  21143930.1364   21143932.3874
 -18721585.96546 -14511481.84246  23859421.2694   23859423.5434
 -10289575.47446  -7891735.20346  22839667.9934   22839671.4044
 -13922608.91946 -10759677.97746  22691241.1024   22691244.5834
 15  1 19  4 56 30.0000000  0  8G18G04G27G19G22G15G21G16
 -26140815.09247 -19263088.94446  21375534.6364   21375538.3874
 -20254454.76042                  24305273.0204
 -28492794.88548 -22084463.59347  20474015.2194   20474021.0104
 -25194564.18846 -19514182.67746  21695424.0334   21695427.1984
 -31595706.16747 -24476866.46346  21140598.8404   21140600.8214
 -18667305.70946 -14469185.52646  23869750.4654   23869754.0524
 -10189434.94946  -7813703.65946  22858724.2214   22858727.5974
 -13800821.26146 -10664778.53546  22714416.4444   22714420.5944
 15  1 19  4 57  0.0000000  0  8G18G04G27G19G22G15G21G16
 -26084636.58947 -19219313.47846  21386225.0824   21386228.5754
 -20327932.25843                  24291290.3134
 -28476036.06148 -22071404.77647  20477204.2094   20477210.1994
 -25231026.68046 -19542594.99846  21688485.0814   21688488.7274
 -31612740.30047 -24490139.82546  21137357.3604   21137359.6464
 -18612438.87346 -14426432.14846  23880190.9814   23880195.1074
 -10089111.98346  -7735529.93046  22877815.1694   22877818.9204
 -13678678.09046 -10569602.11346  22737659.6584   22737663.9834
