     2.11           OBSERVATION DATA    G (GPS)             RINEX VERSION / TYPE
teqc  2013Mar15                         20150120 00:41:41UTCPGM / RUN BY / DATE
Automatic           ASI - Telespazio                        OBSERVER / AGENCY
22774               TRIMBLE 4000SSI     Nav 7.29 Sig 3.07   REC # / TYPE / VERS
27655               TRM29659.00     NONE                    ANT # / TYPE
Linux2.4.20-8|i386|gcc|Win32-MinGW32|=                      COMMENT
     2              OBSERVATION DATA                        COMMENT
DAT2RIN 2.51 TRS    ASI - Telespazio    19JAN15 23:59:47 GMTCOMMENT
----------------------------------------------------------- COMMENT
Offset from BOTTOM OF ANTENNA to PHASE CENTER is 110.0 mm   COMMENT
----------------------------------------------------------- COMMENT
MEDI                                                        MARKER NAME
12711M003                                                   MARKER NUMBER
  4461405.3327   919593.3197  4449500.2118                  APPROX POSITION XYZ
        0.0000        0.0000        0.0000                  ANTENNA: DELTA H/E/N
*** Above antenna height is from mark to BOTTOM OF ANTENNA. COMMENT
     1     1                                                WAVELENGTH FACT L1/2
     5    L1    C1    L2    P2    D1                        # / TYPES OF OBSERV
    30.0000                                                 INTERVAL
  2015     1    19     0     0    0.0000000     GPS         TIME OF FIRST OBS
                                                            END OF HEADER
 15  1 19  0  0  0.0000000  0  8G02G05G12G14G21G25G29G31
  -6610518.527 5  23588190.271 5   2307791.15146  23588187.39146     -2150.842
   -286651.256 3  25423816.573 3    -97889.97244  25423815.50544      2276.862
 -11662854.869 6  23151401.598 6  -8581397.78046  23151401.44446     -2705.659
    337371.571 3  24605798.019 3   4893847.43844  24605795.49444     -2867.851
  -2570478.119 4  24378759.161 4  -1810898.38545  24378764.24145      3266.518
 -24169369.907 8  20814734.695 8 -18275611.17047  20814738.18447      -993.320
 -25906254.648 7  20335987.571 7 -19832411.52948  20335987.76048        82.539
 -18626712.492 7  21728674.117 7 -14190890.80447  21728673.52047      1369.665
 15  1 19  0  0 30.0000000  0  8G02G05G12G14G21G25G29G31
  -6545801.683 5  23600505.439 5   2358219.86445  23600503.58745     -2163.606
   -354837.152 4  25410841.282 4   -151021.89145  25410841.43945      2268.810
 -11581595.752 6  23166864.710 6  -8518079.00746  23166865.78046     -2711.615
    423471.410 3  24622182.392 3   4960938.15944  24622180.71544     -2872.117
  -2668420.638 4  24360121.284 4  -1887217.08845  24360123.61445      3262.972
 -24139394.911 8  20820438.744 8 -18252254.03347  20820442.09347     -1005.023
 -25908517.101 6  20335557.039 6 -19834174.47748  20335557.15748        68.286
 -18667549.196 7  21720903.161 7 -14222711.61847  21720902.88747      1352.761
 15  1 19  0  1  0.0000000  0  8G02G05G12G14G21G25G29G31
  -6480702.811 6  23612893.410 6   2408946.24046  23612892.47746     -2176.313
   -422780.303 4  25397912.106 4   -203964.54045  25397909.89745      2260.673
 -11500157.872 6  23182361.805 6  -8454620.95946  23182362.18746     -2717.572
    509697.563 3  24638590.605 3   5028127.27543  24638595.41443     -2876.264
  -2766254.973 4  24341504.010 4  -1963451.66145  24341503.13145      3259.310
 -24109068.469 8  20826209.678 8 -18228623.04447  20826213.13947     -1016.744
 -25910352.342 6  20335207.801 6 -19835604.53148  20335207.82748        54.063
 -18707878.252 7  21713228.796 7 -14254136.85347  21713228.35347      1335.809
 15  1 19  0  1 30.0000000  0  8G02G05G12G14G21G25G29G31
  -6415223.630 6  23625353.726 6   2459968.97246  23625351.42946     -2188.946
   -490477.887 4  25385029.758 4   -256715.87145  25385034.87045      2252.459
 -11418541.432 6  23197892.906 6  -8391023.74246  23197892.53046     -2723.521
    596046.838 3  24655022.335 3   5095412.36744  24655023.52844     -2880.345
  -2863978.753 4  24322907.744 4  -2039600.01545  24322909.13245      3255.567
 -24078390.534 8  20832047.499 8 -18204718.15647  20832050.83347     -1028.460
 -25911761.618 6  20334939.630 6 -19836702.67248  20334939.82248        39.880
 -18747697.730 7  21705651.398 7 -14285165.01247  21705651.27347      1318.789
 15  1 19  0  2  0.0000000  0  8G02G05G12G14G21G25G29G31
  -6349366.570 5  23637885.882 5   2511286.16646  23637884.73946     -2201.519
   -557927.237 4  25372194.618 4   -309273.80845  25372197.57145      2244.123
 -11336747.246 6  23213457.858 6  -8327288.03246  23213457.51846     -2729.442
    682516.212 3  24671476.874 3                                     -2884.272
  -2961589.634 4  24304333.049 4  -2115660.55845  24304332.86245      3251.814
 -24047361.021 8  20837952.228 8 -18180539.31447  20837955.43047     -1040.179
 -25912745.431 6  20334752.405 6 -19837469.28048  20334752.31148        25.714
 -18787006.076 7  21698171.261 7 -14315794.89747  21698170.85547      1301.731
 15  1 19  0  2 30.0000000  0  8G02G05G12G14G21G25G29G31
  -6283133.440 5  23650489.649 5   2562896.35846  23650488.18746     -2214.019
   -625125.129 4  25359407.264 4   -361635.92045  25359409.46045      2235.704
 -11254775.357 6  23229056.609 6  -8263413.85146  23229055.89446     -2735.355
    769102.641 4  24687953.698 4                                     -2888.140
  -3059085.772 4  24285780.083 4  -2191631.43745  24285780.41745      3247.932
 -24015979.866 8  20843923.878 8 -18156086.47947  20843927.31747     -1051.891
 -25913304.627 6  20334645.994 6 -19837905.01848  20334646.10348        11.573
 -18825801.682 7  21690788.705 7 -14346025.24847  21690788.80147      1284.625
 15  1 19  0  3  0.0000000  0  8G02G05G12G14G21G25G29G31
  -6216526.306 5  23663164.547 5   2614798.02346  23663163.71746     -2226.453
   -692068.404 5  25346668.435 5   -413799.52745  25346672.76245      2227.159
 -11172626.300 6  23244689.060 6  -8199401.62746  23244689.09146     -2741.244
    855803.057 3  24704452.233 3                                     -2891.878
  -3156464.818 3  24267249.372 3  -2267511.15645  24267252.11545      3243.982
 -23984247.046 8  20849962.436 8 -18131359.61747  20849965.69347     -1063.619
 -25913439.929 6  20334620.234 6 -19838010.44848  20334620.27148        -2.542
 -18864083.079 7  21683504.007 7 -14375854.90447  21683503.87747      1267.450
 15  1 19  0  3 30.0000000  0  8G02G05G12G14G21G25G29G31
  -6149546.952 6  23675910.403 6   2666989.72946  23675908.97746     -2238.827
   -758754.155 5  25333978.541 5   -465762.45445  25333976.83745      2218.552
 -11090301.059 6  23260355.071 6  -8135252.10346  23260354.62646     -2747.096
    942614.519 3  24720971.914 3                                     -2895.525
  -3253724.561 4  24248741.467 4  -2343297.95545  24248742.79945      3239.985
 -23952162.458 8  20856067.947 8 -18106358.65547  20856071.46247     -1075.356
 -25913152.182 7  20334674.988 7 -19837786.22448  20334675.26548       -16.626
 -18901848.301 7  21676317.523 7 -14405282.35047  21676317.34647      1250.227
 15  1 19  0  4  0.0000000  0  8G02G05G12G14G21G25G29G31
  -6082197.302 5  23688726.637 5   2719469.96146  23688724.13146     -2251.149
   -825179.630 5  25321338.216 5   -517522.55645  25321340.61045      2209.805
 -11007800.394 6  23276054.453 6  -8070965.88946  23276054.52446     -2752.971
   1029533.722 4  24737512.169 4                                     -2899.068
  -3350862.638 4  24230256.650 4  -2418989.95745  24230259.31645      3235.876
 -23919726.056 8  20862240.399 8 -18081083.54947  20862243.80247     -1087.076
 -25912442.428 7  20334810.046 7 -19837233.16348  20334810.27448       -30.691
 -18939096.377 7  21669229.451 7 -14434306.81947  21669229.04947      1232.959
 15  1 19  0  4 30.0000000  0  8G02G05G12G14G21G25G29G31
  -6014479.651 5  23701612.820 5   2772236.95546  23701610.63146     -2263.380
   -891342.122 5  25308747.915 5   -569077.82845  25308750.93845      2200.990
 -10925123.671 6  23291787.326 6  -8006542.47046  23291787.86746     -2758.815
   1116557.535 4  24754072.326 4                                     -2902.513
  -3447876.909 4  24211795.403 4  -2494585.45845  24211796.63745      3231.712
 -23886937.749 8  20868479.815 8 -18055534.23447  20868482.98947     -1098.810
 -25911311.626 6  20335025.245 6 -19836352.01048  20335025.40248       -44.704
 -18975825.292 7  21662240.181 7 -14462926.74947  21662239.93547      1215.639
 15  1 19  0  5  0.0000000  0  8G02G05G12G14G21G25G29G31
  -5946395.819 6  23714568.729 6   2825289.28346  23714567.87746     -2275.537
   -957238.096 5  25296208.346 5   -620425.28545  25296211.95445      2192.060
 -10842272.164 6  23307553.468 6  -7941982.87846  23307553.44246     -2764.631
   1203683.105 3  24770651.816 3     47528.31945  24770654.99745     -2905.844
  -3544765.061 4  24193358.232 4  -2570082.65945  24193358.01345      3227.509
 -23853797.557 8  20874786.199 8 -18029710.71547  20874789.52347     -1110.547
 -25909760.330 6  20335320.455 6 -19835143.21148  20335320.43048       -58.705
 -19012033.824 7  21655349.937 7 -14491141.19347  21655349.43247      1198.246
 15  1 19  0  5 30.0000000  0  8G02G05G12G14G21G25G29G31
  -5877947.956 5  23727593.912 5   2878625.27545  23727592.63745     -2287.636
  -1022864.826 5  25283720.070 5   -671563.03645  25283722.36145      2183.055
 -10759246.377 6  23323352.778 6  -7877287.47446  23323353.30546     -2770.400
   1290907.198 3  24787250.044 3    115494.99244  24787251.95644     -2909.060
  -3641525.241 5  24174945.415 5  -2645480.17845  24174946.59445      3223.165
 -23820305.431 8  20881159.543 8 -18003612.96647  20881162.79447     -1122.271
 -25907789.527 6  20335695.484 6 -19833607.52748  20335695.52248       -72.676
 -19047719.942 7  21648559.092 7 -14518948.55547  21648558.61247      1180.824
 15  1 19  0  6  0.0000000  0  8G02G05G12G14G21G25G29G31
  -5809137.859 6  23740688.130 6   2932243.51945  23740685.91545     -2299.669
  -1088219.760 5  25271283.418 5   -722488.98245  25271283.89445      2173.931
 -10676046.944 6  23339185.116 6  -7812456.76246  23339185.53146     -2776.205
   1378226.597 3  24803866.430 3    183536.13744  24803875.64344     -2912.201
  -3738154.884 5  24156557.464 5  -2720776.01545  24156556.32245      3218.773
 -23786461.297 8  20887599.871 8 -17977240.93047  20887603.04347     -1134.005
 -25905400.229 7  20336150.149 7 -19831745.73148  20336150.34048       -86.587
 -19082882.763 7  21641867.835 7 -14546348.15447  21641867.40747      1163.355
 15  1 19  0  6 30.0000000  0  8G02G05G12G14G21G25G29G31
  -5739967.595 5  23753850.794 5   2986142.44345  23753849.28845     -2311.649
  -1153299.679 5  25258899.130 5   -773200.58645  25258900.82945      2164.725
 -10592674.273 6  23355050.426 6  -7747491.07346  23355050.65346     -2781.964
   1465638.612 3  24820500.327 3                                     -2915.268
  -3834651.922 5  24138194.678 5  -2795968.48645  24138195.58945      3214.318
 -23752265.159 8  20894107.177 8 -17950594.59447  20894110.51847     -1145.744
 -25902593.555 7  20336684.239 7 -19829558.70048  20336684.34648      -100.518
 -19117520.675 7  21635276.460 7 -14573338.73147  21635276.00347      1145.823
 15  1 19  0  7  0.0000000  0  8G02G05G12G14G21G25G29G31
  -5670439.325 5  23767081.548 5   3040320.29545  23767078.22345     -2323.563
  -1218101.653 5  25246567.731 5   -823695.61945  25246567.66845      2155.422
 -10509128.974 6  23370948.585 6  -7682390.86446  23370948.71546     -2787.725
   1553139.874 2  24837151.230 2                                     -2918.173
  -3931013.994 5  24119857.542 5  -2871055.81445  24119857.49045      3209.802
 -23717717.000 8  20900681.477 8 -17923673.95747  20900684.69747     -1157.476
 -25899369.903 6  20337297.684 6 -19827046.76648  20337297.54248      -114.390
 -19151632.259 7  21628785.242 7 -14599919.18347  21628784.92147      1128.268
 15  1 19  0  7 30.0000000  0  8G02G05G12G14G21G25G29G31
  -5600555.100 6  23780380.142 6   3094775.55045  23780378.76945     -2335.374
  -1282622.920 4  25234289.704 4   -873971.95945  25234290.42545      2146.009
 -10425411.389 6  23386879.525 6  -7617156.41146  23386880.25046     -2793.450
   1640727.499 2  24853818.584 2                                     -2920.974
  -4027238.979 5  24101546.521 5  -2946036.26345  24101546.18245      3205.188
 -23682816.772 8  20907322.766 8 -17896478.97647  20907326.07047     -1169.212
 -25895730.401 6  20337990.267 6 -19824210.80048  20337990.44448      -128.245
 -19185216.038 7  21622394.462 7 -14626088.36147  21622394.23847      1110.645
 15  1 19  0  8  0.0000000  0  8G02G05G12G14G21G25G29G31
  -5530316.957 5  23793745.988 5   3149506.56845  23793743.75345     -2347.148
  -1346860.606 4  25222065.651 4   -924027.33145  25222068.09045      2136.494
 -10341522.155 6  23402843.130 6  -7551788.20546  23402844.40646     -2799.169
   1728398.439 2  24870501.771 2                                     -2923.725
  -4123324.695 5  24083261.999 5  -3020908.25745  24083262.06145      3200.527
 -23647564.491 8  20914031.051 8 -17869009.67447  20914034.37947     -1180.946
 -25891675.885 6  20338761.806 6 -19821051.43648  20338761.90748      -142.063
 -19218270.599 7  21616104.391 7 -14651845.15947  21616104.03047      1092.976
 15  1 19  0  8 30.0000000  0  8G02G05G12G14G21G25G29G31
  -5459726.829 5  23807178.802 5   3204511.87445  23807175.86845     -2358.844
  -1410812.044 3  25209896.032 3   -973859.56845  25209898.60345      2126.938
 -10257461.734 6  23418839.293 6  -7486286.60346  23418839.78946     -2804.857
   1816149.498 2  24887200.238 2     31914.64245  24887206.15445     -2926.307
  -4219268.930 5  24065004.382 5  -3095669.99445  24065004.93845      3195.764
 -23611960.158 8  20920806.328 8 -17841266.04647  20920809.67447     -1192.679
 -25887207.588 7  20339612.094 7 -19817569.64148  20339612.29248      -155.829
 -19250794.364 7  21609915.338 7 -14677188.34847  21609915.06747      1075.265
 15  1 19  0  9  0.0000000  0  8G02G05G12G14G21G25G29G31
  -5388786.784 5  23820678.211 5   3259789.81345  23820677.02045     -2370.487
  -1474473.723 3  25197781.649 3  -1023466.02445  25197782.23345      2117.181
 -10173230.818 5  23434867.914 5  -7420652.14646  23434868.70246     -2810.543
   1903977.528 1  24903913.391 1    100351.95244  24903911.64744     -2928.856
  -4315069.709 4  24046774.030 4  -3170319.91845  24046774.27245      3190.969
 -23576003.760 8  20927648.607 8 -17813248.08247  20927651.90947     -1204.416
 -25882326.405 6  20340540.961 6 -19813766.13048  20340540.99848      -169.567
 -19282786.268 7  21603827.492 7 -14702117.10147  21603826.96047      1057.511
 15  1 19  0  9 30.0000000  0  8G02G05G12G14G21G25G29G31
  -5317498.783 5  23834243.905 5   3315338.87045  23834243.22645     -2382.044
  -1537843.063 3  25185722.771 3  -1072844.71045  25185720.53245      2107.399
 -10088829.976 6  23450928.866 6  -7354885.30346  23450929.27846     -2816.181
   1991879.826 1  24920640.703 1    168847.20344  24920633.30244     -2931.272
  -4410724.293 4  24028571.562 4  -3244855.88945  24028573.28945      3186.025
 -23539695.289 8  20934557.886 8 -17784955.78847  20934561.33347     -1216.148
 -25877033.057 6  20341548.257 6 -19809641.44648  20341548.59548      -183.311
 -19314244.669 7  21597841.165 7 -14726630.13947  21597840.71447      1039.709
 15  1 19  0 10  0.0000000  0  8G02G05G12G14G21G25G29G31
  -5245865.166 5  23847875.377 5   3371157.28545  23847873.15545     -2393.526
  -1600917.263 3  25173720.151 3  -1121993.40145  25173721.59045      2097.518
 -10004260.057 6  23467022.002 6  -7288986.68846  23467021.97446     -2821.821
   2079853.210 1  24937381.532 1    237397.84343  24937378.75843     -2933.591
  -4506230.722 4  24010397.238 4  -3319276.49945  24010399.10545      3181.045
 -23503034.763 8  20941534.156 8 -17756389.14847  20941537.41447     -1227.878
 -25871328.337 6  20342633.830 6 -19805196.20148  20342633.93848      -197.006
 -19345168.459 8  21591956.573 8 -14750726.59747  21591956.26347      1021.860
 15  1 19  0 10 30.0000000  0  7G02G05G12G21G25G29G31
  -5173888.002 5  23861572.201 5   3427243.42945  23861568.93645     -2404.948
  -1663693.451 3  25161774.256 3  -1170909.91245  25161780.93045      2087.534
  -9919520.925 6  23483147.331 6  -7222956.24046  23483148.55746     -2827.456
  -4601586.984 4  23992251.533 4  -3393580.04345  23992252.01445      3176.041
 -23466022.189 8  20948577.422 8 -17727548.18747  20948580.67447     -1239.625
 -25865213.647 6  20343797.424 6 -19800431.51648  20343797.47248      -210.649
 -19375555.941 7  21586174.035 7 -14774405.15147  21586173.59347      1003.970
 15  1 19  0 11  0.0000000  0  7G02G05G12G21G25G29G31
  -5101569.225 5  23875333.956 5   3483595.72945  23875331.78245     -2416.284
  -1726168.495 2  25149885.694 2  -1219591.71445  25149890.90745      2077.462
  -9834613.448 6  23499304.705 6  -7156794.59746  23499304.29646     -2833.057
  -4696790.866 5  23974134.811 5  -3467764.85945  23974134.14045      3170.914
 -23428657.605 8  20955687.679 8 -17698432.93847  20955691.38647     -1251.351
 -25858689.750 6  20345038.876 6 -19795347.96748  20345039.07148      -224.272
 -19405406.130 7  21580493.740 7 -14797665.04247  21580493.51647       986.029
 15  1 19  0 11 30.0000000  0  7G02G05G12G21G25G29G31
  -5028910.972 5  23889160.396 5   3540212.54145  23889159.31045     -2427.582
  -1788339.677 2  25138054.859 2  -1268036.72245  25138055.42845      2067.288
  -9749538.038 6  23515494.049 6  -7090502.09846  23515494.09946     -2838.633
  -4791840.270 4  23956047.475 4  -3541829.33945  23956047.67845      3165.709
 -23390940.993 8  20962864.911 8 -17669043.36247  20962868.38747     -1263.084
 -25851757.509 7  20346358.022 7 -19789946.21448  20346358.24348      -237.877
 -19434717.634 7  21574915.949 7 -14820505.17547  21574915.32247       968.059
 15  1 19  0 12  0.0000000  0  7G02G05G12G21G25G29G31
  -4955915.243 5  23903051.028 5   3597092.33345  23903048.43945     -2438.808
  -1850204.234 3  25126282.358 3  -1316242.89845  25126285.83945      2057.013
  -9664295.576 6  23531715.187 6  -7024079.43646  23531716.05646     -2844.192
  -4886732.795 4  23937989.950 4  -3615771.57745  23937989.14845      3160.424
 -23352872.477 8  20970109.106 8 -17639379.60947  20970112.22647     -1274.821
 -25844418.408 6  20347754.607 6 -19784227.44148  20347754.65148      -251.413
 -19463489.234 7  21569440.890 7 -14842924.60847  21569440.37547       950.044
 15  1 19  0 12 30.0000000  0  8G02G05G12G14G21G25G29G31
  -4882584.027 5  23917005.461 5   3654233.54945  23917004.05045     -2449.938
  -1911759.431 3  25114568.771 3  -1364207.95245  25114568.82945      2046.667
  -9578886.500 6  23547968.024 6  -6957526.92146  23547968.72346     -2849.731
     52972.532 1  25021268.004 1                                     -2943.700
  -4981466.187 5  23919962.813 5  -3689589.76945  23919961.88245      3155.085
 -23314452.024 8  20977420.288 8 -17609441.60647  20977423.45347     -1286.547
 -25836672.806 6  20349228.529 6 -19778191.91448  20349228.68548      -264.948
 -19491719.630 7  21564068.810 7 -14864922.31947  21564068.28647       931.967
 15  1 19  0 13  0.0000000  0  8G02G05G12G14G21G25G29G31
  -4808919.656 5  23931023.298 5   3711634.34845  23931021.90945     -2461.000
  -1973002.653 2  25102914.564 2  -1411929.85745  25102915.77845      2036.232
  -9493311.341 6  23564252.475 6  -6890844.99146  23564254.19646     -2855.269
    141308.440 2  25038077.926 2                                     -2945.396
  -5076038.375 5  23901966.341 5  -3763282.35645  23901968.28445      3149.676
 -23275679.675 8  20984798.436 8 -17579229.39347  20984801.53647     -1298.273
 -25828521.904 7  20350779.591 7 -19771840.55748  20350779.84548      -278.433
 -19519407.371 7  21558800.014 7 -14886497.17747  21558799.43647       913.871
 15  1 19  0 13 30.0000000  0  8G02G05G12G14G21G25G29G31
  -4734924.217 5  23945104.126 5   3769293.11445  23945101.08945     -2472.021
  -2033930.628 3  25091320.339 3  -1459406.19145  25091322.09245      2025.645
  -9407570.509 6  23580568.467 6  -6824034.01646  23580569.15546     -2860.791
    229693.996 2  25054897.199 2     32141.58345  25054904.77545     -2946.984
  -5170447.416 5  23884000.935 5  -3836847.81345  23884001.50945      3144.244
 -23236555.511 8  20992243.533 8 -17548743.04447  20992246.75847     -1310.005
 -25819966.801 6  20352407.578 6 -19765174.24548  20352407.72248      -291.898
 -19546551.289 7  21553634.693 7 -14907648.27647  21553634.00647       895.711
 15  1 19  0 14  0.0000000  0  8G02G05G12G14G21G25G29G31
  -4660599.752 5  23959247.603 5   3827208.29945  23959244.41645     -2482.951
  -2094540.466 3  25079786.621 3  -1506634.66845  25079787.35845      2014.995
  -9321664.534 6  23596915.857 6  -6757094.31646  23596917.41846     -2866.262
    318126.849 2  25071725.391 2    101050.39845  25071727.61045     -2948.500
  -5264691.006 5  23866066.960 5  -3910284.37445  23866066.96945      3138.658
 -23197079.575 8  20999755.557 8 -17517982.58547  20999758.83747     -1321.723
 -25811008.544 6  20354112.281 6 -19758193.78048  20354112.33148      -305.321
 -19573150.563 7  21548573.002 7 -14928374.98647  21548572.43147       877.550
 15  1 19  0 14 30.0000000  0  8G02G05G12G14G21G25G29G31
  -4585948.583 5  23973453.330 5   3885378.04645  23973451.07645     -2493.802
  -2154829.616 4  25068314.045 4  -1553613.16945  25068311.52945      2004.263
  -9235594.762 6  23613294.432 6  -6690026.99546  23613296.65146     -2871.714
    406603.532 3  25088562.013 3    169993.23545  25088560.96845     -2949.903
  -5358766.874 5  23848164.944 5  -3983590.24345  23848167.03345      3133.036
 -23157251.876 8  21007334.521 8 -17486948.00647  21007337.95847     -1333.450
 -25801648.472 6  20355893.449 6 -19750900.21648  20355893.60648      -318.710
 -19599203.897 8  21543615.210 8 -14948676.28447  21543614.79247       859.322
 15  1 19  0 15  0.0000000  0  8G02G05G12G14G21G25G29G31
  -4510972.689 5  23987720.834 5   3943800.80245  23987719.74545     -2504.594
  -2214795.565 3  25056902.870 3  -1600339.93945  25056904.61645      1993.424
  -9149361.014 6  23629704.179 6  -6622831.88046  23629704.74746     -2877.192
    495121.031 3  25105406.396 3    238967.78445  25105408.22745     -2951.228
  -5452672.719 5  23830295.234 5  -4056763.61545  23830297.21345      3127.332
 -23117072.549 8  21014980.399 8 -17455639.43947  21014983.76847     -1345.185
 -25791886.716 7  20357751.049 7 -19743293.65448  20357751.11248      -332.055
 -19624709.977 7  21538761.556 7 -14968551.15547  21538761.18347       841.071
 15  1 19  0 15 30.0000000  0  8G02G05G12G14G21G25G29G31
  -4435674.127 5  24002049.650 5   4002475.01645  24002048.89145     -2515.312
  -2274434.977 4  25045553.912 4  -1646812.14345  25045555.76045      1982.519
  -9062963.622 6  23646145.098 6  -6555509.28946  23646145.96146     -2882.621
    583675.996 3  25122257.786 3    307971.66244  25122260.69844     -2952.435
  -5546406.858 5  23812458.186 5  -4129803.16545  23812457.86445      3121.582
 -23076541.671 8  21022693.179 8 -17424056.96047  21022696.75847     -1356.898
 -25781725.038 7  20359684.747 7 -19735375.46548  20359685.03548      -345.393
 -19649667.618 8  21534012.282 8 -14987998.67447  21534011.90247       822.764
 15  1 19  0 16  0.0000000  0  8G02G05G12G14G21G25G29G31
  -4360055.136 5  24016439.408 5   4061398.89845  24016436.64245     -2525.955
  -2333745.129 5  25034267.578 5  -1693027.83145  25034266.97645      1971.495
  -8976403.948 6  23662616.864 6  -6488060.21045  23662616.65245     -2888.015
    672265.702 3  25139115.852 3    377002.52945  25139117.77745     -2953.532
  -5639966.589 5  23794654.376 5  -4202706.85045  23794656.98045      3115.735
 -23035659.290 8  21030472.834 8 -17392200.56647  21030476.20247     -1368.594
 -25771164.067 6  20361694.438 6 -19727146.13648  20361694.56548      -358.675
 -19674075.861 8  21529367.551 8 -15007018.08247  21529367.13347       804.434
 15  1 19  0 16 30.0000000  0  8G02G05G12G14G21G25G29G31
  -4284117.573 5  24030889.772 5   4120571.00045  24030888.20045     -2536.538
  -2392723.333 4  25023044.362 4  -1738984.98945  25023042.05545      1960.376
  -8889682.154 5  23679119.484 5  -6420484.79745  23679119.69145     -2893.418
    760887.535 3  25155980.107 3    446058.48445  25155985.18245     -2954.562
  -5733350.150 5  23776884.096 5  -4275473.22045  23776885.92345      3109.805
 -22994425.488 8  21038319.378 8 -17360070.34447  21038322.67547     -1380.318
 -25760204.981 7  20363779.887 7 -19718606.59348  20363779.95448      -371.925
 -19697933.212 7  21524827.656 7 -15025608.23547  21524827.29647       786.051
 15  1 19  0 17  0.0000000  0  8G02G05G12G14G21G25G29G31
  -4207863.663 5  24045400.305 5   4179989.64845  24045398.51045     -2547.054
  -2451366.923 5  25011884.900 5  -1784681.19045  25011887.45445      1949.178
  -8802798.739 5  23695652.861 5  -6352783.46945  23695652.79045     -2898.804
    849538.199 3  25172849.869 3    515136.91944  25172851.69444     -2955.470
  -5826555.254 5  23759147.739 5  -4348100.59745  23759148.85445      3103.843
 -22952840.368 8  21046232.754 8 -17327666.34747  21046235.95747     -1392.018
 -25748849.082 6  20365940.844 6 -19709757.84548  20365940.89748      -385.118
 -19721239.077 7  21520392.695 7 -15043768.65447  21520392.26647       767.653
 15  1 19  0 17 30.0000000  0  8G02G05G12G14G21G25G29G31
  -4131295.961 5  24059970.619 5   4239652.79345  24059970.30845     -2557.458
  -2509673.224 4  25000789.581 4  -1830114.63145  25000793.29445      1937.892
  -8715754.505 5  23712216.817 5  -6284956.80745  23712216.89945     -2904.138
    938214.654 3  25189724.368 3                                     -2956.295
  -5919579.727 5  23741445.824 5  -4420587.18145  23741446.95745      3097.782
 -22910904.000 8  21054212.994 8 -17294988.67247  21054216.64047     -1403.732
 -25737097.442 7  20368177.105 7 -19700600.71748  20368177.33048      -398.315
 -19743992.114 7  21516062.931 7 -15061498.29647  21516062.42647       749.209
 15  1 19  0 18  0.0000000  0  8G02G05G12G14G21G25G29G31
  -4054416.339 5  24074600.474 5   4299558.99845  24074597.80145     -2567.823
  -2567639.458 5  24989759.074 5  -1875283.14845  24989761.07145      1926.503
  -8628550.119 5  23728811.290 5  -6217005.39845  23728812.42745     -2909.502
   1026914.047 2  25206603.354 2                                     -2957.001
  -6012421.493 5  23723778.544 5  -4492931.39845  23723777.71145      3091.657
 -22868616.531 8  21062260.034 8 -17262037.41547  21062263.63747     -1415.430
 -25724950.804 7  20370488.527 7 -19691135.80448  20370488.45148      -411.462
 -19766191.478 7  21511838.535 7 -15078796.51347  21511838.11247       730.737
 15  1 19  0 18 30.0000000  0  8G02G05G12G14G21G25G29G31
  -3977226.773 5  24089289.154 5   4359706.75445  24089287.31945     -2578.138
  -2625262.645 5  24978793.744 5  -1920184.36345  24978792.58445      1915.038
  -8541185.807 5  23745436.191 5  -6148929.32846  23745437.57146     -2914.793
   1115633.198 3  25223486.079 3                                     -2957.602
  -6105078.364 5  23706146.490 5  -4565131.53045  23706147.67345      3085.434
 -22825978.037 8  21070373.870 8 -17228812.62147  21070377.02347     -1427.133
 -25712410.367 6  20372874.897 6 -19681364.03948  20372875.16548      -424.577
 -19787835.982 8  21507719.730 8 -15095662.36247  21507719.27347       712.219
 15  1 19  0 19  0.0000000  0  8G02G05G12G14G21G25G29G31
  -3899729.525 5  24104036.356 5   4420094.21245  24104034.16645     -2588.340
  -2682540.153 5  24967894.174 5  -1964816.21045  24967895.79545      1903.448
  -8453662.322 5  23762091.351 5  -6080729.23645  23762092.26945     -2920.103
   1204369.627 2  25240372.137 2                                     -2958.144
  -6197548.246 5  23688550.018 5  -4637185.93745  23688551.27545      3079.185
 -22782988.658 8  21078554.477 8 -17195314.40247  21078558.02247     -1438.835
 -25699476.704 6  20375336.089 6 -19671285.86248  20375336.35348      -437.658
 -19808924.362 8  21503706.745 8 -15112094.86347  21503706.22547       693.651
 15  1 19  0 19 30.0000000  0  8G02G05G12G14G21G25G29G31
  -3821926.872 5  24118841.713 5   4480719.66045  24118842.01145     -2598.491
  -2739469.206 5  24957060.924 5  -2009176.53245  24957060.15745      1891.803
  -8365980.375 5  23778776.669 5  -6012405.67845  23778775.61145     -2925.372
   1293119.994 2  25257260.795 2                                     -2958.540
  -6289828.950 5  23670989.541 5  -4709092.99745  23670990.44945      3072.856
 -22739648.504 8  21086801.831 8 -17161542.87147  21086804.93047     -1450.515
 -25686151.236 6  20377871.852 6 -19660902.37448  20377872.15448      -450.698
 -19829455.763 8  21499799.761 8 -15128093.36247  21499799.54347       675.094
 15  1 19  0 20  0.0000000  0  8G02G05G12G14G21G25G29G31
  -3743820.892 5  24133704.866 5   4541581.44545  24133704.09345     -2608.568
  -2796047.396 5  24946294.454 5  -2053263.41645  24946295.11145      1880.066
  -8278140.795 5  23795491.991 5  -5943959.27545  23795492.12645     -2930.588
   1381881.534 2  25274151.526 2                                     -2958.872
  -6381918.298 5  23653465.489 5  -4780850.91545  23653465.42445      3066.444
 -22695957.691 7  21095115.905 7 -17127498.09647  21095119.39647     -1462.203
 -25672435.294 6  20380481.917 6 -19650214.63948  20380482.24348      -463.685
 -19849429.760 7  21495998.844 7 -15143657.52047  21495998.63547       656.501
 15  1 19  0 20 30.0000000  0  8G02G05G12G14G21G25G29G31
  -3665413.362 5  24148625.457 5   4602678.22445  24148623.23545     -2618.594
  -2852271.792 5  24935595.259 5  -2097074.62645  24935596.57645      1868.230
  -8190144.125 5  23812237.272 5  -5875390.48146  23812237.48946     -2935.832
   1470651.124 2  25291043.898 2                                     -2959.053
  -6473814.320 5  23635978.244 5  -4852458.15645  23635979.13845      3059.959
 -22651916.366 8  21103496.700 8 -17093180.19447  21103500.36147     -1473.878
 -25658330.431 7  20383165.986 7 -19639223.83048  20383166.03048      -476.653
 -19868845.112 7  21492304.229 7 -15158786.37047  21492304.05047       637.859
 15  1 19  0 21  0.0000000  0  8G02G05G12G14G21G25G29G31
  -3586706.951 5  24163602.782 5   4664007.90045  24163602.01745     -2628.482
  -2908139.744 5  24924963.949 5  -2140608.05545  24924963.55045      1856.289
  -8101990.672 5  23829012.328 5  -5806699.51045  23829012.95145     -2941.050
   1559425.538 2  25307937.073 2                                     -2959.202
  -6565514.902 5  23618528.224 5  -4923913.16145  23618528.75845      3053.401
 -22607524.669 7  21111944.163 7 -17058589.28247  21111947.75747     -1485.562
 -25643836.746 6  20385924.047 6 -19627930.05648  20385924.24848      -489.592
 -19887700.700 7  21488716.122 7 -15173479.02947  21488715.35147       619.174
 15  1 19  0 21 30.0000000  0  8G02G05G12G14G21G25G29G31
  -3507704.173 5  24178636.490 5   4725568.48445  24178633.84445     -2638.358
  -2963648.826 5  24914400.922 5  -2183861.93845  24914401.45045      1844.286
  -8013680.981 5  23845817.133 5  -5737886.78446  23845817.48646     -2946.259
   1648202.469 2  25324830.832 2                                     -2959.238
  -6657017.956 5  23601115.725 5  -4995214.22245  23601117.00945      3046.784
 -22562782.700 8  21120458.290 8 -17023725.41747  21120461.90547     -1497.234
 -25628955.644 6  20388755.835 6 -19616334.39148  20388755.91048      -502.490
 -19905995.576 8  21485234.724 8 -15187734.77647  21485234.44547       600.465
 15  1 19  0 22  0.0000000  0  8G02G05G12G14G21G25G29G31
  -3428406.462 5  24193726.344 5   4787358.96445  24193724.25445     -2648.156
  -3018795.853 5  24903906.781 5  -2226833.69145  24903910.42945      1832.166
  -7925215.673 6  23862651.560 6  -5668952.82346  23862653.22146     -2951.434
   1736978.703 2  25341724.459 2                                     -2959.146
  -6748321.235 5  23583741.327 5  -5066359.63745  23583742.22945      3040.091
 -22517690.673 8  21129039.038 8 -16988588.77747  21129042.45147     -1508.900
 -25613688.622 7  20391661.061 7 -19604438.01848  20391661.13548      -515.322
 -19923729.006 8  21481860.170 8 -15201553.03947  21481859.67647       581.747
 15  1 19  0 22 30.0000000  0  8G02G05G12G14G21G25G29G31
  -3348816.114 5  24208871.853 5   4849377.40445  24208870.75445     -2657.868
  -3073578.231 5  24893481.986 5  -2269521.28545  24893487.81145      1819.983
  -7836595.526 5  23879515.470 5  -5599898.18046  23879515.55446     -2956.577
   1825751.334 1  25358617.271 1                                     -2958.956
  -6839422.679 5  23566405.292 5  -5137347.72145  23566404.65745      3033.343
 -22472248.721 8  21137686.375 8 -16953179.48347  21137689.58147     -1520.566
 -25598036.599 7  20394639.551 7 -19592241.63748  20394639.58548      -528.151
 -19940900.036 7  21478592.639 7 -15214933.06147  21478592.37347       562.983
 15  1 19  0 23  0.0000000  0  7G02G05G12G21G25G29G31
  -3268935.554 5  24224072.640 5   4911622.02445  24224070.49445     -2667.481
  -3127993.685 4  24883127.015 4  -2311922.91945  24883128.16545      1807.710
  -7747821.346 6  23896408.677 6  -5530723.51246  23896409.45646     -2961.698
  -6930320.502 5  23549107.984 5  -5208177.21245  23549110.16645      3026.504
 -22426457.021 7  21146400.252 7 -16917497.65947  21146403.67647     -1532.219
 -25582000.195 7  20397691.192 7 -19579745.73648  20397691.61848      -540.935
 -19957507.967 8  21475432.249 8 -15227874.30147  21475431.72647       544.203
 15  1 19  0 23 30.0000000  0  7G02G05G12G21G25G29G31
  -3188766.865 5  24239328.200 5   4974091.14445  24239326.49345     -2677.060
  -3182039.474 3  24872842.451 3  -2354036.43545  24872840.68245      1795.333
  -7658893.548 6  23913331.121 6  -5461429.15545  23913332.24245     -2966.812
  -7021012.139 5  23531849.909 5  -5278846.03145  23531850.12245      3019.606
 -22380315.736 8  21155180.659 8 -16881543.42047  21155183.94847     -1543.862
 -25565581.004 7  20400815.667 7 -19566951.56448  20400815.84348      -553.671
 -19973551.888 8  21472379.199 8 -15240376.05547  21472379.07747       525.390
 15  1 19  0 24  0.0000000  0  7G02G05G12G21G25G29G31
  -3108312.258 5  24254638.170 5   5036783.05345  24254636.46745     -2686.537
  -3235712.876 3  24862628.712 3  -2395859.83445  24862628.66945      1782.868
  -7569813.017 6  23930282.590 6  -5392015.76946  23930282.66546     -2971.880
  -7111495.754 5  23514631.458 5  -5349352.69245  23514631.59645      3012.625
 -22333825.042 7  21164027.559 7 -16845316.91847  21164030.86447     -1555.528
 -25548780.063 7  20404012.781 7 -19553859.92048  20404013.04648      -566.388
 -19989031.124 8  21469433.597 8 -15252437.80347  21469433.21947       506.550
 15  1 19  0 24 30.0000000  0  7G02G05G12G21G25G29G31
  -3027574.032 4  24270001.996 4   5099695.93345  24270003.47145     -2695.988
  -3289011.177 4  24852486.428 4  -2437391.02845  24852485.24645      1770.310
  -7480580.212 5  23947263.045 5  -5322483.75445  23947263.73445     -2976.962
  -7201769.137 5  23497453.002 5  -5419695.58845  23497453.71145      3005.580
 -22286985.117 7  21172940.921 7 -16808818.29547  21172944.62547     -1567.145
 -25531598.633 7  20407282.298 7 -19540471.78748  20407282.66948      -579.038
 -20003944.702 8  21466595.638 8 -15264058.77147  21466595.29247       487.690
 15  1 19  0 25  0.0000000  0  7G02G05G12G21G25G29G31
  -2946554.096 5  24285419.519 5   5162828.35945  24285417.06045     -2705.337
  -3341932.012 3  24842415.845 3  -2478627.99745  24842418.14845      1757.705
  -7391195.894 5  23964272.347 5  -5252833.63245  23964272.57045     -2982.012
  -7291830.645 5  23480314.918 5  -5489873.37745  23480317.69845      2998.493
 -22239796.158 7  21181920.691 7 -16772047.68947  21181924.15747     -1578.785
 -25514037.848 7  20410624.008 7 -19526788.05348  20410624.13548      -591.674
 -20018292.213 8  21463865.415 8 -15275238.65847  21463865.10147       468.794
 15  1 19  0 25 30.0000000  0  7G02G05G12G21G25G29G31
  -2865254.769 4  24300890.189 4   5226178.50645  24300888.20445     -2714.610
  -3394472.642 3  24832417.703 3  -2519568.74545  24832418.45045      1744.996
  -7301660.388 5  23981310.421 5  -5183065.74045  23981310.77145     -2987.033
  -7381677.895 5  23463217.556 5  -5559884.21945  23463217.13545      2991.319
 -22192258.365 7  21190966.853 7 -16735005.26747  21190970.32747     -1590.415
 -25496099.075 7  20414037.633 7 -19512809.78348  20414037.83348      -604.269
 -20032072.564 7  21461243.092 7 -15285976.60147  21461242.54947       449.885
 15  1 19  0 26  0.0000000  0  7G02G05G12G21G25G29G31
  -2783678.146 4  24316413.650 4   5289744.73445  24316412.81745     -2723.808
  -3446630.416 3  24822492.362 3  -2560211.11945  24822495.91845      1732.192
  -7211974.397 5  23998377.102 5  -5113180.55245  23998377.08645     -2992.035
  -7471309.007 5  23446161.324 5  -5629726.63345  23446162.01045      2984.066
 -22144371.922 8  21200079.337 8 -16697691.15747  21200083.04247     -1602.027
 -25477782.479 7  20417523.156 7 -19498537.10548  20417523.34248      -616.840
 -20045284.913 7  21458728.867 7 -15296271.94647  21458728.12247       430.943
 15  1 19  0 26 30.0000000  0  7G02G05G12G21G25G29G31
  -2701826.667 5  24331989.529 5   5353525.06845  24331987.98645     -2732.955
  -3498402.857 3  24812640.353 3  -2600553.25045  24812640.51145      1719.300
  -7122138.353 5  24015472.309 5  -5043178.46645  24015471.12045     -2997.009
  -7560721.549 5  23429146.659 5  -5699398.72945  23429147.15745      2976.749
 -22096137.081 7  21209258.120 7 -16660105.58447  21209261.92547     -1613.637
 -25459089.665 7  20421080.272 7 -19483971.27048  20421080.22048      -629.349
 -20057928.742 8  21456322.822 8 -15306124.28647  21456322.48647       411.973
 15  1 19  0 27  0.0000000  0  7G02G05G12G21G25G29G31
  -2619702.315 5  24347617.338 5   5417518.10445  24347617.10945     -2742.007
  -3549787.317 2  24802862.061 2  -2640593.03345  24802863.51845      1706.299
  -7032153.224 5  24032595.900 5  -4973060.23045  24032596.09445     -3001.991
  -7649913.382 5  23412174.011 5  -5768898.85945  23412173.81245      2969.365
 -22047554.011 7  21218503.175 7 -16622248.65847  21218506.63047     -1625.233
 -25440022.088 7  20424708.706 7 -19469113.42148  20424709.01248      -641.820
 -20070003.283 7  21454025.122 7 -15315533.02647  21454024.85047       392.983
 15  1 19  0 27 30.0000000  0  7G02G05G12G21G25G29G31
  -2537307.386 5  24363296.654 5   5481721.94345  24363295.11045     -2750.985
  -3600781.318 2  24793158.165 2  -2680328.60645  24793163.71645      1693.276
  -6942019.684 5  24049747.755 5  -4902826.29345  24049749.38745     -3006.926
  -7738882.758 5  23395243.681 5  -5838225.65945  23395245.07545      2961.912
 -21998622.957 7  21227814.463 7 -16584120.57647  21227817.92147     -1636.833
 -25420580.707 7  20428408.259 7 -19453964.29248  20428408.42248      -654.254
 -20081508.012 7  21451835.851 7 -15324497.75547  21451835.34447       373.967
 15  1 19  0 28  0.0000000  0  7G02G05G12G21G25G29G31
  -2454644.231 5  24379026.985 5   5546134.81645  24379025.42645     -2759.902
  -3651382.417 2  24783529.113 2  -2719757.96845  24783531.30445      1680.114
  -6851738.473 5  24066927.700 5  -4832477.34045  24066929.79245     -3011.823
  -7827627.648 5  23378356.051 5  -5907377.48945  23378357.41745      2954.399
 -21949344.145 7  21237191.916 7 -16545721.50547  21237195.34047     -1648.430
 -25400767.043 8  20432178.663 8 -19438525.08148  20432178.92848      -666.658
 -20092442.330 8  21449755.123 8 -15333018.00347  21449754.77647       354.968
 15  1 19  0 28 30.0000000  0  7G02G05G12G21G25G29G31
  -2371714.635 5  24394807.875 5   5610755.26345  24394805.76245     -2768.743
  -3701588.104 3  24773975.308 3  -2758879.28845  24773977.08945      1666.919
  -6761310.314 5  24084135.620 5  -4762013.80645  24084136.38245     -3016.716
  -7916146.184 5  23361511.487 5  -5976352.95145  23361511.74145      2946.828
 -21899717.831 8  21246635.504 8 -16507051.65347  21246639.16447     -1660.005
 -25380581.819 8  20436019.776 8 -19422796.33948  20436019.99848      -679.026
 -20102805.886 7  21447783.000 7 -15341093.51447  21447782.60947       335.925
 15  1 19  0 29  0.0000000  0  7G02G05G12G21G25G29G31
  -2288520.985 5  24410639.056 5   5675581.45245  24410639.94245     -2777.506
  -3751396.237 3  24764497.119 3  -2797690.76145  24764498.38945      1653.578
  -6670735.414 5  24101371.468 5  -4691436.03845  24101372.26245     -3021.573
  -8004436.032 5  23344710.490 5  -6045150.26045  23344710.11445      2939.157
 -21849744.258 7  21256145.173 7 -16468111.22347  21256148.71847     -1671.576
 -25360026.275 8  20439931.351 8 -19406779.03248  20439931.53848      -691.346
 -20112597.748 8  21445919.667 8 -15348723.54347  21445919.20647       316.863
 15  1 19  0 29 30.0000000  0  7G02G05G12G21G25G29G31
  -2205065.407 5  24426520.175 5   5740611.81745  24426517.56845     -2786.210
  -3800803.226 3  24755095.285 3  -2836189.70345  24755098.27045      1640.195
  -6580014.683 5  24118635.054 5  -4620744.55545  24118636.49845     -3026.438
  -8092495.223 5  23327953.352 5  -6113767.77745  23327952.85645      2931.441
 -21799423.642 8  21265720.883 8 -16428900.36147  21265724.37647     -1683.129
 -25339101.758 8  20443913.139 8 -19390474.21548  20443913.36748      -703.626
 -20121817.280 8  21444165.250 8 -15355907.59947  21444164.86547       297.763
 15  1 19  0 30  0.0000000  0  7G02G05G12G21G25G29G31
  -2121350.249 5  24442450.679 5   5805844.45345  24442447.55745     -2794.813
  -3849807.264 4  24745770.172 4  -2874374.63345  24745771.36245      1626.729
  -6489149.026 5  24135926.234 5  -4549940.16645  24135925.69545     -3031.251
  -8180321.874 5  23311240.499 5  -6182204.11845  23311242.05845      2923.675
 -21748756.272 8  21275362.581 8 -16389419.31447  21275365.94947     -1694.682
 -25317809.475 8  20447964.916 8 -19373882.83048  20447965.14248      -715.871
 -20130464.003 7  21442519.829 7 -15362645.31847  21442519.32047       278.668
 15  1 19  0 30 30.0000000  0  7G02G05G12G21G25G29G31
  -2037377.636 5  24458430.137 5   5871277.64345  24458428.26845     -2803.363
  -3898406.173 5  24736522.153 5  -2912243.87245  24736523.93345      1613.172
  -6398139.101 5  24153244.836 5  -4479023.36545  24153245.95845     -3036.083
  -8267914.349 5  23294572.198 5  -6250457.99945  23294573.41745      2915.801
 -21697742.431 7  21285070.208 7 -16349668.29447  21285073.80847     -1706.239
 -25296150.197 8  20452086.537 8 -19357005.46748  20452086.62248      -728.083
 -20138537.534 8  21440983.493 8 -15368936.38847  21440983.15247       259.555
 15  1 19  0 31  0.0000000  0  7G02G05G12G21G25G29G31
  -1953149.863 5  24474458.218 5   5936909.69445  24474457.00045     -2811.824
  -3946597.023 5  24727351.782 5  -2949795.17045  24727355.56145      1599.547
  -6306985.139 5  24170590.902 5  -4407994.33245  24170591.66245     -3040.867
  -8355269.685 5  23277949.028 5  -6318527.07945  23277949.17945      2907.883
 -21646382.330 7  21294843.714 7 -16309647.45047  21294847.25247     -1717.770
 -25274125.593 8  20456277.679 8 -19339843.44248  20456278.06848      -740.229
 -20146037.265 7  21439556.325 7 -15374780.34147  21439555.84547       240.423
 15  1 19  0 31 30.0000000  0  7G02G05G12G21G25G29G31
  -1868669.060 5  24490534.433 5   6002738.90145  24490532.62045     -2820.224
  -3994377.487 5  24718259.447 5  -2987026.70345  24718260.78445      1585.825
  -6215688.068 5  24187964.157 5  -4336853.74345  24187964.11645     -3045.605
  -8442386.230 5  23261371.310 5  -6386410.10146  23261372.16146      2899.875
 -21594676.278 7  21304683.057 7 -16269357.04647  21304686.46647     -1729.297
 -25251736.682 8  20460538.146 8 -19322397.53048  20460538.13548      -752.374
 -20152962.727 7  21438238.448 7 -15380176.80647  21438238.01747       221.265
 15  1 19  0 32  0.0000000  0  7G02G05G12G21G25G29G31
  -1783937.675 5  24506658.337 5   6068763.36045  24506654.78045     -2828.543
  -4041745.363 5  24709245.628 5  -3023936.64845  24709248.82945      1572.027
  -6124248.441 5  24205364.563 5  -4265602.10845  24205365.56545     -3050.348
  -8529262.296 5  23244839.361 5  -6454105.72146  23244840.94146      2891.839
 -21542624.558 7  21314588.182 7 -16228797.27547  21314591.55147     -1740.814
 -25228984.316 8  20464867.774 8 -19304668.41548  20464868.12348      -764.433
 -20159313.659 7  21437029.923 7 -15385125.59247  21437029.38647       202.116
 15  1 19  0 32 30.0000000  0  7G02G05G12G21G25G29G31
  -1698957.445 5  24522829.483 5   6134981.68945  24522826.54045     -2836.787
  -4088697.873 5  24700310.872 5  -3060522.96745  24700312.10445      1558.156
  -6032666.859 5  24222791.979 5  -4194239.87845  24222792.42945     -3055.089
  -8615895.836 5  23228353.535 5  -6521612.37245  23228354.07845      2883.719
 -21490227.438 7  21324559.028 7 -16187968.36247  21324562.65147     -1752.330
 -25205870.133 8  20469266.259 8 -19286657.35648  20469266.47548      -776.510
 -20165089.369 8  21435930.847 8 -15389626.14647  21435930.10047       182.936
 15  1 19  0 33  0.0000000  0  7G02G05G12G21G25G29G31
  -1613730.854 5  24539047.522 5   6201392.04145  24539044.90045     -2844.971
  -4135233.033 5  24691455.537 5  -3096784.12145  24691457.88845      1544.182
  -5940944.212 5  24240246.230 5  -4122767.69145  24240248.69245     -3059.778
  -8702284.674 5  23211914.278 5  -6588928.34246  23211914.35646      2875.524
 -21437485.247 7  21334595.545 7 -16146870.56747  21334598.74647     -1763.824
 -25182394.933 8  20473733.431 8 -19268364.99448  20473733.67548      -788.507
 -20170289.404 8  21434941.322 8 -15393678.12847  21434940.99147       163.718
 15  1 19  0 33 30.0000000  0  7G02G05G12G21G25G29G31
  -1528260.044 5  24555312.003 5   6267992.71945  24555309.42545     -2853.052
  -4181348.022 5  24682680.156 5  -3132717.87145  24682683.62545      1530.127
  -5849081.127 5  24257727.192 5  -4051186.09345  24257728.85345     -3064.442
  -8788426.929 6  23195521.934 6  -6656052.18845  23195522.38145      2867.264
 -21384398.288 7  21344697.663 7 -16105504.11647  21344700.93347     -1775.304
 -25158560.183 8  20478269.025 8 -19249792.45548  20478269.13148      -800.476
 -20174913.434 8  21434061.401 8 -15397281.27247  21434061.06947       144.527
 15  1 19  0 34  0.0000000  0  7G02G05G12G21G25G29G31
  -1442547.352 5  24571622.550 5   6334781.79545  24571622.15445     -2861.112
  -4227040.606 5  24673985.171 5  -3168322.43745  24673987.45145      1516.015
  -5757078.572 5  24275234.710 5  -3979495.82945  24275236.15545     -3069.075
  -8874320.676 5  23179176.923 5  -6722982.36346  23179177.59446      2858.959
 -21330966.843 7  21354865.340 7 -16063869.23247  21354868.80347     -1786.788
 -25134366.868 8  20482872.855 8 -19230940.51848  20482873.03948      -812.407
 -20178961.362 8  21433291.119 8 -15400435.51247  21433290.77447       125.322
 15  1 19  0 34 30.0000000  0  7G02G05G12G21G25G29G31
  -1356595.023 4  24587978.638 4   6401757.62445  24587977.57045     -2869.050
  -4272308.507 5  24665370.942 5  -3203596.10445  24665373.24745      1501.835
  -5664937.268 5  24292768.650 5  -3907697.41845  24292768.26345     -3073.704
  -8959963.806 5  23162879.572 5  -6789717.26246  23162880.36646      2850.576
 -21277191.250 7  21365098.504 7 -16021966.16847  21365101.98347     -1798.255
 -25109816.459 8  20487544.645 8 -19211810.32648  20487544.88748      -824.290
 -20182432.451 8  21432630.615 8 -15403140.26547  21432630.17047       106.097
 15  1 19  0 35  0.0000000  0  7G02G05G12G21G25G29G31
  -1270405.139 4  24604379.950 4   6468918.65045  24604378.21045     -2876.944
  -4317149.520 5  24656837.992 5  -3238537.11845  24656838.69445      1487.549
  -5572657.383 5  24310328.944 5  -3835791.05045  24310330.10545     -3078.294
  -9045354.538 5  23146630.225 5  -6856255.47446  23146630.97846      2842.135
 -21223071.853 7  21375397.088 7 -15979795.22447  21375400.41147     -1809.702
 -25084910.511 8  20492284.083 8 -19192403.09648  20492284.55748      -836.130
 -20185326.914 8  21432079.817 8 -15405395.69447  21432079.40747        86.866
 15  1 19  0 35 30.0000000  0  7G02G05G12G21G25G29G31
  -1183979.634 4  24620826.100 4   6536263.17945  24620823.06745     -2884.756
  -4361561.058 5  24648386.766 5  -3273143.45945  24648387.48945      1473.198
  -5480240.204 5  24327915.372 5  -3763777.67445  24327915.71445     -3082.860
  -9130490.749 5  23130429.313 5  -6922595.37646  23130429.57546      2833.605
 -21168608.963 7  21385761.046 7 -15937356.61547  21385764.32347     -1821.154
 -25059649.175 8  20497091.168 8 -19172718.93648  20497091.39348      -847.953
 -20187644.004 8  21431638.887 8 -15407201.21947  21431638.42547        67.610
 15  1 19  0 36  0.0000000  0  7G02G05G12G21G25G29G31
  -1097320.990 4  24637316.606 4   6603789.33445  24637314.20445     -2892.459
  -4405541.373 5  24640017.557 5  -3307413.82045  24640018.06145      1458.800
  -5387685.814 5  24345527.870 5  -3691657.37045  24345528.66545     -3087.403
  -9215370.590 6  23114277.218 6  -6988735.47946  23114278.09446      2825.031
 -21113802.911 7  21396190.309 7 -15894650.59547  21396193.59347     -1832.588
 -25034034.327 8  20501965.502 8 -19152759.31548  20501965.62248      -859.711
 -20189383.510 8  21431307.878 8 -15408556.68147  21431307.67947        48.353
 15  1 19  0 36 30.0000000  0  7G02G05G12G21G25G29G31
  -1010431.399 4  24653851.184 4   6671495.50145  24653850.78845     -2900.146
  -4449087.752 5  24631730.983 5  -3341346.06345  24631732.00345      1444.275
  -5294995.601 5  24363166.239 5  -3619431.25245  24363167.50845     -3091.955
  -9299992.491 6  23098174.163 6  -7054674.61646  23098174.70146      2816.396
 -21058654.073 7  21406684.794 7 -15851677.48347  21406688.20547     -1843.998
 -25008067.211 8  20506906.876 8 -19132525.19548  20506907.07448      -871.437
 -20190545.273 8  21431086.799 8 -15409461.95847  21431086.41147        29.095
 15  1 19  0 37  0.0000000  0  7G02G05G12G21G25G29G31
   -923313.148 5  24670429.452 5   6739379.85845  24670426.74245     -2907.723
  -4492197.469 5  24623527.419 5  -3374938.01645  24623528.03145      1429.675
  -5202169.466 5  24380830.442 5  -3547099.24845  24380831.77745     -3096.441
  -9384354.072 5  23082120.636 5  -7120410.91346  23082120.40746      2807.679
 -21003162.801 7  21417244.451 7 -15808437.55147  21417247.66547     -1855.429
 -24981748.768 8  20511915.106 8 -19112017.31648  20511915.37748      -883.101
 -20191128.807 7  21430975.760 7 -15409916.66347  21430975.38547         9.818
 15  1 19  0 37 30.0000000  0  7G02G05G12G21G25G29G31
   -835968.341 4  24687050.764 4   6807440.74845  24687050.22145     -2915.246
  -4534868.852 5  24615407.319 5  -3408188.44345  24615410.20745      1415.035
  -5109208.792 5  24398520.263 5  -3474662.34945  24398521.20145     -3100.916
  -9468453.292 6  23066117.080 6  -7185942.75546  23066117.69746      2798.920
 -20947329.463 7  21427869.185 7 -15764931.06347  21427872.52247     -1866.818
 -24955080.809 8  20516989.848 8 -19091237.08648  20516990.11648      -894.766
 -20191134.441 8  21430974.710 8 -15409921.05847  21430974.53247        -9.453
 15  1 19  0 38  0.0000000  0  7G02G05G12G21G25G29G31
   -748399.373 4  24703714.724 4   6875676.27445  24703712.28345     -2922.667
  -4577099.368 5  24607371.108 5  -3441095.28645  24607372.21645      1400.325
  -5016113.869 4  24416235.623 4  -3402120.90145  24416234.54045     -3105.383
  -9552288.787 6  23050163.734 6  -7251269.09546  23050164.67346      2790.095
 -20891154.370 7  21438558.960 7 -15721158.28347  21438562.38547     -1878.188
 -24928063.903 8  20522130.995 8 -19070184.95148  20522131.14448      -906.347
 -20190561.725 7  21431083.674 7 -15409474.79347  21431083.49847       -28.726
 15  1 19  0 38 30.0000000  0  7G02G05G12G21G25G29G31
   -660608.322 4  24720420.704 4   6944084.93745  24720423.07145     -2930.031
  -4618886.917 5  24599419.180 5  -3473656.99645  24599419.99045      1385.507
  -4922885.706 4  24433976.329 4  -3329475.57545  24433975.96845     -3109.834
  -9635858.384 6  23034260.979 6  -7316388.26946  23034261.99246      2781.188
 -20834637.954 7  21449313.692 7 -15677119.52747  21449317.08047     -1889.568
 -24900699.563 8  20527338.243 8 -19048862.08048  20527338.35148      -917.937
 -20189410.388 8  21431302.758 8 -15408577.64647  21431302.36847       -48.031
 15  1 19  0 39  0.0000000  0  7G02G05G12G21G25G29G31
   -572597.282 5  24737168.832 5   7012665.00145  24737166.28245     -2937.372
  -4660229.108 5  24591551.979 5  -3505871.69745  24591553.11345      1370.638
  -4829524.746 4  24451742.357 4  -3256726.81945  24451740.02945     -3114.243
  -9719159.937 6  23018409.234 6  -7381298.54746  23018410.44446      2772.230
 -20777780.592 7  21460133.291 7 -15632815.10247  21460136.72847     -1900.929
 -24872988.445 8  20532611.485 8 -19027269.00848  20532611.52648      -929.469
 -20187680.226 8  21431631.996 8 -15407229.47947  21431631.64047       -67.313
 15  1 19  0 39 30.0000000  0  7G02G05G12G21G25G29G31
   -484368.032 4  24753958.305 4   7081414.93645  24753956.15145     -2944.566
  -4701123.870 5  24583769.940 5  -3537737.73245  24583770.65345      1355.675
  -4736032.209 4  24469533.359 4  -3183875.48345  24469533.61845     -3118.616
  -9802191.594 6  23002608.802 6  -7445998.53146  23002609.82546      2763.196
 -20720582.648 7  21471017.698 7 -15588245.28447  21471021.22947     -1912.274
 -24844932.369 8  20537950.369 8 -19005407.12648  20537950.70848      -940.943
 -20185371.393 8  21432071.366 8 -15405430.39247  21432070.84847       -86.610
 15  1 19  0 40  0.0000000  0  7G02G05G12G21G25G29G31
   -395923.494 3  24770788.656 3   7150332.74745  24770787.68345     -2951.696
  -4741569.018 5  24576073.474 5  -3569253.42045  24576075.14845      1340.641
  -4642408.417 5  24487349.398 5  -3110921.89045  24487347.22945     -3122.989
  -9884951.737 6  22986860.044 6  -7510486.95646  22986861.21746      2754.120
 -20663044.540 7  21481966.832 7 -15543410.41147  21481970.08347     -1923.610
 -24816532.497 8  20543354.686 8 -18983277.35448  20543355.02948      -952.376
 -20182483.757 8  21432620.877 8 -15403180.28647  21432620.32047      -105.907
 15  1 19  0 40 30.0000000  0  7G02G05G12G21G25G29G31
   -307265.689 3  24787659.525 3   7219416.77745  24787663.55345     -2958.765
  -4781562.483 5  24568462.918 5  -3600417.13145  24568461.11345      1325.544
  -4548654.637 4  24505190.162 4  -3037867.02645  24505192.72645     -3127.251
  -9967438.369 6  22971163.378 6  -7574762.23046  22971163.40246      2744.981
 -20605166.668 7  21492980.636 7 -15498310.78747  21492984.47047     -1934.928
 -24787790.194 8  20548824.165 8 -18960880.75447  20548824.29847      -963.773
 -20179017.057 8  21433280.581 8 -15400478.96747  21433280.01747      -125.210
 15  1 19  0 41  0.0000000  0  7G02G05G12G21G25G29G31
   -218397.103 4  24804570.590 4   7288665.07645  24804567.28345     -2965.789
  -4821101.946 5  24560938.784 5  -3631227.13045  24560941.84345      1310.401
  -4454771.388 5  24523055.603 5  -2964711.20845  24523055.57545     -3131.604
 -10049649.747 6  22955519.061 6  -7638823.04246  22955519.18946      2735.764
 -20546949.438 7  21504059.021 7 -15452946.74047  21504062.73047     -1946.219
 -24758706.836 8  20554358.529 8 -18938218.40347  20554358.94847      -975.124
 -20174971.418 8  21434050.439 8 -15397326.53247  21434050.13547      -144.503
 15  1 19  0 41 30.0000000  0  7G02G05G12G21G25G29G31
   -129319.401 4  24821521.471 4   7358076.21245  24821520.56545     -2972.717
  -4860185.702 5  24553501.371 5  -3661681.96345  24553502.97645      1295.167
  -4360758.712 5  24540945.641 5  -2891454.59145  24540944.37445     -3135.897
 -10131584.179 6  22939927.443 6  -7702668.03546  22939927.98346      2726.512
 -20488393.249 7  21515201.884 7 -15407318.56447  21515205.38147     -1957.509
 -24729282.848 8  20559957.735 8 -18915290.61747  20559957.73347      -986.469
 -20170346.691 8  21434930.492 8 -15393722.85347  21434930.08447      -163.821
 15  1 19  0 42  0.0000000  0  7G02G05G12G21G25G29G31
    -40034.887 5  24838511.792 5   7427648.60945  24838509.46445     -2979.578
  -4898810.969 5  24546151.167 5  -3691779.57745  24546148.21045      1279.843
  -4266618.047 5  24558860.069 5  -2818098.26145  24558859.58545     -3140.152
 -10213239.603 6  22924388.952 6  -7766295.62246  22924389.36546      2717.172
 -20429498.552 7  21526409.182 7 -15361426.60747  21526412.80247     -1968.803
 -24699519.866 8  20565621.445 8 -18892098.69147  20565621.51647      -997.742
 -20165142.794 8  21435920.770 8 -15389667.88047  21435920.74247      -183.125
 15  1 19  0 42 30.0000000  0  7G02G05G12G21G25G29G31
     49454.030 4  24855541.010 4   7497380.15845  24855540.92145     -2986.365
  -4936975.999 5  24538888.597 5  -3721518.56545  24538888.09045      1264.467
  -4172349.748 5  24576798.789 5  -2744642.47245  24576802.33645     -3144.426
 -10294613.887 6  22908903.952 6  -7829704.13746  22908904.79946      2707.775
 -20370265.779 7  21537680.802 7 -15315271.21447  21537684.25247     -1980.059
 -24669419.252 8  20571349.409 8 -18868643.66847  20571349.66247     -1008.971
 -20159360.134 8  21437021.169 8 -15385161.91147  21437020.81647      -202.409
 15  1 19  0 43  0.0000000  0  7G02G05G12G21G25G29G31
    139145.251 4  24872608.666 4   7567269.46345  24872606.73545     -2993.033
  -4974678.625 4  24531713.975 4  -3750897.21645  24531717.63345      1249.002
  -4077955.084 5  24594761.543 5  -2671088.14145  24594760.50745     -3148.554
 -10375705.543 6  22893472.688 6  -7892892.43946  22893474.61846      2698.332
 -20310695.345 7  21549016.681 7 -15268852.70647  21549020.29847     -1991.312
 -24638982.296 8  20577141.379 8 -18844926.56447  20577141.67747     -1020.158
 -20152998.632 8  21438231.720 8 -15380204.90547  21438231.07247      -221.683
 15  1 19  0 43 30.0000000  0  7G02G05G12G21G25G29G31
    229036.671 4  24889714.308 4   7637314.79045  24889711.84145     -2999.727
  -5011916.955 4  24524627.729 4  -3779914.03845  24524626.45745      1233.512
  -3983435.056 5  24612748.138 5  -2597436.17745  24612748.88845     -3152.759
 -10456512.531 6  22878095.629 6  -7955858.90946  22878095.49846      2688.800
 -20250787.736 7  21560416.714 7 -15222171.46847  21560420.02447     -2002.536
 -24608210.188 8  20582997.123 8 -18820948.28647  20582997.44747     -1031.318
 -20146058.512 7  21439552.387 7 -15374797.03047  21439551.81347      -240.983
 15  1 19  0 44  0.0000000  0  7G02G05G12G21G25G29G31
    319126.148 4  24906857.709 4   7707514.39345  24906856.06445     -3006.256
  -5048688.727 5  24517630.350 5  -3808567.37245  24517631.24245      1217.930
  -3888789.601 5  24630758.583 5  -2523686.47245  24630759.86645     -3156.933
 -10537033.185 6  22862773.056 6  -8018602.25746  22862773.02446      2679.220
 -20190543.401 7  21571880.840 7 -15175227.85347  21571884.34247     -2013.753
 -24577104.000 8  20588916.436 8 -18796709.70547  20588916.89047     -1042.418
 -20138539.599 8  21440983.186 8 -15368938.14547  21440982.37747      -260.274
 15  1 19  0 44 30.0000000  0  7G02G05G12G21G25G29G31
    409411.220 5  24924038.385 5   7777866.45145  24924038.79145     -3012.755
  -5084991.779 5  24510722.022 5  -3836855.50445  24510725.90145      1202.277
  -3794019.416 5  24648792.781 5  -2449839.61345  24648793.20945     -3161.066
 -10617265.643 6  22847505.324 6  -8081121.04946  22847506.03946      2669.597
 -20129962.748 7  21583408.974 7 -15128022.17047  21583412.40347     -2024.952
 -24545664.781 8  20594899.127 8 -18772211.60547  20594899.27947     -1053.509
 -20130441.914 8  21442524.127 8 -15362628.26647  21442523.60047      -279.569
 15  1 19  0 45  0.0000000  0  7G02G05G12G21G25G29G31
    499889.997 5  24941255.904 5   7848369.40745  24941253.25645     -3019.169
  -5120824.598 5  24503903.216 5  -3864777.15445  24503903.15045      1186.571
  -3699125.811 5  24666850.454 5  -2375896.55645  24666850.41845     -3165.174
 -10697208.272 6  22832292.727 6  -8143413.99246  22832293.22046      2659.887
 -20069046.277 7  21595001.005 7 -15080554.79947  21595004.60347     -2036.138
 -24513894.015 8  20600944.912 8 -18747455.17147  20600945.01847     -1064.541
 -20121765.640 8  21444175.176 8 -15355867.54147  21444174.45647      -298.849
 15  1 19  0 45 30.0000000  0  7G02G05G12G21G25G29G31
    590560.141 5  24958509.872 5   7919021.48845  24958506.51245     -3025.500
  -5156184.863 4  24497174.344 4  -3892330.57045  24497175.90745      1170.769
  -3604109.633 5  24684931.443 5  -2301857.95445  24684931.96545     -3169.244
 -10776859.201 6  22817135.639 6  -8205479.63946  22817137.01046      2650.139
 -20007794.498 7  21606656.844 7 -15032826.15346  21606660.50446     -2047.318
 -24481793.116 8  20607053.520 8 -18722441.47947  20607053.69647     -1075.509
 -20112511.142 8  21445936.261 8 -15348656.24347  21445936.05547      -318.122
 15  1 19  0 46  0.0000000  0  7G02G05G12G21G25G29G31
    681419.587 5  24975799.958 5   7989821.12245  24975797.39645     -3031.784
  -5191070.387 5  24490535.864 5  -3919514.06245  24490535.45145      1154.927
  -3508971.471 5  24703035.619 5  -2227724.36545  24703035.71145     -3173.297
 -10856216.414 6  22802034.478 6  -8267316.42646  22802035.34346      2640.325
 -19946207.876 7  21618376.392 7 -14984836.59246  21618380.03146     -2058.453
 -24449363.296 8  20613224.716 8 -18697171.49447  20613224.79647     -1086.463
 -20102678.277 8  21447807.390 8 -15340994.27747  21447806.99247      -337.396
 15  1 19  0 46 30.0000000  0  7G02G05G12G21G25G29G31
    772465.972 5  24993125.499 5   8060766.25845  24993120.68245     -3037.959
  -5225479.605 4  24483987.921 4  -3946326.41245  24483987.34645      1139.010
  -3413711.866 5  24721162.914 5  -2153496.11045  24721164.70245     -3177.321
 -10935278.404 6  22786989.485 6  -8328923.14246  22786990.27546      2630.458
 -19884286.883 7  21630159.576 7 -14936586.49346  21630163.00246     -2069.599
 -24416605.858 8  20619458.256 8 -18671646.22247  20619458.51347     -1097.353
 -20092267.648 8  21449788.466 8 -15332882.11047  21449788.14747      -356.658
 15  1 19  0 47  0.0000000  0  7G02G05G12G21G25G29G31
    863696.951 5  25010486.191 5   8131855.36845  25010487.46345     -3044.093
  -5259410.350 4  24477531.075 4  -3972765.91945  24477532.68345      1123.006
  -3318331.699 5  24739313.170 5  -2079173.93745  24739314.81245     -3181.338
 -11014043.155 6  22772001.025 6  -8390298.27346  22772001.94246      2620.511
 -19822032.024 7  21642006.296 7 -14888076.22946  21642009.71346     -2080.729
 -24383521.861 8  20625753.923 8 -18645866.48247  20625753.95947     -1108.247
 -20081279.364 8  21451879.467 8 -15324319.81647  21451878.85947      -375.896
 15  1 19  0 47 30.0000000  0  7G02G05G12G21G25G29G31
    955110.721 5  25027881.781 5   8203086.96645  25027880.85545     -3050.145
  -5292860.504 4  24471165.747 4  -3998831.00045  24471164.73345      1106.996
  -3222831.784 4  24757486.189 4  -2004758.44745  24757487.59845     -3185.329
 -11092509.063 6  22757069.433 6  -8451440.51146  22757070.42846      2610.521
 -19759443.812 7  21653916.457 7 -14839306.19746  21653920.15646     -2091.818
 -24350112.210 8  20632111.566 8 -18619832.98947  20632111.64047     -1119.068
 -20069713.543 8  21454080.387 8 -15315307.49547  21454079.91447      -395.147
 15  1 19  0 48  0.0000000  0  7G02G05G12G21G25G29G31
   1046704.936 4  25045311.568 4   8274459.10445  25045310.19945     -3056.128
  -5325828.455 5  24464892.136 5  -4024520.27745  24464889.96245      1090.869
  -3127213.141 4  24775681.772 4  -1930250.43045  24775680.53245     -3189.258
 -11170674.525 6  22742195.050 6  -8512348.64346  22742195.32546      2600.477
 -19696522.760 7  21665889.955 7 -14790276.81846  21665893.40046     -2102.905
 -24316378.380 8  20638530.903 8 -18593546.88947  20638531.06047     -1129.848
 -20057570.763 7  21456391.070 7 -15305845.59947  21456390.84347      -414.369
 15  1 19  0 48 30.0000000  0  7G02G05G12G21G25G29G31
   1138477.557 3  25062775.115 3   8345970.33845  25062774.17245     -3062.030
  -5358312.342 4  24458710.590 4  -4049832.37745  24458714.40945      1074.704
  -3031476.631 4  24793899.819 4  -1855650.59745  24793901.11245     -3193.196
 -11248537.420 6  22727378.232 6  -8573021.01646  22727378.74746      2590.376
 -19633269.374 7  21677926.689 7 -14740988.47746  21677930.25446     -2113.977
 -24282322.102 8  20645011.591 8 -18567009.52547  20645011.76747     -1140.583
 -20044851.196 8  21458811.522 8 -15295934.25347  21458811.21747      -433.593
 15  1 19  0 49  0.0000000  0  7G02G05G12G21G25G29G31
   1230426.261 5  25080272.369 5   8417618.66545  25080270.76645     -3067.875
  -5390310.257 4  24452621.542 4  -4074765.74445  24452624.64745      1058.458
  -2935622.723 3  24812140.188 3  -1780959.27145  24812141.29645     -3197.078
 -11326096.261 6  22712619.252 6  -8633456.47046  22712619.44746      2580.209
 -19569684.209 7  21690026.560 7 -14691441.61346  21690029.98746     -2125.045
 -24247944.190 8  20651553.485 8 -18540221.54147  20651553.81947     -1151.272
 -20031555.207 7  21461341.664 7 -15285573.75047  21461341.06047      -452.811
 15  1 19  0 49 30.0000000  0  7G02G05G12G21G25G29G31
   1322549.076 4  25097802.933 4   8489402.64245  25097801.40345     -3073.634
  -5421820.250 4  24446625.370 4  -4099318.93045  24446621.78345      1042.201
  -2839652.151 4  24830402.812 4  -1706177.02145  24830404.20245     -3200.915
 -11403349.295 6  22697918.481 6  -8693653.61546  22697919.03946      2569.980
 -19505767.734 7  21702189.469 7 -14641636.56446  21702192.65046     -2136.060
 -24213245.670 8  20658156.399 8 -18513183.73447  20658156.49347     -1161.940
 -20017682.973 7  21463981.458 7 -15274764.22147  21463980.81747      -472.007
 15  1 19  0 50  0.0000000  0  7G02G05G12G21G25G29G31
   1414843.711 3  25115366.056 3   8561320.57445  25115364.29745     -3079.307
  -5452840.834 4  24440722.307 4  -4123490.78645  24440723.37345      1025.831
  -2743566.491 3  24848687.270 3  -1631305.04945  24848688.19145     -3204.773
 -11480295.125 6  22683276.161 6  -8753611.38446  22683276.94146      2559.714
 -19441520.561 7  21714415.321 7 -14591573.84046  21714418.86946     -2147.078
 -24178228.171 8  20664820.013 8 -18485897.37347  20664820.10747     -1172.533
 -20003235.026 7  21466730.808 7 -15263506.07947  21466730.33447      -491.197
 15  1 19  0 50 30.0000000  0  7G02G05G12G21G25G29G31
   1507307.861 1  25132961.188 1   8633370.69845  25132964.03945     -3084.944
  -5483369.916 5  24434912.855 5  -4147279.65845  24434914.00545      1009.410
  -2647365.498 4  24866993.723 4  -1556343.26945  24866993.11945     -3208.607
 -11556931.567 6  22668692.724 6  -8813328.06546  22668694.00046      2549.375
 -19376943.253 7  21726703.983 7 -14541253.86346  21726707.39446     -2158.086
 -24142893.140 8  20671544.045 8 -18458363.58547  20671544.11647     -1183.137
 -19988211.648 8  21469589.660 8 -15251799.55847  21469589.38747      -510.364
 15  1 19  0 51  0.0000000  0  7G02G05G12G21G25G29G31
   1599939.697 2  25150588.315 2   8705551.30145  25150588.33445     -3090.485
  -5513405.391 5  24429197.280 5  -4170683.93645  24429198.68945       992.943
  -2551050.326 5  24885321.992 5  -1481292.49245  24885323.09545     -3212.411
 -11633257.015 6  22654168.469 6  -8872802.42646  22654169.65446      2538.984
 -19312036.326 7  21739055.383 7 -14490677.05246  21739058.86046     -2169.057
 -24107241.011 8  20678328.413 8 -18430582.70747  20678328.37847     -1193.663
 -19972613.368 8  21472557.919 8 -15239645.05947  21472557.41547      -529.513
 15  1 19  0 51 30.0000000  0  7G02G05G12G21G25G29G31
   1692736.629 2  25168247.124 2   8777860.62245  25168244.06045     -3095.939
  -5542945.740 5  24423575.927 5  -4193702.31945  24423575.79845       976.415
  -2454622.193 4  24903671.634 4  -1406153.63545  24903672.00545     -3216.161
 -11709269.907 6  22639703.713 6  -8932033.23346  22639704.27346      2528.523
 -19246800.375 7  21751469.407 7 -14439843.87446  21751472.65946     -2180.005
 -24071273.625 8  20685172.775 8 -18402556.17347  20685172.89247     -1204.157
 -19956440.727 7  21475635.475 7 -15227043.01147  21475635.04347      -548.650
 15  1 19  0 52  0.0000000  0  7G02G05G12G21G25G29G31
   1785696.697 2  25185936.968 2   8850296.99445  25185930.41045     -3101.378
  -5571989.405 5  24418049.080 5  -4216333.71745  24418049.93045       959.812
  -2358081.691 5  24922042.714 5  -1330927.29445  24922041.98045     -3219.883
 -11784968.747 6  22625298.672 6  -8991019.32846  22625299.25846      2518.047
 -19181235.957 7  21763945.907 7 -14388754.72846  21763949.35446     -2190.949
 -24034992.325 8  20692076.877 8 -18374285.02647  20692077.17547     -1214.603
 -19939694.338 7  21478822.210 7 -15213993.87947  21478821.70247      -567.778
 15  1 19  0 52 30.0000000  0  7G02G05G12G21G25G29G31
   1878817.935 2  25203657.378 2   8922858.84845  25203654.25045     -3106.681
  -5600534.454 5  24412617.087 5  -4238576.56645  24412615.94845       943.170
  -2261429.412 5  24940435.063 5  -1255613.83745  24940433.50845     -3223.582
 -11860351.495 6  22610953.827 6  -9049759.12446  22610954.88846      2507.461
 -19115343.631 7  21776484.831 7 -14337410.07346  21776488.50746     -2201.862
 -23998398.204 8  20699040.507 8 -18345770.13047  20699040.58347     -1225.001
 -19922374.391 7  21482118.089 7 -15200497.83947  21482117.55247      -586.885
 15  1 19  0 53  0.0000000  0  7G02G05G12G21G25G29G31
   1972098.110 2  25221407.853 2   8995544.78345  25221408.62745     -3111.959
  -5628579.100 5  24407280.356 5  -4260429.51645  24407282.39445       926.441
  -2164666.427 5  24958848.445 5  -1180214.10145  24958848.72245     -3227.290
 -11935416.504 6  22596669.406 6  -9108251.31146  22596669.81546      2496.859
 -19049124.010 7  21789086.012 7 -14285810.38046  21789089.78846     -2212.771
 -23961492.215 8  20706063.487 8 -18317012.21347  20706063.49347     -1235.395
 -19904481.136 7  21485523.061 7 -15186555.05047  21485522.87247      -605.996
 15  1 19  0 53 30.0000000  0  7G02G05G12G21G25G29G31
   2065535.101 3  25239188.372 3   9068352.91745  25239186.99145     -3117.155
  -5656121.736 5  24402039.204 5  -4281891.23845  24402038.47345       909.708
  -2067793.161 5  24977282.828 5  -1104728.44545  24977283.28745     -3230.938
 -12010162.187 6  22582445.764 6  -9166494.68846  22582446.06546      2486.189
 -18982577.642 7  21801749.377 7 -14233956.08346  21801752.64246     -2223.646
 -23924275.475 8  20713145.597 8 -18288012.15947  20713145.77447     -1245.723
 -19886015.374 7  21489036.980 7 -15172166.15247  21489036.72247      -625.066
 15  1 19  0 54  0.0000000  0  7G02G05G12G21G25G29G31
   2159126.442 4  25256998.245 4   9141281.21945  25256992.82145     -3122.256
  -5683160.926 5  24396893.808 5  -4302960.72545  24396894.09445       892.890
  -1970811.123 5  24995737.916 5  -1029157.99745  24995739.81045     -3234.523
 -12084587.122 6  22568283.148 6  -9224488.12346  22568283.36546      2475.462
 -18915705.230 7  21814474.790 7 -14181847.73146  21814478.34746     -2234.499
 -23886749.766 8  20720286.501 8 -18258771.34947  20720286.48247     -1256.003
 -19866977.863 7  21492659.706 7 -15157331.74047  21492659.41547      -644.119
 15  1 19  0 54 30.0000000  0  7G02G05G12G21G25G29G31
   2252870.331 3  25274837.078 3   9214328.48545  25274836.84345     -3127.317
  -5709694.875 5  24391844.571 5  -4323636.56045  24391845.96845       876.020
  -1873720.982 5  25014213.573 5   -953503.35145  25014212.88445     -3238.115
 -12158689.929 6  22554181.864 6  -9282230.55046  22554182.49246      2464.693
 -18848507.266 7  21827262.145 7 -14129485.69646  21827265.65346     -2245.340
 -23848916.030 8  20727486.027 8 -18229290.51047  20727486.08447     -1266.245
 -19847368.811 7  21496391.187 7 -15142051.97447  21496391.09447      -663.152
 15  1 19  0 55  0.0000000  0  7G02G05G12G21G25G29G31
   2346764.658 4  25292704.453 4   9287492.88145  25292702.85945     -3132.315
  -5735721.817 5  24386891.759 5  -4343917.25445  24386892.52545       859.104
  -1776523.242 4  25032709.664 4   -877764.88345  25032711.16745     -3241.693
 -12232468.499 6  22540142.266 6  -9339720.34046  22540142.76646      2453.856
 -18780984.419 7  21840111.328 7 -14076870.49546  21840114.82046     -2256.179
 -23810775.712 8  20734743.899 8 -18199570.78447  20734744.18247     -1276.449
 -19827189.516 7  21500231.187 7 -15126327.86547  21500231.01247      -682.150
 15  1 19  0 55 30.0000000  0  7G02G05G12G21G25G29G31
   2440807.108 3  25310600.087 3   9360772.70945  25310597.64245     -3137.192
  -5761240.268 5  24382035.792 5  -4363801.75745  24382036.41145       842.110
  -1679219.056 4  25051226.032 4   -801943.40345  25051228.40845     -3245.235
 -12305921.175 6  22526164.671 6  -9396956.16746  22526165.22946      2442.957
 -18713137.328 7  21853022.213 7 -14024002.64246  21853025.87146     -2266.972
 -23772329.781 8  20742059.922 8 -18169612.92147  20742060.23747     -1286.609
 -19806440.200 7  21504179.666 7 -15110159.58347  21504179.46447      -701.147
 15  1 19  0 56  0.0000000  0  7G02G05G12G21G25G29G31
   2534995.606 3  25328523.404 3   9434166.40945  25328520.45945     -3142.026
  -5786248.452 5  24377276.862 5  -4383288.63645  24377276.25245       825.082
  -1581809.001 4  25069762.605 4   -726039.48345  25069763.59445     -3248.756
 -12379046.493 6  22512249.346 6  -9453936.92746  22512249.90846      2432.042
 -18644966.620 7  21865994.667 7 -13970882.62946  21865998.30446     -2277.737
 -23733579.661 8  20749433.824 8 -18139418.03247  20749433.89247     -1296.723
 -19785121.356 7  21508236.517 7 -15093547.51347  21508236.20947      -720.112
 15  1 19  0 56 30.0000000  0  7G02G05G12G21G25G29G31
   2629328.043 5  25346474.457 5   9507672.18245  25346468.68845     -3146.788
  -5810744.932 5  24372615.302 5  -4402376.79645  24372616.81845       807.990
  -1484294.147 4  25088319.047 4   -650053.86445  25088320.55445     -3252.254
 -12451842.827 6  22498396.667 6  -9510661.32746  22498396.91846      2421.044
 -18576472.919 7  21879028.584 7 -13917510.93146  21879032.13346     -2288.496
 -23694526.993 8  20756865.302 8 -18108987.38847  20756865.36447     -1306.798
 -19763233.856 8  21512401.595 8 -15076492.33247  21512401.34647      -739.062
 15  1 19  0 57  0.0000000  0  8G02G05G12G16G21G25G29G31
   2723802.500 4  25364452.300 4   9581288.62745  25364450.31745     -3151.480
  -5834728.335 5  24368051.426 5  -4421065.12145  24368052.11245       790.875
  -1386675.063 3  25106895.309 3   -573987.16345  25106895.20345     -3255.698
    -16591.657 2  25275623.641 2                                      3319.000
 -12524308.767 6  22484606.847 6  -9567128.27746  22484606.87846      2410.012
 -18507656.886 7  21892123.839 7 -13863888.06346  21892127.55046     -2299.234
 -23655172.229 8  20764354.265 8 -18078321.33947  20764354.32647     -1316.842
 -19740778.285 7  21516674.771 7 -15058994.50847  21516674.64747      -757.987
 15  1 19  0 57 30.0000000  0  7G05G12G16G21G25G29G31
  -5858196.968 5  24363585.520 5  -4439352.36945  24363584.71445       773.688
  -1288952.895 3  25125491.262 3   -497839.94445  25125496.88845     -3259.112
   -116162.337 2  25256675.865 2                                      3319.015
 -12596442.710 6  22470880.229 6  -9623336.54546  22470880.34646      2398.911
 -18438519.173 7  21905280.308 7 -13810014.53346  21905283.93246     -2309.949
 -23615516.715 8  20771900.454 8 -18047420.94247  20771900.77047     -1326.825
 -19717755.435 7  21521055.885 7 -15041054.64047  21521055.71847      -776.872
 15  1 19  0 58  0.0000000  0  7G05G12G16G21G25G29G31
  -5881149.073 5  24359217.827 5  -4457237.13645  24359220.81145       756.445
  -1191128.643 2  25144106.470 2   -421613.28645  25144104.78045     -3262.515
   -215733.608 4  25237728.145 4                                      3319.012
 -12668243.181 6  22457217.023 6  -9679284.94646  22457217.31846      2387.769
 -18369060.435 7  21918497.867 7 -13755890.86846  21918501.47246     -2320.638
 -23575562.359 8  20779503.517 8 -18016287.67547  20779503.65347     -1336.799
 -19694166.202 8  21525544.783 8 -15022673.43847  21525544.44847      -795.752
 15  1 19  0 58 30.0000000  0  7G05G12G16G21G25G29G31
  -5903583.964 5  24354948.573 5  -4474718.78245  24354948.85045       739.170
  -1093202.827 2  25162741.136 2   -345307.59345  25162746.13945     -3265.858
   -315304.329 3  25218780.320 3                                      3319.002
 -12739708.487 6  22443617.619 6  -9734972.17246  22443618.12146      2376.578
 -18299281.348 7  21931776.396 7 -13701517.57346  21931780.35546     -2331.293
 -23535309.713 8  20787163.343 8 -17984921.97747  20787163.77847     -1346.713
 -19670011.060 7  21530141.361 7 -15003851.27047  21530141.47047      -814.591
 15  1 19  0 59  0.0000000  0  7G05G12G16G21G25G29G31
  -5925499.510 5  24350778.217 5  -4491795.86845  24350778.49645       721.846
   -995176.572 2  25181394.914 2   -268923.44945  25181398.60145     -3269.231
   -414873.367 4  25199832.950 4                                      3318.929
 -12810836.942 6  22430082.305 6  -9790396.92546  22430082.58646      2365.316
 -18229182.602 7  21945115.756 7 -13646895.18746  21945119.32046     -2341.964
 -23494760.066 8  20794879.681 8 -17953324.85047  20794879.98647     -1356.594
 -19645291.014 7  21534845.435 7 -14984588.91447  21534845.21447      -833.414
 15  1 19  0 59 30.0000000  0  7G05G12G16G21G25G29G31
  -5946894.043 5  24346706.928 5  -4508466.89545  24346708.60845       704.465
   -897050.696 2  25200067.722 2   -192461.79245  25200068.98345     -3272.502
   -514439.376 5  25180886.192 5                                      3318.816
 -12881627.165 6  22416611.345 6  -9845558.12946  22416611.51046      2354.016
 -18158764.839 7  21958515.833 7 -13592024.23446  21958519.18346     -2352.566
 -23453914.937 8  20802652.244 8 -17921497.47547  20802652.45547     -1366.425
 -19620006.832 7  21539656.864 7 -14964886.98047  21539656.60547      -852.202
 15  1 19  1  0  0.0000000  0  7G05G12G16G21G25G29G31
  -5967766.497 5  24342735.026 5  -4524731.11945  24342736.54245       687.010
   -798825.761 3  25218759.399 3   -115922.82945  25218758.67145     -3275.816
   -614001.279 5  25161940.180 5                                      3318.653
 -12952077.565 6  22403205.071 6  -9900454.53446  22403206.00846      2342.669
 -18088028.775 7  21971976.460 7 -13536905.23946  21971979.80946     -2363.156
 -23412775.319 8  20810480.845 8 -17889440.62947  20810481.13247     -1376.213
 -19594159.210 7  21544575.521 7 -14944745.98547  21544574.99547      -870.964
 15  1 19  1  0 30.0000000  0  7G05G12G16G21G25G29G31
  -5988115.628 5  24338862.697 5  -4540587.54745  24338863.03145       669.546
   -700503.192 3  25237469.540 3    -39307.90645  25237470.23045     -3279.024
   -713557.901 5  25142995.224 5                                      3318.459
 -13022186.876 6  22389863.701 6  -9955085.14446  22389863.73546      2331.289
 -18016975.106 7  21985497.514 7 -13481538.76646  21985501.07146     -2373.737
 -23371342.657 8  20818365.202 8 -17857155.44447  20818365.15747     -1385.959
 -19567749.445 8  21549601.156 8 -14924166.96747  21549600.91147      -889.696
 15  1 19  1  1  0.0000000  0  7G05G12G16G21G25G29G31
  -6007939.877 5  24335090.254 5  -4556035.01945  24335090.11745       652.023
   -602083.601 4  25256198.165 4     37382.69045  25256197.03045     -3282.274
   -813108.368 5  25124051.347 5    -36197.92545  25124054.19745      3318.225
 -13091953.722 6  22376587.483 6 -10009448.89546  22376587.86646      2319.831
 -17945604.543 7  21999078.878 7 -13425925.35146  21999083.05246     -2384.290
 -23329618.520 8  20826305.042 8 -17824643.12947  20826305.34047     -1395.664
 -19540778.090 8  21554733.671 8 -14903150.34747  21554733.31947      -908.399
 15  1 19  1  1 30.0000000  0  7G05G12G16G21G25G29G31
  -6027237.692 5  24331418.001 5  -4571072.27245  24331420.11745       634.477
   -503567.625 4  25274945.126 4    114148.36145  25274944.81545     -3285.444
   -912651.263 4  25105108.956 4   -113763.78445  25105106.93245      3317.969
 -13161376.140 6  22363376.831 6 -10063544.26546  22363376.92946      2308.306
 -17873917.776 7  22012720.434 7 -13370065.53846  22012724.40146     -2394.826
 -23287603.383 8  20834300.262 8 -17791904.06447  20834300.44647     -1405.335
 -19513245.829 7  21559972.912 7 -14881696.65847  21559972.56847      -927.083
 15  1 19  1  2  0.0000000  0  7G05G12G16G21G25G29G31
  -6046008.150 5  24327846.069 5  -4585698.57845  24327845.98245       616.882
   -404956.588 5  25293710.243 5    190988.13345  25293711.26245     -3288.601
  -1012185.241 4  25086168.253 4   -191322.61045  25086172.41745      3317.650
 -13230452.712 6  22350231.979 6 -10117370.15846  22350232.63646      2296.774
 -17801915.586 7  22026422.008 7 -13313959.95646  22026425.71746     -2405.331
 -23245299.092 8  20842350.498 8 -17758939.68847  20842350.74747     -1414.948
 -19485154.022 7  21565318.627 7 -14859806.95247  21565318.46547      -945.707
 15  1 19  1  2 30.0000000  0  7G05G12G16G21G25G29G31
  -6064249.901 5  24324374.768 5  -4599912.95545  24324376.99945       599.221
   -306251.269 5  25312493.258 5    267901.38145  25312495.46545     -3291.744
  -1111709.283 4  25067229.395 4   -268873.86645  25067228.32145      3317.274
 -13299182.234 6  22337153.168 6 -10170925.61046  22337153.91846      2285.184
 -17729598.642 7  22040183.488 7 -13257609.10546  22040186.79846     -2415.805
 -23202706.418 8  20850455.623 8 -17725750.59247  20850455.72347     -1424.556
 -19456503.747 7  21570770.611 7 -14837482.06747  21570770.29347      -964.319
 15  1 19  1  3  0.0000000  0  7G05G12G16G21G25G29G31
  -6081961.408 5  24321004.334 5  -4613714.06245  24321005.53345       581.516
   -207452.354 5  25331294.100 5    344887.50945  25331292.72445     -3294.855
  -1211222.195 4  25048292.752 4   -346416.31545  25048292.90045      3316.874
 -13367563.245 6  22324140.669 6 -10224209.49346  22324141.12946      2273.531
 -17656967.727 7  22054004.712 7 -13201013.60446  22054008.52646     -2426.246
 -23159826.357 8  20858615.427 8 -17692337.56147  20858615.46447     -1434.117
 -19427295.504 8  21576328.766 8 -14814722.41047  21576328.56547      -982.902
 15  1 19  1  3 30.0000000  0  7G05G12G16G21G25G29G31
  -6099141.506 5  24317735.100 5  -4627101.10845  24317734.92245       563.807
   -108560.719 5  25350112.537 5    421945.93045  25350116.79145     -3297.938
  -1310722.769 3  25029358.375 3   -423949.17945  25029360.80245      3316.474
 -13435593.999 6  22311194.842 6 -10277220.44546  22311195.47146      2261.846
 -17584023.545 7  22067885.543 7 -13144173.99246  22067889.15946     -2436.695
 -23116660.293 8  20866829.660 8 -17658701.66147  20866829.81847     -1443.624
 -19397530.516 7  21581992.861 7 -14791528.93547  21581992.70347     -1001.450
 15  1 19  1  4  0.0000000  0  7G05G12G16G21G25G29G31
  -6115788.768 5  24314567.180 5  -4640072.99045  24314566.88045       546.026
     -9577.358 5  25368948.440 5    499075.85045  25368951.74845     -3300.956
  -1410209.731 4  25010426.659 4   -501471.44445  25010429.51845      3315.999
 -13503273.601 6  22298315.833 6 -10329957.77146  22298316.05546      2250.105
 -17510766.891 7  22081825.841 7 -13087090.90546  22081829.41646     -2447.093
 -23073209.680 8  20875098.034 8 -17624844.04747  20875098.32247     -1453.094
 -19367209.568 7  21587762.755 7 -14767902.23347  21587762.21247     -1019.960
 15  1 19  1  4 30.0000000  0  7G05G12G16G21G25G29G31
  -6131902.079 5  24311500.941 5  -4652628.79745  24311501.61345       528.205
     89496.633 4  25387801.646 4    576276.34345  25387802.28645     -3303.951
  -1509681.794 3  24991497.673 3   -578982.08645  24991502.23145      3315.472
 -13570600.156 6  22285504.006 6 -10382420.00846  22285504.18146      2238.313
 -17437198.489 7  22095825.447 7 -13029764.90546  22095828.94146     -2457.453
 -23029475.819 8  20883420.304 8 -17590765.71547  20883420.40547     -1462.515
 -19336333.973 7  21593638.192 7 -14743843.33547  21593637.85447     -1038.422
 15  1 19  1  5  0.0000000  0  7G05G12G16G21G25G29G31
  -6147480.290 5  24308536.455 5  -4664767.62645  24308537.85545       510.330
    188660.376 5  25406671.862 5    653546.80845  25406671.40145     -3306.936
  -1609137.776 3  24972571.891 3   -656480.16845  24972575.61245      3314.935
 -13637572.410 6  22272759.600 6 -10434606.16446  22272759.66646      2226.482
 -17363319.129 7  22109884.238 7 -12972196.58846  22109887.93146     -2467.805
 -22985459.848 8  20891796.267 8 -17556467.56147  20891796.72247     -1471.894
 -19304904.670 7  21599618.997 7 -14719352.97347  21599618.87047     -1056.867
 15  1 19  1  5 30.0000000  0  7G05G12G16G21G25G29G31
  -6162522.232 5  24305674.052 5  -4676488.56045  24305673.56445       492.449
    287912.790 5  25425558.940 5    730886.35745  25425560.99045     -3309.895
  -1708576.440 3  24953649.296 3   -733964.89945  24953647.99545      3314.316
 -13704189.016 6  22260082.863 6 -10486515.18946  22260082.82546      2214.624
 -17289129.547 7  22124002.067 7 -12914386.54146  22124005.51146     -2478.150
 -22941163.077 8  20900225.671 8 -17521950.59247  20900225.70447     -1481.238
 -19272923.050 8  21605704.927 8 -14694432.23547  21605704.63247     -1075.251
 15  1 19  1  6  0.0000000  0  7G05G12G16G21G25G29G31
  -6177026.797 5  24302913.879 5  -4687790.81845  24302913.94145       474.510
    387253.103 5  25444462.839 5    808294.42445  25444464.05345     -3312.801
  -1807996.367 3  24934730.211 3   -811434.89845  24934728.54945      3313.699
 -13770448.803 6  22247474.060 6 -10538146.17546  22247473.97246      2202.692
 -17214630.535 7  22138178.782 7 -12856335.37246  22138182.20446     -2488.452
 -22896586.411 8  20908708.350 8 -17487215.52947  20908708.50547     -1490.546
 -19240389.957 7  21611895.769 7 -14669081.78347  21611895.39747     -1093.619
 15  1 19  1  6 30.0000000  0  7G05G12G16G21G25G29G31
  -6190992.785 5  24300256.242 5  -4698673.32745  24300256.46945       456.518
    486680.958 5  25463383.322 5    885770.64445  25463381.98645     -3315.710
  -1907396.298 2  24915814.998 2   -888889.23645  24915815.54545      3312.991
 -13836350.058 6  22234933.461 6 -10589497.80146  22234933.97046      2190.720
 -17139822.892 7  22152414.218 7 -12798043.71746  22152417.82446     -2498.720
 -22851730.984 8  20917244.068 8 -17452263.25347  20917244.15047     -1499.806
 -19207306.407 8  21618191.378 8 -14643302.39447  21618191.18647     -1111.951
 15  1 19  1  7  0.0000000  0  7G05G12G16G21G25G29G31
  -6204419.115 5  24297701.308 5  -4709135.39645  24297701.00545       438.553
    586195.016 5  25482320.203 5    963313.99845  25482318.62345     -3318.541
  -2006775.248 2  24896903.769 2   -966327.38745  24896901.25045      3312.282
 -13901891.584 6  22222461.322 6 -10640569.10146  22222461.89346      2178.699
 -17064707.397 6  22166708.228 6 -12739512.16546  22166712.82446     -2508.982
 -22806598.527 8  20925832.500 8 -17417095.11047  20925832.51747     -1509.012
 -19173673.625 7  21624591.487 7 -14617095.04747  21624591.39147     -1130.232
 15  1 19  1  7 30.0000000  0  7G05G12G16G21G25G29G31
  -6217304.750 5  24295249.197 5  -4719176.09845  24295250.55445       420.492
    685794.201 4  25501273.397 4   1040923.72345  25501279.90045     -3321.383
  -2106131.815 3  24877996.877 3  -1043748.08845  24877997.78445      3311.497
 -13967071.788 6  22210057.940 6 -10691358.84446  22210058.34246      2166.634
 -16989284.892 7  22181060.662 7 -12680741.38946  22181063.80946     -2519.203
 -22761190.007 8  20934473.460 8 -17381711.85747  20934473.79147     -1518.217
 -19139493.000 7  21631095.852 7 -14590460.81047  21631095.39847     -1148.479
 15  1 19  1  8  0.0000000  0  7G05G12G16G21G25G29G31
  -6229648.593 5  24292900.243 5  -4728794.67445  24292900.55545       402.407
    785477.739 4  25520242.541 4                                     -3324.182
  -2205464.562 2  24859094.425 2  -1121150.15045  24859096.25745      3310.671
 -14031889.479 6  22197723.515 6 -10741866.13746  22197724.03346      2154.520
 -16913556.165 6  22195471.374 6 -12621732.02146  22195474.88846     -2529.371
 -22715506.167 8  20943166.812 8 -17346114.07147  20943167.02247     -1527.366
 -19104765.505 8  21637704.281 8 -14563400.42947  21637704.00347     -1166.687
 15  1 19  1  8 30.0000000  0  7G05G12G16G21G25G29G31
  -6241449.346 5  24290654.604 5  -4737990.09045  24290654.78645       384.298
    885244.407 3  25539227.427 3                                     -3326.910
  -2304772.571 2  24840196.693 2  -1198532.94945  24840199.67945      3309.824
 -14096343.861 7  22185458.246 7 -10792090.31446  22185458.51146      2142.411
 -16837522.044 6  22209940.194 6 -12562484.66846  22209944.12646     -2539.558
 -22669548.777 8  20951912.221 8 -17310303.11847  20951912.59847     -1536.462
 -19069492.459 7  21644416.529 7 -14535914.94647  21644416.13047     -1184.851
 15  1 19  1  9  0.0000000  0  7G05G12G16G21G25G29G31
  -6252706.449 5  24288512.406 5  -4746761.79845  24288512.15145       366.135
    985093.555 3  25558228.055 3                                     -3329.669
  -2404054.076 3  24821303.969 3  -1275895.13345  24821303.36945      3308.922
 -14160433.137 6  22173262.438 6 -10842029.99146  22173263.02446      2130.211
 -16761183.353 6  22224466.965 6 -12502999.99346  22224470.31646     -2549.693
 -22623318.685 8  20960709.518 8 -17274279.67147  20960709.77747     -1545.537
 -19033674.875 7  21651232.405 7 -14508005.15147  21651231.93047     -1202.974
 15  1 19  1  9 30.0000000  0  7G05G12G16G21G25G29G31
  -6263418.674 5  24286473.898 5  -4755108.95545  24286474.25445       347.986
   1085024.296 3  25577244.270 3                                     -3332.378
  -2503307.703 3  24802416.598 3  -1353235.61145  24802417.45645      3307.956
 -14224155.845 7  22161136.407 7 -10891684.03546  22161136.41746      2117.957
 -16684540.897 6  22239051.556 6 -12443278.61246  22239055.02846     -2559.803
 -22576817.124 8  20969558.473 8 -17238044.68947  20969558.68347     -1554.568
 -18997314.370 8  21658151.599 8 -14479672.29447  21658151.32947     -1221.060
 15  1 19  1 10  0.0000000  0  7G05G12G16G21G25G29G31
  -6273585.310 5  24284539.246 5  -4763030.95645  24284539.60345       329.757
   1185035.638 2  25596275.833 2     46763.20845  25596281.21645     -3335.054
  -2602532.406 4  24783534.849 4  -1430553.60845  24783535.77745      3307.023
 -14287510.612 7  22149080.388 7 -10941051.37946  22149080.50246      2105.674
 -16607595.533 6  22253693.780 6 -12383321.20046  22253697.87546     -2569.882
 -22530045.756 8  20978458.768 8 -17201599.47347  20978459.02747     -1563.539
 -18960411.973 7  21665173.903 7 -14450917.19247  21665173.65747     -1239.101
 15  1 19  1 10 30.0000000  0  6G05G16G21G25G29G31
  -6283204.569 5  24282708.712 5  -4770526.42745  24282707.90945       311.521
  -2701726.817 3  24764658.697 3  -1507847.91945  24764657.67245      3305.940
 -14350496.679 7  22137094.553 7 -10990131.42246  22137095.02646      2093.367
 -16530348.114 6  22268393.478 6 -12323128.42446  22268397.17046     -2579.940
 -22483005.278 8  20987410.280 8 -17164944.55547  20987410.41347     -1572.489
 -18922969.060 7  21672299.062 7 -14421740.90447  21672298.72947     -1257.095
 15  1 19  1 11  0.0000000  0  6G05G16G21G25G29G31
  -6292276.365 5  24280982.384 5  -4777595.33545  24280984.25445       293.257
  -2800889.562 4  24745788.691 4  -1585117.61945  24745786.98545      3304.889
 -14413112.412 7  22125179.150 7 -11038922.88546  22125179.44146      2081.030
 -16452799.501 6  22283150.512 6 -12262700.94546  22283154.67146     -2589.976
 -22435696.967 8  20996412.753 8 -17128080.93847  20996412.85147     -1581.394
 -18884987.129 7  21679526.796 7 -14392144.60947  21679526.48247     -1275.038
 15  1 19  1 11 30.0000000  0  6G05G16G21G25G29G31
  -6300799.666 5  24279360.387 5  -4784236.80645  24279359.40245       274.960
  -2900019.477 4  24726924.880 4  -1662361.71145  24726924.27145      3303.759
 -14475356.900 7  22113334.423 7 -11087425.06246  22113334.76546      2068.605
 -16374950.541 6  22297964.685 6 -12202039.43446  22297968.48946     -2599.965
 -22388121.899 8  21005465.976 8 -17091009.44947  21005466.40247     -1590.269
 -18846467.383 7  21686856.866 7 -14362129.23747  21686856.57047     -1292.951
 15  1 19  1 12  0.0000000  0  6G05G16G21G25G29G31
  -6308773.578 5  24277842.969 5  -4790450.18145  24277844.40245       256.603
  -2999114.695 5  24708067.680 5  -1739578.77645  24708068.39245      3302.599
 -14537228.444 7  22101560.651 7 -11135636.65746  22101560.87046      2056.162
 -16296802.105 6  22312835.849 6 -12141144.57346  22312839.43546     -2609.934
 -22340281.303 8  21014569.729 8 -17053731.07147  21014570.07147     -1599.103
 -18807411.024 7  21694289.057 7 -14331695.73347  21694289.00447     -1310.814
 15  1 19  1 12 30.0000000  0  6G05G16G21G25G29G31
  -6316197.239 5  24276430.302 5  -4796234.85745  24276429.45945       238.262
  -3098174.092 5  24689217.346 5  -1816767.98345  24689221.85645      3301.373
 -14598726.163 7  22089858.016 7 -11183556.93946  22089858.09846      2043.674
 -16218355.094 6  22327763.839 6 -12080017.05246  22327767.65246     -2619.864
 -22292176.505 8  21023723.775 8 -17016246.81347  21023724.16547     -1607.878
 -18767819.726 7  21701823.035 7 -14300845.38347  21701822.66047     -1328.616
 15  1 19  1 13  0.0000000  0  6G05G16G21G25G29G31
  -6323069.634 5  24275122.541 5  -4801589.98045  24275120.37045       219.890
  -3197196.380 5  24670374.047 5  -1893928.11945  24670377.81445      3300.099
 -14659849.104 7  22078226.692 7 -11231185.19946  22078226.49946      2031.173
 -16139610.335 6  22342748.478 6 -12018657.49846  22342752.32946     -2629.770
 -22243808.747 8  21032927.867 8 -16978557.64847  21032928.19847     -1616.632
 -18727695.022 7  21709458.533 7 -14269579.39947  21709458.30347     -1346.373
 15  1 19  1 13 30.0000000  0  6G05G16G21G25G29G31
  -6329389.989 5  24273919.743 5  -4806514.93445  24273921.51245       201.468
  -3296180.107 5  24651538.120 5  -1971058.39245  24651540.13845      3298.796
 -14720595.382 7  22066667.038 7 -11278519.94746  22066666.79446      2018.579
 -16060568.795 6  22357789.584 6 -11957066.69746  22357793.32246     -2639.644
 -22195179.023 8  21042181.808 8 -16940664.36247  21042182.08247     -1625.349
 -18687037.846 7  21717195.356 7 -14237898.49547  21717195.15547     -1364.107
 15  1 19  1 14  0.0000000  0  6G05G16G21G25G29G31
  -6335157.666 4  24272822.126 4  -4811009.11145  24272825.82345       183.012
  -3395124.122 5  24632709.734 5  -2048157.67545  24632716.85445      3297.425
 -14780963.864 7  22055179.263 7 -11325560.31146  22055179.61046      2005.971
 -15981231.345 6  22372887.005 6 -11895245.32746  22372890.74146     -2649.501
 -22146288.464 8  21051485.377 8 -16902567.82147  21051485.85047     -1634.035
 -18645849.895 7  21725033.181 7 -14205803.99747  21725032.80847     -1381.767
 15  1 19  1 14 30.0000000  0  6G05G16G21G25G29G31
  -6340371.789 4  24271829.890 4  -4815072.03045  24271828.44845       164.552
  -3494026.644 5  24613889.242 5  -2125224.64345  24613890.49545      3296.035
 -14840954.143 7  22043763.490 7 -11372305.97046  22043763.97446      1993.362
 -15901598.880 6  22388040.562 6 -11833194.07546  22388044.40146     -2659.324
 -22097138.079 8  21060838.404 8 -16864268.82847  21060838.90047     -1642.662
 -18604132.455 7  21732971.755 7 -14173296.91447  21732971.37247     -1399.391
 15  1 19  1 15  0.0000000  0  6G05G16G21G25G29G31
  -6345032.228 5  24270943.034 5  -4818703.52445  24270942.88845       146.082
  -3592886.524 5  24595076.855 5  -2202258.29845  24595079.50745      3294.604
 -14900564.350 7  22032420.037 7 -11418755.47446  22032420.53246      1980.646
 -15821672.325 6  22403250.087 6 -11770913.66546  22403254.01946     -2669.106
 -22047729.281 8  21070240.593 8 -16825768.46547  21070240.67047     -1651.253
 -18561887.163 7  21741010.774 7 -14140378.52247  21741010.54947     -1416.959
 15  1 19  1 15 30.0000000  0  6G05G16G21G25G29G31
  -6349137.048 5  24270161.887 5  -4821902.08045  24270163.35145       127.550
  -3691702.279 5  24576272.821 5  -2279257.68245  24576272.62845      3293.111
 -14959793.124 7  22021149.156 7 -11464907.74246  22021149.30846      1967.930
 -15741452.573 6  22418515.414 6 -11708404.80146  22418519.32846     -2678.856
 -21998063.237 8  21079691.717 8 -16787067.65147  21079691.84447     -1659.821
 -18519115.513 7  21749149.958 7 -14107049.97647  21749149.64447     -1434.481
 15  1 19  1 16  0.0000000  0  6G05G16G21G25G29G31
  -6352686.239 5  24269486.468 5  -4824667.62445  24269487.44745       109.058
  -3790472.446 5  24557477.488 5  -2356221.44245  24557475.73845      3291.558
 -15018639.950 7  22009950.954 7 -11510762.39746  22009951.27446      1955.188
 -15660940.557 6  22433836.351 6 -11645668.18746  22433839.76246     -2688.592
 -21948141.225 8  21089191.565 8 -16748167.38247  21089191.68647     -1668.321
 -18475819.071 7  21757389.005 7 -14073312.50347  21757389.01547     -1451.947
 15  1 19  1 16 30.0000000  0  6G05G16G21G25G29G31
  -6355679.411 4  24268916.852 4  -4826999.87145  24268917.09445        90.492
  -3889195.196 5  24538691.183 5  -2433148.30145  24538691.67645      3289.956
 -15077103.620 7  21998825.689 7 -11556318.48946  21998826.16946      1942.380
 -15580137.221 6  22449212.726 6 -11582704.57146  22449216.38746     -2698.297
 -21897964.154 7  21098739.948 7 -16709068.37347  21098740.09047     -1676.805
 -18431999.313 7  21765727.626 7 -14039167.25147  21765727.20247     -1469.364
 15  1 19  1 17  0.0000000  0  6G05G16G21G25G29G31
  -6358115.715 4  24268453.188 4  -4828898.27245  24268451.69245        71.912
  -3987869.958 5  24519914.006 5  -2510037.72945  24519912.20845      3288.331
 -15135182.783 7  21987773.574 7 -11601574.97046  21987773.29946      1929.556
 -15499043.504 6  22464644.359 6 -11519514.66246  22464648.18646     -2707.944
 -21847533.658 7  21108336.556 7 -16669771.90047  21108336.65647     -1685.237
 -18387657.928 7  21774165.510 7 -14004615.53347  21774165.55047     -1486.727
 15  1 19  1 17 30.0000000  0  6G05G16G21G25G29G31
  -6359994.263 5  24268095.727 5  -4830362.06045  24268096.57845        53.299
  -4086494.768 4  24501146.299 4  -2586888.33445  24501150.91245      3286.654
 -15192876.485 7  21976794.820 7 -11646531.09546  21976795.14346      1916.691
 -15417660.386 6  22480131.051 6 -11456099.26146  22480135.09146     -2717.587
 -21796850.109 8  21117981.331 8 -16630278.22947  21117981.32247     -1693.662
 -18342796.162 7  21782702.423 7 -13969658.32847  21782702.27147     -1504.043
 15  1 19  1 18  0.0000000  0  6G05G16G21G25G29G31
  -6361314.676 5  24267844.388 5  -4831390.93245  24267845.18245        34.713
  -4185068.133 4  24482388.486 4  -2663698.77445  24482383.93645      3284.911
 -15250183.778 7  21965889.601 7 -11691186.11846  21965889.51546      1903.811
 -15335988.771 6  22495672.662 6 -11392459.06446  22495676.52246     -2727.192
 -21745914.768 7  21127674.004 7 -16590588.35947  21127674.47947     -1702.026
 -18297416.181 7  21791337.952 7 -13934297.32747  21791337.67647     -1521.293
 15  1 19  1 18 30.0000000  0  6G05G16G21G25G29G31
  -6362076.492 5  24267699.421 5  -4831984.53945  24267701.70145        16.089
  -4283588.531 4  24463640.682 4  -2740467.94245  24463641.59445      3283.135
 -15307103.435 7  21955058.128 7 -11735539.08746  21955058.12546      1890.847
 -15254029.640 6  22511268.973 6 -11328594.81646  22511273.24746     -2736.749
 -21694729.090 7  21137414.314 7 -16550703.41847  21137414.47347     -1710.357
 -18251519.431 7  21800071.834 7 -13898533.63947  21800071.69847     -1538.488
 15  1 19  1 19  0.0000000  0  6G05G16G21G25G29G31
  -6362279.057 4  24267660.795 4  -4832142.35245  24267661.66645        -2.575
  -4382054.725 4  24444903.210 4  -2817194.85445  24444908.36245      3281.296
 -15363634.012 7  21944300.713 7 -11779588.88746  21944300.95746      1877.862
 -15171784.003 6  22526919.820 6 -11264507.33246  22526923.50746     -2746.295
 -21643294.119 7  21147202.072 7 -16510624.22747  21147202.40047     -1718.637
 -18205107.374 7  21808903.778 7 -13862368.41447  21808903.50647     -1555.642
 15  1 19  1 19 30.0000000  0  6G05G16G21G25G29G31
  -6361921.874 5  24267728.753 5  -4831864.03645  24267731.46145       -21.239
  -4480465.140 3  24426176.284 3  -2893878.33245  24426175.23245      3279.401
 -15419774.666 7  21933617.499 7 -11823334.82946  21933618.01846      1864.834
 -15089252.820 6  22542625.016 6 -11200197.33446  22542628.88946     -2755.793
 -21591610.979 7  21157037.052 7 -16470351.65247  21157037.10447     -1726.899
 -18158181.601 7  21817833.475 7 -13825802.89347  21817833.00247     -1572.736
 15  1 19  1 20  0.0000000  0  6G05G16G21G25G29G31
  -6361004.592 5  24267903.266 5  -4831149.11145  24267902.73445       -39.927
  -4578818.304 4  24407460.309 4  -2970517.20045  24407462.02645      3277.474
 -15475524.667 7  21923008.624 7 -11866776.37046  21923009.07346      1851.811
 -15006437.028 6  22558384.368 6 -11135665.56446  22558387.79346     -2765.270
 -21539680.940 7  21166919.007 7 -16429886.68847  21166919.01847     -1735.103
 -18110744.098 7  21826860.551 7 -13788838.62247  21826860.19347     -1589.763
 15  1 19  1 20 30.0000000  0  6G05G16G21G25G29G31
  -6359526.460 4  24268184.491 4  -4829997.35845  24268186.22745       -58.627
  -4677112.738 3  24388755.494 3  -3047110.25545  24388758.62445      3275.459
 -15530882.941 7  21912474.293 7 -11909912.67746  21912474.46446      1838.727
 -14923337.636 6  22574197.699 6 -11070912.79346  22574200.89046     -2774.696
 -21487505.081 7  21176847.723 7 -16389230.17647  21176847.80547     -1743.284
 -18062796.444 7  21835984.689 7 -13751476.83047  21835984.63047     -1606.745
 15  1 19  1 21  0.0000000  0  6G05G16G21G25G29G31
  -6357487.633 5  24268572.530 5  -4828408.67745  24268569.08945       -77.304
  -4775346.545 4  24370062.208 4  -3123656.15445  24370061.82445      3273.426
 -15585848.222 7  21902014.727 7 -11952742.76046  21902015.03546      1825.605
 -14839955.698 6  22590064.767 6 -11005939.86146  22590068.40646     -2784.102
 -21435084.477 7  21186823.024 7 -16348382.95547  21186823.26247     -1751.428
 -18014340.350 7  21845205.592 7 -13713718.84947  21845205.05647     -1623.670
 15  1 19  1 21 30.0000000  0  6G05G16G21G25G29G31
  -6354886.963 5  24269067.311 5  -4826382.10245  24269069.11345       -96.068
  -4873518.631 5  24351380.779 5  -3200153.86845  24351381.18045      3271.345
 -15640419.505 7  21891630.135 7 -11995265.83446  21891630.44346      1812.521
 -14756292.174 6  22605985.419 6 -10940747.52546  22605989.07646     -2793.469
 -21382420.376 7  21196844.642 7 -16307346.00147  21196844.57847     -1759.511
 -17965377.398 7  21854522.949 7 -13675565.91347  21854522.83947     -1640.529
 15  1 19  1 22  0.0000000  0  6G05G16G21G25G29G31
  -6351724.178 5  24269669.207 5  -4823917.58745  24269669.98745      -114.802
  -4971627.331 4  24332711.302 4  -3276602.15145  24332712.07745      3269.193
 -15694596.524 7  21881320.587 7 -12037481.68346  21881321.28746      1799.284
 -14672348.085 6  22621959.460 6 -10875336.56246  22621962.98146     -2802.793
 -21329513.678 7  21206912.439 7 -16266120.00147  21206912.69447     -1767.587
 -17915909.607 7  21863936.364 7 -13637019.60447  21863936.02947     -1657.322
 15  1 19  1 22 30.0000000  0  6G05G16G21G25G29G31
  -6347998.949 5  24270378.089 5  -4821014.82045  24270376.35645      -133.540
  -5069671.274 5  24314054.181 5  -3353000.13445  24314055.58045      3267.032
 -15748377.087 7  21871086.490 7 -12079388.59746  21871086.80646      1786.075
 -14588124.475 6  22637986.686 6 -10809707.78946  22637990.77646     -2812.103
 -21276365.301 7  21217026.232 7 -16224705.68847  21217026.46947     -1775.633
 -17865938.722 7  21873445.513 7 -13598081.26747  21873445.05247     -1674.062
 15  1 19  1 23  0.0000000  0  6G05G16G21G25G29G31
  -6343711.478 5  24271193.918 5  -4817673.89545  24271197.37145      -152.309
  -5167648.688 5  24295409.704 5  -3429346.14045  24295412.99845      3264.792
 -15801761.055 7  21860927.842 7 -12120986.48646  21860927.74546      1772.843
 -14503622.343 6  22654066.902 6 -10743862.00446  22654069.66546     -2821.362
 -21222976.515 7  21227185.773 7 -16183104.03747  21227185.90547     -1783.623
 -17815466.339 7  21883050.093 7 -13558752.15347  21883049.87647     -1690.758
 15  1 19  1 23 30.0000000  0  6G05G16G21G25G29G31
  -6338861.179 5  24272116.937 5  -4813894.43245  24272117.96445      -171.060
  -5265558.156 5  24276778.194 5  -3505639.26045  24276780.52745      3262.514
 -15854747.379 7  21850844.884 7 -12162274.51646  21850845.06446      1759.578
 -14418842.724 6  22670199.924 6 -10677799.98346  22670203.61946     -2830.601
 -21169348.919 7  21237390.759 7 -16141316.30247  21237390.94447     -1791.566
 -17764494.377 7  21892749.734 7 -13519033.76247  21892749.85747     -1707.377
 15  1 19  1 24  0.0000000  0  6G05G16G21G25G29G31
  -6333447.711 5  24273147.064 5  -4809676.12145  24273146.46845      -189.847
  -5363398.152 5  24258159.930 5  -3581878.25545  24258161.28745      3260.170
 -15907335.017 7  21840837.774 7 -12203251.88946  21840837.91746      1746.255
 -14333786.679 6  22686385.550 6 -10611522.56546  22686389.16246     -2839.796
 -21115482.941 7  21247641.115 7 -16099342.81947  21247641.43247     -1799.496
 -17713024.574 7  21902544.121 7 -13478927.44347  21902544.19147     -1723.937
 15  1 19  1 24 30.0000000  0  6G05G16G21G25G29G31
  -6327470.471 5  24274284.483 5  -4805018.52645  24274284.24645      -208.623
  -5461167.091 5  24239555.114 5  -3658061.86245  24239555.22545      3257.755
 -15959522.995 7  21830906.738 7 -12243917.83346  21830907.00446      1732.929
 -14248455.222 6  22702623.591 6 -10545030.52746  22702627.29346     -2848.960
 -21061379.873 7  21257936.596 7 -16057184.58847  21257937.10647     -1807.377
 -17661059.024 7  21912432.853 7 -13438434.83047  21912432.66147     -1740.435
 15  1 19  1 25  0.0000000  0  6G05G16G21G25G29G31
  -6320929.402 5  24275529.202 5  -4799921.57245  24275529.23745      -227.449
  -5558863.016 5  24220964.214 5  -3734188.56945  24220964.35445      3255.300
 -16011310.556 7  21821051.889 7 -12284271.76646  21821052.08146      1719.573
 -14162849.415 6  22718913.845 6 -10478324.73246  22718918.36846     -2858.091
 -21007040.836 7  21268276.987 7 -16014842.48847  21268277.52747     -1815.229
 -17608599.634 7  21922415.558 7 -13397557.39847  21922415.29147     -1756.867
 15  1 19  1 25 30.0000000  0  6G05G16G21G25G29G31
  -6313824.274 5  24276881.234 5  -4794385.03945  24276881.64945      -246.256
  -5656484.775 5  24202387.439 5  -3810257.44745  24202388.64345      3252.803
 -16062697.128 7  21811273.343 7 -12324313.24546  21811273.69746      1706.173
 -14076970.343 6  22735256.099 6 -10411405.99846  22735259.81746     -2867.181
 -20952466.998 7  21278662.075 7 -15972317.42347  21278662.36647     -1823.031
 -17555647.985 7  21932491.934 7 -13356296.38646  21932491.64846     -1773.242
 15  1 19  1 26  0.0000000  0  6G05G16G21G25G29G31
  -6306155.140 5  24278340.677 5  -4788409.13845  24278342.87445      -265.052
  -5754030.742 5  24183825.050 5  -3886267.33745  24183825.69445      3250.258
 -16113681.012 7  21801571.427 7 -12364040.93646  21801572.00646      1692.747
 -13990819.078 6  22751650.142 6 -10344275.15446  22751653.52346     -2876.241
 -20897659.666 7  21289091.582 7 -15929610.42247  21289091.70747     -1830.786
 -17502206.067 7  21942661.612 7 -13314653.35146  21942661.42646     -1789.547
 15  1 19  1 26 30.0000000  0  6G05G16G21G25G29G31
  -6297921.455 4  24279907.387 4  -4781993.25345  24279909.55145      -283.857
  -5851499.328 5  24165277.407 5  -3962216.87845  24165277.61545      3247.629
 -16164262.016 7  21791946.173 7 -12403454.70546  21791946.96346      1679.303
 -13904396.667 6  22768095.811 6 -10276933.03846  22768099.50446     -2885.243
 -20842619.774 7  21299565.339 7 -15886722.19347  21299565.30947     -1838.530
 -17448275.914 7  21952924.201 7 -13272629.87046  21952924.05946     -1805.797
 15  1 19  1 27  0.0000000  0  6G05G16G21G25G29G31
  -6289123.529 5  24281581.714 5  -4775137.66145  24281581.60745      -302.677
  -5948888.709 5  24146744.837 5  -4038104.73145  24146744.48445      3244.958
 -16214438.963 7  21782397.804 7 -12442553.62146  21782398.01346      1665.811
 -13817704.213 6  22784592.839 6 -10209380.48046  22784596.76546     -2894.237
 -20787348.152 7  21310083.189 7 -15843653.40047  21310083.26547     -1846.244
 -17393859.330 7  21963279.352 7 -13230227.35846  21963279.08046     -1821.985
 15  1 19  1 27 30.0000000  0  6G05G16G21G25G29G31
  -6279760.628 5  24283363.362 5  -4767841.86945  24283362.68545      -321.512
  -6046197.226 5  24128227.645 5  -4113929.61045  24128226.82245      3242.254
 -16264210.838 7  21772926.536 7 -12481336.88546  21772926.82646      1652.304
 -13730742.791 6  22801141.053 6 -10141618.34446  22801144.35046     -2903.185
 -20731845.938 7  21320644.925 7 -15800404.93647  21320644.92047     -1853.910
 -17338958.252 7  21973726.698 7 -13187447.31646  21973726.29346     -1838.084
 15  1 19  1 28  0.0000000  0  6G05G16G21G25G29G31
  -6269832.807 5  24285252.563 5  -4760105.92945  24285253.76445      -340.343
  -6143423.590 5  24109726.130 5  -4189690.38545  24109727.86845      3239.473
 -16313577.214 7  21763532.412 7 -12519804.18646  21763532.69046      1638.768
 -13643513.482 6  22817740.244 6 -10073647.48946  22817743.68946     -2912.097
 -20676114.307 7  21331250.318 7 -15756977.69447  21331250.26647     -1861.535
 -17283574.777 7  21984265.836 7 -13144291.38746  21984265.83446     -1854.136
 15  1 19  1 28 30.0000000  0  6G05G16G21G25G29G31
  -6259340.451 5  24287249.214 5  -4751930.02545  24287250.34145      -359.162
  -6240566.135 5  24091240.542 5  -4265385.88145  24091240.51445      3236.674
 -16362537.283 7  21754215.620 7 -12557954.88346  21754215.90146      1625.232
 -13556017.411 6  22834390.202 6 -10005468.75246  22834393.54746     -2920.984
 -20620154.404 7  21341899.172 7 -15713372.53747  21341898.59247     -1869.135
 -17227710.931 7  21994896.379 7 -13100761.20647  21994896.42447     -1870.123
 15  1 19  1 29  0.0000000  0  6G05G16G21G25G29G31
  -6248283.401 5  24289353.273 5  -4743314.12345  24289354.17445      -377.971
  -6337623.151 5  24072771.236 5  -4341014.75845  24072771.01545      3233.784
 -16411090.642 7  21744976.237 7 -12595788.66346  21744976.79846      1611.634
 -13468255.697 6  22851090.685 6  -9937083.02646  22851094.10546     -2929.795
 -20563966.784 7  21352591.333 7 -15669590.03047  21352591.10747     -1876.699
 -17171368.567 7  22005617.991 7 -13056858.02746  22005617.61246     -1886.035
 15  1 19  1 29 30.0000000  0  6G05G16G21G25G29G31
  -6236661.411 5  24291564.896 5  -4734257.99445  24291566.81045      -396.828
  -6434592.689 5  24054318.555 5  -4416575.41645  24054315.84845      3230.877
 -16459235.325 7  21735814.601 7 -12633303.99646  21735814.88946      1598.010
 -13380229.453 6  22867841.549 6  -9868491.15546  22867845.01546     -2938.608
 -20507552.960 7  21363326.541 7 -15625631.20747  21363326.57147     -1884.222
 -17114549.816 7  22016430.273 7 -13012583.71346  22016430.21046     -1901.877
 15  1 19  1 30  0.0000000  0  6G05G16G21G25G29G31
  -6224474.522 5  24293883.915 5  -4724761.73445  24293885.59445      -415.639
  -6531473.736 5  24035882.654 5  -4492067.18245  24035882.46645      3227.857
 -16506971.339 7  21726730.712 7 -12670500.87846  21726730.77146      1584.386
 -13291939.755 6  22884642.530 6  -9799694.00746  22884646.56446     -2947.375
 -20450913.991 7  21374104.572 7 -15581496.94347  21374104.95447     -1891.699
 -17057256.665 7  22027332.828 7 -12967939.71446  22027332.79346     -1917.669
 15  1 19  1 30 30.0000000  0  6G05G16G21G25G29G31
  -6211722.881 5  24296310.519 5  -4714825.33345  24296310.90845      -434.481
  -6628264.000 5  24017464.075 5  -4567488.18145  24017464.75945      3224.803
 -16554297.740 7  21717724.799 7 -12707378.59046  21717724.87346      1570.700
 -13203387.769 6  22901493.433 6  -9730692.47846  22901497.65246     -2956.093
 -20394050.996 7  21384925.214 7 -15537188.11947  21384925.66847     -1899.149
 -16999491.122 7  22038325.271 7 -12922927.63346  22038324.77846     -1933.365
 15  1 19  1 31  0.0000000  0  6G05G16G21G25G29G31
  -6198406.101 5  24298844.551 5  -4704448.65445  24298845.22245      -453.325
  -6724962.105 5  23999063.080 5  -4642837.37945  23999063.60845      3221.715
 -16601214.162 7  21708796.886 7 -12743936.83546  21708797.16546      1557.028
 -13114574.667 6  22918394.033 6  -9661487.47646  22918398.49746     -2964.774
 -20336965.004 7  21395788.292 7 -15492705.53347  21395788.63947     -1906.567
 -16941255.020 7  22049407.262 7 -12877548.87546  22049407.28146     -1949.025
 15  1 19  1 31 30.0000000  0  6G05G16G21G25G29G31
  -6184524.680 5  24301486.229 5  -4693631.90545  24301487.01445      -472.135
  -6821566.377 5  23980679.862 5  -4718113.39545  23980679.94045      3218.559
 -16647719.454 7  21699947.209 7 -12780174.71346  21699947.76546      1543.309
 -13025501.539 6  22935344.100 6  -9592079.86046  22935347.76446     -2973.408
 -20279656.831 7  21406693.691 7 -15448049.83047  21406694.19547     -1913.975
 -16882550.791 7  22060578.322 7 -12831805.33746  22060578.20146     -1964.588
 15  1 19  1 32  0.0000000  0  6G05G16G21G25G29G31
  -6170078.597 5  24304235.105 5  -4682375.25145  24304238.22045      -490.929
  -6918074.984 5  23962314.893 5  -4793314.95745  23962316.50245      3215.309
 -16693812.824 7  21691175.941 7 -12816091.60946  21691176.23846      1529.576
 -12936169.508 6  22952343.421 6  -9522470.50546  22952346.86546     -2981.982
 -20222127.546 7  21417641.166 7 -15403221.83047  21417641.16447     -1921.313
 -16823380.675 7  22071838.038 7 -12785698.78146  22071838.00646     -1980.094
 15  1 19  1 32 30.0000000  0  6G05G16G21G25G29G31
  -6155068.366 5  24307091.602 5  -4670678.88945  24307089.59645      -509.748
  -7014486.192 5  23943968.415 5  -4868440.57245  23943969.52945      3212.050
 -16739493.864 7  21682483.109 7 -12851687.22146  21682483.69746      1515.816
 -12846579.835 6  22969391.761 6  -9452660.38946  22969396.09746     -2990.609
 -20164378.275 7  21428630.485 7 -15358222.39247  21428630.39647     -1928.639
 -16763746.633 7  22083186.032 7 -12739230.72246  22083185.87346     -1995.511
 15  1 19  1 33  0.0000000  0  6G05G16G21G25G29G31
  -6139493.709 5  24310055.220 5  -4658542.87145  24310058.19845      -528.562
  -7110798.401 5  23925640.857 5  -4943489.01645  23925640.66345      3208.740
 -16784761.758 7  21673868.916 7 -12886960.89147  21673869.67747      1502.035
 -12756733.621 6  22986488.985 6  -9382650.34946  22986493.55546     -2999.123
 -20106410.061 7  21439661.456 7 -15313052.36047  21439661.66747     -1935.903
 -16703650.695 7  22094621.928 7 -12692402.72746  22094622.18946     -2010.870
 15  1 19  1 33 30.0000000  0  6G05G16G21G25G29G31
  -6123354.698 5  24313126.474 5  -4645966.93145  24313123.13045      -547.375
  -7207009.964 5  23907332.408 5  -5018459.09245  23907333.61245      3205.360
 -16829616.003 7  21665333.437 7 -12921912.24547  21665334.11547      1488.257
 -12666632.006 6  23003634.797 6  -9312441.30746  23003639.06046     -3007.625
 -20048223.959 7  21450733.932 7 -15267712.55447  21450734.67247     -1943.160
 -16643095.199 7  22106145.287 7 -12645216.64646  22106145.60346     -2026.160
 15  1 19  1 34  0.0000000  0  6G05G16G21G25G29G31
  -6106651.700 5  24316304.901 5  -4632951.58545  24316305.28245      -566.163
  -7303119.161 5  23889043.464 5  -5093349.37145  23889043.46645      3201.910
 -16874056.045 7  21656876.780 7 -12956540.83547  21656877.33247      1474.412
 -12576276.184 6  23020828.967 6  -9242034.17846  23020833.51346     -3016.082
 -19989820.648 7  21461847.739 7 -15222203.48547  21461848.66447     -1950.382
 -16582082.057 7  22117755.719 7 -12597673.94946  22117756.00046     -2041.371
 15  1 19  1 34 30.0000000  0  6G05G16G21G25G29G31
  -6089384.778 5  24319590.619 5  -4619496.83045  24319593.37745      -584.970
  -7399124.228 5  23870774.323 5  -5168158.46045  23870773.15145      3198.417
 -16918080.708 7  21648499.158 7 -12990845.75747  21648499.71447      1460.566
 -12485667.363 6  23038071.275 6  -9171429.93146  23038075.92946     -3024.496
 -19931201.469 7  21473002.611 7 -15176526.19747  21473003.15747     -1957.559
 -16520613.576 7  22129452.827 7 -12549776.44146  22129453.08546     -2056.517
 15  1 19  1 35  0.0000000  0  6G05G16G21G25G29G31
  -6071554.345 5  24322983.693 5  -4605602.96245  24322984.63145      -603.740
  -7495023.335 5  23852525.276 5  -5242885.07045  23852526.69645      3194.853
 -16961689.810 7  21640200.633 7 -13024826.86447  21640201.28347      1446.695
 -12394806.705 6  23055361.509 6  -9100629.42746  23055365.94946     -3032.877
 -19872367.422 7  21484198.363 7 -15130681.49847  21484198.90247     -1964.702
 -16458691.965 7  22141236.139 7 -12501525.85146  22141236.53946     -2071.586
 15  1 19  1 35 30.0000000  0  6G05G16G21G25G29G31
  -6053160.765 5  24326483.866 5  -4591270.30845  24326484.80545      -622.526
  -7590814.732 5  23834296.802 5  -5317527.68645  23834298.34045      3191.223
 -17004882.446 7  21631981.353 7 -13058483.45647  21631982.12247      1432.811
 -12303695.408 6  23072699.438 6  -9029633.61646  23072702.63046     -3041.204
 -19813319.863 7  21495434.743 7 -15084670.41747  21495435.82047     -1971.806
 -16396319.421 7  22153105.261 7 -12452923.88646  22153105.70446     -2086.580
 15  1 19  1 36  0.0000000  0  6G05G16G21G25G29G31
  -6034204.120 5  24330091.155 5  -4576498.84345  24330093.19345      -641.273
  -7686496.847 5  23816089.166 5  -5392085.20545  23816092.26045      3187.573
 -17047658.175 7  21623841.416 7 -13091815.18947  21623842.07447      1418.899
 -12212334.693 6  23090084.844 6  -8958443.46846  23090088.90146     -3049.501
 -19754059.254 7  21506711.692 7 -15038493.33047  21506712.24647     -1978.890
 -16333498.078 7  22165059.763 7 -12403972.21046  22165060.23446     -2101.497
 15  1 19  1 36 30.0000000  0  6G05G16G21G25G29G31
  -6014684.703 5  24333805.645 5  -4561288.92445  24333804.87745      -660.011
  -7782067.929 5  23797902.650 5  -5466556.14145  23797903.11845      3183.828
 -17090016.264 7  21615780.930 7 -13124821.48047  21615781.37847      1404.970
 -12120725.749 6  23107517.500 6  -8887059.88346  23107521.35946     -3057.762
 -19694586.929 7  21518028.952 7 -14992151.26147  21518029.80547     -1985.941
 -16270230.344 7  22177099.219 7 -12354672.68746  22177099.87046     -2116.347
 15  1 19  1 37  0.0000000  0  6G05G16G21G25G29G31
  -5994603.025 5  24337627.056 5  -4545640.86145  24337627.57845      -678.759
  -7877526.268 5  23779737.513 5  -5540939.26845  23779738.87645      3180.045
 -17131956.099 7  21607800.056 7 -13157501.85647  21607800.88647      1391.015
 -12028869.793 6  23124997.134 6  -8815483.82346  23125001.77646     -3065.962
 -19634903.310 7  21529386.361 7 -14945644.54147  21529387.32147     -1992.956
 -16206518.317 7  22189223.223 7 -12305026.96446  22189223.79846     -2131.120
 15  1 19  1 37 30.0000000  0  6G05G16G21G25G29G31
  -5973959.552 5  24341555.322 5  -4529555.02545  24341554.79545      -697.482
  -7972869.816 5  23761594.259 5  -5615232.96245  23761595.15845      3176.179
 -17173477.423 7  21599898.793 7 -13189856.11947  21599899.43347      1377.058
 -11936768.036 6  23142523.539 6  -8743716.25246  23142527.28646     -3074.145
 -19575009.824 7  21540783.706 7 -14898974.29347  21540784.24547     -1999.935
 -16142364.371 7  22201431.327 7 -12255036.90646  22201431.65746     -2145.811
 15  1 19  1 38  0.0000000  0  6G05G16G21G25G29G31
  -5952754.287 5  24345590.541 5  -4513031.44145  24345591.07145      -716.183
  -8068096.825 5  23743473.159 5  -5689435.79945  23743473.28045      3172.264
 -17214579.585 7  21592077.323 7 -13221883.76847  21592078.27647      1363.074
 -11844421.733 6  23160096.481 6  -8671758.12346  23160100.76546     -3082.269
 -19514907.531 7  21552220.794 7 -14852141.34547  21552221.47347     -2006.881
 -16077770.788 7  22213723.104 7 -12204704.27046  22213723.24346     -2160.423
 15  1 19  1 38 30.0000000  0  6G05G16G21G25G29G31
  -5930987.862 5  24349732.620 5  -4496070.55445  24349732.36645      -734.898
  -8163205.461 5  23725374.616 5  -5763546.44645  23725375.51545      3168.303
 -17255262.062 7  21584335.700 7 -13253584.39447  21584336.30247      1349.080
 -11751832.091 6  23177715.701 6  -8599610.34846  23177720.97446     -3090.370
 -19454597.235 7  21563697.466 7 -14805146.30847  21563698.04147     -2013.801
 -16012739.393 7  22226098.182 7 -12154030.45746  22226098.79146     -2174.974
 15  1 19  1 39  0.0000000  0  7G05G16G18G21G25G29G31
  -5908660.830 5  24353981.233 5  -4478672.85145  24353983.43745      -753.574
  -8258194.128 5  23707298.856 5  -5837563.58345  23707299.54245      3164.255
    -50387.992 3  25230367.626 3                                      2964.833
 -17295524.237 7  21576674.043 7 -13284957.50647  21576674.72347      1335.060
 -11659000.349 6  23195380.998 6  -8527273.97146  23195384.83646     -3098.409
 -19394079.802 7  21575213.584 7 -14757989.88747  21575214.33547     -2020.684
 -15947273.397 7  22238555.971 7 -12103018.01546  22238556.60746     -2189.421
 15  1 19  1 39 30.0000000  0  7G05G16G18G21G25G29G31
  -5885773.497 5  24358336.513 5  -4460838.55745  24358336.82845      -772.253
  -8353060.952 5  23689246.317 5  -5911485.77245  23689247.90345      3160.183
   -139364.796 4  25213435.917 4                                      2966.986
 -17335365.921 7  21569092.434 7 -13316002.97047  21569093.02147      1321.033
 -11565927.735 6  23213092.123 6  -8454749.87046  23213096.08446     -3106.416
 -19333356.539 7  21586768.843 7 -14710673.05747  21586769.33747     -2027.532
 -15881374.659 7  22251096.099 7 -12051668.35946  22251096.68746     -2203.819
 15  1 19  1 40  0.0000000  0  7G05G16G18G21G25G29G31
  -5862326.182 5  24362798.423 5  -4442567.93145  24362799.62745      -790.896
  -8447804.376 5  23671217.226 5  -5985311.79245  23671219.46145      3156.033
   -228407.077 4  25196491.742 4                                      2969.143
 -17374786.107 7  21561591.023 7 -13346719.98647  21561591.41347      1306.974
 -11472615.518 5  23230848.847 5  -8382039.08246  23230852.15946     -3114.401
 -19272428.492 7  21598363.051 7 -14663196.66247  21598363.71347     -2034.351
 -15815045.422 7  22263718.140 7 -11999983.25946  22263718.45946     -2218.115
 15  1 19  1 40 30.0000000  0  7G05G16G18G21G25G29G31
  -5838319.809 5  24367366.672 5  -4423861.63145  24367365.46745      -809.518
  -8542422.412 5  23653212.003 5  -6059040.17245  23653213.43745      3151.817
   -317512.653 5  25179535.604 5                                      2971.220
 -17413784.608 7  21554169.871 7 -13377108.41547  21554170.16847      1292.911
 -11379064.968 6  23248650.935 6  -8309142.56046  23248654.63846     -3122.304
 -19211296.400 7  21609996.113 7 -14615561.27047  21609996.86747     -2041.112
 -15748288.276 7  22276421.633 7 -11947964.72146  22276422.04346     -2232.349
 15  1 19  1 41  0.0000000  0  7G05G16G18G21G25G29G31
  -5813754.638 5  24372041.183 5  -4404719.92945  24372044.23245      -828.152
  -8636912.901 5  23635231.050 5  -6132669.10545  23635232.83445      3147.536
   -406679.188 5  25162567.797 5     -9265.21245  25162567.49145      2973.200
 -17452360.875 7  21546829.071 7 -13407167.83647  21546829.64247      1278.832
 -11285277.325 6  23266498.135 6  -8236061.29746  23266503.33346     -3130.196
 -19149961.385 7  21621667.786 7 -14567767.76247  21621668.66047     -2047.867
 -15681105.278 7  22289206.162 7 -11895614.35546  22289206.82246     -2246.497
 15  1 19  1 41 30.0000000  0  7G05G16G18G21G25G29G31
  -5788631.482 5  24376822.133 5  -4385143.42845  24376822.18245      -846.743
  -8731274.253 5  23617274.655 5  -6206197.41745  23617275.35245      3143.194
   -495904.311 5  25145588.763 5    -78791.29245  25145590.94645      2975.113
 -17490514.716 7  21539568.628 7 -13436898.09347  21539569.31747      1264.749
 -11191253.880 6  23284390.222 6  -8162796.28546  23284394.27146     -3138.023
 -19088424.039 7  21633377.941 7 -14519816.59847  21633378.60447     -2054.619
 -15613498.935 7  22302071.242 7 -11842934.10546  22302071.80746     -2260.575
 15  1 19  1 42  0.0000000  0  7G05G16G18G21G25G29G31
  -5762950.545 5  24381708.942 5  -4365132.29645  24381710.78545      -865.319
  -8825504.614 5  23599343.157 5  -6279623.66545  23599344.98445      3138.812
   -585185.332 4  25128599.232 4   -148360.90445  25128600.90445      2976.943
 -17528245.353 7  21532388.718 7 -13466298.58247  21532389.27947      1250.620
 -11096995.898 6  23302326.947 6  -8089348.53746  23302330.21846     -3145.826
 -19026685.128 7  21645126.469 7 -14471708.35747  21645127.04947     -2061.308
 -15545471.617 7  22315016.424 7 -11789925.83046  22315017.11546     -2274.564
 15  1 19  1 42 30.0000000  0  7G05G16G18G21G25G29G31
  -5736712.486 5  24386701.862 5  -4344687.07045  24386702.93645      -883.881
  -8919602.240 5  23581436.984 5  -6352946.47845  23581437.87045      3134.359
   -674520.261 4  25111599.334 4   -217972.49244  25111606.57744      2978.691
 -17565552.168 7  21525289.463 7 -13495368.82247  21525289.95947      1236.509
 -11002504.660 6  23320308.060 6  -8015719.00446  23320313.00546     -3153.600
 -18964745.955 7  21656913.147 7 -14423444.08947  21656913.74947     -2067.958
 -15477025.655 7  22328041.270 7 -11736591.34346  22328041.64446     -2288.483
 15  1 19  1 43  0.0000000  0  7G05G16G18G21G25G29G31
  -5709918.047 5  24391800.754 5  -4323808.21145  24391801.35545      -902.402
  -9013565.044 5  23563556.446 5  -6426164.25845  23563557.56445      3129.830
   -763906.159 3  25094589.832 3   -287623.90844  25094590.07344      2980.363
 -17602435.949 7  21518270.714 7 -13524109.41847  21518271.42147      1222.388
 -10907781.470 6  23338333.291 6  -7941908.72446  23338337.49046     -3161.290
 -18902608.297 7  21668737.555 7 -14375025.13847  21668737.99147     -2074.571
 -15408163.564 7  22341145.308 7 -11682932.58946  22341145.61546     -2302.309
 15  1 19  1 43 30.0000000  0  7G05G16G18G21G25G29G31
  -5682567.956 5  24397005.290 5  -4302496.50445  24397006.02845      -920.926
  -9107391.339 5  23545701.943 5  -6499275.63545  23545703.11945      3125.249
   -853340.716 3  25077570.985 3   -357313.14845  25077570.35345      2981.930
 -17638894.947 7  21511332.803 7 -13552519.02547  21511333.27547      1208.217
 -10812827.598 6  23356402.450 6  -7867918.71746  23356407.44246     -3168.968
 -18840271.778 7  21680599.819 7 -14326451.23847  21680600.17447     -2081.193
 -15338887.781 7  22354328.066 7 -11628951.47946  22354328.22546     -2316.064
 15  1 19  1 44  0.0000000  0  7G05G16G18G21G25G29G31
  -5654662.805 5  24402315.376 5  -4280752.17145  24402316.22845      -939.431
  -9201079.230 5  23527873.755 5  -6572279.13645  23527875.43345      3120.603
   -942821.500 3  25060543.275 3   -427038.41545  25060543.35745      2983.419
 -17674929.065 7  21504475.727 7 -13580597.54947  21504476.08947      1194.052
 -10717644.351 6  23374515.233 6  -7793749.96746  23374518.56146     -3176.580
 -18777737.756 7  21692499.661 7 -14277723.44247  21692500.43547     -2087.737
 -15269200.631 7  22367589.102 7 -11574649.81846  22367589.41346     -2329.756
 15  1 19  1 44 30.0000000  0  8G05G16G18G21G25G27G29G31
  -5626203.166 5  24407731.192 5  -4258575.79745  24407731.82845      -957.890
  -9294626.756 5  23510072.247 5  -6645173.32145  23510072.07545      3115.900
  -1032346.097 2  25043507.247 2   -496797.80245  25043506.42845      2984.862
 -17710538.131 7  21497699.537 7 -13608344.87247  21497700.11447      1179.877
 -10622233.035 6  23392671.406 6  -7719403.52046  23392675.94446     -3184.172
     -9143.945 1  25404965.665 1                                      3048.771
 -18715007.311 7  21704436.835 7 -14228842.58247  21704438.09347     -2094.292
 -15199104.581 7  22380927.957 7 -11520029.53746  22380928.27946     -2343.313
 15  1 19  1 45  0.0000000  0  8G05G16G18G21G25G27G29G31
  -5597189.755 5  24413252.179 5  -4235967.98345  24413252.60245      -976.344
  -9388031.946 5  23492297.824 5  -6717956.56745  23492300.06045      3111.116
  -1121911.967 2  25026463.381 2   -566589.39944  25026461.32244      2986.176
 -17745722.179 7  21491004.223 7 -13635761.00147  21491004.69247      1165.718
 -10526594.960 5  23410870.733 5  -7644880.35446  23410875.69146     -3191.696
   -100581.484 2  25387565.342 2                                      3047.041
 -18652081.207 7  21716411.275 7 -14179809.27347  21716411.70147     -2100.790
 -15128602.525 7  22394344.066 7 -11465092.89246  22394344.57646     -2356.818
 15  1 19  1 45 30.0000000  0  8G05G16G18G21G25G27G29G31
  -5567623.670 5  24418878.441 5  -4212929.46145  24418877.54545      -994.738
  -9481293.113 5  23474550.811 5  -6790627.60745  23474552.49545      3106.289
  -1211516.680 2  25009412.097 2   -636411.10545  25009418.71945      2987.441
 -17780480.452 7  21484389.927 7 -13662845.36147  21484390.46747      1151.508
 -10430731.436 5  23429112.946 5  -7570181.54546  23429117.29846     -3199.191
   -191967.491 3  25370175.020 3                                      3045.342
 -18588960.278 7  21728422.785 7 -14130624.15846  21728423.16346     -2107.255
 -15057696.526 7  22407837.038 7 -11409841.49046  22407837.33446     -2370.232
 15  1 19  1 46  0.0000000  0  8G05G16G18G21G25G27G29G31
  -5537505.181 5  24424609.672 5  -4189460.52045  24424611.42345     -1013.142
  -9574408.473 5  23456831.527 5  -6863185.02645  23456832.06845      3101.394
  -1301157.952 2  24992354.030 2   -706261.35643  24992366.62643      2988.641
 -17814812.587 7  21477856.714 7 -13689597.67047  21477857.07347      1137.299
 -10334643.799 5  23447397.802 5  -7495308.07446  23447402.01946     -3206.636
   -283301.486 4  25352794.711 4                                      3043.606
 -18525646.115 7  21740471.050 7 -14081288.45847  21740471.63747     -2113.680
 -14986389.067 7  22421406.408 7 -11354277.25346  22421406.67046     -2383.583
 15  1 19  1 46 30.0000000  0  8G05G16G18G21G25G27G29G31
  -5506835.188 5  24430446.081 5  -4165561.83145  24430446.86245     -1031.522
  -9667375.746 5  23439140.412 5  -6935627.02045  23439142.14945      3096.418
  -1390833.322 3  24975289.427 3                                      2989.718
 -17848718.430 7  21471404.623 7 -13716017.79947  21471404.54847      1123.113
 -10238333.367 5  23465725.064 5  -7420261.00845  23465729.40145     -3214.041
   -374583.137 4  25335424.333 4                                      3041.861
 -18462139.514 7  21752555.947 7 -14031802.80646  21752555.98646     -2120.106
 -14914682.493 7  22435051.703 7 -11298402.01346  22435051.82846     -2396.843
 15  1 19  1 47  0.0000000  0  8G05G16G18G21G25G27G29G31
  -5475614.722 5  24436387.059 5  -4141234.16145  24436387.38945     -1049.828
  -9760193.289 5  23421477.786 5  -7007952.37445  23421478.00345      3091.388
  -1480540.145 2  24958218.403 2                                      2990.720
 -17882197.892 7  21465033.663 7 -13742105.67947  21465033.93047      1108.858
 -10141801.441 5  23484094.466 5  -7345041.35846  23484098.95246     -3221.412
   -465811.977 4  25318063.932 4                                      3040.089
 -18398440.292 7  21764677.484 7 -13982167.06646  21764677.70846     -2126.504
 -14842579.487 7  22448772.461 7 -11242217.86846  22448772.54946     -2410.004
 15  1 19  1 47 30.0000000  0  8G05G16G18G21G25G27G29G31
  -5443844.663 5  24442432.766 5  -4116478.24945  24442432.71645     -1068.166
  -9852859.098 6  23403844.049 6  -7080159.49345  23403845.09445      3086.298
  -1570275.865 3  24941142.432 3    -25639.59245  24941142.19245      2991.641
 -17915249.901 7  21458744.049 7 -13767860.49247  21458743.99247      1094.614
 -10045049.422 5  23502505.773 5  -7269650.19145  23502509.24845     -3228.721
   -556987.628 4  25300713.701 4                                      3038.289
 -18334549.989 7  21776835.426 7 -13932382.43546  21776836.11646     -2132.824
 -14770082.756 7  22462568.140 7 -11185726.91546  22462568.88646     -2423.099
 15  1 19  1 48  0.0000000  0  8G05G16G18G21G25G27G29G31
  -5411525.633 5  24448582.746 5  -4091294.61245  24448582.56245     -1086.428
  -9945371.094 5  23386239.573 5  -7152246.74145  23386239.67145      3081.159
  -1660037.986 3  24924061.241 3    -95584.09744  24924066.23044      2992.471
 -17947874.930 7  21452535.679 7 -13793282.58847  21452535.79047      1080.387
  -9948078.615 5  23520958.733 5  -7194088.54545  23520964.05045     -3235.997
   -648109.581 5  25283373.747 5                                      3036.489
 -18270470.058 7  21789029.442 7 -13882450.03146  21789029.66046     -2139.174
 -14697194.708 7  22476438.287 7 -11128931.04946  22476438.02546     -2436.101
 15  1 19  1 48 30.0000000  0  8G05G16G18G21G25G27G29G31
  -5378658.510 5  24454837.230 5  -4065683.77945  24454837.14945     -1104.714
 -10037727.494 6  23368664.703 6  -7224212.74245  23368665.36345      3075.935
  -1749823.903 4  24906975.619 4   -165547.09043  24906981.79643      2993.214
 -17980072.639 7  21446408.646 7 -13818371.70547  21446408.94947      1066.150
  -9850890.398 5  23539453.018 5  -7118357.49445  23539457.25445     -3243.212
   -739177.481 5  25266044.061 5                                      3034.703
 -18206200.572 7  21801259.521 7 -13832369.91246  21801259.51146     -2145.454
 -14623917.796 7  22490382.415 7 -11071832.16046  22490382.12646     -2449.011
 15  1 19  1 49  0.0000000  0  8G05G16G18G21G25G27G29G31
  -5345244.278 5  24461195.731 5  -4039646.74645  24461198.18545     -1122.905
 -10129926.461 6  23351119.815 6  -7296056.06246  23351119.95546      3070.653
  -1839631.053 4  24889885.880 4   -235526.68744  24889880.05744      2993.928
 -18011842.883 7  21440362.964 7 -13843127.73047  21440363.04047      1051.874
  -9753486.087 5  23557988.452 5  -7042458.03645  23557993.62245     -3250.400
   -830190.924 5  25248724.700 5     -9451.25945  25248728.08145      3032.885
 -18141743.528 7  21813525.304 7 -13782143.66346  21813525.95546     -2151.708
 -14550254.640 7  22504400.065 7 -11014432.31846  22504399.91646     -2461.852
 15  1 19  1 49 30.0000000  0  8G05G16G18G21G25G27G29G31
  -5311283.840 5  24467658.124 5  -4013184.04845  24467658.85245     -1141.121
 -10221966.248 6  23333605.228 6  -7367775.37546  23333605.85146      3065.299
  -1929457.415 4  24872792.471 4   -305521.26845  24872803.10545      2994.513
 -18043185.094 7  21434398.750 7 -13867550.22347  21434398.94747      1037.599
  -9655867.113 5  23576564.719 5  -6966391.33145  23576569.82145     -3257.535
   -921149.419 5  25231415.778 5    -80327.98045  25231419.68245      3031.032
 -18077098.247 7  21825826.903 7 -13731770.72446  21825827.36146     -2157.972
 -14476207.696 7  22518490.720 7 -10956733.41146  22518490.56446     -2474.594
 15  1 19  1 50  0.0000000  0  8G05G16G18G21G25G27G29G31
  -5276778.283 5  24474224.216 5  -3986296.58445  24474222.42845     -1159.255
 -10313844.268 6  23316121.416 6  -7439368.61446  23316122.18646      3059.888
  -2019300.586 4  24855695.802 4   -375529.00645  24855702.24745      2995.009
 -18074099.334 7  21428515.949 7 -13891639.22947  21428516.24347      1023.336
  -9558034.763 5  23595181.598 5  -6890158.34145  23595185.25445     -3264.626
  -1012052.590 5  25214117.418 5   -151161.57545  25214121.84945      3029.174
 -18012266.335 7  21838164.023 7 -13681252.36446  21838163.88946     -2164.163
 -14401779.668 7  22532653.897 7 -10898737.55246  22532654.25546     -2487.260
 15  1 19  1 50 30.0000000  0  8G05G16G18G21G25G27G29G31
  -5241728.617 6  24480894.100 6  -3958985.13045  24480894.96645     -1177.405
 -10405558.833 6  23298668.752 6  -7510834.48346  23298669.45346      3054.405
  -2109157.654 5  24838596.675 5   -445547.51944  24838594.95944      2995.437
 -18104585.042 7  21422714.700 7 -13915394.32447  21422714.75547      1009.036
  -9459990.462 5  23613838.849 5  -6813760.22545  23613843.20245     -3271.665
  -1102900.032 5  25196829.714 5   -221951.72245  25196836.47145      3027.319
 -17947249.042 7  21850536.384 7 -13630589.53946  21850536.82246     -2170.323
 -14326973.172 7  22546889.106 7 -10840446.79746  22546889.24946     -2499.837
 15  1 19  1 51  0.0000000  0  8G05G16G18G21G25G27G29G31
  -5206135.345 5  24487667.282 5  -3931250.08645  24487665.94845     -1195.486
 -10497108.375 6  23281247.464 6  -7582171.76846  23281248.93446      3048.880
  -2199025.990 5  24821495.373 5   -515574.70645  24821500.71245      2995.777
 -18134642.132 7  21416995.015 7 -13938815.42447  21416995.18947       994.760
  -9361735.577 5  23632536.133 5  -6737197.96145  23632539.85745     -3278.656
  -1193691.247 5  25179552.627 5   -292698.01245  25179556.33345      3025.443
 -17882046.990 7  21862943.949 7 -13579782.77546  21862944.40146     -2176.472
 -14251790.596 7  22561195.887 7 -10781862.98746  22561196.06746     -2512.329
 15  1 19  1 51 30.0000000  0  8G05G16G18G21G25G27G29G31
  -5169999.715 5  24494543.505 5  -3903092.49145  24494542.61945     -1213.536
 -10588490.499 6  23263858.036 6  -7653378.62046  23263857.98146      3043.250
  -2288903.196 4  24804392.247 4   -585608.98545  24804395.24945      2996.004
 -18164270.640 7  21411356.888 7 -13961902.56647  21411356.96847       980.470
  -9263271.486 5  23651273.265 5  -6660472.72945  23651277.13245     -3285.600
  -1284425.873 5  25162286.379 5   -363400.33345  25162289.35745      3023.531
 -17816660.765 7  21875386.549 7 -13528832.48246  21875387.23046     -2182.596
 -14176234.637 7  22575573.725 7 -10722988.22546  22575574.10846     -2524.717
 15  1 19  1 52  0.0000000  0  8G05G16G18G21G25G27G29G31
  -5133322.915 5  24501522.872 5  -3874513.10145  24501519.72245     -1231.571
 -10679703.198 6  23246500.849 6  -7724453.44646  23246501.89146      3037.570
  -2378787.037 4  24787287.993 4   -655648.34545  24787287.62345      2996.184
 -18193470.845 7  21405800.276 7 -13984655.96347  21405800.52947       966.184
  -9164599.564 5  23670049.956 5  -6583585.53745  23670054.32445     -3292.506
  -1375103.457 4  25145030.974 4   -434058.12345  25145036.20745      3021.650
 -17751091.735 7  21887863.953 7 -13477739.75146  21887864.35846     -2188.674
 -14100307.919 6  22590022.105 6 -10663824.56746  22590022.00646     -2537.044
 15  1 19  1 52 30.0000000  0  8G05G16G18G21G25G27G29G31
  -5096105.801 5  24508605.077 5  -3845512.76445  24508606.48845     -1249.561
 -10770744.386 6  23229176.293 6  -7795394.60246  23229176.12446      3031.826
  -2468674.663 4  24770182.924 4   -725690.66745  24770185.10145      2996.276
 -18222242.007 7  21400325.281 7 -14007075.03747  21400325.14547       951.882
  -9065721.239 5  23688865.901 5  -6506537.51145  23688870.09245     -3299.379
  -1465723.574 4  25127786.470 4   -504671.06845  25127792.31445      3019.704
 -17685340.358 7  21900376.025 7 -13426504.92846  21900376.39846     -2194.745
 -14024012.733 7  22604540.613 7 -10604373.79246  22604540.88946     -2549.281
 15  1 19  1 53  0.0000000  0  8G05G16G18G21G25G27G29G31
  -5058349.534 5  24515789.884 5  -3816092.27345  24515790.42545     -1267.515
 -10861612.255 6  23211884.729 6  -7866200.72046  23211885.34246      3026.025
  -2558563.661 4  24753077.670 4   -795733.91544  24753083.80744      2996.303
 -18250584.107 7  21394931.951 7 -14029159.78247  21394932.22347       937.577
  -8966637.897 5  23707720.831 5  -6429329.72045  23707725.74645     -3306.182
  -1556285.791 4  25110552.991 4   -575238.95245  25110557.28045      3017.782
 -17619407.578 7  21912922.628 7 -13375128.74946  21912923.20846     -2200.774
 -13947352.411 6  22619128.590 6 -10544638.49846  22619128.30146     -2561.411
 15  1 19  1 53 30.0000000  0  8G05G16G18G21G25G27G29G31
  -5020055.303 5  24523076.994 5  -3786252.62745  24523077.56645     -1285.416
 -10952304.801 6  23194626.492 6  -7936870.22446  23194624.82546      3020.142
  -2648451.293 3  24735972.487 3   -865776.39644  24735972.01244      2996.196
 -18278496.745 7  21389620.340 7 -14050909.87547  21389620.51647       923.264
  -8867350.931 5  23726614.498 5  -6351963.25045  23726616.94945     -3312.944
  -1646789.720 4  25093330.639 4   -645761.43545  25093336.83245      3015.831
 -17553294.320 7  21925503.585 7 -13323611.94546  21925503.79546     -2206.778
 -13870329.226 6  22633785.629 6 -10484620.45546  22633785.84746     -2573.456
 15  1 19  1 54  0.0000000  0  7G05G16G18G21G25G29G31
  -4981224.175 5  24530466.177 5  -3755994.52945  24530465.17245     -1303.306
 -11042820.367 6  23177401.943 6  -8007401.82346  23177402.60546      3014.203
  -2738335.279 3  24718868.200 3   -935815.81945  24718870.54045      2996.034
 -18305980.446 7  21384390.352 7 -14072325.73547  21384390.35847       908.972
  -8767861.759 5  23745546.702 5  -6274439.24145  23745552.17045     -3319.650
 -17487001.375 7  21938118.719 7 -13271955.10446  21938118.82146     -2212.750
 -13792945.806 6  22648511.195 6 -10424321.69746  22648511.84346     -2585.415
 15  1 19  1 54 30.0000000  0  8G05G16G18G21G25G27G29G31
  -4941857.144 5  24537957.513 5  -3725318.91845  24537958.78245     -1321.155
 -11133156.388 6  23160211.548 6  -8077793.49946  23160212.20046      3008.177
  -2828213.100 3  24701765.053 3  -1005850.41345  24701764.66145      2995.791
 -18333034.773 7  21379242.082 7 -14093407.02447  21379242.33047       894.653
  -8668171.793 5  23764517.075 5  -6196758.73445  23764521.53845     -3326.333
    -51208.873 3  25058919.158 3                                      3011.870
 -17420529.911 7  21950767.834 7 -13220159.18346  21950768.23746     -2218.704
 -13715205.011 6  22663304.801 6 -10363744.48246  22663304.91746     -2597.293
 15  1 19  1 55  0.0000000  0  8G05G16G18G21G25G27G29G31
  -4901955.304 5  24545550.679 5  -3694226.60945  24545551.88745     -1338.963
 -11223311.126 6  23143055.647 6  -8148043.93346  23143056.35046      3002.110
  -2918082.047 2  24684663.411 2  -1075878.15745  24684667.41145      2995.454
 -18359659.650 7  21374175.528 7 -14114153.67147  21374175.84247       880.339
  -8568282.457 5  23783525.371 5  -6118922.91945  23783529.21645     -3332.960
   -141535.366 3  25041730.641 3                                      3009.870
 -17353880.023 7  21963450.895 7 -13168224.21246  21963451.07046     -2224.620
 -13637109.265 6  22678165.951 6 -10302890.67046  22678166.21846     -2609.077
 15  1 19  1 55 30.0000000  0  8G05G16G18G21G25G27G29G31
  -4861520.085 5  24553245.231 5  -3662718.66245  24553246.98345     -1356.721
 -11313282.487 6  23125934.641 6  -8218151.46046  23125935.22646      2995.941
  -3007939.586 3  24667564.013 3  -1145897.00145  24667570.67545      2995.035
 -18385855.080 7  21369190.686 7 -14134565.68647  21369190.68547       866.019
  -8468195.160 5  23802571.357 5  -6040932.83545  23802575.81545     -3339.519
   -231801.816 2  25024553.512 2     -7029.30945  25024560.80145      3007.912
 -17287052.962 7  21976167.667 7 -13116151.18746  21976168.01846     -2230.509
 -13558661.203 6  22693094.125 6 -10241762.33146  22693094.15346     -2620.771
 15  1 19  1 56  0.0000000  0  8G05G16G18G21G25G27G29G31
  -4820552.498 4  24561040.968 4  -3630795.80845  24561039.67245     -1374.471
 -11403068.309 6  23108848.955 6  -8288114.42246  23108849.20946      2989.742
    -50907.173 5  24650468.582 5                                      2994.543
 -18411620.949 7  21364287.607 7 -14154642.98047  21364288.02847       851.696
  -8367911.356 5  23821654.707 5  -5962789.65645  23821658.16145     -3346.062
   -322007.792 2  25007387.839 2    -77319.59345  25007390.53945      3005.870
 -17220049.692 7  21988917.965 7 -13063940.84546  21988918.75346     -2236.384
 -13479863.625 6  22708088.812 6 -10180361.63646  22708089.03946     -2632.386
 15  1 19  1 56 30.0000000  0  8G05G16G18G21G25G27G29G31
  -4779053.760 5  24568937.938 5  -3598459.16545  24568939.31045     -1392.116
 -11492666.734 6  23091798.921 6  -8357931.38046  23091798.92846      2983.460
   -140734.125 3  24633374.513 3                                      2993.900
 -18436957.286 7  21359466.248 7 -14174385.57147  21359466.72147       837.377
  -8267432.499 5  23840775.202 5  -5884494.47345  23840779.20845     -3352.532
   -412152.894 2  24990233.864 2   -147562.36445  24990241.73845      3003.785
 -17152870.896 7  22001701.688 7 -13011593.76346  22001701.61046     -2242.209
 -13400719.137 6  22723149.512 6 -10118690.62746  22723149.99846     -2643.906
 15  1 19  1 57  0.0000000  0  8G05G16G18G21G25G27G29G31
  -4737025.399 5  24576935.682 5  -3565709.74945  24576935.08345     -1409.742
 -11582075.512 6  23074784.967 6  -8427600.53946  23074785.49646      2977.111
   -230542.165 5  24616284.534 5     -9328.23145  24616284.69345      2993.227
 -18461864.112 7  21354726.621 7 -14193793.48247  21354726.75947       823.091
  -8166759.986 5  23859932.598 5  -5806048.35145  23859937.07145     -3358.956
   -502236.652 1  24973091.450 1   -217757.43745  24973092.65245      3001.771
 -17085517.377 7  22014518.634 7 -12959110.48546  22014519.15546     -2248.028
 -13321230.469 6  22738275.709 6 -10056751.43346  22738275.58346     -2655.319
 15  1 19  1 57 30.0000000  0  8G05G16G18G21G25G27G29G31
  -4694468.825 5  24585033.919 5  -3532548.79445  24585034.91745     -1427.360
 -11671292.752 6  23057807.451 6  -8497120.46146  23057808.47646      2970.697
   -320328.465 5  24599198.647 5    -79291.60245  24599199.79645      2992.477
 -18486341.577 7  21350068.712 7 -14212866.82247  21350068.86647       808.745
  -8065895.307 5  23879126.461 5  -5727452.51345  23879129.32545     -3365.354
   -592258.614 2  24955960.845 2   -287904.49545  24955967.33645      2999.723
 -17017989.897 7  22027368.689 7 -12906491.69346  22027368.77246     -2253.803
 -13241400.477 6  22753466.857 6  -9994546.26546  22753466.91546     -2666.658
 15  1 19  1 58  0.0000000  0  8G05G16G18G21G25G27G29G31
  -4651384.872 5  24593232.543 5  -3498976.86245  24593231.49845     -1444.896
 -11760316.517 6  23040866.759 6  -8566489.61046  23040867.89246      2964.219
   -410090.715 5  24582117.370 5   -149236.21445  24582120.39045      2991.650
 -18510389.401 7  21345492.558 7 -14231605.38547  21345492.78147       794.435
  -7964839.871 5  23898356.685 5  -5648708.08145  23898361.15545     -3371.672
   -682218.451 2  24938842.029 2   -358002.81145  24938845.08045      2997.620
 -16950289.481 7  22040251.674 7 -12853738.12846  22040252.10046     -2259.558
 -13161231.793 6  22768722.448 6  -9932077.17346  22768722.82746     -2677.909
 15  1 19  1 58 30.0000000  0  8G05G16G18G21G25G27G29G31
  -4607774.816 4  24601531.213 4  -3464995.00645  24601531.30645     -1462.417
 -11849144.622 6  23023963.289 6  -8635706.27346  23023964.36046      2957.648
   -499826.103 5  24565041.280 5   -219159.90845  24565044.02145      2990.703
 -18534007.949 7  21340998.102 7 -14250009.43747  21340998.63747       780.122
  -7863595.155 5  23917622.951 5  -5569816.10045  23917627.05045     -3377.955
   -772115.621 2  24921735.006 2   -428052.50045  24921737.23545      2995.525
 -16882416.863 7  22053167.416 7 -12800850.39046  22053167.63046     -2265.286
 -13080727.017 6  22784041.997 6  -9869346.19746  22784042.64146     -2689.065
 15  1 19  1 59  0.0000000  0  8G05G16G18G21G25G27G29G31
  -4563639.884 4  24609929.692 4  -3430604.20945  24609931.57245     -1479.902
 -11937775.000 6  23007097.462 6  -8704768.91546  23007098.29546      2951.013
   -589532.266 5  24547970.735 5   -289060.84345  24547973.81345      2989.692
 -18557196.697 7  21336585.424 7 -14268078.58547  21336585.48347       765.792
  -7762162.643 5  23936924.937 5  -5490777.80245  23936928.84445     -3384.204
   -861949.789 2  24904640.112 2   -498053.00745  24904641.03845      2993.385
 -16814372.799 7  22066115.779 7 -12747829.06246  22066115.95346     -2270.982
 -12999889.014 6  22799424.981 6  -9806355.57346  22799425.39246     -2700.128
 15  1 19  1 59 30.0000000  0  8G05G16G18G21G25G27G29G31
  -4518981.705 5  24618427.948 5  -3395805.59645  24618428.36945     -1497.321
 -12026205.316 6  22990269.717 6  -8773675.63946  22990270.13146      2944.315
   -679206.461 5  24530906.281 5   -358936.75445  24530907.63945      2988.557
 -18579956.095 7  21332254.451 7 -14285813.16547  21332254.61347       751.483
  -7660543.754 5  23956262.418 5  -5411594.27245  23956266.78745     -3390.396
   -951720.583 2  24887557.237 2   -568004.16345  24887558.13245      2991.312
 -16746157.928 7  22079096.635 7 -12694674.62646  22079096.99346     -2276.676
 -12918720.652 6  22814870.851 6  -9743107.51446  22814871.55446     -2711.099
 15  1 19  2  0  0.0000000  0  8G05G16G18G21G25G27G29G31
  -4473801.499 4  24627025.398 4  -3360600.23045  24627027.32445     -1514.692
 -12114433.901 6  22973480.359 6  -8842425.17046  22973481.32546      2937.558
   -768846.123 5  24513848.341 5   -428785.88645  24513849.39845      2987.381
 -18602285.926 7  21328005.218 7 -14303213.02747  21328005.45247       737.168
  -7558740.006 5  23975635.097 5  -5332266.67245  23975640.08345     -3396.520
  -1041427.366 3  24870486.542 3   -637905.50945  24870489.86945      2989.196
 -16677773.052 7  22092109.844 7 -12641387.73446  22092110.46146     -2282.323
 -12837224.354 6  22830379.115 6  -9679603.92046  22830379.58346     -2721.971
 15  1 19  2  0 30.0000000  0  8G05G16G18G21G25G27G29G31
  -4428100.828 5  24635721.947 5  -3324989.29845  24635722.55045     -1532.017
 -12202458.504 6  22956729.818 6  -8911015.75846  22956730.80246      2930.715
   -858449.055 5  24496797.423 5   -498606.30245  24496801.15745      2986.109
 -18624186.861 7  21323837.597 7 -14320278.68547  21323837.72047       722.866
  -7456752.839 5  23995042.650 5  -5252796.16245  23995047.34445     -3402.608
  -1131069.825 4  24853428.061 4   -707756.72545  24853431.94445      2987.001
 -16609219.348 7  22105155.173 7 -12587969.27046  22105155.75746     -2287.935
 -12755403.023 6  22845949.229 6  -9615847.06146  22845949.41746     -2732.778
 15  1 19  2  1  0.0000000  0  8G05G16G18G21G25G27G29G31
  -4381881.102 4  24644517.322 4  -3288973.90345  24644515.74145     -1549.328
 -12290276.691 6  22940018.555 6  -8979445.50646  22940018.37346      2923.815
   -948012.326 5  24479754.105 5   -568395.78243  24479747.64943      2984.770
 -18645658.423 7  21319751.689 7 -14337009.75947  21319751.88747       708.561
  -7354583.756 5  24014484.784 5  -5173183.92345  24014489.04345     -3408.628
  -1220647.569 4  24836381.955 4   -777557.54044  24836385.44644      2984.829
 -16540497.149 7  22118232.594 7 -12534419.52746  22118233.54946     -2293.543
 -12673259.416 6  22861580.671 6  -9551839.08046  22861580.91846     -2743.462
 15  1 19  2  1 30.0000000  0  8G05G16G18G21G25G27G29G31
  -4335143.538 4  24653411.096 4  -3252555.00645  24653409.26945     -1566.543
 -12377886.608 6  22923346.926 6  -9047712.93646  22923347.23946      2916.837
  -1037533.443 4  24462718.689 4   -638152.48445  24462723.49645      2983.298
 -18666700.760 7  21315747.467 7 -14353406.37947  21315747.81047       694.280
  -7252234.216 5  24033961.301 5  -5093431.05945  24033966.82345     -3414.643
  -1310160.077 4  24819348.167 4   -847307.47845  24819351.66545      2982.643
 -16471607.428 7  22131341.863 7 -12480739.24146  22131342.27246     -2299.113
 -12590796.321 6  22877272.896 6  -9487582.13446  22877273.62046     -2754.069
 15  1 19  2  2  0.0000000  0  8G05G16G18G21G25G27G29G31
  -4287889.618 4  24662403.085 4  -3215733.79845  24662402.71545     -1583.718
 -12465286.649 6  22906715.219 6  -9115816.83646  22906715.22246      2909.806
  -1127009.436 4  24445691.956 4   -707874.20745  24445695.95845      2981.753
 -18687314.621 7  21311824.773 7 -14369469.11547  21311824.78547       679.984
  -7149705.715 5  24053471.820 5  -5013538.73545  24053475.89945     -3420.584
  -1399606.981 4  24802326.996 4   -917006.38045  24802326.99745      2980.466
 -16402550.981 7  22144482.876 7 -12426929.03846  22144483.45846     -2304.648
 -12508016.399 6  22893025.408 6  -9423078.32146  22893025.36546     -2764.580
 15  1 19  2  2 30.0000000  0  8G05G16G18G21G25G27G29G31
  -4240120.880 5  24671493.325 5  -3178511.30345  24671492.59245     -1600.862
 -12552474.299 6  22890123.964 6  -9183755.28646  22890125.14846      2902.688
  -1216437.961 4  24428674.225 4   -777558.64445  24428671.23045      2980.129
 -18707499.802 7  21307983.665 7 -14385197.82847  21307983.95547       665.687
  -7046999.780 5  24073016.122 5  -4933508.16645  24073019.46145     -3426.464
  -1488987.762 5  24785318.393 5   -986653.65545  24785324.34845      2978.255
 -16333328.717 7  22157655.432 7 -12372989.59746  22157655.96946     -2310.177
 -12424922.553 6  22908837.671 6  -9358329.88646  22908838.11346     -2775.006
 15  1 19  2  3  0.0000000  0  8G05G16G18G21G25G27G29G31
  -4191838.623 4  24680681.219 4  -3140888.75545  24680680.63645     -1617.957
 -12639447.395 6  22873573.525 6  -9251526.50746  22873574.30046      2895.502
  -1305816.683 4  24411665.982 4   -847204.45645  24411666.90045      2978.424
 -18727256.542 7  21304224.100 7 -14400592.68647  21304224.20047       651.396
  -6944117.866 5  24092593.900 5  -4853340.42445  24092597.36745     -3432.308
  -1578302.041 5  24768322.437 5  -1056249.18645  24768328.73945      2976.035
 -16263941.109 7  22170859.470 7 -12318921.35146  22170860.05346     -2315.666
 -12341517.440 6  22924709.141 6  -9293338.90746  22924708.92446     -2785.330
 15  1 19  2  3 30.0000000  0  8G05G16G18G21G25G27G29G31
  -4143044.575 4  24689966.374 4  -3102867.42845  24689966.77845     -1634.998
 -12726203.666 6  22857064.359 6  -9319128.79046  22857065.26746      2888.239
  -1395142.625 3  24394667.671 3   -916809.10045  24394665.45145      2976.631
 -18746584.273 7  21300546.151 7 -14415653.24847  21300546.17547       637.108
  -6841061.476 5  24112204.855 5  -4773036.74945  24112210.87445     -3438.113
  -1667549.303 5  24751339.225 5  -1125792.50245  24751343.65845      2973.781
 -16194389.044 7  22184094.818 7 -12264724.96446  22184095.31446     -2321.133
 -12257804.113 6  22940639.275 6  -9228107.76046  22940639.69846     -2795.559
 15  1 19  2  4  0.0000000  0  8G05G16G18G21G25G27G29G31
  -4093740.130 4  24699348.695 4  -3064448.34945  24699348.61845     -1651.984
 -12812741.266 6  22840596.803 6  -9386560.66346  22840597.87846      2880.918
  -1484413.490 3  24377679.986 3                                      2974.733
 -18765483.807 7  21296949.688 7 -14430380.15247  21296949.58547       622.846
  -6737832.170 4  24131848.703 4  -4692598.33745  24131850.95545     -3443.835
  -1756729.161 5  24734368.818 5  -1195283.25645  24734373.16645      2971.527
 -16124673.242 7  22197361.294 7 -12210400.97846  22197362.02046     -2326.570
 -12173785.424 6  22956627.523 6  -9162638.67046  22956627.77346     -2805.682
 15  1 19  2  4 30.0000000  0  8G05G16G18G21G25G27G29G31
  -4043926.820 4  24708827.733 4  -3025632.79145  24708827.67345     -1668.907
 -12899058.055 6  22824171.257 6  -9453820.49746  22824171.81846      2873.525
  -1573626.704 4  24360703.238 4                                      2972.780
 -18783955.196 7  21293434.696 7 -14444773.43347  21293434.66147       608.577
  -6634431.393 4  24151525.228 4  -4612026.35145  24151529.75745     -3449.546
  -1845841.188 5  24717411.362 5  -1264721.15745  24717414.94845      2969.271
 -16054794.829 6  22210658.746 6 -12155950.31246  22210659.22846     -2331.998
 -12089464.069 6  22972673.341 6  -9096933.73646  22972673.35346     -2815.732
 15  1 19  2  5  0.0000000  0  8G05G16G18G21G25G27G29G31
  -3993606.392 3  24718403.340 3  -2986422.03845  24718404.08845     -1685.787
 -12985151.989 6  22807788.117 6  -9520906.66046  22807789.18746      2866.051
  -1662779.487 5  24343738.107 5         1.67155  24343737.85645      2970.716
 -18801998.937 7  21290001.091 7 -14458833.47447  21290001.37547       594.333
  -6530860.699 4  24171234.089 4  -4531321.94445  24171237.84945     -3455.175
  -1934884.893 5  24700466.882 5  -1334105.87445  24700469.54645      2966.984
 -15984753.841 7  22223987.089 7 -12101372.92446  22223987.55146     -2337.391
 -12004842.582 6  22988776.290 6  -9030994.93646  22988776.20046     -2825.686
 15  1 19  2  5 30.0000000  0  8G05G16G18G21G25G27G29G31
  -3942780.207 4  24728075.262 4  -2946817.25245  24728074.14645     -1702.618
 -13071020.640 6  22791447.853 6  -9587817.26146  22791448.29546      2858.518
  -1751869.183 4  24326784.954 4    -69418.82945  24326788.83545      2968.571
 -18819615.038 7  21286648.851 7 -14472560.30047  21286648.86647       580.078
  -6427121.589 4  24190974.965 4  -4450486.28545  24190977.93245     -3460.771
  -2023859.844 5  24683535.424 5  -1403436.95045  24683542.76345      2964.688
 -15914551.427 6  22237346.171 6 -12046669.77046  22237346.90146     -2342.762
 -11919923.994 6  23004935.765 6  -8964824.61846  23004936.11146     -2835.537
 15  1 19  2  6  0.0000000  0  8G05G16G18G21G25G27G29G31
  -3891449.893 3  24737842.989 3  -2906819.51645  24737841.76845     -1719.383
 -13156662.045 6  22775150.831 6  -9654550.81546  22775151.39346      2850.903
  -1840893.349 5  24309844.290 5   -138788.23945  24309846.24945      2966.347
 -18836803.472 7  21283378.005 7 -14485953.88147  21283378.21847       565.829
  -6323215.637 4  24210747.615 4  -4369520.65245  24210752.05445     -3466.301
  -2112765.637 5  24666617.204 5  -1472714.21445  24666620.90045      2962.375
 -15844187.932 7  22250735.907 7 -11991841.09046  22250736.15546     -2348.114
 -11834711.062 6  23021151.241 6  -8898424.95246  23021151.93346     -2845.313
 15  1 19  2  6 30.0000000  0  8G05G16G18G21G25G27G29G31
  -3839616.995 4  24747706.519 4  -2866430.25845  24747708.84845     -1736.121
 -13242074.041 6  22758897.452 6  -9721105.60546  22758897.85746      2843.219
  -1929849.261 5  24292916.494 5   -208104.61145  24292918.39645      2964.041
 -18853564.722 7  21280188.438 7 -14499014.58747  21280188.62147       551.589
  -6219144.355 5  24230551.797 5  -4288426.12745  24230557.48545     -3471.785
  -2201601.794 5  24649712.214 5  -1541937.17545  24649716.84345      2960.034
 -15773664.717 6  22264156.047 6 -11936887.95046  22264157.35046     -2353.437
 -11749206.539 6  23037422.212 6  -8831798.05646  23037422.62046     -2854.970
 15  1 19  2  7  0.0000000  0  8G05G16G18G21G25G27G29G31
  -3787283.132 3  24757665.304 3  -2825650.56345  24757664.03945     -1752.801
 -13327254.405 6  22742688.162 6  -9787479.89946  22742688.03746      2835.456
  -2018734.311 5  24276002.308 5   -277365.63445  24276004.66445      2961.611
 -18869898.852 7  21277080.153 7 -14511742.47247  21277079.95947       537.359
  -6114909.253 5  24250387.099 5  -4207204.01145  24250389.81945     -3477.191
  -2290367.889 5  24632820.584 5  -1611105.55745  24632823.23945      2957.696
 -15702982.264 6  22277606.497 6 -11881810.73946  22277606.22446     -2358.721
 -11663413.583 6  23053748.085 6  -8764946.41746  23053748.46246     -2864.543
 15  1 19  2  7 30.0000000  0  8G05G16G18G21G25G27G29G31
  -3734450.167 4  24767719.029 4  -2784482.06745  24767718.74845     -1769.414
 -13412200.879 6  22726523.369 6  -9853671.94046  22726524.20646      2827.641
  -2107546.005 5  24259101.996 5   -346569.54445  24259103.72745      2959.158
 -18885806.130 7  21274053.095 7 -14524137.74947  21274053.32847       523.121
  -6010511.886 5  24270253.302 5  -4125855.43845  24270258.66545     -3482.585
  -2379063.436 4  24615942.333 4  -1680218.96945  24615945.71345      2955.326
 -15632141.420 7  22291087.076 7 -11826610.08046  22291087.07746     -2363.988
 -11577334.729 6  23070128.359 6  -8697872.00046  23070128.88546     -2874.039
 15  1 19  2  8  0.0000000  0  8G05G16G18G21G25G27G29G31
  -3681119.641 5  24777867.590 5  -2742925.75845  24777868.49945     -1785.963
 -13496911.980 6  22710403.375 6  -9919680.58746  22710404.00146      2819.748
  -2196281.643 5  24242216.119 5   -415714.17945  24242217.07145      2956.551
 -18901287.006 7  21271107.187 7 -14536200.76247  21271106.81147       508.928
  -5905953.807 5  24290150.067 5  -4044381.63845  24290154.77845     -3487.929
  -2467688.011 4  24599077.610 4  -1749277.02745  24599081.17645      2952.971
 -15561143.022 6  22304597.635 6 -11771286.69346  22304598.59146     -2369.237
 -11490972.761 6  23086562.495 6  -8630576.97446  23086562.42546     -2883.414
 15  1 19  2  8 30.0000000  0  8G05G16G18G21G25G27G29G31
  -3627293.181 4  24788110.315 4  -2700983.06045  24788111.49245     -1802.466
 -13581384.660 6  22694328.745 6  -9985503.43446  22694329.31846      2811.752
  -2284938.577 5  24225345.317 5   -484797.48145  24225347.03345      2953.887
 -18916341.857 7  21268242.343 7 -14547931.80647  21268242.32147       494.730
  -5801236.529 5  24310077.166 5  -3962783.78345  24310081.62245     -3493.208
  -2556241.122 4  24582226.501 4  -1818279.41945  24582231.75845      2950.604
 -15489987.326 6  22318138.125 6 -11715840.71146  22318138.61346     -2374.472
 -11404330.967 6  23103049.904 6  -8563063.90446  23103049.93546     -2892.700
 15  1 19  2  9  0.0000000  0  8G05G16G18G21G25G27G29G31
  -3572972.543 5  24798447.298 5  -2658655.21945  24798442.98945     -1818.891
 -13665617.016 6  22678299.846 6 -10051139.03046  22678300.69046      2803.719
  -2373514.416 5  24208489.940 5   -553817.61345  24208493.45345      2951.176
 -18930970.848 7  21265458.531 7 -14559331.01147  21265458.24047       480.540
  -5696361.631 5  24330034.234 5  -3881063.11545  24330037.86645     -3498.444
  -2644722.335 4  24565389.068 4  -1887225.80645  24565393.90745      2948.187
 -15418675.332 7  22331708.385 7 -11660272.93146  22331709.02846     -2379.669
 -11317411.772 6  23119590.076 6  -8495334.67046  23119590.74846     -2901.898
 15  1 19  2  9 30.0000000  0  8G05G16G18G21G25G27G29G31
  -3518159.325 3  24808877.770 3  -2615943.58645  24808876.79245     -1835.296
 -13749607.039 6  22662317.070 6 -10116585.79046  22662317.72646      2795.603
  -2462006.563 5  24191650.448 5   -622772.48945  24191653.08745      2948.313
 -18945174.305 7  21262755.704 7 -14570398.62847  21262755.64647       466.351
  -5591330.662 5  24350021.011 5  -3799220.80245  24350024.27945     -3503.621
  -2733131.216 4  24548565.390 4  -1956115.76745  24548569.16445      2945.757
 -15347207.574 6  22345308.263 6 -11604583.77846  22345308.55046     -2384.844
 -11230218.240 6  23136182.447 6  -8427391.66446  23136183.12046     -2910.988
 15  1 19  2 10  0.0000000  0  8G05G16G18G21G25G27G29G31
  -3462855.320 5  24819401.756 5  -2572849.58245  24819398.53445     -1851.623
 -13833352.388 6  22646380.848 6 -10181841.90246  22646380.93546      2787.410
  -2550411.781 5  24174827.476 5   -691659.63445  24174826.76545      2945.364
 -18958952.713 7  21260133.745 7 -14581135.04747  21260133.71047       452.196
  -5486145.173 5  24370037.151 5  -3717258.11445  24370041.94945     -3508.760
  -2821467.307 4  24531755.604 4  -2024949.10145  24531758.97445      2943.327
 -15275584.830 6  22358937.634 6 -11548773.86946  22358938.21346     -2389.965
 -11142753.264 6  23152826.500 6  -8359237.16046  23152826.83846     -2919.992
 15  1 19  2 10 30.0000000  0  8G05G16G18G21G25G27G29G31
  -3407062.186 5  24830018.858 5  -2529374.32045  24830019.13945     -1867.906
 -13916851.077 6  22630491.571 6 -10246905.80046  22630492.19146      2779.152
  -2638727.798 5  24158021.514 5   -760477.30645  24158022.76245      2942.361
 -18972306.273 7  21257592.643 7 -14591540.40547  21257592.73047       438.040
  -5380806.718 5  24390082.420 5  -3635176.22145  24390085.62645     -3513.824
  -2909730.158 4  24514959.746 4  -2093725.25545  24514966.50245      2940.858
 -15203807.934 6  22372596.347 6 -11492843.83246  22372596.77546     -2395.136
 -11055019.388 6  23169521.707 6  -8290873.11446  23169522.24446     -2928.915
 15  1 19  2 11  0.0000000  0  8G05G16G18G21G25G27G29G31
  -3350781.946 5  24840728.582 5  -2485519.60945  24840732.12545     -1884.096
 -14000100.805 6  22614649.665 6 -10311775.71146  22614650.38346      2770.811
  -2726952.065 5  24141233.009 5   -829223.48645  24141235.64945      2939.241
 -18985235.264 7  21255132.339 7 -14601614.93547  21255132.40647       423.892
  -5275316.852 5  24410156.516 5  -3552976.37145  24410161.90445     -3518.849
  -2997919.305 4  24498177.829 4  -2162444.05945  24498183.11645      2938.421
 -15131877.379 6  22386284.310 6 -11436794.08046  22386284.88046     -2400.232
 -10967019.735 6  23186267.488 6  -8222301.97046  23186267.41446     -2937.717
 15  1 19  2 11 30.0000000  0  7G05G16G18G21G25G29G31
  -3294016.478 5  24851530.811 5  -2441286.73745  24851531.58345     -1900.270
 -14083099.333 6  22598855.557 6 -10376449.87346  22598855.84446      2762.407
  -2815081.885 5  24124462.423 5   -897896.01045  24124459.92545      2936.052
 -18997740.052 7  21252752.747 7 -14611358.91247  21252752.80747       409.761
  -5169677.221 5  24430259.049 5  -3470659.81545  24430262.31345     -3523.821
 -15059793.910 6  22400001.336 6 -11380625.14746  22400002.01246     -2405.325
 -10878757.326 6  23203063.298 6  -8153526.07246  23203063.91846     -2946.437
 15  1 19  2 12  0.0000000  0  7G05G16G18G21G25G29G31
  -3236767.008 5  24862424.933 5  -2396676.76745  24862424.33645     -1916.355
 -14165844.774 6  22583109.600 6 -10440926.83146  22583109.96146      2753.935
  -2903114.691 5  24107710.226 5   -966493.09045  24107713.94645      2932.791
 -19009821.308 7  21250453.749 7 -14620772.87847  21250453.63447       395.653
  -5063889.303 4  24450389.810 4  -3388227.68045  24450393.82345     -3528.732
 -14987558.297 6  22413747.334 6 -11324337.68446  22413748.33446     -2410.383
 -10790234.866 6  23219908.548 6  -8084547.55646  23219909.05546     -2955.047
 15  1 19  2 12 30.0000000  0  8G05G16G18G21G25G27G29G31
  -3179035.623 5  24873410.879 5  -2351691.22445  24873406.23945     -1932.386
 -14248334.528 6  22567412.314 6 -10505204.55046  22567412.72246      2745.370
  -2991047.909 5  24090976.976 5  -1035012.35445  24090977.40445      2929.419
 -19021479.070 7  21248235.338 7 -14629856.84547  21248235.55847       381.535
  -4957954.753 4  24470548.427 4  -3305681.26945  24470550.10845     -3533.600
    -67430.819 3  24447916.091 3                                      2930.908
 -14915171.272 6  22427522.121 6 -11267932.22046  22427522.63646     -2415.415
 -10701455.308 6  23236802.736 6  -8015368.67646  23236802.40646     -2963.575
 15  1 19  2 13  0.0000000  0  8G05G16G18G21G25G27G29G31
  -3120824.132 5  24884488.273 5  -2306331.54845  24884487.21845     -1948.363
 -14330566.619 6  22551764.065 6 -10569281.48746  22551764.50946      2736.740
  -3078879.013 5  24074263.292 5  -1103452.17945  24074263.39945      2925.970
 -19032713.930 7  21246097.404 7 -14638611.27447  21246097.83047       367.446
  -4851875.123 4  24490734.694 4  -3223021.91945  24490739.42845     -3538.380
   -155320.491 4  24431191.928 4                                      2928.389
 -14842633.505 6  22441325.600 6 -11211409.28346  22441325.91746     -2420.443
 -10612421.422 6  23253745.324 6  -7945991.64046  23253745.23146     -2972.008
 15  1 19  2 13 30.0000000  0  8G05G16G18G21G25G27G29G31
  -3062134.555 5  24895656.452 5  -2260599.38445  24895655.26345     -1964.291
 -14412538.492 6  22536165.355 6 -10633155.67246  22536165.94346      2728.031
  -3166605.039 5  24057569.521 5  -1171810.12145  24057570.29245      2922.426
 -19043526.062 7  21244039.918 7 -14647036.30447  21244040.03047       353.367
  -4745651.974 3  24510948.287 3  -3140250.66245  24510950.84245     -3543.156
   -243134.131 4  24414481.581 4    -20519.80245  24414483.82345      2925.849
 -14769945.544 6  22455157.654 6 -11154769.33246  22455157.52946     -2425.411
 -10523136.044 6  23270735.784 6  -7876418.64446  23270736.05346     -2980.338
 15  1 19  2 14  0.0000000  0  8G05G16G18G21G25G27G29G31
  -3002968.652 5  24906915.285 5  -2214495.99745  24906913.71045     -1980.116
 -14494248.217 6  22520616.511 6 -10696825.58146  22520616.76246      2719.269
  -3254223.970 5  24040896.128 5  -1240084.58045  24040896.53045      2918.827
 -19053916.211 7  21242062.738 7 -14655132.51747  21242062.87247       339.312
  -4639286.917 4  24531188.908 4  -3057368.79445  24531194.79345     -3547.848
   -330871.213 4  24397785.831 4    -88886.22045  24397790.77345      2923.285
 -14697108.345 6  22469018.111 6 -11098013.06746  22469018.39946     -2430.393
 -10433602.321 6  23287773.490 6  -7806652.11446  23287773.18146     -2988.569
 15  1 19  2 14 30.0000000  0  8G05G16G18G21G25G27G29G31
  -2943328.292 5  24918264.336 5  -2168023.01945  24918262.58145     -1995.901
 -14575693.779 6  22505117.939 6 -10760289.63446  22505117.72746      2710.440
  -3341732.467 5  24024243.895 5  -1308272.97245  24024247.19545      2915.052
 -19063884.695 7  21240165.820 7 -14662900.15847  21240166.12747       325.266
  -4532781.601 4  24551456.189 4  -2974377.56545  24551457.55845     -3552.501
   -418531.402 4  24381104.664 4   -157192.82445  24381107.36645      2920.723
 -14624122.119 6  22482906.930 6 -11041140.70446  22482907.65446     -2435.356
 -10343822.988 6  23304857.969 6  -7736694.20446  23304858.14246     -2996.701
 15  1 19  2 15  0.0000000  0  8G05G16G18G21G25G27G29G31
  -2883215.309 5  24929703.552 5  -2121181.64645  24929701.42645     -2011.628
 -14656872.946 6  22489670.048 6 -10823546.12346  22489670.39546      2701.492
  -3429127.917 5  24007613.086 5  -1376373.39045  24007613.59445      2911.275
 -19073432.237 7  21238348.969 7 -14670339.80047  21238348.89247       311.240
  -4426137.565 4  24571749.911 4  -2891278.36845  24571754.12645     -3557.098
   -506114.130 4  24364438.224 4   -225439.08145  24364440.23545      2918.128
 -14550987.687 6  22496823.983 6 -10984152.86446  22496824.62546     -2440.260
 -10253801.006 6  23321988.596 6  -7666547.21846  23321988.69746     -3004.748
 15  1 19  2 15 30.0000000  0  8G05G16G18G21G25G27G29G31
  -2822631.514 5  24941232.268 5  -2073973.46845  24941230.96545     -2027.288
 -14737783.083 6  22474273.341 6 -10886592.95446  22474273.81946      2692.504
  -3516408.347 5  23991004.123 5  -1444384.06845  23991006.27245      2907.405
 -19082559.128 7  21236612.175 7 -14677451.64947  21236612.16747       297.211
  -4319356.417 4  24592069.688 4  -2808072.30745  24592075.01445     -3561.637
   -593618.999 4  24347786.638 4   -293624.69145  24347791.48245      2915.525
 -14477706.361 6  22510768.979 6 -10927050.54346  22510769.01246     -2445.167
 -10163539.244 6  23339164.834 6  -7596213.38146  23339165.80946     -3012.685
 15  1 19  2 16  0.0000000  0  8G05G16G18G21G25G27G29G31
  -2761579.070 5  24952850.097 5  -2026400.06345  24952850.38645     -2042.863
 -14818422.370 6  22458928.171 6 -10949428.75546  22458928.37646      2683.437
  -3603570.778 5  23974417.670 5  -1512302.84345  23974419.68145      2903.418
 -19091265.570 7  21234955.387 7 -14684235.88547  21234955.47547       283.225
  -4212439.790 5  24612415.302 5  -2724760.62145  24612417.66845     -3566.140
   -681045.428 4  24331149.958 4   -361749.15345  24331153.90045      2912.894
 -14404277.736 6  22524741.994 6 -10869833.45346  22524742.51746     -2450.062
 -10073040.684 6  23356386.145 6  -7525695.04746  23356386.41346     -3020.542
 15  1 19  2 16 30.0000000  0  8G05G16G18G21G25G27G29G31
  -2700059.911 5  24964556.732 5  -1978463.03245  24964558.06545     -2058.382
 -14898788.287 6  22443635.045 6 -11012051.53746  22443635.39446      2674.287
  -3690612.566 5  23957854.186 5  -1580127.60245  23957854.32845      2899.346
 -19099552.542 7  21233378.413 7 -14690693.26347  21233378.52647       269.251
  -4105389.267 5  24632786.389 5  -2641344.66245  24632791.53645     -3570.583
   -768392.985 4  24314528.245 4   -429812.14545  24314531.33845      2910.265
 -14330703.341 6  22538742.758 6 -10812502.77846  22538743.74446     -2454.913
  -9982308.113 6  23373652.001 6  -7454994.35346  23373652.27246     -3028.281
 15  1 19  2 17  0.0000000  0  8G05G16G18G21G25G27G29G31
  -2638075.871 5  24976351.861 5  -1930163.68645  24976349.24345     -2073.842
 -14978878.748 6  22428394.301 6 -11074459.67646  22428394.96046      2665.073
  -3777530.910 5  23941314.201 5  -1647856.19045  23941314.98745      2895.205
 -19107420.439 7  21231881.202 7 -14696824.08647  21231881.14647       255.272
  -3998206.456 5  24653182.645 5  -2557825.56245  24653188.27745     -3574.941
   -855661.200 5  24297921.686 5   -497813.30745  24297924.50945      2907.606
 -14256983.340 6  22552771.246 6 -10755058.64946  22552772.41446     -2459.754
  -9891344.364 6  23390961.827 6  -7384113.53346  23390962.31146     -3035.944
 15  1 19  2 17 30.0000000  0  8G05G16G18G21G25G27G29G31
  -2575628.762 5  24988235.165 5  -1881503.52545  24988235.89145     -2089.266
 -15058691.576 6  22413206.420 6 -11136651.49446  22413206.62346      2655.774
  -3864323.230 5  23924798.184 5  -1715486.54745  23924800.09245      2890.949
 -19114869.308 7  21230463.715 7 -14702628.38547  21230463.92847       241.318
  -3890892.986 5  24673603.771 5  -2474204.74045  24673606.19845     -3579.278
   -942849.576 5  24281330.299 5   -565752.27145  24281335.45645      2904.943
 -14183118.331 6  22566827.282 6 -10697501.51346  22566827.76846     -2464.577
  -9800152.525 6  23408315.059 6  -7313054.95946  23408316.06846     -3043.494
 15  1 19  2 18  0.0000000  0  8G05G16G18G21G25G27G29G31
  -2512720.792 5  25000206.054 5  -1832484.26545  25000205.01145     -2104.586
 -15138224.523 7  22398071.794 7 -11198625.20446  22398072.20046      2646.396
  -3950987.206 5  23908306.575 5  -1783016.89345  23908306.24745      2886.631
 -19121899.710 7  21229125.874 7 -14708106.60347  21229125.97547       227.384
  -3783450.470 5  24694049.430 5  -2390483.29445  24694053.48345     -3583.550
  -1029957.675 5  24264754.197 5   -633628.67945  24264758.38245      2902.268
 -14109109.013 6  22580910.804 6 -10639831.93646  22580911.55146     -2469.374
  -9708735.458 6  23425711.199 6  -7241820.89046  23425712.55346     -3050.966
 15  1 19  2 18 30.0000000  0  8G05G16G18G21G25G27G29G31
  -2449353.948 5  25012264.290 5  -1783107.45245  25012264.11345     -2119.856
 -15217475.368 6  22382990.862 6 -11260379.10646  22382991.37146      2636.966
  -4037519.799 5  23891839.986 5  -1850444.86245  23891841.07345      2882.204
 -19128512.560 7  21227867.487 7 -14713259.46147  21227867.58047       213.472
  -3675880.504 5  24714519.351 5  -2306662.53045  24714525.46045     -3587.787
  -1116984.954 5  24248193.425 5   -701442.13745  24248197.88145      2899.567
 -14034956.464 6  22595021.564 6 -10582050.76246  22595022.00646     -2474.135
  -9617095.935 6  23443149.627 6  -7170413.48646  23443149.96146     -3058.326
 15  1 19  2 19  0.0000000  0  8G05G16G18G21G25G27G29G31
  -2385530.338 5  25024409.529 5  -1733374.68945  25024407.59745     -2135.061
 -15296441.929 7  22367964.014 7 -11321911.48246  22367964.86546      2627.460
  -4123918.773 5  23875398.821 5  -1917768.75345  23875399.77645      2877.721
 -19134708.354 7  21226688.440 7 -14718087.33947  21226688.26147       199.565
  -3568184.757 4  24735013.133 4  -2222743.82745  24735018.09945     -3591.950
  -1203930.937 5  24231648.140 5   -769192.21145  24231651.66145      2896.842
 -13960660.939 6  22609159.529 6 -10524158.15346  22609159.94446     -2478.895
  -9525237.077 6  23460629.794 6  -7098835.14746  23460629.50246     -3065.573
 15  1 19  2 19 30.0000000  0  8G05G16G18G21G25G27G29G31
  -2321251.672 5  25036641.367 5  -1683287.40945  25036642.38345     -2150.184
 -15375122.095 7  22352991.675 7 -11383220.68646  22352992.86846      2617.869
  -4210181.445 5  23858983.573 5  -1984986.37445  23858985.89045      2873.138
 -19140487.515 7  21225588.689 7 -14722590.57047  21225588.71847       185.694
  -3460364.823 4  24755530.574 4  -2138728.28945  24755539.82045     -3596.041
  -1290795.188 5  24215118.412 5   -836878.60045  24215121.50345      2894.108
 -13886223.059 6  22623324.571 6 -10466154.63446  22623325.06046     -2483.633
  -9433162.002 6  23478151.098 6  -7027088.34946  23478150.71746     -3072.742
 15  1 19  2 20  0.0000000  0  8G05G16G18G21G25G27G29G31
  -2256520.287 5  25048959.314 5  -1632847.30845  25048960.24645     -2165.240
 -15453513.028 7  22338074.365 7 -11444304.52446  22338074.81646      2608.194
  -4296305.043 5  23842594.790 5  -2052095.68245  23842595.96745      2868.424
 -19145850.587 7  21224568.122 7 -14726769.57447  21224568.36947       171.823
  -3352422.379 3  24776071.320 3  -2054617.33445  24776076.09445     -3600.109
  -1377577.133 5  24198604.359 5   -904500.83245  24198607.07145      2891.353
 -13811643.542 6  22637516.601 6 -10408040.75346  22637517.05246     -2488.329
  -9340873.338 6  23495713.054 6  -6955175.11946  23495712.75646     -3079.817
 15  1 19  2 20 30.0000000  0  8G05G16G18G21G25G27G29G31
  -2191338.077 4  25061362.906 4  -1582055.94245  25061364.13445     -2180.226
 -15531612.893 7  22323212.446 7 -11505161.56346  22323212.89846      2598.456
  -4382286.744 5  23826232.961 5  -2119094.37745  23826234.73845      2863.652
 -19150798.482 7  21223626.572 7 -14730625.08147  21223626.46047       158.019
  -3244358.972 3  24796635.172 3  -1970412.08645  24796638.28445     -3604.117
  -1464276.402 5  24182106.041 5   -972058.68545  24182109.83245      2888.588
 -13736923.162 6  22651735.424 6 -10349817.10046  22651735.87746     -2493.022
  -9248373.965 6  23513315.117 6  -6883097.69146  23513315.63546     -3086.790
 15  1 19  2 21  0.0000000  0  8G05G16G18G21G25G27G29G31
  -2125706.903 4  25073851.989 4  -1530914.72245  25073850.09445     -2195.161
 -15609419.482 7  22308406.336 7 -11565790.07146  22308406.78546      2588.634
  -4468124.050 5  23809898.635 5  -2185980.56345  23809901.13845      2858.802
 -19155331.433 7  21222763.968 7 -14734157.24547  21222764.19047       144.180
  -3136176.364 3  24817221.519 3  -1886113.99545  24817228.38645     -3608.053
  -1550892.408 5  24165623.516 5  -1039551.66545  24165627.83145      2885.812
 -13662062.495 6  22665980.929 6 -10291484.11446  22665981.71646     -2497.693
  -9155667.022 6  23530956.656 6  -6810858.50046  23530956.98746     -3093.668
 15  1 19  2 21 30.0000000  0  8G05G16G18G21G25G27G29G31
  -2059629.200 3  25086425.956 3  -1479425.54945  25086429.32945     -2210.022
 -15686930.472 7  22293656.502 7 -11626188.24546  22293656.82046      2578.754
  -4553814.536 5  23793592.268 5  -2252752.34345  23793594.37545      2853.880
 -19159449.896 7  21221980.231 7 -14737366.41847  21221980.18847       130.377
  -3027876.104 2  24837830.358 2  -1801724.31945  24837833.33645     -3611.951
  -1637424.665 5  24149156.973 5  -1106979.35245  24149160.27145      2882.992
 -13587061.863 6  22680253.091 6 -10233042.09146  22680254.42646     -2502.341
  -9062755.269 6  23548637.187 6  -6738459.76446  23548637.92946     -3100.421
 15  1 19  2 22  0.0000000  0  8G05G16G18G21G25G27G29G31
  -1993106.970 3  25099084.584 3  -1427590.07545  25099086.32745     -2224.805
 -15764143.772 7  22278963.306 7 -11686354.45746  22278963.74646      2568.786
  -4639355.619 5  23777314.342 5  -2319407.72045  23777314.30245      2848.844
 -19163155.463 7  21221275.069 7 -14740253.87247  21221274.89347       116.623
  -2919459.880 2  24858461.247 2  -1717244.04945  24858463.89445     -3615.801
  -1723872.697 5  24132706.412 5  -1174341.42745  24132709.60445      2880.184
 -13511921.912 6  22694551.744 6 -10174491.47746  22694552.54146     -2506.977
  -8969641.930 6  23566356.089 6  -6665903.90946  23566356.13646     -3107.127
 15  1 19  2 22 30.0000000  0  8G05G16G18G21G25G27G29G31
  -1926142.254 3  25111827.590 3  -1375409.80145  25111828.23545     -2239.503
 -15841056.883 7  22264327.234 7 -11746286.73346  22264327.74346      2558.743
  -4724744.407 5  23761065.315 5  -2385944.39645  23761065.75745      2843.731
 -19166447.656 7  21220648.591 7 -14742819.21547  21220648.41647       102.855
  -2810929.281 2  24879113.934 2  -1632674.84445  24879117.46345     -3619.573
  -1810235.976 5  24116271.975 5  -1241637.46445  24116275.86945      2877.361
 -13436643.463 6  22708876.766 6 -10115832.96446  22708877.63146     -2511.587
  -8876329.418 6  23584112.861 6  -6593192.85746  23584112.32146     -3113.704
 15  1 19  2 23  0.0000000  0  8G05G16G18G21G25G27G29G31
  -1858737.283 3  25124654.454 3  -1322886.38245  25124655.25145     -2254.148
 -15917667.729 7  22249748.654 7 -11805983.48446  22249749.04046      2548.635
  -4809978.366 5  23744845.814 5  -2452360.42145  23744846.35445      2838.520
 -19169327.559 7  21220100.565 7 -14745063.28847  21220100.48647        89.138
  -2702286.045 3  24899788.082 3  -1548017.79045  24899785.31645     -3623.310
  -1896514.031 5  24099853.789 5  -1308867.12945  24099856.88845      2874.513
 -13361227.158 6  22723228.024 6 -10057067.03246  22723228.80646     -2516.173
  -8782820.961 6  23601906.927 6  -6520329.15046  23601906.53746     -3120.170
 15  1 19  2 23 30.0000000  0  8G05G16G18G21G25G27G29G31
  -1790894.000 3  25137564.708 3  -1270021.49245  25137562.54345     -2268.721
 -15993973.989 7  22235228.058 7 -11865442.90146  22235228.29046      2538.447
  -4895055.171 5  23728656.201 5  -2518654.01645  23728656.72445      2833.229
 -19171796.082 7  21219630.814 7 -14746986.80147  21219630.52947        75.432
  -2593531.774 3  24920483.374 3  -1463274.14045  24920486.78345     -3626.953
  -1982706.349 5  24083451.909 5  -1376029.94345  24083453.56845      2871.654
 -13285673.688 6  22737605.385 6  -9998194.22146  22737606.02146     -2520.746
  -8689119.529 5  23619737.715 5  -6447315.05046  23619738.11346     -3126.569
 15  1 19  2 24  0.0000000  0  8G05G16G18G21G25G27G29G31
  -1722614.712 3  25150557.790 3  -1216816.85145  25150561.19945     -2283.215
 -16069973.375 7  22220765.834 7 -11924663.19446  22220766.41546      2528.173
  -4979971.725 5  23712497.073 5  -2584822.75445  23712497.65545      2827.854
 -19173853.364 7  21219239.309 7 -14748589.87347  21219239.23047        61.727
  -2484668.107 3  24941199.471 3  -1378445.44545  24941204.22245     -3630.585
  -2068812.419 5  24067066.440 5  -1443125.57245  24067069.63745      2868.783
 -13209983.166 6  22752008.839 6  -9939214.62146  22752009.53446     -2525.291
  -8595228.084 5  23637604.635 5  -6374152.91546  23637604.27546     -3132.876
 15  1 19  2 24 30.0000000  0  8G05G16G18G21G25G27G29G31
  -1653901.569 2  25163633.550 2  -1163274.07745  25163627.59445     -2297.641
 -16145663.723 7  22206362.420 7 -11983642.67246  22206362.84346      2517.841
  -5064725.397 5  23696368.962 5  -2650864.57545  23696368.03245      2822.394
 -19175500.180 7  21218925.916 7 -14749873.09647  21218926.05847        48.056
  -2375696.786 5  24961936.080 5  -1293532.53444  24961940.14444     -3634.149
  -2154831.726 5  24050697.498 5  -1510153.53445  24050699.49445      2865.870
 -13134156.624 6  22766438.167 6  -9880129.04146  22766438.98246     -2529.817
  -8501149.434 5  23655507.216 5  -6300844.86546  23655506.66446     -3139.044
 15  1 19  2 25  0.0000000  0  8G05G16G18G21G25G27G29G31
  -1584756.627 2  25176791.291 2  -1109394.95345  25176792.01345     -2312.032
 -16221042.789 7  22192018.248 7 -12042379.58646  22192018.72246      2507.417
  -5149313.958 5  23680272.268 5  -2716777.69045  23680272.58045      2816.810
 -19176737.293 6  21218690.499 6 -14750837.07547  21218690.68747        34.404
  -2266619.407 5  24982692.903 5  -1208537.24045  24982699.69245     -3637.673
  -2240763.707 5  24034345.137 5  -1577113.51745  24034349.18145      2862.941
 -13058194.433 6  22780893.321 6  -9820937.72346  22780894.19046     -2534.321
  -8406886.762 5  23673444.820 5  -6227393.42846  23673444.90946     -3145.136
 15  1 19  2 25 30.0000000  0  8G05G16G18G21G25G27G29G31
  -1515181.999 2  25190030.992 2  -1055180.92045  25190029.51845     -2326.290
 -16296108.389 7  22177733.726 7 -12100872.25046  22177734.31746      2496.935
  -5233734.553 5  23664207.516 5  -2782559.95945  23664207.69545      2811.173
 -19177565.412 7  21218532.907 7 -14751482.35147  21218533.07747        20.789
  -2157437.623 5  25003469.511 5  -1123460.54345  25003471.72845     -3641.105
  -2326607.956 5  24018009.509 5  -1644005.13345  24018012.16645      2860.010
 -12982097.109 6  22795374.188 6  -9761641.12946  22795375.15946     -2538.824
  -8312442.870 5  23691416.881 5  -6153800.82246  23691417.35146     -3151.133
 15  1 19  2 26  0.0000000  0  8G05G16G18G21G25G27G29G31
  -1445179.884 2  25203351.923 2  -1000633.82945  25203351.77345     -2340.491
 -16370858.108 7  22163509.305 7 -12159118.77446  22163509.57346      2486.362
  -5317984.634 5  23648175.271 5  -2848209.38045  23648176.55545      2805.460
 -19177985.192 7  21218453.023 7 -14751809.44647  21218453.28847         7.200
  -2048153.150 5  25024265.705 5  -1038303.81845  25024272.63445     -3644.514
  -2412363.775 5  24001690.709 5  -1710827.80345  24001694.26145      2857.062
 -12905865.615 6  22809880.594 6  -9702239.99946  22809881.52346     -2543.274
  -8217820.456 5  23709422.933 5  -6080069.06446  23709423.61846     -3157.014
 15  1 19  2 26 30.0000000  0  8G05G16G18G21G25G27G29G31
  -1374752.887 2  25216753.710 2   -945755.65145  25216752.88045     -2354.652
 -16445289.476 7  22149345.491 7 -12217117.23346  22149346.07246      2475.715
  -5402061.471 6  23632176.047 6  -2913723.79645  23632175.81245      2799.638
 -19177997.677 7  21218450.647 7 -14751819.17147  21218450.64747        -6.380
  -1938767.648 4  25045081.046 4   -953068.31745  25045085.91745     -3647.848
  -2498030.836 5  23985388.798 5  -1777581.30245  23985392.81445      2854.089
 -12829500.450 6  22824412.444 6  -9642734.72346  22824413.29646     -2547.738
  -8123022.679 5  23727462.320 5  -6006200.66945  23727462.97245     -3162.817
 15  1 19  2 27  0.0000000  0  8G05G16G18G21G25G27G29G31
  -1303902.914 3  25230236.157 3   -890547.91345  25230236.02045     -2368.702
 -16519400.455 7  22135242.622 7 -12274866.04146  22135242.73546      2464.998
  -5485962.491 6  23616210.263 6  -2979101.17945  23616211.27745      2793.735
 -19177603.480 7  21218525.665 7 -14751511.99647  21218525.62547       -19.888
  -1829282.763 3  25065915.287 3   -867755.44645  25065919.54345     -3651.097
  -2583608.535 5  23969103.822 5  -1844265.19245  23969106.67345      2851.086
 -12753001.839 6  22838969.679 6  -9583125.42546  22838970.30146     -2552.170
  -8028052.389 5  23745534.563 5  -5932197.85946  23745533.71746     -3168.535
 15  1 19  2 27 30.0000000  0  8G05G16G18G21G25G27G29G31
  -1232632.361 3  25243798.535 3   -835012.38145  25243798.35245     -2382.694
 -16593188.913 7  22121201.137 7 -12332363.53146  22121201.30046      2454.221
  -5569685.483 6  23600278.312 6  -3044339.86045  23600280.52945      2787.761
 -19176803.297 7  21218677.923 7 -14750888.47547  21218677.64647       -33.451
  -1719700.195 3  25086768.146 3   -782366.44845  25086772.01345     -3654.374
  -2669096.404 5  23952835.993 5  -1910879.15045  23952838.86145      2848.082
 -12676370.715 6  22853552.114 6  -9523412.89846  22853552.43046     -2556.584
  -7932912.616 5  23763639.080 5  -5858062.97645  23763640.18845     -3174.114
 15  1 19  2 28  0.0000000  0  8G05G16G18G21G25G27G29G31
  -1160942.951 2  25257440.479 2   -779150.48245  25257439.87545     -2396.586
 -16666652.528 7  22107221.486 7 -12389607.89246  22107221.62646      2443.356
  -5653227.491 6  23584380.770 6  -3109437.53545  23584383.01745      2781.678
 -19175597.490 7  21218907.389 7 -14749948.88047  21218907.38647       -46.941
  -1610021.582 3  25107639.267 3   -696902.58045  25107641.25945     -3657.527
  -2754493.846 5  23936585.365 5  -1977422.56845  23936588.42045      2845.081
 -12599607.415 6  22868159.710 6  -9463597.36646  22868160.25046     -2560.967
  -7837606.320 5  23781775.310 5  -5783798.31645  23781777.12645     -3179.627
 15  1 19  2 28 30.0000000  0  8G05G16G18G21G25G27G29G31
  -1088837.306 3  25271161.720 3   -722964.28945  25271159.67645     -2410.434
 -16739789.102 7  22093304.053 7 -12446597.41446  22093303.96546      2432.419
  -5736585.853 6  23568518.143 6  -3174392.10345  23568518.88845      2775.528
 -19173987.051 7  21219213.839 7 -14748693.98847  21219213.73247       -60.423
  -1500248.607 3  25128528.508 3   -611365.26145  25128535.22645     -3660.664
  -2839800.294 5  23920352.092 5  -2043895.09545  23920356.01545      2842.035
 -12522712.691 6  22882792.301 6  -9403679.42846  22882792.58646     -2565.369
  -7742136.410 5  23799942.632 5  -5709406.20146  23799943.55646     -3185.007
 15  1 19  2 29  0.0000000  0  8G05G16G18G21G25G27G29G31
  -1016317.827 3  25284961.669 3   -666455.55445  25284960.41845     -2424.199
 -16812596.197 7  22079449.311 7 -12503330.21646  22079449.67846      2421.379
  -5819758.272 5  23552690.931 5  -3239201.73245  23552690.56345      2769.287
 -19171972.639 7  21219597.158 7 -14747124.30747  21219597.26547       -73.874
  -1390383.034 3  25149435.225 3   -525755.63445  25149436.82545     -3663.709
  -2925015.287 5  23904136.204 5  -2110296.35445  23904139.39345      2838.971
 -12445687.086 6  22897449.803 6  -9343659.50946  22897450.79946     -2569.680
  -7646505.794 5  23818140.512 5  -5634888.85445  23818141.18445     -3190.332
 15  1 19  2 29 30.0000000  0  8G05G16G18G21G25G27G29G31
   -943386.494 2  25298839.847 2   -609626.03045  25298841.09245     -2437.885
 -16885071.723 7  22065657.655 7 -12559804.64146  22065657.93546      2410.305
  -5902741.720 6  23536899.666 6  -3303864.14745  23536900.37545      2762.927
 -19169555.562 7  21220057.104 7 -14745240.85747  21220057.05047       -87.292
  -1280426.572 2  25170359.230 2   -440075.27745  25170359.46945     -3666.665
  -3010138.305 5  23887937.852 5  -2176625.95045  23887941.35545      2835.892
 -12368531.099 6  22912132.130 6  -9283537.98846  22912132.67946     -2574.043
  -7550717.448 5  23836368.432 5  -5560248.60345  23836368.19545     -3195.541
 15  1 19  2 30  0.0000000  0  8G05G16G18G21G25G27G29G31
   -870045.788 4  25312796.081 4   -552477.38145  25312796.14445     -2451.512
 -16957213.517 7  22051929.522 7 -12616019.00746  22051929.81946      2399.131
  -5985533.602 6  23521144.936 6  -3368377.29445  23521146.23045      2756.501
 -19166735.853 7  21220593.689 7 -14743043.66847  21220593.36547      -100.690
  -1170380.717 2  25191300.312 2   -354325.31345  25191306.48745     -3669.660
  -3095168.761 5  23871757.084 5  -2242883.42845  23871761.19645      2832.796
 -12291245.255 6  22926839.173 6  -9223315.27646  22926840.76246     -2578.349
  -7454774.068 5  23854625.875 5  -5485487.52746  23854626.62346     -3200.664
 15  1 19  2 30 30.0000000  0  8G05G16G18G21G25G27G29G31
   -796298.035 4  25326829.816 4   -495011.63145  25326829.11245     -2464.999
 -17029019.052 7  22038265.394 7 -12671971.37946  22038265.68146      2387.900
  -6068131.422 6  23505427.076 6  -3432739.20245  23505429.28445      2749.996
 -19163514.694 7  21221206.651 7 -14740533.66847  21221206.31147      -114.064
  -1060247.303 1  25212257.850 1   -268506.99445  25212262.54345     -3672.554
  -3180106.134 5  23855594.020 5  -2309068.34645  23855598.03645      2829.691
 -12213830.308 6  22941570.754 6  -9162991.96446  22941571.50146     -2582.646
  -7358679.123 5  23872912.153 5  -5410608.34745  23872912.64045     -3205.657
 15  1 19  2 31  0.0000000  0  8G05G16G18G21G25G27G29G31
   -722145.469 5  25340940.549 5   -437230.34545  25340941.24945     -2478.458
 -17100486.268 7  22024665.642 7 -12727660.11646  22024665.85346      2376.560
  -6150533.088 6  23489746.523 6  -3496948.27845  23489747.68745      2743.438
 -19159893.444 7  21221895.742 7 -14737711.90847  21221895.76947      -127.391
   -950027.917 2  25233231.975 2   -182621.89145  25233242.13245     -3675.380
  -3264949.885 5  23839448.772 5  -2375180.35845  23839452.22345      2826.553
 -12136286.687 6  22956326.825 6  -9102568.36246  22956327.00746     -2586.920
  -7262435.265 5  23891226.736 5  -5335613.15346  23891227.94046     -3210.574
 15  1 19  2 31 30.0000000  0  8G05G16G18G21G25G27G29G31
   -647590.325 4  25355127.876 4   -379135.39345  25355127.04645     -2491.853
 -17171612.791 7  22011130.717 7 -12783083.38346  22011130.93046      2365.180
  -6232735.604 6  23474103.899 6  -3561002.16045  23474105.29845      2736.740
 -19155871.653 7  21222661.043 7 -14734578.03247  21222661.15847      -140.728
   -839724.405 1  25254221.948 1    -96671.02344  25254226.06244     -3678.192
  -3349699.473 5  23823321.446 5  -2441218.96045  23823325.36945      2823.402
 -12058615.162 6  22971107.232 6  -9042045.12246  22971108.17646     -2591.198
  -7166045.350 5  23909569.159 5  -5260504.13045  23909569.50245     -3215.401
 15  1 19  2 32  0.0000000  0  8G05G16G18G21G25G27G29G31
   -572634.995 5  25369391.353 5   -320728.70245  25369392.13645     -2505.146
 -17242396.186 7  21997661.085 7 -12838239.25346  21997661.48446      2353.706
  -6314736.213 5  23458499.668 5  -3624898.70245  23458500.79545      2729.947
 -19151450.798 7  21223502.299 7 -14731133.20947  21223502.35347      -153.989
   -729338.393 2  25275227.698 2    -10656.04445  25275231.94145     -3680.897
  -3434354.305 5  23807212.172 5  -2507183.76245  23807215.53445      2820.248
 -11980815.567 6  22985912.022 6  -8981422.09346  22985912.78446     -2595.432
  -7069512.556 5  23927938.747 5  -5185283.76046  23927938.36246     -3220.109
 15  1 19  2 32 30.0000000  0  8G05G16G18G21G25G27G29G31
   -497281.598 5  25383730.769 5   -262011.78245  25383728.56245     -2518.377
 -17312834.658 7  21984257.097 7 -12893126.36546  21984257.39946      2342.177
  -6396532.539 6  23442934.313 6  -3688636.07345  23442933.65145      2723.111
 -19146632.319 7  21224419.215 7 -14727378.55447  21224419.08447      -167.251
   -618871.552 2  25296248.868 2     75422.07045  25296252.68745     -3683.568
  -3518913.902 5  23791121.019 5  -2573074.34445  23791124.36145      2817.054
 -11902888.900 6  23000740.981 6  -8920700.03746  23000741.89246     -2599.661
  -6972839.480 5  23946335.073 5  -5109954.12246  23946334.82046     -3224.734
 15  1 19  2 33  0.0000000  0  8G05G16G18G21G25G27G29G31
   -421532.727 5  25398145.335 5   -202986.65045  25398144.81545     -2531.532
 -17382925.674 7  21970919.221 7 -12947742.73346  21970919.09746      2330.556
  -6478121.763 6  23427408.326 6  -3752212.08145  23427409.64545      2716.160
 -19141416.245 6  21225411.795 6 -14723314.07747  21225411.95647      -180.478
   -508325.605 3  25317285.079 3    161561.80844  25317290.49344     -3686.174
  -3603377.643 5  23775048.100 5  -2638890.22745  23775052.01345      2813.853
 -11824835.844 6  23015594.037 6  -8859879.51846  23015595.01346     -2603.872
  -6876029.339 5  23964757.447 5  -5034517.64946  23964758.49946     -3229.234
 15  1 19  2 33 30.0000000  0  8G05G16G18G21G25G27G29G31
   -345390.547 5  25412634.754 5   -143655.08145  25412634.72545     -2544.583
 -17452666.890 7  21957647.894 7 -13002086.52946  21957648.13946      2318.851
  -6559501.595 6  23411922.273 6  -3815624.91145  23411923.23145      2709.140
 -19135803.950 6  21226479.762 6 -14718940.85347  21226479.85547      -193.688
   -397702.305 4  25338336.005 4    247761.70145  25338340.24145     -3688.731
  -3687744.961 5  23758993.529 5  -2704630.95045  23758996.93345      2810.613
 -11746656.715 6  23030471.068 6  -8798960.72746  23030472.22046     -2608.068
  -6779084.851 5  23983205.371 5  -4958976.49046  23983206.16146     -3233.688
 15  1 19  2 34  0.0000000  0  8G05G16G18G21G25G27G29G31
   -268857.636 5  25427198.366 5    -84019.02545  25427199.54145     -2557.586
 -17522056.212 7  21944443.537 7 -13056156.13046  21944443.90146      2307.092
  -6640669.308 6  23396476.543 6  -3878872.48745  23396477.99345      2702.026
 -19129795.562 7  21227623.117 7 -14714258.99247  21227623.28547      -206.871
   -287003.286 3  25359401.278 3    334020.70745  25359404.40345     -3691.226
  -3772015.331 5  23742957.420 5  -2770296.15346  23742960.08946      2807.409
 -11668352.263 6  23045371.920 6  -8737944.29246  23045373.01846     -2612.244
  -6682008.997 5  24001678.267 5  -4883332.98245  24001679.08245     -3238.020
 15  1 19  2 34 30.0000000  0  8G05G16G18G21G25G27G29G31
   -191936.347 5  25441836.017 5    -24080.40045  25441834.75445     -2570.486
 -17591091.412 7  21931306.577 7 -13109949.79746  21931307.09146      2295.240
  -6721622.576 6  23381071.645 6  -3941952.92445  23381070.83845      2694.819
 -19123392.126 7  21228841.653 7 -14709269.28947  21228841.06647      -220.019
   -176230.316 4  25380480.672 4    420337.34745  25380483.04645     -3693.664
  -3856188.211 5  23726939.803 5  -2835885.41645  23726943.42945      2804.143
 -11589923.143 6  23060296.509 6  -8676830.70446  23060296.48346     -2616.378
  -6584804.848 5  24020175.600 5  -4807589.49346  24020176.07146     -3242.255
 15  1 19  2 35  0.0000000  0  8G05G16G18G21G25G27G29G31
   -114629.014 5  25456547.153 5     36159.11545  25456548.87345     -2583.327
 -17659770.139 7  21918237.453 7 -13163465.68446  21918237.67646      2283.334
  -6802358.478 6  23365708.104 6  -4004864.00945  23365708.15845      2687.550
 -19116594.870 7  21230135.120 7 -14703972.71847  21230134.95747      -233.111
    -65385.045 4  25401573.821 4    506710.30945  25401571.90145     -3696.015
  -3940263.019 5  23710940.875 5  -2901398.24745  23710944.51945      2800.852
 -11511369.348 6  23075244.837 6  -8615619.98246  23075246.32946     -2620.528
  -6487475.296 5  24038696.823 5  -4731748.29545  24038697.01045     -3246.375
 15  1 19  2 35 30.0000000  0  8G05G16G18G21G25G27G29G31
    -36938.068 5  25471331.253 5     96697.54545  25471330.93745     -2596.076
 -17728090.346 7  21905236.547 7 -13216702.20946  21905237.05246      2271.328
  -6882874.687 6  23350386.347 6  -4067603.88845  23350385.99045      2680.179
 -19109405.054 7  21231503.279 7 -14698370.26847  21231503.02147      -246.213
     45530.816 4  25422680.422 4    593138.27045  25422686.11745     -3698.346
  -4024239.136 5  23694960.735 5  -2966834.16546  23694965.53846      2797.541
 -11432691.751 6  23090216.726 6  -8554312.80146  23090217.66446     -2624.643
  -6390022.976 5  24057241.410 5  -4655811.45445  24057242.65745     -3250.413
 15  1 19  2 36  0.0000000  0  8G05G16G18G21G25G27G29G31
     41134.357 5  25486187.969 5    157533.32744  25486195.99644     -2608.741
 -17796049.460 7  21892304.351 7 -13269657.34846  21892304.32846      2259.262
  -6963168.672 6  23335106.880 6  -4130170.62445  23335107.61945      2672.724
 -19101823.199 6  21232946.034 6 -14692462.32047  21232945.93747      -259.228
    156515.579 4  25443800.197 4    679619.85844  25443801.33344     -3700.606
  -4108115.946 5  23678999.478 5  -3032192.66446  23679002.73146      2794.243
 -11353890.864 6  23105212.026 6  -8492909.52046  23105212.40146     -2628.762
  -6292451.086 5  24075808.740 5  -4579781.41645  24075808.01045     -3254.350
 15  1 19  2 36 30.0000000  0  8G05G16G18G21G25G27G29G31
    119585.748 5  25501116.803 5    218664.27544  25501119.86344     -2621.338
 -17863645.739 7  21879441.203 7 -13322329.77746  21879441.36046      2247.138
  -7043237.739 6  23319870.219 6  -4192562.12245  23319871.00645      2665.171
 -19093850.049 6  21234463.265 6 -14686249.47347  21234462.94947      -272.295
    267567.424 4  25464932.678 4    766153.80245  25464936.74345     -3702.828
  -4191893.009 5  23663057.196 5  -3097473.45846  23663061.24546      2790.890
 -11274966.843 6  23120230.779 6  -8431410.30246  23120230.98746     -2632.838
  -6194762.668 5  24094398.241 5  -4503660.57245  24094397.85945     -3258.183
 15  1 19  2 37  0.0000000  0  9G05G16G18G21G22G25G27G29G31
    198413.642 5  25516117.212 5    280088.46043  25516109.66543     -2633.839
 -17930876.352 7  21866647.643 7 -13374717.26146  21866647.96646      2234.896
  -7123079.118 6  23304676.938 6  -4254776.17045  23304677.67445      2657.556
 -19085486.195 6  21236054.850 6 -14679732.17547  21236054.65547      -285.303
    -57694.785 4  25305764.347 4                                      3394.639
    378684.716 4  25486077.616 4    852738.68245  25486082.55445     -3704.973
  -4275569.620 5  23647134.032 5  -3162675.95346  23647137.01746      2787.542
 -11195920.882 6  23135272.730 6  -8369816.06646  23135274.03346     -2636.899
  -6096960.518 5  24113009.373 5  -4427451.12045  24113008.56545     -3261.937
 15  1 19  2 37 30.0000000  0  9G05G16G18G21G22G25G27G29G31
    277615.551 5  25531188.833 5                                     -2646.276
 -17997739.731 7  21853923.947 7 -13426818.59446  21853924.37846      2222.614
  -7202690.509 6  23289527.459 6  -4316811.00845  23289528.23845      2649.855
 -19076733.174 7  21237720.479 7 -14672911.63347  21237720.33647      -298.219
   -159571.629 3  25286374.127 3                                      3397.105
    489865.771 4  25507234.652 4                                     -3707.062
  -4359145.312 5  23631230.096 5  -3227799.85046  23631233.23346      2784.166
 -11116753.259 6  23150337.820 6  -8308127.01046  23150337.96046     -2640.937
  -5999047.443 5  24131641.562 5  -4351155.21845  24131642.14545     -3265.586
 15  1 19  2 38  0.0000000  0  9G05G16G18G21G22G25G27G29G31
    357188.861 4  25546331.129 4                                     -2658.606
 -18064232.795 7  21841270.738 7 -13478631.36446  21841270.96446      2210.242
  -7282069.522 6  23274422.106 6  -4378664.77045  23274422.88945      2642.073
 -19067591.914 7  21239459.998 7 -14665788.57247  21239459.73647      -311.181
   -261520.690 4  25266973.155 4    -63554.84945  25266963.92845      3399.480
    601108.784 3  25528403.466 3                                     -3709.108
  -4442619.485 5  23615345.450 5  -3292844.65446  23615349.51246      2780.761
 -11037464.440 6  23165425.973 6  -8246343.52346  23165426.29346     -2644.978
  -5901026.404 5  24150294.330 5  -4274775.19045  24150294.39945     -3269.143
 15  1 19  2 38 30.0000000  0  9G05G16G18G21G22G25G27G29G31
    437131.629 4  25561543.702 4      8319.71245  25561544.03145     -2670.900
 -18130354.030 7  21828688.279 7 -13530154.41046  21828688.58646      2197.814
  -7361213.616 6  23259361.469 6  -4440335.49246  23259362.77946      2634.189
 -19058062.645 7  21241273.373 7 -14658363.16147  21241273.17647      -324.054
   -363539.520 5  25247559.247 5   -143049.94845  25247558.37945      3401.753
    712412.080 3  25549583.692 3                                     -3711.094
  -4525991.531 5  23599480.274 5  -3357809.88246  23599482.92146      2777.359
 -10958054.783 6  23180537.130 6  -8184465.87946  23180537.59446     -2648.991
  -5802900.488 5  24168967.097 5  -4198313.46345  24168967.31345     -3272.573
 15  1 19  2 39  0.0000000  0  9G05G16G18G21G22G25G27G29G31
    517441.267 4  25576826.064 4                                     -2683.067
 -18196101.106 7  21816177.019 7 -13581385.88946  21816177.31746      2185.311
  -7440120.174 6  23244346.064 6  -4501821.08746  23244347.50546      2626.225
 -19048147.566 7  21243160.161 7 -14650637.12447  21243159.91947      -336.944
   -465625.857 4  25228132.516 4   -222597.77945  25228135.05445      3403.992
    823774.004 2  25570775.182 2                                     -3713.018
  -4609260.818 5  23583634.631 5  -3422695.03946  23583637.31746      2773.934
 -10878524.809 6  23195671.208 6  -8122494.50046  23195671.74346     -2652.990
  -5704672.658 5  24187659.261 5  -4121772.32345  24187658.97545     -3275.933
 15  1 19  2 39 30.0000000  0  9G05G16G18G21G22G25G27G29G31
    598115.295 3  25592177.811 3                                     -2695.171
 -18261471.699 7  21803737.394 7 -13632324.00646  21803737.30946      2172.716
  -7518786.747 6  23229376.307 6  -4563119.69446  23229377.58246      2618.204
 -19037846.990 7  21245120.296 7 -14642610.70247  21245119.92247      -349.767
   -567777.361 4  25208693.571 4   -302196.23245  25208693.38945      3406.097
    935192.743 2  25591977.531 2                                     -3714.912
  -4692426.783 5  23567808.659 5  -3487499.67746  23567812.23446      2770.480
 -10798875.211 6  23210828.019 6  -8060429.90246  23210828.25446     -2656.970
  -5606345.527 5  24206370.258 5  -4045153.78045  24206371.04245     -3279.183
 15  1 19  2 40  0.0000000  0  9G05G16G18G21G22G25G27G29G31
    679151.139 3  25607598.435 3                                     -2707.174
 -18326463.547 7  21791369.843 7 -13682967.00146  21791370.34146      2160.061
  -7597210.592 6  23214452.751 6  -4624229.18446  23214453.82746      2610.047
 -19027161.577 7  21247153.658 7 -14634284.39247  21247153.75547      -362.593
   -669991.307 3  25189242.653 3   -381843.47745  25189241.47645      3408.172
   1046666.590 2  25613190.290 2                                     -3716.699
  -4775488.791 5  23552002.456 5  -3552223.33246  23552006.35146      2766.988
 -10719106.336 6  23226007.552 6  -7998272.33746  23226008.04946     -2660.950
  -5507922.198 5  24225099.603 5  -3968460.30545  24225099.47245     -3282.347
 15  1 19  2 40 30.0000000  0  8G16G18G21G22G25G27G29G31
 -18391074.304 7  21779074.823 7 -13733313.04146  21779074.87746      2147.320
  -7675389.106 6  23199575.874 6  -4685147.48746  23199576.47046      2601.825
 -19016092.338 7  21249260.045 7 -14625659.00847  21249259.97847      -375.369
   -772265.846 3  25169780.299 3   -461537.91045  25169782.59545      3410.128
   1158193.890 1  25634413.047 1                                     -3718.475
  -4858446.247 5  23536216.167 5  -3616865.46646  23536220.96746      2763.501
 -10639218.860 6  23241209.662 6  -7936022.37546  23241209.43246     -2664.895
  -5409405.523 5  24243846.695 5  -3891694.06745  24243847.56745     -3285.418
 15  1 19  2 41  0.0000000  0  8G16G18G21G22G25G27G29G31
 -18455301.920 7  21766852.702 7 -13783360.52646  21766852.70846      2134.493
  -7753319.764 6  23184746.140 6  -4745872.67246  23184747.55146      2593.531
 -19004640.187 7  21251439.306 7 -14616735.23847  21251439.16047      -388.115
   -874598.304 3  25150306.972 3   -541277.50545  25150305.69545      3412.022
   1269772.911 1  25655645.983 1                                     -3720.125
  -4941298.579 5  23520449.862 5  -3681425.75046  23520453.54346      2759.982
 -10559213.034 6  23256434.272 6  -7873680.18846  23256435.10446     -2668.840
  -5310798.277 5  24262611.002 5  -3814857.24445  24262611.35945     -3288.376
 15  1 19  2 41 30.0000000  0  7G16G18G21G22G27G29G31
 -18519143.823 7  21754703.990 7 -13833107.45546  21754704.42546      2121.608
  -7831000.285 6  23169964.027 6  -4806402.95846  23169965.03146      2585.130
 -18992806.204 7  21253691.235 7 -14607513.94847  21253690.87647      -400.807
   -976986.354 2  25130823.079 2   -621060.33645  25130820.00145      3413.816
  -5024045.103 5  23504703.722 5  -3745903.50646  23504707.22546      2756.446
 -10479089.396 6  23271681.313 6  -7811246.19546  23271682.07046     -2672.742
  -5212103.449 5  24281391.984 5  -3737952.19345  24281393.54345     -3291.249
 15  1 19  2 42  0.0000000  0  7G16G18G21G22G27G29G31
 -18582598.527 7  21742628.966 7 -13882552.68246  21742629.27646      2108.679
  -7908427.866 6  23155230.042 6  -4866736.12146  23155230.97046      2576.671
 -18980592.281 7  21256015.478 7 -14597996.60447  21256015.39047      -413.454
  -1079427.463 2  25111328.873 2   -700884.50445  25111325.07645      3415.630
  -5106685.261 5  23488977.796 5  -3810298.41346  23488981.70946      2752.890
 -10398848.645 6  23286950.627 6  -7748720.96946  23286951.37846     -2676.639
  -5113324.119 5  24300189.079 5  -3660981.33145  24300187.97945     -3294.015
 15  1 19  2 42 30.0000000  0  7G16G18G21G22G27G29G31
 -18645663.345 7  21730628.129 7 -13931694.08946  21730628.50646      2095.633
  -7985600.306 6  23140544.628 6  -4926870.49046  23140545.27946      2568.129
 -18967998.448 7  21258412.005 7 -14588183.22447  21258411.75147      -426.126
  -1181919.604 2  25091825.332 2   -780748.43745  25091824.57445      3417.254
  -5189218.462 5  23473272.243 5  -3874609.98446  23473277.04346      2749.319
 -10318491.375 6  23302242.078 6  -7686104.93646  23302243.02446     -2680.515
  -5014463.235 5  24319001.692 5  -3583946.88045  24319001.03745     -3296.668
 15  1 19  2 43  0.0000000  0  7G16G18G21G22G27G29G31
 -18708335.853 7  21718701.950 7 -13980529.81346  21718702.40546      2082.522
  -8062514.919 6  23125908.244 6  -4986803.94646  23125908.89146      2559.498
 -18955025.860 7  21260880.610 7 -14578074.71247  21260880.44047      -438.718
  -1284460.256 1  25072312.496 1   -860650.20945  25072308.80245      3418.825
  -5271644.060 5  23457587.169 5  -3938837.71046  23457590.68046      2745.717
 -10238017.724 6  23317555.719 6  -7623398.21046  23317556.14946     -2684.385
  -4915523.667 5  24337829.281 5  -3506851.11545  24337829.45345     -3299.273
 15  1 19  2 43 30.0000000  0  7G16G18G21G22G27G29G31
 -18770614.615 7  21706850.683 7 -14029058.70346  21706851.06146      2069.361
  -8139169.618 6  23111321.344 6  -5046534.86246  23111322.60446      2550.781
 -18941675.572 7  21263421.093 7 -14567671.88747  21263420.84447      -451.299
  -1387046.580 3  25052791.114 3   -940587.57945  25052790.64045      3420.266
  -5353961.370 5  23441922.658 5  -4002981.03346  23441926.57646      2742.108
 -10157428.390 5  23332891.376 5  -7560601.37346  23332892.53346     -2688.230
  -4816507.931 5  24356671.330 5  -3429696.01045  24356671.75645     -3301.755
 15  1 19  2 44  0.0000000  0  7G16G18G21G22G27G29G31
 -18832496.632 7  21695074.921 7 -14077278.45446  21695075.53446      2056.100
  -8215561.400 6  23096784.440 6  -5106060.93746  23096784.61046      2541.977
 -18927948.294 7  21266033.300 7 -14556975.30147  21266033.07447      -463.839
  -1489676.193 3  25033261.239 3  -1020558.62645  25033259.34145      3421.701
  -5436169.844 5  23426278.851 5  -4067039.54046  23426282.40946      2738.465
 -10076723.565 5  23348249.015 5  -7497714.51646  23348249.56646     -2692.071
  -4717418.809 5  24375527.402 5  -3352483.72845  24375527.74345     -3304.149
 15  1 19  2 44 30.0000000  0  7G16G18G21G22G27G29G31
 -18893980.463 7  21683374.939 7 -14125187.92946  21683375.29746      2042.786
  -8291687.925 6  23082298.031 6  -5165380.28046  23082298.54646      2533.106
 -18913846.018 7  21268716.873 7 -14545986.50247  21268716.72847      -476.330
  -1592346.951 4  25013723.624 4  -1100561.76545  25013724.04445      3423.019
  -5518268.824 5  23410655.905 5  -4131012.75246  23410659.59546      2734.796
  -9995904.211 5  23363628.441 5  -7434738.42046  23363629.94846     -2695.888
  -4618259.920 5  24394396.708 5  -3275217.04645  24394397.38445     -3306.426
 15  1 19  2 45  0.0000000  0  7G16G18G21G22G27G29G31
 -18955063.323 7  21671751.247 7 -14172784.95746  21671751.85946      2029.385
  -8367546.731 6  23067862.532 6  -5224491.02246  23067862.81746      2524.145
 -18899368.979 7  21271471.754 7 -14534705.68647  21271471.42847      -488.798
  -1695056.558 4  24994178.517 4  -1180595.18245  24994179.07445      3424.269
  -5600257.767 5  23395053.907 5  -4194900.22446  23395056.71846      2731.123
  -9914970.448 5  23379029.649 5  -7371673.20446  23379030.42146     -2699.683
  -4519033.742 5  24413278.863 5  -3197897.97245  24413279.57245     -3308.637
 15  1 19  2 45 30.0000000  0  7G16G18G21G22G27G29G31
 -19015743.215 7  21660204.241 7 -14220067.98446  21660204.59146      2015.924
  -8443135.630 6  23053478.396 6  -5283391.47946  23053479.38446      2515.103
 -18884518.406 7  21274297.738 7 -14523133.80947  21274297.70147      -501.240
  -1797802.149 5  24974626.687 5  -1260656.70245  24974627.62045      3425.419
  -5682135.869 5  23379473.011 5  -4258701.32146  23379476.75646      2727.409
  -9833922.973 5  23394452.476 5  -7308519.35546  23394454.26146     -2703.474
  -4419742.990 5  24432173.302 5  -3120528.56845  24432173.50945     -3310.730
 15  1 19  2 46  0.0000000  0  7G16G18G21G22G27G29G31
 -19076017.983 7  21648734.318 7 -14267035.33346  21648734.25646      2002.386
  -8518452.105 6  23039146.158 6  -5342079.63046  23039147.77546      2505.978
 -18869295.529 7  21277194.541 7 -14511271.82447  21277194.52247      -513.633
  -1900581.468 5  24955068.391 5  -1340744.49445  24955068.55745      3426.522
  -5763902.585 5  23363913.326 5  -4322415.63046  23363915.45046      2723.708
  -9752761.898 5  23409896.964 5  -7245276.99246  23409897.57646     -2707.262
  -4320390.715 5  24451079.440 5  -3043111.19845  24451079.20845     -3312.745
 15  1 19  2 46 30.0000000  0  7G16G18G21G22G27G29G31
 -19135885.705 7  21637341.855 7 -14313685.50946  21637342.04046      1988.774
  -8593493.224 6  23024866.294 6  -5400553.23546  23024867.67846      2496.759
 -18853701.655 7  21280161.941 7 -14499120.74547  21280161.84947      -525.977
  -2003392.177 5  24935504.274 5  -1420856.73845  24935506.14945      3427.513
  -5845557.262 5  23348374.951 5  -4386042.61446  23348377.63646      2719.945
  -9671487.977 5  23425362.896 5  -7181946.70146  23425364.01746     -2710.991
  -4220979.977 5  24469996.722 5  -2965648.32245  24469996.05445     -3314.629
 15  1 19  2 47  0.0000000  0  7G16G18G21G22G27G29G31
 -19195343.992 7  21626027.317 7 -14360016.64546  21626027.71346      1975.097
  -8668256.843 6  23010639.237 6  -5458810.59646  23010639.62946      2487.468
 -18837737.041 7  21283199.906 7 -14486680.77847  21283199.63447      -538.322
  -2106231.837 5  24915934.550 5  -1500991.54345  24915934.40745      3428.452
  -5927099.169 5  23332858.001 5  -4449581.72446  23332860.75946      2716.177
  -9590101.894 5  23440850.170 5  -7118529.00046  23440850.78646     -2714.736
  -4121513.596 5  24488924.555 5  -2888142.07545  24488925.34845     -3316.432
 15  1 19  2 47 30.0000000  0  7G16G18G21G22G27G29G31
 -19254390.930 7  21614791.041 7 -14406027.23546  21614791.42946      1961.343
  -8742740.671 6  22996465.450 6  -5516849.93146  22996466.21046      2478.092
 -18821402.908 7  21286308.176 7 -14473952.87947  21286308.01647      -550.611
  -2209097.830 5  24896359.722 5  -1581146.91045  24896362.60745      3429.275
  -6008527.733 5  23317362.643 5  -4513032.49246  23317365.61746      2712.393
  -9508603.426 5  23456358.830 5  -7055023.70646  23456360.52946     -2718.472
  -4021994.250 5  24507862.491 5  -2810594.53145  24507862.42345     -3318.164
 15  1 19  2 48  0.0000000  0  7G16G18G21G22G27G29G31
 -19313023.827 7  21603633.568 7 -14451715.20647  21603633.94547      1947.504
  -8816941.648 6  22982345.524 6  -5574668.85846  22982346.45846      2468.630
 -18804700.802 7  21289486.480 7 -14460938.24747  21289486.68047      -562.867
  -2311988.034 5  24876780.414 5  -1661321.14445  24876784.80245      3430.051
  -6089842.339 5  23301888.976 5  -4576394.52646  23301892.37046      2708.577
  -9426993.829 6  23471888.663 6  -6991431.86746  23471889.78846     -2722.167
  -3922424.782 5  24526809.975 5  -2733007.93945  24526810.42445     -3319.783
 15  1 19  2 48 30.0000000  0  7G16G18G21G22G27G29G31
 -19371240.704 7  21592555.280 7 -14497079.01047  21592555.82247      1933.607
  -8890858.114 6  22968279.673 6  -5632266.10646  22968280.40546      2459.108
 -18787631.561 7  21292734.657 7 -14447637.52647  21292734.51347      -575.083
  -2414899.667 5  24857197.056 5  -1741511.99845  24857196.91045      3430.727
  -6171042.274 6  23286437.160 6  -4639667.18146  23286440.66946      2704.748
  -9345273.371 6  23487439.610 6  -6927753.62146  23487440.37646     -2725.848
  -3822808.056 5  24545766.472 5  -2655384.55545  24545767.01645     -3321.304
 15  1 19  2 49  0.0000000  0  7G16G18G21G22G27G29G31
 -19429039.598 7  21581556.525 7 -14542117.10547  21581557.11447      1919.644
  -8964487.355 6  22954268.495 6  -5689639.52146  22954269.08446      2449.481
 -18770196.331 7  21296052.468 7 -14434051.62847  21296052.57247      -587.275
  -2517830.217 5  24837609.949 5  -1821717.65345  24837609.58145      3431.324
  -6252126.827 6  23271007.265 6  -4702849.90346  23271010.30046      2700.884
  -9263442.405 6  23503011.599 6  -6863989.25646  23503012.48846     -2729.538
  -3723147.140 5  24564731.304 5  -2577726.73845  24564731.93245     -3322.735
 15  1 19  2 49 30.0000000  0  7G16G18G21G22G27G29G31
 -19486418.502 7  21570637.688 7 -14586827.93247  21570637.98047      1905.601
  -9037827.039 6  22940312.455 6  -5746787.29646  22940313.39646      2439.795
 -18752396.351 7  21299439.684 7 -14420181.50547  21299439.53047      -599.398
  -2620777.419 5  24818019.825 5  -1901936.33145  24818023.23045      3431.804
  -6333095.348 5  23255599.452 5  -4765942.18646  23255602.27446      2697.017
  -9181501.033 6  23518604.526 6  -6800138.84646  23518605.18346     -2733.207
  -3623444.659 5  24583704.067 5  -2500036.46145  24583705.60945     -3324.076
 15  1 19  2 50  0.0000000  0  7G16G18G21G22G27G29G31
 -19543374.941 7  21559799.233 7 -14631209.56747  21559799.83847      1891.484
  -9110874.655 6  22926411.921 6  -5803707.51846  22926412.84046      2430.026
 -18734232.774 7  21302896.102 7 -14406028.07047  21302896.32647      -611.501
  -2723738.757 4  24798426.834 4  -1982165.88445  24798427.62745      3432.232
  -6413947.245 6  23240213.820 6  -4828943.65346  23240217.33546      2693.102
  -9099449.928 5  23534218.364 5  -6736202.96745  23534219.23245     -2736.848
  -3523703.590 5  24602684.131 5  -2422316.17245  24602685.56845     -3325.310
 15  1 19  2 50 30.0000000  0  7G16G18G21G22G27G29G31
 -19599907.178 7  21549041.517 7 -14675260.65347  21549041.99047      1877.315
  -9183628.016 6  22912567.424 6  -5860398.42546  22912568.39046      2420.154
 -18715706.742 7  21306421.500 7 -14391592.19347  21306421.73847      -623.565
  -2826711.732 2  24778831.581 2  -2062404.54845  24778832.69345      3432.589
  -6494681.797 6  23224850.547 6  -4891853.64446  23224854.35746      2689.178
  -9017289.768 5  23549852.937 5  -6672182.07346  23549854.21246     -2740.479
  -3423926.845 4  24621670.910 4  -2344568.08345  24621672.81245     -3326.448
 15  1 19  2 51  0.0000000  0  7G16G18G21G22G27G29G31
 -19656012.861 7  21538364.959 7 -14718979.36447  21538365.45247      1863.052
  -9256084.070 6  22898779.509 6  -5916857.68546  22898780.50846      2410.219
 -18696818.776 7  21310015.755 7 -14376874.28947  21310015.83747      -635.607
  -2929693.721 2  24759234.644 2  -2142650.28845  24759235.71245      3432.874
  -6575298.321 6  23209509.721 6  -4954671.68746  23209513.00946      2685.242
  -8935020.976 5  23565508.201 5  -6608076.54646  23565509.49546     -2744.099
  -3324117.035 4  24640664.075 4  -2266794.21345  24640665.64545     -3327.482
 15  1 19  2 51 30.0000000  0  7G16G18G21G22G27G29G31
 -19711689.847 7  21527769.989 7 -14762364.03047  21527770.50147      1848.732
  -9328240.932 6  22885048.524 6  -5973083.78446  22885049.58646      2400.208
 -18677570.538 7  21313678.562 7 -14361875.65347  21313678.52147      -647.615
  -3032682.464 2  24739636.456 2  -2222901.19945  24739640.13345      3433.017
  -6655796.132 6  23194191.478 6  -5017397.23346  23194194.37446      2681.285
  -8852644.054 5  23581184.033 5  -6543886.79546  23581183.38346     -2747.689
  -3224277.258 3  24659662.915 3  -2188997.09045  24659662.61945     -3328.471
 15  1 19  2 52  0.0000000  0  7G16G18G21G22G27G29G31
 -19766936.057 7  21517256.983 7 -14805413.02247  21517257.31747      1834.326
  -9400096.240 6  22871374.893 6  -6029074.90846  22871374.42546      2390.121
 -18657962.793 7  21317409.790 7 -14346596.88447  21317410.02947      -659.567
  -3135675.316 2  24720037.610 2  -2303155.26945  24720039.75845      3433.131
  -6736174.527 6  23178895.970 6  -5080029.72746  23178898.72846      2677.284
  -8770159.422 5  23596880.308 5  -6479613.04345  23596882.10145     -2751.281
  -3124410.060 4  24678667.080 4  -2111178.49745  24678667.90345     -3329.311
 15  1 19  2 52 30.0000000  0  7G16G18G21G22G27G29G31
 -19821749.304 7  21506826.372 7 -14848124.63647  21506827.02447      1819.869
  -9471647.470 6  22857759.134 6  -6084829.09946  22857759.32746      2379.949
 -18637996.838 7  21321209.175 7 -14331038.98947  21321209.09847      -671.481
  -3238669.807 4  24700438.540 4  -2383410.66445  24700435.22545      3433.141
  -6816432.868 6  23163623.325 6  -5142568.69646  23163626.30546      2673.274
  -8687567.427 5  23612597.040 5  -6415255.65745  23612596.84245     -2754.838
  -3024518.339 4  24697675.886 4  -2033340.80445  24697677.34145     -3330.101
 15  1 19  2 53  0.0000000  0  7G16G18G21G22G27G29G31
 -19876128.081 7  21496478.443 7 -14890497.71147  21496478.77347      1805.350
  -9542892.393 6  22844201.652 6  -6140344.62146  22844201.85846      2369.692
 -18617674.167 7  21325076.444 7 -14315203.13247  21325076.75547      -683.347
  -3341663.301 3  24680839.430 3  -2463665.33645  24680839.15045      3433.076
  -6896570.404 6  23148373.662 6  -5205013.50746  23148376.40546      2669.230
  -8604868.414 5  23628334.170 5  -6350814.91345  23628334.45445     -2758.419
  -2924604.971 3  24716688.814 3  -1955486.26845  24716690.80745     -3330.773
 15  1 19  2 53 30.0000000  0  7G16G18G21G22G27G29G31
 -19930069.838 7  21486213.654 7 -14932530.24347  21486214.08347      1790.746
  -9613828.317 6  22830703.015 6  -6195619.35646  22830703.50846      2359.348
 -18596995.886 7  21329011.389 7 -14299090.18047  21329011.11547      -695.201
  -3444653.503 5  24661241.204 5  -2543917.39945  24661240.82145      3432.929
  -6976586.446 6  23133147.100 6  -5267363.65546  23133150.80646      2665.175
  -8522063.000 5  23644091.510 5  -6286291.21945  23644093.29145     -2761.944
  -2824672.685 3  24735705.284 3  -1877616.95945  24735704.64945     -3331.376
 15  1 19  2 54  0.0000000  0  7G16G18G21G22G27G29G31
 -19983572.422 7  21476032.457 7 -14974220.56447  21476032.80047      1776.087
  -9684453.275 6  22817263.522 6  -6250651.78446  22817263.72946      2348.947
 -18575962.690 7  21333013.865 7 -14282700.67547  21333014.08847      -706.997
  -3547637.921 4  24641643.799 4  -2624164.98745  24641643.57545      3432.666
  -7056480.271 6  23117943.806 6  -5329618.58546  23117947.39346      2661.079
  -8439151.643 5  23659869.039 5  -6221684.98545  23659869.44445     -2765.480
  -2724724.524 4  24754724.855 4  -1799735.31145  24754724.77145     -3331.829
 15  1 19  2 54 30.0000000  0  7G16G18G21G22G27G29G31
 -20036633.915 7  21465935.192 7 -15015567.18247  21465935.54247      1761.337
  -9754764.874 6  22803883.678 6  -6305440.01846  22803885.19446      2338.469
 -18554576.386 7  21337083.536 7 -14266036.01847  21337083.70547      -718.763
  -3650613.890 5  24622048.248 5  -2704406.01545  24622050.08945      3432.364
  -7136251.210 6  23102763.911 6  -5391777.72846  23102766.76746      2656.992
  -8356134.734 5  23675666.644 5  -6156996.51545  23675667.63445     -2768.973
  -2624763.583 5  24773746.793 5  -1721843.63445  24773749.05445     -3332.234
 15  1 19  2 55  0.0000000  0  7G16G18G21G22G27G29G31
 -20089252.207 7  21455922.264 7 -15056568.44347  21455922.64947      1746.528
  -9824760.777 6  22790563.891 6  -6359982.26546  22790564.44946      2327.900
 -18532837.248 7  21341220.351 7 -14249096.43047  21341220.48947      -730.505
  -3753578.830 5  24602454.611 5  -2784638.42645  24602455.09045      3431.962
  -7215898.527 6  23087607.518 6  -5453840.56346  23087610.61946      2652.854
  -8273012.733 5  23691484.264 5  -6092226.16045  23691485.91845     -2772.493
  -2524791.880 5  24792770.803 5  -1643943.61645  24792770.32545     -3332.537
 15  1 19  2 55 30.0000000  0  7G16G18G21G22G27G29G31
 -20141425.504 7  21445994.014 7 -15097222.95447  21445994.36347      1731.655
  -9894438.434 6  22777304.636 6  -6414276.53846  22777305.21346      2317.258
 -18510747.165 7  21345423.937 7 -14231883.36847  21345424.18547      -742.185
  -3856530.507 5  24582863.667 5  -2864860.49045  24582862.85445      3431.473
  -7295421.502 6  23072474.794 6  -5515806.52146  23072478.19346      2648.697
  -8189785.974 5  23707321.796 5  -6027374.15645  23707323.34045     -2775.956
  -2424812.607 4  24811796.211 4  -1566037.73345  24811796.05345     -3332.739
 15  1 19  2 56  0.0000000  0  7G16G18G21G22G27G29G31
 -20193151.171 7  21436150.941 7 -15137528.66247  21436151.35547      1716.710
  -9963795.677 6  22764106.402 6  -6468321.13046  22764106.82146      2306.535
 -18488306.928 7  21349694.160 7 -14214397.47247  21349694.04047      -753.826
  -3959466.223 5  24563275.561 5  -2945070.17045  24563277.00845      3430.888
  -7374819.484 6  23057365.850 6  -5577675.06746  23057369.16846      2644.494
  -8106455.029 5  23723179.165 5  -5962440.96845  23723181.45545     -2779.437
  -2324828.595 4  24830822.530 4  -1488128.16245  24830819.53645     -3332.829
 15  1 19  2 56 30.0000000  0  7G16G18G21G22G27G29G31
 -20244427.723 7  21426393.330 7 -15177484.40747  21426393.84647      1701.705
 -10032830.189 6  22750969.574 6  -6522114.23646  22750970.69846      2295.735
 -18465517.721 7  21354030.803 7 -14196639.65647  21354030.94447      -765.446
  -4062383.341 5  24543691.221 5  -3025265.30045  24543691.65745      3430.233
  -7454091.593 6  23042280.835 6  -5639445.51346  23042283.28046      2640.292
  -8023020.215 5  23739056.322 5  -5897426.86145  23739056.73445     -2782.884
  -2224842.614 5  24849849.254 5  -1410216.98545  24849851.26845     -3332.868
 15  1 19  2 57  0.0000000  0  7G16G18G21G22G27G29G31
 -20295252.832 7  21416721.620 7 -15217088.38447  21416722.09247      1686.622
 -10101539.603 6  22737894.588 6  -6575654.02746  22737895.74346      2284.873
 -18442381.077 7  21358433.554 7 -14178611.11247  21358433.69847      -777.016
  -4165279.349 5  24524110.666 5  -3105444.04245  24524111.69345      3429.492
  -7533237.225 6  23027219.902 6  -5701117.42746  23027223.12946      2636.058
  -7939481.980 5  23754953.123 5  -5832332.15645  23754953.93345     -2786.333
  -2124857.469 5  24868875.784 5  -1332306.46045  24868875.69845     -3332.792
 15  1 19  2 57 30.0000000  0  7G16G18G21G22G27G29G31
 -20345624.803 7  21407136.135 7 -15256339.26447  21407136.63647      1671.488
 -10169921.755 6  22724881.887 6  -6628938.79746  22724882.63246      2273.921
 -18418897.709 7  21362902.293 7 -14160312.38447  21362902.32547      -788.536
  -4268152.008 5  24504534.655 5  -3185604.52345  24504533.91145      3428.662
  -7612255.601 6  23012183.199 6  -5762690.17846  23012186.02846      2631.816
  -7855841.014 5  23770869.480 5  -5767157.40946  23770870.05246     -2789.750
  -2024875.948 5  24887901.667 5  -1254398.81345  24887903.10445     -3332.647
 15  1 19  2 58  0.0000000  0  7G16G18G21G22G27G29G31
 -20395541.360 7  21397637.320 7 -15295235.27147  21397637.65347      1656.271
 -10237974.434 6  22711931.889 6  -6681966.83446  22711931.93346      2262.905
 -18395069.456 7  21367436.648 7 -14141744.91847  21367436.82547      -800.007
  -4370998.403 5  24484963.622 5  -3265744.60945  24484960.75845      3427.749
  -7691145.999 6  22997170.831 6  -5824163.23046  22997173.46346      2627.535
  -7772097.504 5  23786805.376 5  -5701902.76546  23786806.83146     -2793.154
  -1924900.648 5  24906926.358 5  -1176495.93345  24906925.54645     -3332.391
 15  1 19  2 58 30.0000000  0  7G16G18G21G22G27G29G31
 -20445000.490 7  21388225.549 7 -15333774.84947  21388226.23447      1640.990
 -10305695.079 6  22699045.079 6  -6734736.15646  22699045.86946      2251.800
 -18370897.385 7  21372036.431 7 -14122909.53947  21372036.61047      -811.457
  -4473816.159 5  24465398.014 5  -3345862.32145  24465398.71645      3426.762
  -7769907.634 6  22982182.988 6  -5885535.91346  22982186.15446      2623.228
  -7688252.115 5  23802760.644 5  -5636568.71045  23802762.46645     -2796.554
  -1824934.487 5  24925949.267 5  -1098600.20745  24925948.69545     -3332.036
 15  1 19  2 59  0.0000000  0  7G16G18G21G22G27G29G31
 -20494000.319 7  21378901.181 7 -15371956.52747  21378901.26947      1625.646
 -10373081.567 6  22686221.824 6  -6787245.09046  22686222.17846      2240.613
 -18346382.189 7  21376701.517 7 -14103806.79347  21376701.37947      -822.876
  -4576602.926 5  24445838.328 5  -3425955.87145  24445838.67745      3425.678
  -7848539.796 6  22967219.793 6  -5946807.71546  22967222.68646      2618.893
  -7604305.102 5  23818735.240 5  -5571155.47045  23818735.88645     -2799.931
  -1724980.269 5  24944969.978 5  -1020713.78945  24944972.22045     -3331.601
 15  1 19  2 59 30.0000000  0  7G16G18G21G22G27G29G31
 -20542538.993 7  21369664.575 7 -15409778.86747  21369665.12947      1610.240
 -10440131.717 6  22673462.605 6  -6839491.95146  22673463.40946      2229.363
 -18321525.320 7  21381431.614 7 -14084437.81447  21381431.50147      -834.239
  -4679355.835 5  24426285.171 5  -3506023.12045  24426285.38845      3424.504
  -7927041.732 6  22952281.339 6  -6007978.05846  22952284.01846      2614.566
  -7520256.869 5  23834729.124 5  -5505663.34245  23834729.59145     -2803.288
  -1625040.751 5  24963987.852 5   -942838.86945  24963989.51945     -3331.030
 15  1 19  3  0  0.0000000  0  7G16G18G21G22G27G29G31
 -20590614.762 8  21360516.053 8 -15447240.50647  21360516.37147      1594.787
 -10506843.018 6  22660767.832 6  -6891474.76346  22660768.44746      2218.027
 -18296327.939 7  21386226.515 7 -14064803.48847  21386226.44047      -845.570
  -4782072.542 5  24406738.838 5  -3586062.11945  24406739.26345      3423.261
  -8005412.660 6  22937367.827 6  -6069046.29346  22937370.95246      2610.170
  -7436107.732 5  23850742.216 5  -5440092.61945  23850743.08145     -2806.641
  -1525118.870 5  24983002.428 5   -864977.61145  24983003.29245     -3330.428
 15  1 19  3  0 30.0000000  0  7G16G18G21G22G27G29G31
 -20638225.010 7  21351456.124 7 -15484339.40147  21351456.44247      1579.235
 -10573213.485 6  22648137.922 6  -6943191.98546  22648138.45046      2206.641
 -18270791.340 7  21391085.974 7 -14044904.84647  21391086.23147      -856.852
  -4884750.486 5  24387199.893 5  -3666070.91945  24387200.54745      3421.931
  -8083651.831 6  22922479.397 6  -6130011.85346  22922482.52446      2605.773
  -7351858.434 5  23866774.359 5  -5374443.82545  23866776.18745     -2809.988
  -1425216.928 5  25002013.115 5   -787131.97345  25002016.62145     -3329.707
 15  1 19  3  1  0.0000000  0  7G16G18G21G22G27G29G31
 -20685367.964 7  21342485.124 7 -15521074.17147  21342485.59247      1563.648
 -10639240.981 6  22635573.268 6  -6994641.97646  22635573.94846      2195.165
 -18244916.899 7  21396009.719 7 -14024742.94547  21396010.25347      -868.105
  -4987387.013 5  24367668.677 5  -3746047.36245  24367668.17145      3420.492
  -8161758.528 6  22907616.141 6  -6190874.18446  22907619.25446      2601.347
  -7267509.104 5  23882825.503 5  -5308717.09745  23882826.85545     -2813.309
  -1325337.625 5  25021019.502 5   -709303.93145  25021020.70745     -3328.892
 15  1 19  3  1 30.0000000  0  7G16G18G21G22G27G29G31
 -20732042.094 7  21333603.327 7 -15557443.62447  21333603.61247      1547.956
 -10704923.251 6  22623074.325 6  -7045822.96646  22623074.64246      2183.622
 -18218705.492 7  21400997.570 7 -14004318.47147  21400997.41747      -879.316
  -5089979.475 5  24348146.031 5  -3825989.57645  24348146.29445      3418.998
  -8239731.930 6  22892778.250 6  -6251632.65846  22892781.20846      2596.886
  -7183060.325 5  23898895.593 5  -5242912.86145  23898895.71945     -2816.597
  -1225483.994 5  25040021.060 5   -631495.99145  25040020.06945     -3327.999
 15  1 19  3  2  0.0000000  0  7G16G18G21G22G27G29G31
 -20778245.190 7  21324811.158 7 -15593446.02947  21324811.31147      1532.227
 -10770257.749 6  22610641.560 6  -7096732.95346  22610642.42246      2171.985
 -18192158.942 7  21406049.204 7 -13983632.83347  21406049.30447      -890.478
  -5192525.604 5  24328632.106 5  -3905895.64145  24328632.02545      3417.388
  -8317571.274 6  22877965.886 6  -6312286.67446  22877969.35046      2592.407
  -7098512.625 5  23914984.493 5  -5177031.55845  23914985.80445     -2819.909
  -1125658.888 5  25059017.126 5   -553710.15945  25059019.29845     -3327.011
 15  1 19  3  2 30.0000000  0  7G16G18G21G22G27G29G31
 -20823975.463 7  21316108.981 7 -15629080.01547  21316109.00047      1516.438
 -10835242.430 6  22598275.374 6  -7147370.35446  22598276.08946      2160.303
 -18165277.937 7  21411164.475 7 -13962686.58847  21411164.59947      -901.600
  -5295022.721 5  24309127.616 5  -3985763.48445  24309126.03545      3415.725
  -8395275.825 6  22863179.192 6  -6372835.66046  22863182.11146      2587.889
  -7013866.212 5  23931092.191 5  -5111073.33345  23931093.66145     -2823.192
  -1025864.937 4  25078007.327 4   -475948.65345  25078008.91645     -3325.920
 15  1 19  3  3  0.0000000  0  7G16G18G21G22G27G29G31
 -20869230.732 7  21307497.180 7 -15664343.86347  21307497.25047      1500.564
 -10899875.327 6  22585976.122 6  -7197733.64746  22585976.55146      2148.551
 -18138063.944 7  21416343.128 7 -13941480.87947  21416343.21947      -912.681
  -5397468.029 5  24289632.909 5  -4065591.07345  24289634.83445      3413.960
  -8472844.755 6  22848418.306 6  -6433278.97546  22848421.15646      2583.361
  -6929121.523 5  23947218.565 5  -5045038.52245  23947218.26745     -2826.464
   -926104.894 2  25096990.941 2   -398213.57845  25096994.97445     -3324.745
 15  1 19  3  3 30.0000000  0  7G16G18G21G22G27G29G31
 -20914008.917 7  21298976.168 7 -15699235.95647  21298976.54847      1484.636
 -10964154.503 6  22573744.190 6  -7247821.31246  22573744.39946      2136.700
 -18110517.883 7  21421584.956 7 -13920016.41247  21421585.10447      -923.718
  -5499859.090 5  24270148.497 5  -4145376.21945  24270149.03845      3412.088
  -8550277.280 6  22833683.361 6  -6493616.00046  22833686.27946      2578.816
  -6844279.206 5  23963363.486 5  -4978927.62745  23963364.22145     -2829.705
   -826381.445 2  25115967.730 2   -320507.00645  25115967.52145     -3323.483
 15  1 19  3  4  0.0000000  0  7G16G18G21G22G27G29G31
 -20958308.603 7  21290546.225 7 -15733755.19947  21290546.60147      1468.656
 -11028077.315 6  22561580.056 6  -7297631.27846  22561581.11246      2124.787
 -18082641.432 7  21426889.659 7 -13898294.49647  21426889.31147      -934.703
  -5602193.324 5  24250674.985 5  -4225117.24745  24250675.83645      3410.168
  -8627572.627 6  22818974.557 6  -6553846.11946  22818977.32146      2574.191
  -6759339.525 5  23979526.960 5  -4912740.89945  23979526.29645     -2832.950
   -726697.003 1  25134936.862 1   -242830.86445  25134937.35645     -3322.137
 15  1 19  3  4 30.0000000  0  8G16G18G19G21G22G27G29G31
 -21002127.907 7  21282207.690 7 -15767900.10847  21282207.97847      1452.611
 -11091641.439 6  22549484.198 6  -7347161.75446  22549485.04246      2112.804
    -18972.647 2  25298086.554 2                                      3162.453
 -18054436.031 7  21432256.959 7 -13876316.26147  21432257.17647      -945.672
  -5704468.335 5  24231212.613 5  -4304811.99545  24231212.41545      3408.134
  -8704730.001 6  22804291.998 6  -6613968.72846  22804295.24046      2569.607
  -6674302.771 5  23995708.898 5  -4846478.48645  23995710.24645     -2836.155
   -627054.315 1  25153898.299 1   -165187.30145  25153895.05745     -3320.699
 15  1 19  3  5  0.0000000  0  7G16G18G19G21G22G27G29
 -21045465.237 7  21273960.870 7 -15801669.46247  21273961.35547      1436.512
 -11154844.705 6  22537456.993 6  -7396411.02746  22537458.14346      2100.734
   -113827.261 2  25280035.878 2                                      3161.135
 -18025902.376 7  21437686.737 7 -13854082.24947  21437686.59847      -956.591
  -5806681.441 5  24211762.166 5  -4384458.59045  24211760.34645      3406.048
  -8781748.594 6  22789635.850 6  -6673983.20546  22789638.66446      2564.949
  -6589169.716 5  24011909.189 5  -4780141.07945  24011909.21645     -2839.383
 15  1 19  3  5 30.0000000  0  7G16G18G19G21G22G27G29
 -21088317.991 7  21265806.266 7 -15835061.22047  21265806.41347      1420.336
 -11217685.241 6  22525498.827 6  -7445377.68246  22525499.07046      2088.611
   -208641.910 2  25261993.060 2                                      3159.856
 -17997041.809 7  21443178.710 7 -13831593.48947  21443178.67447      -967.442
  -5908829.868 5  24192323.950 5  -4464054.73245  24192323.41445      3403.862
  -8858627.588 6  22775006.264 6  -6733888.90946  22775008.83546      2560.303
  -6503940.617 5  24028127.764 5  -4713728.80945  24028127.51845     -2842.564
 15  1 19  3  6  0.0000000  0  8G16G18G19G21G22G27G29G31
 -21130684.752 7  21257744.131 7 -15868074.28147  21257744.18547      1404.109
 -11280160.927 6  22513610.082 6  -7494060.03446  22513610.86946      2076.415
   -303416.108 3  25243958.215 3                                      3158.453
 -17967855.520 7  21448732.679 7 -13808850.93047  21448732.88247      -978.287
  -6010911.276 5  24172898.513 5  -4543598.71045  24172899.61245      3401.568
  -8935366.141 6  22760403.422 6  -6793685.16146  22760406.28546      2555.581
  -6418615.889 5  24044364.516 5  -4647242.04645  24044365.54845     -2845.763
     86226.540 3  25210729.514 3                                     -3315.819
 15  1 19  3  6 30.0000000  0  8G16G18G19G21G22G27G29G31
 -21172563.826 8  21249774.816 8 -15900707.33347  21249775.03347      1387.805
 -11342269.670 7  22501791.178 7  -7542456.43946  22501791.39946      2064.148
   -398149.119 4  25225931.161 4                                      3157.072
 -17938344.958 7  21454348.347 7 -13785855.68747  21454348.44547      -989.079
  -6112922.994 5  24153486.334 5  -4623088.37445  24153486.39945      3399.197
  -9011963.501 6  22745827.426 6  -6853371.38946  22745830.07846      2550.885
  -6333195.991 5  24060619.423 5  -4580681.09545  24060621.00645     -2848.911
    185674.257 3  25229653.533 3                                     -3314.017
 15  1 19  3  7  0.0000000  0  8G16G18G19G21G22G27G29G31
 -21213952.953 8  21241898.728 8 -15932958.59647  21241898.82347      1371.456
 -11404009.652 7  22490042.444 7  -7590565.49646  22490042.59446      2051.809
   -492840.486 4  25207911.946 4                                      3155.676
 -17908511.750 7  21460025.419 7 -13762609.03047  21460025.34147      -999.810
  -6214862.393 5  24134087.857 5  -4702521.65045  24134086.30945      3396.759
  -9088418.819 6  22731278.450 6  -6912946.93046  22731281.61646      2546.140
  -6247680.848 5  24076892.435 5  -4514045.95345  24076893.28645     -2852.072
    285066.586 3  25248567.466 3     56788.33445  25248567.39245     -3312.118
 15  1 19  3  7 30.0000000  0  8G16G18G19G21G22G27G29G31
 -21254850.546 7  21234116.176 7 -15964826.85547  21234116.55947      1355.050
 -11465378.355 7  22478364.355 7  -7638385.25546  22478364.90246      2039.417
   -587489.300 4  25189900.871 4    -39328.22344  25189905.98444      3154.228
 -17878356.932 7  21465763.677 7 -13739111.77647  21465763.47347     -1010.518
  -6316727.088 5  24114703.663 5  -4781896.75945  24114703.01245      3394.210
  -9164731.290 6  22716756.662 6  -6972411.16846  22716759.67746      2541.363
  -6162071.364 5  24093183.432 5  -4447337.25545  24093184.63145     -2855.223
    384400.985 4  25267470.136 4    134191.79245  25267471.10845     -3310.135
 15  1 19  3  8  0.0000000  0  8G16G18G19G21G22G27G29G31
 -21295254.836 7  21226427.504 7 -15996310.72647  21226427.70647      1338.567
 -11526373.683 7  22466757.316 7  -7685914.06646  22466757.54746      2026.932
   -682095.528 4  25171897.914 4   -113047.33044  25171900.73444      3152.800
 -17847881.096 7  21471563.039 7 -13715364.36847  21471563.03947     -1021.198
  -6418514.297 5  24095334.188 5  -4861211.36645  24095333.91645      3391.572
  -9240900.095 6  22702262.192 6  -7031763.47146  22702264.92246      2536.553
  -6076368.020 5  24109492.286 5  -4380555.43346  24109494.02146     -2858.349
    483674.602 4  25286361.275 4    211547.80945  25286362.93445     -3308.085
 15  1 19  3  8 30.0000000  0  8G16G18G19G21G22G27G29G31
 -21335164.251 7  21218832.981 7 -16027408.97347  21218833.25247      1322.043
 -11586993.843 7  22455221.686 7  -7733150.52546  22455221.83546      2014.385
   -776658.385 5  25153903.233 5   -186732.72245  25153904.48745      3151.361
 -17817086.348 7  21477423.084 7 -13691368.44947  21477423.12247     -1031.808
  -6520221.399 5  24075979.880 5  -4940463.68145  24075978.45345      3388.877
  -9316924.365 6  22687795.235 6  -7091003.13046  22687797.76546      2531.724
  -5990571.132 6  24125818.933 6  -4313700.73345  24125821.05945     -2861.450
    582884.909 4  25305240.299 4    288854.61045  25305239.24045     -3305.953
 15  1 19  3  9  0.0000000  0  8G16G18G19G21G22G27G29G31
 -21374576.797 7  21211333.022 7 -16058120.04347  21211333.40747      1305.443
 -11647236.615 7  22443757.876 7  -7780092.93546  22443758.69146      2001.788
   -871177.386 5  25135916.850 5   -260383.87445  25135918.39845      3149.892
 -17785973.679 7  21483343.635 7 -13667124.79947  21483343.73647     -1042.371
  -6621845.790 5  24056641.454 5  -5019651.49845  24056640.99345      3386.074
  -9392803.293 6  22673355.933 6  -7150129.54346  22673359.23146      2526.857
  -5904681.114 5  24142163.313 5  -4246773.50545  24142164.95045     -2864.549
    682029.317 5  25324106.908 5    366110.01545  25324106.56145     -3303.689
 15  1 19  3  9 30.0000000  0  8G16G18G19G21G22G27G29G31
 -21413490.695 7  21203927.952 7 -16088442.56747  21203928.38547      1288.802
 -11707100.090 7  22432366.220 7  -7826739.78646  22432366.44746      1989.097
   -965652.017 5  25117938.856 5   -334000.42845  25117939.07245      3148.392
 -17754544.198 7  21489324.468 7 -13642634.29147  21489324.21847     -1052.918
  -6723384.925 5  24037319.217 5  -5098772.90945  24037318.26045      3383.189
  -9468535.993 6  22658944.466 6  -7209142.00846  22658947.30646      2521.987
  -5818698.373 5  24158525.311 5  -4179774.01045  24158526.23245     -2867.629
    781104.969 5  25342960.391 5    443311.83045  25342960.34245     -3301.353
 15  1 19  3 10  0.0000000  0  8G16G18G19G21G22G27G29G31
 -21451904.144 7  21196618.129 7 -16118375.12147  21196618.81047      1272.091
 -11766582.099 7  22421047.159 7  -7873089.39346  22421047.79746      1976.353
  -1060081.272 5  25099969.556 5   -407581.67245  25099967.62045      3146.866
 -17722799.364 7  21495365.317 7 -13617898.04447  21495365.26047     -1063.400
  -6824836.213 5  24018013.675 5  -5177825.85845  24018012.71445      3380.218
  -9544121.667 6  22644560.962 6  -7268039.91046  22644563.78246      2517.066
  -5732623.437 5  24174904.810 5  -4112702.62045  24174906.26845     -2870.703
    880109.159 5  25361800.245 5    520457.99445  25361801.07345     -3298.921
 15  1 19  3 10 30.0000000  0  8G16G18G19G21G22G27G29G31
 -21489815.822 8  21189403.776 8 -16147916.68547  21189404.17047      1255.329
 -11825680.876 7  22409801.021 7  -7919140.36946  22409801.29546      1963.530
  -1154464.355 5  25082009.081 5   -481126.93945  25082010.02545      3145.326
 -17690740.570 7  21501465.914 7 -13592917.15547  21501466.13147     -1073.850
  -6926197.306 5  23998725.278 5  -5256808.50345  23998723.24845      3377.155
  -9619559.493 6  22630205.616 6  -7326822.61446  22630208.13746      2512.111
  -5646456.591 5  24191301.812 5  -4045559.64545  24191302.38145     -2873.762
    979039.533 4  25380626.011 4    597546.54945  25380623.72445     -3296.409
 15  1 19  3 11  0.0000000  0  8G16G18G19G21G22G27G29G31
 -21527223.556 8  21182285.320 8 -16177065.56847  21182285.48447      1238.503
 -11884393.857 7  22398628.297 7  -7964890.73346  22398628.69846      1950.652
  -1248801.333 5  25064057.385 5   -554636.26045  25064058.36145      3143.779
 -17658369.014 7  21507626.023 7 -13567692.55747  21507626.04147     -1084.254
  -7027465.041 5  23979454.684 5  -5335718.42345  23979455.10745      3374.017
  -9694848.550 6  22615878.569 6  -7385489.39646  22615880.98646      2507.150
  -5560198.148 5  24207716.259 5  -3978345.28545  24207717.00745     -2876.813
   1077893.589 4  25399437.264 4    674575.81845  25399434.58145     -3293.831
 15  1 19  3 11 30.0000000  0  8G16G18G19G21G22G27G29G31
 -21564125.980 7  21175263.018 7 -16205820.70747  21175263.23447      1221.630
 -11942719.345 7  22387529.329 7  -8010339.14746  22387530.09346      1937.706
  -1343091.436 5  25046114.552 5   -628108.99745  25046114.44345      3142.212
 -17625685.886 7  21513845.416 7 -13542225.18347  21513845.14647     -1094.613
  -7128637.276 5  23960202.255 5  -5414553.91745  23960201.78745      3370.789
  -9769987.980 6  22601579.991 6  -7444039.57546  22601582.81646      2502.142
  -5473848.548 5  24224148.049 5  -3911059.90245  24224147.72145     -2879.813
   1176668.276 5  25418233.411 5    751543.07345  25418236.73245     -3291.137
 15  1 19  3 12  0.0000000  0  8G16G18G19G21G22G27G29G31
 -21600521.162 8  21168337.261 8 -16234180.58847  21168337.90747      1204.694
 -12000655.464 7  22376504.451 7  -8055484.13846  22376505.04446      1924.690
  -1437333.994 4  25028180.735 4   -701544.77345  25028181.30245      3140.611
 -17592692.689 7  21520123.816 7 -13516516.19347  21520124.10947     -1104.932
  -7229711.299 5  23940968.481 5  -5493312.91845  23940968.75245      3367.462
  -9844976.939 6  22587310.033 6  -7502472.49946  22587312.65446      2497.123
  -5387408.184 5  24240597.077 5  -3843703.79645  24240599.02945     -2882.851
   1275361.472 4  25437014.133 4    828446.80745  25437020.74045     -3288.382
 15  1 19  3 12 30.0000000  0  8G16G18G19G21G22G27G29G31
 -21636407.459 8  21161508.332 8 -16262143.93447  21161508.53647      1187.718
 -12058200.071 7  22365554.076 7  -8100324.06646  22365553.71546      1911.605
  -1531528.345 4  25010256.160 4   -774942.95145  25010257.37645      3138.986
 -17559390.419 7  21526461.029 7 -13490566.37147  21526461.03547     -1115.207
  -7330684.415 5  23921753.948 5  -5571993.26845  23921754.48745      3364.045
  -9919814.569 6  22573068.886 6  -7560787.51746  22573071.77846      2492.049
  -5300877.550 5  24257063.309 5  -3776277.35945  24257063.79245     -2885.865
   1373970.002 4  25455778.681 4    905284.74443  25455775.29943     -3285.528
 15  1 19  3 13  0.0000000  0  8G16G18G19G21G22G27G29G31
 -21671783.605 8  21154776.484 8 -16289709.77047  21154776.81347      1170.673
 -12115351.501 7  22354678.496 7  -8144857.64446  22354678.71346      1898.465
  -1625673.762 4  24992340.836 4   -848302.96445  24992340.74845      3137.356
 -17525780.556 7  21532856.773 7 -13464376.87647  21532856.64247     -1125.443
  -7431554.015 5  23902559.111 5  -5650592.93045  23902559.97645      3360.580
  -9994499.957 6  22558856.714 6  -7618983.89146  22558859.74946      2486.970
  -5214257.185 5  24273546.620 5  -3708780.99945  24273546.40945     -2888.825
   1472491.730 4  25474526.809 4    982054.98845  25474527.95045     -3282.587
 15  1 19  3 13 30.0000000  0  8G16G18G19G21G22G27G29G31
 -21706647.145 7  21148142.182 7 -16316876.17447  21148142.43647      1153.561
 -12172107.373 7  22343878.219 7  -8189082.97146  22343878.64246      1885.242
  -1719769.496 2  24974434.910 2   -921624.27745  24974436.73245      3135.718
 -17491864.528 7  21539310.785 7 -13437948.80447  21539310.40247     -1135.624
  -7532317.618 5  23883384.480 5  -5729109.97545  23883383.44745      3356.989
 -10069032.264 6  22544673.670 6  -7677060.97146  22544676.67246      2481.859
  -5127547.227 4  24290046.977 4  -3641214.83545  24290051.28045     -2891.835
   1570924.005 3  25493257.877 3   1058755.43244  25493259.30044     -3279.544
 15  1 19  3 14  0.0000000  0  7G16G18G19G21G22G27G29
 -21740996.909 8  21141605.646 8 -16343642.23047  21141606.21647      1136.415
 -12228465.859 7  22333153.540 7  -8232998.66046  22333153.78246      1871.979
  -1813815.191 2  24956538.579 2   -994906.59145  24956537.25745      3134.012
 -17457643.574 7  21545822.821 7 -13411283.13347  21545822.69247     -1145.768
  -7632972.471 5  23864230.402 5  -5807542.32145  23864231.83645      3353.322
 -10143410.577 6  22530519.919 6  -7735018.08846  22530522.85546      2476.693
  -5040747.992 4  24306564.298 4  -3573579.12345  24306563.93445     -2894.769
 15  1 19  3 14 30.0000000  0  7G16G18G19G21G22G27G29
 -21774831.380 7  21135167.158 7 -16370006.75447  21135167.37747      1119.212
 -12284425.247 7  22322504.807 7  -8276603.35546  22322505.99546      1858.636
  -1907810.245 3  24938651.897 3  -1068149.36845  24938653.69645      3132.316
 -17423118.937 7  21552392.627 7 -13384380.81747  21552392.28247     -1155.869
  -7733516.035 5  23845097.547 5  -5885887.91445  23845097.90745      3349.560
 -10217634.034 6  22516395.645 6  -7792854.51846  22516398.36246      2471.515
  -4953860.408 4  24323098.471 4  -3505874.48445  24323097.28245     -2897.742
 15  1 19  3 15  0.0000000  0  7G16G18G19G21G22G27G29
 -21808148.920 8  21128827.039 8 -16395968.47347  21128827.12847      1101.942
 -12339983.714 7  22311932.361 7  -8319895.65046  22311932.77046      1845.229
  -2001753.944 2  24920774.956 2  -1141352.18245  24920777.12545      3130.632
 -17388291.723 7  21559020.021 7 -13357242.73047  21559019.94947     -1165.938
  -7833945.563 5  23825986.415 5  -5964144.64345  23825984.83445      3345.712
 -10291701.734 6  22502300.998 6  -7850569.59546  22502303.90046      2466.305
  -4866884.578 4  24339649.442 4  -3438101.11545  24339649.05945     -2900.631
 15  1 19  3 15 30.0000000  0  7G16G18G19G21G22G27G29
 -21840947.844 8  21122585.608 8 -16421526.07247  21122585.65747      1084.632
 -12395139.050 7  22301436.644 7  -8362873.81046  22301436.90746      1831.768
  -2095645.820 2  24902907.840 2  -1214514.67145  24902908.37745      3128.855
 -17353163.417 7  21565704.704 7 -13329870.03447  21565704.74447     -1175.928
  -7934258.692 5  23806897.415 5  -6042310.75645  23806896.02245      3341.800
 -10365612.751 6  22488236.172 6  -7908162.58646  22488238.71946      2461.077
  -4779821.155 5  24356217.068 5  -3370259.53545  24356217.20745     -2903.557
 15  1 19  3 16  0.0000000  0  7G16G18G19G21G22G27G29
 -21873227.187 8  21116443.053 8 -16446678.80647  21116443.51947      1067.275
 -12449889.432 7  22291017.985 7  -8405536.42846  22291018.13646      1818.238
  -2189485.032 2  24885050.791 2  -1287636.06945  24885050.13245      3127.085
 -17317735.368 7  21572446.440 7 -13302263.76247  21572446.15347     -1185.923
  -8034453.072 5  23787830.969 5  -6120384.26845  23787831.35645      3337.789
 -10439366.244 6  22474201.331 6  -7965632.82346  22474204.44046      2455.814
  -4692670.211 5  24372801.387 5  -3302349.70845  24372804.73445     -2906.491
 15  1 19  3 16 30.0000000  0  7G16G18G19G21G22G27G29
 -21904984.561 8  21110399.827 8 -16471424.81247  21110400.43347      1049.865
 -12504232.928 7  22280676.765 7  -8447881.98346  22280677.13246      1804.640
  -2283270.962 2  24867203.858 2  -1360715.94145  24867203.69345      3125.299
 -17282008.829 7  21579244.980 7 -13274424.89347  21579245.06447     -1195.847
  -8134525.398 5  23768787.870 5  -6198362.67545  23768787.08045      3333.702
 -10512961.227 6  22460196.660 6  -8022979.55046  22460199.30746      2450.537
  -4605432.318 5  24389402.247 5  -3234372.12945  24389400.93745     -2909.367
 15  1 19  3 17  0.0000000  0  7G16G18G19G21G22G27G29
 -21936218.263 7  21104456.245 7 -16495762.76147  21104456.79647      1032.377
 -12558168.007 7  22270413.225 7  -8489909.29946  22270413.84546      1791.007
  -2377002.746 2  24849367.290 2  -1433753.60245  24849367.86745      3123.471
 -17245984.950 7  21586100.105 7 -13246354.34747  21586100.07847     -1205.742
  -8234473.456 5  23749768.402 5  -6276244.27945  23749766.97345      3329.486
 -10586396.817 6  22446222.318 6  -8080202.06646  22446225.15646      2445.187
  -4518107.964 5  24406019.562 5  -3166327.14645  24406019.18245     -2912.250
 15  1 19  3 17 30.0000000  0  7G16G18G19G21G22G27G29
 -21966927.109 8  21098612.544 8 -16519691.73347  21098612.94447      1014.865
 -12611692.641 7  22260227.826 7  -8531616.77946  22260227.92446      1777.287
  -2470680.226 2  24831541.083 2  -1506748.99545  24831541.61245      3121.635
 -17209665.191 7  21593011.545 7 -13218053.24247  21593011.52047     -1215.578
  -8334294.196 6  23730773.153 6  -6354026.68345  23730772.98645      3325.208
 -10659672.080 6  22432278.480 6  -8137299.65746  22432281.09246      2439.817
  -4430697.321 5  24422653.342 5  -3098215.00545  24422654.74845     -2915.141
 15  1 19  3 18  0.0000000  0  7G16G18G19G21G22G27G29
 -21997109.946 7  21092868.941 7 -16543210.82547  21092869.15047       997.291
 -12664804.975 7  22250120.857 7  -8573003.00046  22250121.19946      1763.504
  -2564302.955 2  24813725.236 2  -1579701.70445  24813722.95045      3119.791
 -17173051.290 7  21599978.949 7 -13189522.92947  21599979.02047     -1225.350
  -8433985.668 6  23711802.507 6  -6431708.30545  23711802.17445      3320.855
 -10732786.136 6  22418365.324 6  -8194271.63246  22418368.74446      2434.437
  -4343201.244 5  24439303.318 5  -3030036.22345  24439304.77545     -2917.965
 15  1 19  3 18 30.0000000  0  7G16G18G19G21G22G27G29
 -22026764.813 8  21087225.828 8 -16566318.51347  21087226.25047       979.690
 -12717503.135 7  22240092.728 7  -8614066.48246  22240093.35346      1749.681
  -2657869.685 2  24795920.067 2  -1652610.74645  24795920.37745      3117.930
 -17136144.121 7  21607002.165 7 -13160764.09347  21607002.22047     -1235.120
  -8533544.934 6  23692857.033 6  -6509286.96945  23692856.62845      3316.404
 -10805738.015 6  22404483.051 6  -8251117.23746  22404486.27446      2429.026
  -4255619.828 5  24455969.578 5  -2961791.02445  24455970.95245     -2920.802
 15  1 19  3 19  0.0000000  0  7G16G18G19G21G22G27G29
 -22055890.515 8  21081683.406 8 -16589013.87047  21081683.86447       962.048
 -12769785.304 7  22230143.723 7  -8654805.82746  22230144.32646      1735.791
  -2751379.451 3  24778125.735 3  -1725475.50145  24778128.27745      3116.068
 -17098944.496 7  21614081.035 7 -13131777.37047  21614081.17147     -1244.835
  -8632969.193 6  23673937.250 6  -6586760.38945  23673936.98845      3311.864
 -10878526.815 6  22390631.799 6  -8307835.75946  22390634.78146      2423.560
  -4167953.115 5  24472652.014 5  -2893479.33045  24472652.61645     -2923.618
 15  1 19  3 19 30.0000000  0  7G16G18G19G21G22G27G29
 -22084486.165 7  21076241.833 7 -16611296.19947  21076242.16447       944.313
 -12821649.821 7  22220274.237 7  -8695219.71646  22220274.61246      1721.846
  -2844832.100 3  24760342.254 3  -1798295.76145  24760343.99245      3114.125
 -17061454.421 7  21621215.151 7 -13102564.33547  21621215.34047     -1254.502
  -8732256.015 5  23655043.556 5  -6664126.73345  23655044.93545      3307.240
 -10951151.582 6  22376811.743 6  -8364426.47146  22376814.37246      2418.083
  -4080202.085 5  24489350.522 5  -2825101.90245  24489352.46445     -2926.435
 15  1 19  3 20  0.0000000  0  7G16G18G19G21G22G27G29
 -22112549.004 7  21070901.655 7 -16633163.34547  21070902.17347       926.537
 -12873095.199 7  22210484.500 7  -8735307.01446  22210485.44546      1707.826
  -2938226.785 4  24742569.849 4  -1871070.85845  24742571.36645      3112.167
 -17023675.163 7  21628404.321 7 -13073125.94847  21628404.63247     -1264.123
  -8831403.042 5  23636176.484 5  -6741384.14445  23636176.48845      3302.537
 -11023611.384 6  22363023.108 6  -8420888.64646  22363026.42446      2412.566
  -3992366.913 5  24506065.017 5  -2756658.93245  24506067.95145     -2929.231
 15  1 19  3 20 30.0000000  0  7G16G18G19G21G22G27G29
 -22140078.215 8  21065663.046 8 -16654614.68347  21065663.84647       908.732
 -12924119.233 7  22200774.931 7  -8775065.98746  22200775.86746      1693.745
  -3031562.958 4  24724808.553 4  -1943800.26045  24724806.64845      3110.216
 -16985608.153 7  21635648.224 7 -13043463.35247  21635648.51547     -1273.684
  -8930407.445 5  23617336.582 5  -6818530.40546  23617336.52046      3297.729
 -11095905.273 6  22349266.047 6  -8477221.53946  22349268.65446      2407.031
  -3904448.011 5  24522795.513 5  -2688150.69745  24522797.43445     -2932.039
 15  1 19  3 21  0.0000000  0  7G16G18G19G21G22G27G29
 -22167072.339 8  21060526.260 8 -16675649.06747  21060526.82947       890.864
 -12974720.159 7  22191145.902 7  -8814495.27246  22191146.46446      1679.618
  -3124840.018 4  24707058.516 4  -2016483.67145  24707061.00345      3108.243
 -16947254.193 7  21642946.758 7 -13013577.15347  21642947.07847     -1283.231
  -9029266.255 5  23598524.328 5  -6895563.22446  23598524.04246      3292.846
 -11168032.276 6  22335540.747 6  -8533424.38746  22335543.90146      2401.431
  -3816445.508 5  24539541.845 5  -2619577.32945  24539542.09345     -2934.802
 15  1 19  3 21 30.0000000  0  7G16G18G19G21G22G27G29
 -22193530.098 8  21055491.540 8 -16696265.49847  21055492.41647       872.965
 -13024896.331 7  22181597.709 7  -8853593.56046  22181598.78746      1665.435
  -3218057.290 5  24689319.865 5  -2089120.53545  24689320.79745      3106.252
 -16908614.999 7  21650299.568 7 -12983468.69047  21650299.56947     -1292.708
  -9127977.076 5  23579740.300 5  -6972480.71846  23579740.06746      3287.866
 -11239991.409 7  22321847.400 7  -8589496.40846  22321850.54946      2395.833
  -3728360.250 5  24556303.916 5  -2550939.50645  24556304.40945     -2937.564
 15  1 19  3 22  0.0000000  0  7G16G18G19G21G22G27G29
 -22219450.036 8  21050559.159 8 -16716462.85247  21050559.97247       855.012
 -13074646.122 7  22172130.633 7  -8892359.62146  22172131.47346      1651.201
  -3311214.014 5  24671592.762 5  -2161710.10345  24671591.49445      3104.217
 -16869691.779 7  21657706.436 7 -12953138.91347  21657706.85547     -1302.156
  -9226537.389 6  23560984.900 6  -7049280.93746  23560985.39346      3282.816
 -11311781.827 6  22308186.150 6  -8645436.99146  22308189.04746      2390.195
  -3640192.492 4  24573081.622 4  -2482237.39645  24573083.46345     -2940.305
 15  1 19  3 22 30.0000000  0  7G16G18G19G21G22G27G29
 -22244830.893 8  21045729.355 8 -16736240.14147  21045729.97947       837.018
 -13123967.694 7  22162745.062 7  -8930791.99746  22162746.03746      1636.900
  -3404309.705 5  24653877.247 5  -2234252.22345  24653877.49445      3102.161
 -16830486.054 7  21665167.051 7 -12922589.00447  21665167.50547     -1311.561
  -9324944.623 6  23542258.656 6  -7125961.86346  23542259.11246      3277.657
 -11383402.426 7  22294557.200 7  -8701245.22246  22294560.30046      2384.518
  -3551943.037 4  24589874.869 4  -2413471.54045  24589874.59245     -2943.000
 15  1 19  3 23  0.0000000  0  8G07G16G18G19G21G22G27G29
    -16971.587 2  25415374.683 2                                      1883.496
 -22269671.229 7  21041002.408 7 -16755596.24647  21041002.96047       819.012
 -13172859.599 7  22153441.237 7  -8968889.56746  22153442.07046      1622.546
  -3497343.330 5  24636173.532 5  -2306745.83045  24636171.69245      3100.076
 -16790998.722 7  21672681.248 7 -12891819.65347  21672681.69447     -1320.921
  -9423196.120 6  23523562.046 6  -7202521.45846  23523563.13546      3272.433
 -11454852.300 7  22280960.736 7  -8756920.42846  22280963.90446      2378.813
  -3463611.973 4  24606683.779 4  -2344642.21245  24606685.35245     -2945.719
 15  1 19  3 23 30.0000000  0  8G07G16G18G19G21G22G27G29
    -73243.866 2  25404666.656 2                                      1867.963
 -22293969.764 7  21036378.552 7 -16774530.17047  21036379.42747       800.892
 -13221319.998 7  22144219.517 7  -9006650.91446  22144220.10046      1608.136
  -3590314.233 5  24618481.750 5  -2379190.71245  24618478.08145      3097.970
 -16751231.228 7  21680248.765 7 -12860831.99147  21680249.42247     -1330.243
  -9521289.263 6  23504895.480 6  -7278957.66146  23504894.96946      3267.138
 -11526130.474 7  22267396.957 7  -8812461.84646  22267400.05346      2373.065
  -3375199.660 3  24623508.055 3  -2275749.55045  24623509.10245     -2948.422
 15  1 19  3 24  0.0000000  0  8G07G16G18G19G21G22G27G29
   -129049.187 2  25394046.975 2                                      1852.396
 -22317724.819 7  21031858.117 7 -16793040.59947  21031858.73047       782.775
 -13269347.129 7  22135080.261 7  -9044074.63946  22135081.25746      1593.649
  -3683221.910 5  24600801.974 5  -2451586.23045  24600802.41145      3095.846
 -16711184.824 7  21687869.344 7 -12829627.00747  21687869.97347     -1339.511
  -9619222.121 6  23486259.528 6  -7355268.94946  23486258.90046      3261.697
 -11597235.958 7  22253866.029 7  -8867868.67646  22253868.96746      2367.299
  -3286706.732 3  24640347.717 3  -2206794.05745  24640350.50045     -2951.099
 15  1 19  3 24 30.0000000  0  8G07G16G18G19G21G22G27G29
   -184385.787 2  25383516.666 2                                      1836.719
 -22340935.601 7  21027441.241 7 -16811126.92547  21027441.69447       764.627
 -13316939.452 7  22126023.715 7  -9081159.54246  22126023.90346      1579.138
  -3776065.614 5  24583134.367 5  -2523931.97045  24583134.35845      3093.731
 -16670861.353 7  21695542.625 7 -12798206.12547  21695543.27647     -1348.721
  -9716990.665 6  23467654.816 6  -7431452.20746  23467654.22646      3256.194
 -11668167.795 7  22240368.154 7  -8923140.23746  22240370.86146      2361.480
  -3198133.518 3  24657202.570 3  -2137775.97545  24657202.04245     -2953.798
 15  1 19  3 25  0.0000000  0  8G07G16G18G19G21G22G27G29
   -239251.664 4  25373076.092 4                                      1820.984
 -22363600.681 7  21023128.214 7 -16828788.02847  21023128.94647       746.380
 -13364095.270 7  22117050.233 7  -9117904.32646  22117050.98046      1564.561
  -3868844.891 5  24565479.030 5  -2596227.50645  24565478.05845      3091.561
 -16630261.835 7  21703268.455 7 -12766570.13847  21703268.47747     -1357.910
  -9814593.384 6  23449081.575 6  -7507506.26646  23449081.33846      3250.625
 -11738924.973 7  22226903.515 7  -8978275.69246  22226906.18846      2355.650
  -3109480.234 3  24674072.780 3  -2068695.59745  24674074.00545     -2956.459
 15  1 19  3 25 30.0000000  0  8G07G16G18G19G21G22G27G29
   -293645.124 3  25362725.448 3                                      1805.207
 -22385718.683 7  21018919.298 7 -16846022.83247  21018920.00647       728.143
 -13410813.057 7  22108160.136 7  -9154307.76946  22108160.77746      1549.957
  -3961558.551 5  24547836.140 5  -2668471.92045  24547836.35745      3089.344
 -16589387.322 7  21711046.611 7 -12734719.86747  21711047.20247     -1367.047
  -9912027.299 6  23430540.439 6  -7583428.76846  23430540.29746      3244.950
 -11809506.490 7  22213472.292 7  -9033274.26246  22213474.87446      2349.786
  -3020747.144 4  24690958.196 4  -1999552.98845  24690958.60445     -2959.088
 15  1 19  3 26  0.0000000  0  8G07G16G18G19G21G22G27G29
   -347564.296 3  25352464.863 3                                      1789.391
 -22407288.663 7  21014814.663 7 -16862830.60647  21014815.40947       709.853
 -13457091.292 7  22099353.654 7  -9190368.73246  22099354.14046      1535.258
  -4054205.910 5  24530205.870 5  -2740664.61945  24530206.98945      3087.140
 -16548239.352 7  21718876.815 7 -12702656.51847  21718877.22147     -1376.144
 -10009289.468 6  23412032.097 6  -7659217.44346  23412032.08946      3239.178
 -11879911.341 7  22200074.675 7  -9088135.18946  22200077.05846      2343.877
  -2931935.214 4  24707858.513 4  -1930348.94245  24707862.79945     -2961.724
 15  1 19  3 26 30.0000000  0  8G07G16G18G19G21G22G27G29
   -401007.330 4  25342294.987 4                                      1773.495
 -22428308.918 7  21010814.646 7 -16879210.02747  21010815.36347       691.493
 -13502928.325 7  22090631.129 7  -9226085.88846  22090631.79146      1520.523
  -4146786.294 5  24512588.393 5  -2812805.17145  24512584.45045      3084.903
 -16506819.113 7  21726758.829 7 -12670380.99747  21726758.87347     -1385.191
 -10106377.425 6  23393556.858 6  -7734870.39346  23393556.95046      3233.342
 -11950138.554 7  22186710.873 7  -9142857.69746  22186714.04246      2337.938
  -2843044.085 5  24724773.938 5  -1861083.06545  24724777.24645     -2964.340
 15  1 19  3 27  0.0000000  0  8G07G16G18G19G21G22G27G29
   -453973.337 4  25332215.989 4                                      1757.559
 -22448778.546 7  21006919.399 7 -16895160.38447  21006919.70747       673.148
 -13548322.530 7  22081992.897 7  -9261457.98046  22081993.68346      1505.737
  -4239299.308 4  24494983.696 4  -2884893.15345  24494982.69345      3082.632
 -16465128.256 7  21734692.330 7 -12637894.61647  21734692.77447     -1394.204
 -10203289.152 6  23375115.181 6  -7810386.01146  23375114.74346      3227.417
 -12020187.081 7  22173381.068 7  -9197440.96246  22173383.89346      2331.947
  -2754075.077 5  24741704.256 5  -1791756.60645  24741706.17545     -2966.956
 15  1 19  3 27 30.0000000  0  8G07G16G18G19G21G22G27G29
   -506460.113 4  25322228.092 4                                      1741.533
 -22468696.422 7  21003129.155 7 -16910680.81047  21003129.56947       654.698
 -13593272.565 7  22073439.167 7  -9296483.97646  22073440.30246      1490.911
  -4331744.036 4  24477391.991 4  -2956928.02945  24477395.17445      3080.334
 -16423167.783 7  21742677.142 7 -12605198.14147  21742677.24247     -1403.161
 -10300021.555 6  23356707.566 6  -7885761.89646  23356707.19246      3221.389
 -12090055.918 7  22160085.449 7  -9251884.21446  22160088.47246      2325.944
  -2665028.549 5  24758649.313 5  -1722369.75845  24758651.85845     -2969.529
 15  1 19  3 28  0.0000000  0  8G07G16G18G19G21G22G27G29
   -558465.363 4  25312331.745 4                                      1725.485
 -22488061.111 7  20999444.172 7 -16925770.17947  20999444.79847       636.259
 -13637776.642 7  22064970.357 7  -9331162.45746  22064971.30946      1476.008
  -4424119.182 4  24459813.601 4  -3028908.66445  24459818.05845      3078.018
 -16380938.963 7  21750713.036 7 -12572292.55747  21750713.36447     -1412.087
 -10396571.828 6  23338334.622 6  -7960995.83846  23338333.95346      3215.279
 -12159744.032 7  22146824.245 7  -9306186.64046  22146826.86246      2319.920
  -2575903.895 5  24775609.161 5  -1652921.91845  24775610.39745     -2972.093
 15  1 19  3 28 30.0000000  0  8G07G16G18G19G21G22G27G29
   -609988.173 4  25302527.325 4                                      1709.364
 -22506871.600 7  20995864.665 7 -16940427.70647  20995865.02047       617.767
 -13681833.164 7  22056586.654 7  -9365492.20146  22056587.61346      1461.080
  -4516424.793 4  24442248.407 4  -3100835.05745  24442248.72445      3075.684
 -16338443.360 7  21758799.672 7 -12539179.10247  21758799.86747     -1420.950
 -10492937.657 6  23319996.804 6  -8036086.08246  23319996.76746      3209.096
 -12229250.431 7  22133597.576 7  -9360347.47146  22133600.68346      2313.837
  -2486702.275 5  24792583.679 5  -1583414.20745  24792586.34045     -2974.679
 15  1 19  3 29  0.0000000  0  8G07G16G18G19G21G22G27G29
   -661027.084 5  25292814.958 5                                      1693.204
 -22525126.945 7  20992390.801 7 -16954652.65047  20992391.37747       599.245
 -13725440.996 7  22048288.353 7  -9399472.32846  22048289.41346      1446.094
  -4608660.215 4  24424696.518 4  -3172706.77245  24424698.21545      3073.325
 -16295682.196 7  21766936.854 7 -12505858.70947  21766937.39147     -1429.794
 -10589116.453 6  23301694.588 6  -8111030.58346  23301694.88246      3202.816
 -12298574.016 7  22120405.715 7  -9414365.84046  22120408.58246      2307.723
  -2397424.142 5  24809572.820 5  -1513846.81645  24809574.97745     -2977.229
 15  1 19  3 29 30.0000000  0  8G07G16G18G19G21G22G27G29
   -711580.234 5  25283195.114 5                                      1677.013
 -22542825.756 8  20989022.842 8 -16968443.93347  20989023.20347       580.667
 -13768598.632 7  22040075.726 7  -9433101.62846  22040076.11346      1431.054
  -4700824.320 4  24407158.228 4  -3244522.90745  24407159.18145      3070.934
 -16252656.679 7  21775124.327 7 -12472332.32647  21775125.01247     -1438.575
 -10685105.556 6  23283428.496 6  -8185827.27346  23283429.07746      3196.447
 -12367713.829 7  22107248.843 7  -9468241.01846  22107251.63346      2301.582
  -2308069.804 5  24826576.417 5  -1444220.07345  24826577.36645     -2979.745
 15  1 19  3 30  0.0000000  0  8G07G16G18G19G21G22G27G29
   -761645.865 4  25273667.845 4    -20757.84644  25273665.51444      1660.743
 -22559966.664 8  20985761.043 8 -16981800.48947  20985761.46647       562.057
 -13811304.072 7  22031949.135 7  -9466378.59246  22031950.01246      1415.951
  -4792916.370 4  24389633.699 4  -3316282.89945  24389633.99645      3068.528
 -16209368.264 7  21783361.831 7 -12438601.08947  21783362.23447     -1447.311
 -10780902.786 6  23265198.873 6  -8260474.45246  23265199.34046      3190.054
 -12436668.807 7  22094127.136 7  -9521972.16646  22094130.39446      2295.413
  -2218639.711 5  24843594.410 5  -1374534.29345  24843596.67945     -2982.249
 15  1 19  3 30 30.0000000  0  8G07G16G18G19G21G22G27G29
   -811222.478 5  25264233.762 5    -59389.03945  25264238.15345      1644.387
 -22576549.044 8  20982605.532 8 -16994721.82647  20982606.03647       543.427
 -13853556.156 7  22023908.847 7  -9499302.27446  22023909.69846      1400.833
  -4884935.756 4  24372122.941 4  -3387986.27745  24372124.62545      3066.107
 -16165818.252 7  21791649.091 7 -12404666.00347  21791649.27147     -1456.020
 -10876505.751 6  23247006.220 6  -8334970.24746  23247005.64146      3183.469
 -12505437.888 7  22081040.809 7  -9575558.46046  22081043.64246      2289.183
  -2129134.312 5  24860626.762 5  -1304789.82345  24860626.39345     -2984.769
 15  1 19  3 31  0.0000000  0  8G07G16G18G19G21G22G27G29
   -860308.517 5  25254893.003 5    -97637.88445  25254891.14745      1628.016
 -22592571.770 8  20979556.505 8 -17007207.07047  20979556.86547       524.765
 -13895353.835 7  22015954.997 7  -9531871.88646  22015956.03746      1385.649
  -4976881.558 4  24354626.168 4  -3459632.24845  24354626.89245      3063.631
 -16122008.006 7  21799985.893 7 -12370528.15447  21799986.46847     -1464.665
 -10971910.556 6  23228851.268 6  -8409311.64546  23228851.30946      3176.837
 -12574020.035 7  22067990.059 7  -9628999.08246  22067992.72546      2282.947
  -2039554.090 4  24877673.298 4  -1234987.08545  24877672.39545     -2987.241
 15  1 19  3 31 30.0000000  0  8G07G16G18G19G21G22G27G29
   -908902.441 5  25245645.968 5   -135503.39345  25245642.79845      1611.594
 -22608034.491 8  20976614.055 8 -17019255.93747  20976614.53047       506.049
 -13936695.158 7  22008088.008 7  -9564085.89746  22008088.74946      1370.430
  -5068753.158 4  24337143.537 4  -3531220.46545  24337144.02345      3061.142
 -16077938.891 7  21808371.970 7 -12336188.57847  21808371.96747     -1473.270
 -11067115.202 6  23210734.423 6  -8483497.04346  23210734.27546      3170.121
 -12642414.203 7  22054975.080 7  -9682293.24246  22054978.10946      2276.658
  -1949899.406 4  24894733.998 4  -1165126.32945  24894736.67045     -2989.738
 15  1 19  3 32  0.0000000  0  8G07G16G18G19G21G22G27G29
   -957002.929 5  25236492.714 5   -172984.24745  25236492.86545      1595.100
 -22622934.743 8  20973778.639 8 -17030866.52647  20973779.09447       487.297
 -13977579.114 7  22000308.033 7  -9595943.52646  22000309.08146      1355.157
  -5160549.615 4  24319675.240 4  -3602750.13445  24319673.85145      3058.611
 -16033612.432 7  21816807.013 7 -12301648.48747  21816807.40347     -1481.837
 -11162117.190 6  23192656.134 6  -8557524.55146  23192656.26546      3163.324
 -12710619.332 7  22041996.074 7  -9735440.10246  22041998.56346      2270.341
  -1860170.482 4  24911808.854 4  -1095207.71845  24911810.85445     -2992.198
 15  1 19  3 32 30.0000000  0  8G07G16G18G19G21G22G27G29
  -1004608.058 5  25227433.771 5   -210079.17945  25227433.21445      1578.567
 -22637272.211 8  20971050.324 8 -17042038.58047  20971050.71447       468.525
 -14018004.061 7  21992615.430 7  -9627443.46246  21992615.91346      1339.833
  -5252270.340 5  24302221.312 5  -3674220.81545  24302220.23445      3056.094
 -15989029.217 7  21825290.915 7 -12266908.32347  21825291.24347     -1490.376
 -11256914.026 6  23174616.916 6  -8631392.21546  23174616.77346      3156.448
 -12778634.350 7  22029053.233 7  -9788438.82246  22029056.10246      2263.988
  -1770367.998 4  24928897.702 4  -1025231.73345  24928902.09345     -2994.652
 15  1 19  3 33  0.0000000  0  8G07G16G18G19G21G22G27G29
  -1051716.588 5  25218469.313 5   -246787.15445  25218467.93045      1561.987
 -22651046.400 8  20968429.188 8 -17052771.72047  20968429.68147       449.745
 -14057968.738 7  21985010.393 7  -9658584.75246  21985011.03046      1324.465
  -5343914.678 5  24284781.949 5  -3745631.97045  24284779.87045      3053.516
 -15944190.681 7  21833823.418 7 -12231969.20047  21833823.82947     -1498.857
 -11351503.121 6  23156617.177 6  -8705097.98146  23156616.65746      3149.470
 -12846458.183 7  22016146.774 7  -9841288.56646  22016150.07746      2257.606
  -1680492.288 4  24946000.533 4   -955198.69945  24946002.53345     -2997.071
 15  1 19  3 33 30.0000000  0  8G07G16G18G19G21G22G27G29
  -1098326.916 5  25209599.703 5   -283106.89645  25209603.12245      1545.359
 -22664255.813 8  20965915.520 8 -17063064.77047  20965916.00047       430.883
 -14097471.418 7  21977493.291 7  -9689366.05946  21977494.18446      1309.035
  -5435481.582 5  24267357.332 5  -3816982.72145  24267357.48245      3050.930
 -15899098.634 7  21842404.145 7 -12196832.54347  21842404.22547     -1507.279
 -11445881.772 6  23138657.531 6  -8778639.75846  23138657.56246      3142.415
 -12914089.750 7  22003276.918 7  -9893988.47146  22003279.85646      2251.168
  -1590543.689 3  24963117.216 3   -885108.90845  24963117.46145     -2999.501
 15  1 19  3 34  0.0000000  0  8G07G16G18G19G21G22G27G29
  -1144437.831 5  25200825.065 5   -319037.47345  25200826.51945      1528.677
 -22676899.326 8  20963509.558 8 -17072916.86347  20963510.05447       412.012
 -14136511.250 7  21970064.254 7  -9719786.69246  21970064.86946      1293.598
  -5526970.201 5  24249947.650 5  -3888272.57045  24249945.98345      3048.296
 -15853754.174 7  21851032.915 7 -12161499.18247  21851033.23547     -1515.679
 -11540047.407 6  23120738.370 6  -8852015.56746  23120738.22046      3135.274
 -12981527.970 7  21990443.864 7  -9946537.72246  21990446.53646      2244.699
  -1500522.699 3  24980247.662 3   -814962.70745  24980255.39145     -3001.887
 15  1 19  3 34 30.0000000  0  8G07G16G18G19G21G22G27G29
  -1190047.571 5  25192145.883 5   -354577.61445  25192149.05845      1511.948
 -22688976.421 7  20961211.359 7 -17082327.59047  20961211.57147       393.121
 -14175086.804 8  21962723.570 8  -9749845.56346  21962724.40046      1278.090
  -5618380.087 5  24232552.897 5  -3959501.01545  24232554.60445      3045.670
 -15808159.035 7  21859709.393 7 -12125970.49147  21859709.84247     -1524.019
 -11633997.648 6  23102860.197 6  -8925223.52046  23102859.36046      3128.049
 -13048771.762 7  21977647.780 7  -9998935.45946  21977650.86046      2238.206
  -1410429.499 2  24997391.828 2   -744760.34745  24997397.00045     -3004.277
 15  1 19  3 35  0.0000000  0  8G07G16G18G19G21G22G27G29
  -1235154.643 5  25183562.302 5   -389725.91845  25183562.61645      1495.189
 -22700486.206 8  20959021.130 8 -17091296.25247  20959021.52847       374.192
 -14213196.561 7  21955471.519 7  -9779541.44346  21955471.85846      1262.549
  -5709710.273 5  24215173.338 5  -4030667.31545  24215173.37445      3042.994
 -15762313.698 7  21868433.484 7 -12090246.85147  21868434.14047     -1532.335
 -11727730.003 6  23085023.500 6  -8998261.66946  23085022.85146      3120.750
 -13115820.078 7  21964888.906 7 -10051180.89446  21964891.65146      2231.666
  -1320265.196 2  25014549.438 2   -674502.44945  25014549.56045     -3006.678
 15  1 19  3 35 30.0000000  0  8G07G16G18G19G21G22G27G29
  -1279758.098 5  25175074.501 5   -424481.94445  25175071.79845      1478.376
 -22711427.561 8  20956939.070 8 -17099821.98247  20956939.48947       355.216
 -14250839.232 7  21948308.347 7  -9808873.39146  21948309.10346      1246.961
  -5800959.996 5  24197809.097 5  -4101770.96645  24197808.82545      3040.305
 -15716219.649 7  21877204.900 7 -12054329.40147  21877205.33447     -1540.591
 -11821241.478 6  23067228.841 6  -9071127.74446  23067228.10146      3113.338
 -13182671.823 7  21952167.449 7 -10103273.14847  21952170.40147      2225.099
  -1230029.899 2  25031720.621 2   -604189.28945  25031721.46145     -3008.999
 15  1 19  3 36  0.0000000  0  8G07G16G18G19G21G22G27G29
  -1323856.291 5  25166682.911 5   -458844.15445  25166683.20745      1461.468
 -22721799.603 8  20954965.339 8 -17107904.09047  20954965.80247       336.241
 -14288013.770 7  21941234.289 7  -9837840.55346  21941235.11446      1231.331
  -5892128.270 5  24180460.284 5  -4172811.14045  24180461.04145      3037.582
 -15669878.496 7  21886023.340 7 -12018219.40347  21886023.37047     -1548.803
 -11914529.719 6  23049476.652 6  -9143819.86546  23049476.85046      3105.847
 -13249325.878 7  21939483.589 7 -10155211.38147  21939486.73247      2218.496
  -1139723.995 2  25048905.221 2   -533821.01345  25048907.63845     -3011.350
 15  1 19  3 36 30.0000000  0  8G07G16G18G19G21G22G27G29
  -1367447.631 5  25158387.793 5   -492811.46645  25158389.62445      1444.614
 -22731602.140 8  20953099.983 8 -17115542.43247  20953100.26347       317.232
 -14324718.836 7  21934249.522 7  -9866441.88746  21934250.07346      1215.661
  -5983214.671 5  24163127.103 5  -4243787.54045  24163127.00645      3034.826
 -15623291.415 7  21894888.561 7 -11981917.78747  21894888.87647     -1556.990
 -12007591.946 6  23031767.466 6  -9216335.86146  23031767.42246      3098.274
 -13315781.152 7  21926837.577 7 -10206994.72247  21926840.55647      2211.842
  -1049347.793 4  25066103.374 4   -463398.01145  25066104.16845     -3013.720
 15  1 19  3 37  0.0000000  0  8G07G16G18G19G21G22G27G29
  -1410531.394 5  25150189.266 5   -526383.23445  25150188.41245      1427.650
 -22740833.354 8  20951343.338 8 -17122735.58847  20951343.76647       298.180
 -14360953.164 7  21927354.352 7  -9894676.42246  21927355.02646      1199.948
  -6074218.038 5  24145809.779 5  -4314699.19345  24145810.89645      3032.047
 -15576459.916 7  21903800.294 7 -11945425.70447  21903800.64247     -1565.082
 -12100425.694 6  23014101.806 6  -9288673.82746  23014101.37446      3090.616
 -13382036.543 7  21914229.609 7 -10258622.29647  21914232.63647      2205.162
   -958901.724 5  25083314.783 5   -392920.55245  25083318.71445     -3016.032
 15  1 19  3 37 30.0000000  0  8G07G16G18G19G21G22G27G29
  -1453106.121 5  25142087.599 5   -559558.36845  25142084.46945      1410.649
 -22749492.762 8  20949695.521 8 -17129483.18447  20949696.03747       279.107
 -14396715.654 7  21920548.954 7  -9922543.27846  21920549.38246      1184.211
  -6165137.706 5  24128508.314 5  -4385545.67145  24128508.43945      3029.247
 -15529385.258 7  21912758.309 7 -11908744.14947  21912758.83847     -1573.198
 -12193028.425 6  22996480.097 6  -9360831.78746  22996480.46246      3082.872
 -13448090.930 7  21901659.886 7 -10310093.25647  21901662.92247      2198.443
   -868386.296 5  25100539.276 5   -322389.08945  25100539.30045     -3018.348
 15  1 19  3 38  0.0000000  0  8G07G16G18G19G21G22G27G29
  -1495170.134 5  25134083.012 5   -592335.48245  25134083.39145      1393.603
 -22757579.802 8  20948156.613 8 -17135784.77647  20948157.05747       260.024
 -14432005.221 7  21913833.563 7  -9950041.62746  21913833.89046      1168.423
  -6255972.912 5  24111222.909 5  -4456326.33545  24111224.46745      3026.416
 -15482068.444 7  21921762.385 7 -11871873.90846  21921762.43646     -1581.258
 -12285397.779 6  22978902.789 6  -9432807.88046  22978902.53446      3075.070
 -13513943.197 7  21889128.621 7 -10361406.72347  21889131.78447      2191.698
   -777802.031 5  25117776.884 5   -251803.96545  25117776.93345     -3020.607
 15  1 19  3 38 30.0000000  0  8G07G16G18G19G21G22G27G29
  -1536722.158 5  25126175.983 5   -624713.73245  25126174.51845      1376.528
 -22765094.115 8  20946726.685 8 -17141640.08847  20946727.05947       240.929
 -14466820.559 7  21907208.411 7  -9977170.44946  21907209.01246      1152.590
  -6346722.703 5  24093953.766 5  -4527040.38945  24093954.05545      3023.559
 -15434510.676 7  21930812.316 7 -11834815.91946  21930812.53546     -1589.247
 -12377531.348 6  22961370.338 6  -9504600.26646  22961370.25246      3067.154
 -13579592.229 7  21876636.039 7 -10412561.81647  21876638.97347      2184.903
   -687149.270 5  25135027.563 5   -181165.50945  25135027.16245     -3022.889
 15  1 19  3 39  0.0000000  0  8G07G16G18G19G21G22G27G29
  -1577761.254 5  25118366.474 5   -656692.25545  25118368.71845      1359.434
 -22772034.293 8  20945406.020 8 -17147048.02147  20945406.30447       221.755
 -14501160.162 7  21900673.764 7 -10003928.55946  21900674.40946      1136.714
  -6437386.396 5  24076701.000 5  -4597687.38045  24076700.47845      3020.686
 -15386714.015 7  21939907.729 7 -11797571.76546  21939907.97746     -1597.197
 -12469426.202 6  22943883.326 6  -9576206.62546  22943882.67346      3059.151
 -13645036.860 7  21864182.339 7 -10463557.62747  21864185.25047      2178.065
   -596428.604 4  25152291.137 4   -110474.09145  25152293.95345     -3025.135
 15  1 19  3 39 30.0000000  0  8G07G16G18G19G21G22G27G29
  -1618285.818 5  25110654.981 5   -688269.83145  25110656.78045      1342.216
 -22778399.823 8  20944194.702 8 -17152008.17747  20944195.06847       202.595
 -14535023.060 7  21894229.851 7 -10030315.22146  21894230.70646      1120.794
  -6527963.050 5  24059464.817 5  -4668266.53145  24059463.76545      3017.773
 -15338679.124 7  21949048.432 7 -11760141.99646  21949048.64946     -1605.121
 -12561079.718 6  22926442.234 6  -9647624.94046  22926442.46946      3051.061
 -13710275.993 7  21851767.741 7 -10514393.31347  21851771.00047      2171.198
   -505640.126 5  25169567.622 5    -39729.80945  25169572.08245     -3027.415
 15  1 19  3 40  0.0000000  0  8G07G16G18G19G21G22G27G29
  -1658294.886 5  25103041.492 5   -719445.75345  25103039.06745      1325.033
 -22784190.068 8  20943092.858 8 -17156520.06447  20943093.30747       183.407
 -14568408.223 7  21887876.834 7 -10056329.62746  21887877.35946      1104.862
  -6618451.890 5  24042245.335 5  -4738777.30945  24042244.83845      3014.822
 -15290407.050 7  21958234.279 7 -11722527.40046  21958234.80246     -1613.006
 -12652489.658 6  22909047.452 6  -9718853.43646  22909047.04946      3042.918
 -13775308.512 7  21839392.483 7 -10565068.00347  21839395.05247      2164.287
   -414784.651 5  25186856.910 5     31066.69845  25186862.87545     -3029.623
 15  1 19  3 40 30.0000000  0  8G07G16G18G19G21G22G27G29
  -1697787.249 5  25095526.326 5   -750219.06045  25095526.87945      1307.790
 -22789404.313 8  20942100.636 8 -17160583.11247  20942100.87547       164.209
 -14601314.636 7  21881614.948 7 -10081970.96346  21881615.29346      1088.878
  -6708852.021 5  24025042.704 5  -4809218.94445  24025042.17845      3011.833
 -15241899.532 7  21967464.939 7 -11684729.34146  21967465.22046     -1620.833
 -12743653.292 6  22891699.570 6  -9789889.99846  22891699.15546      3034.654
 -13840133.271 7  21827056.727 7 -10615580.80347  21827059.32147      2157.354
   -323862.616 5  25204158.846 5    101914.93245  25204161.51145     -3031.835
 15  1 19  3 41  0.0000000  0  8G07G16G18G19G21G22G27G29
  -1736761.598 5  25088109.800 5   -780588.68945  25088109.21345      1290.499
 -22794041.735 8  20941218.162 8 -17164196.69547  20941218.32347       144.962
 -14633741.096 7  21875444.392 7 -10107238.32146  21875444.67746      1072.871
  -6799162.588 5  24007857.143 5  -4879590.77245  24007856.43245      3008.855
 -15193157.681 7  21976740.191 7 -11646748.69046  21976740.51946     -1628.620
 -12834568.177 6  22874399.015 6  -9860732.75046  22874398.85146      3026.331
 -13904749.142 7  21814760.729 7 -10665930.83547  21814763.51347      2150.357
   -232874.325 5  25221473.338 5    172814.89145  25221478.12445     -3034.040
 15  1 19  3 41 30.0000000  0  8G07G16G18G19G21G22G27G29
  -1775216.998 5  25080791.906 5   -810553.97345  25080792.71845      1273.178
 -22798101.777 8  20940445.562 8 -17167360.36747  20940445.83747       125.703
 -14665686.348 7  21869365.378 7 -10132130.71146  21869365.95546      1056.805
  -6889382.721 5  23990688.791 5  -4949892.11745  23990690.50845      3005.828
 -15144183.139 7  21986059.736 7 -11608586.71346  21986060.02746     -1636.350
 -12925231.802 6  22857146.275 6  -9931379.71646  22857145.97846      3017.902
 -13969154.928 7  21802504.716 7 -10716117.15347  21802507.65747      2143.351
   -141820.095 5  25238800.414 5    243766.18245  25238801.64445     -3036.218
 15  1 19  3 42  0.0000000  0  8G07G16G18G19G21G22G27G29
  -1813151.943 5  25073573.184 5   -840113.70845  25073571.50545      1255.806
 -22801583.939 8  20939782.928 8 -17170073.74447  20939783.13647       106.437
 -14697149.622 7  21863378.113 7 -10156647.52446  21863378.19346      1040.720
  -6979511.881 5  23973537.726 5  -5020122.56045  23973538.48845      3002.754
 -15094976.977 7  21995423.359 7 -11570244.25446  21995423.35046     -1644.067
 -13015641.653 6  22839941.823 6 -10001828.93746  22839941.45646      3009.408
 -14033349.530 7  21790288.886 7 -10766138.92347  21790291.64047      2136.286
    -50700.507 3  25256139.895 3    314768.41745  25256141.32145     -3038.402
 15  1 19  3 42 30.0000000  0  8G07G16G18G19G21G22G27G29
  -1850565.408 5  25066453.640 5   -869267.02745  25066452.91145      1238.429
 -22804488.060 7  20939230.283 7 -17172336.70247  20939230.67947        87.139
 -14728129.523 7  21857482.810 7 -10180787.69646  21857483.29446      1024.589
  -7069548.843 5  23956404.247 5  -5090281.21445  23956406.76745      2999.661
 -15045540.166 7  22004830.861 7 -11531722.07146  22004831.12946     -1651.722
 -13105795.093 6  22822786.174 6 -10072078.35846  22822785.26746      3000.818
 -14097331.758 7  21778113.468 7 -10815995.20947  21778116.27147      2129.181
     40483.807 3  25273491.698 3    385821.13045  25273493.16645     -3040.562
 15  1 19  3 43  0.0000000  0  8G07G16G18G19G21G22G27G29
  -1887456.463 4  25059433.498 4   -898013.32545  25059433.41745      1220.980
 -22806812.674 8  20938787.923 8 -17174148.08847  20938787.99147        67.817
 -14758625.404 7  21851679.622 7 -10204550.70746  21851680.16646      1008.435
  -7159492.867 5  23939288.426 5  -5160367.41445  23939287.26145      2996.568
 -14995874.009 7  22014281.994 7 -11493021.16846  22014282.26846     -1659.343
 -13195689.757 6  22805679.756 6 -10142126.12946  22805679.07646      2992.131
 -14161100.443 7  21765978.674 7 -10865685.07747  21765981.49947      2122.047
    131732.768 3  25290855.795 3    456924.21345  25290853.41745     -3042.690
 15  1 19  3 43 30.0000000  0  8G07G16G18G19G21G22G27G29
  -1923824.040 4  25052512.936 4   -926351.72545  25052510.59445      1203.509
 -22808557.837 7  20938455.814 7 -17175507.96247  20938455.91547        48.534
 -14788636.232 7  21845968.736 7 -10227935.77046  21845969.41346       992.262
  -7249343.038 5  23922190.455 5  -5230380.51545  23922189.32945      2993.431
 -14945980.060 7  22023776.490 7 -11454142.78646  22023776.57646     -1666.919
 -13285322.783 6  22788623.149 6 -10211970.03446  22788622.08746      2983.374
 -14224654.446 7  21753884.740 7 -10915207.66047  21753887.44547      2114.884
    223045.505 4  25308232.035 4                                     -3044.837
 15  1 19  3 44  0.0000000  0  9G07G15G16G18G19G21G22G27G29
  -1959666.963 5  25045692.219 5   -954281.29545  25045691.48145      1185.999
                  25396366.822 3
 -22809723.203 8  20938234.049 8 -17176416.04847  20938234.31247        29.156
 -14818160.791 7  21840350.366 7 -10250941.91346  21840350.77946       976.036
  -7339098.387 5  23905110.507 5  -5300319.71045  23905111.14945      2990.264
 -14895859.415 7  22033314.150 7 -11415087.74346  22033314.13846     -1674.455
 -13374691.986 6  22771616.738 6 -10281608.36746  22771616.20846      2974.550
 -14287992.616 7  21741831.895 7 -10964562.08047  21741834.40547      2107.660
    314421.968 5  25325620.459 5                                     -3046.937
 15  1 19  3 44 30.0000000  0  9G07G15G16G18G19G21G22G27G29
  -1994984.289 4  25038971.527 4   -981801.32045  25038972.29345      1168.489
    -44841.781 3  25387537.509 3                                      1540.105
 -22810307.570 7  20938122.843 7 -17176871.40447  20938122.76247         9.795
 -14847198.435 7  21834824.658 7 -10273568.62646  21834824.63146       959.786
  -7428758.214 5  23888048.740 5  -5370184.51645  23888049.23245      2987.057
 -14845513.399 7  22042894.685 7 -11375857.09046  22042894.99946     -1681.949
 -13463794.759 6  22754661.040 6 -10351039.06746  22754660.16046      2965.623
 -14351113.769 7  21729820.324 7 -11013747.39047  21729822.89947      2100.408
    405861.558 4  25343020.785 4                                     -3049.035
 15  1 19  3 45  0.0000000  0  9G07G15G16G18G19G21G22G27G29
  -2029775.017 5  25032351.118 5  -1008910.98845  25032352.69745      1150.889
    -90850.991 3  25378782.178 3                                      1527.166
 -22810311.174 7  20938122.142 7 -17176874.22047  20938121.88547        -9.575
 -14875747.768 7  21829391.864 7 -10295814.84746  21829392.06346       943.485
  -7518321.683 5  23871005.334 5  -5439974.16545  23871006.19445      2983.843
 -14794943.449 7  22052517.823 7 -11336451.95046  22052517.23746     -1689.386
 -13552628.791 6  22737756.484 6 -10420260.38446  22737755.95746      2956.628
 -14414016.703 7  21717850.279 7 -11062762.66947  21717852.65947      2093.116
    497363.970 3  25360433.155 3                                     -3051.119
 15  1 19  3 45 30.0000000  0  9G07G15G16G18G19G21G22G27G29
  -2064038.020 4  25025831.124 4  -1035609.44945  25025829.41745      1133.320
   -136470.965 3  25370100.956 3                                      1514.122
 -22809732.885 7  20938232.175 7 -17176423.61047  20938232.05647       -28.978
 -14903808.059 7  21824052.152 7 -10317679.99446  21824052.67746       927.184
  -7607787.812 5  23853980.481 5  -5509688.04245  23853979.89445      2980.590
 -14744150.668 7  22062183.372 7 -11296873.15946  22062182.99746     -1696.795
 -13641191.356 6  22720903.560 6 -10489270.16546  22720903.27346      2947.534
 -14476700.218 7  21705921.998 7 -11111606.95747  21705924.49447      2085.773
    588928.444 2  25377857.212 2                                     -3053.220
 15  1 19  3 46  0.0000000  0  8G07G15G16G18G19G21G22G27
  -2097772.285 4  25019411.719 4  -1061895.91345  25019412.78945      1115.662
   -181699.003 3  25361494.360 3          .48255  25361498.96345      1501.048
 -22808572.834 7  20938452.914 7 -17175519.68147  20938453.19547       -48.383
 -14931378.372 7  21818805.674 7 -10339163.33946  21818806.20346       910.842
  -7697155.766 5  23836974.303 5  -5579325.36345  23836972.69245      2977.285
 -14693136.209 7  22071891.104 7 -11257121.64146  22071891.07146     -1704.160
 -13729480.127 6  22704102.747 6 -10558066.60046  22704102.07046      2938.368
 -14539163.177 7  21694035.678 7 -11160279.39247  21694038.28847      2078.409
 15  1 19  3 46 30.0000000  0  8G07G15G16G18G19G21G22G27
  -2130976.950 4  25013093.100 4  -1087769.72145  25013093.17645      1097.986
   -226533.267 3  25352962.627 3    -34935.28945  25352964.75445      1487.885
 -22806830.022 7  20938784.553 7 -17174161.64847  20938784.38947       -67.802
 -14958457.770 7  21813652.610 7 -10360264.15346  21813652.72646       894.459
  -7786424.516 5  23819986.993 5  -5648885.43045  23819987.33045      2973.964
 -14641901.564 7  22081640.724 7 -11217198.54146  22081640.94246     -1711.482
 -13817492.507 6  22687354.504 6 -10626647.64546  22687353.57946      2929.113
 -14601404.384 7  21682191.556 7 -11208779.03247  21682194.03247      2071.008
 15  1 19  3 47  0.0000000  0  8G07G15G16G18G19G21G22G27
  -2163651.290 4  25006875.352 4  -1113230.19845  25006874.64845      1080.307
   -270971.001 5  25344506.473 5    -69562.08844  25344505.42744      1474.622
 -22804504.639 7  20939227.055 7 -17172349.66547  20939227.06247       -87.213
 -14985045.740 7  21808593.070 7 -10380982.03246  21808593.03246       878.067
  -7875593.359 5  23803018.685 5  -5718367.63145  23803017.61945      2970.626
 -14590447.796 7  22091432.060 7 -11177104.70746  22091431.88446     -1718.768
 -13905226.201 6  22670659.367 6 -10695011.55346  22670659.07946      2919.768
 -14663422.604 7  21670389.853 7 -11257104.91147  21670392.57347      2063.539
 15  1 19  3 47 30.0000000  0  8G07G15G16G18G19G21G22G27
  -2195794.239 4  25000758.723 4  -1138276.69645  25000762.28245      1062.571
   -315010.006 4  25336126.111 4   -103878.20645  25336131.20745      1461.296
 -22801596.396 7  20939780.473 7 -17170083.50847  20939780.33347      -106.679
 -15011141.509 7  21803627.197 7 -10401316.38346  21803627.49946       861.614
  -7964661.139 5  23786069.619 5  -5787771.09745  23786070.03245      2967.224
 -14538776.228 7  22101264.851 7 -11136841.15146  22101264.68846     -1726.006
 -13992678.728 6  22654017.726 6 -10763156.37146  22654016.83846      2910.362
 -14725216.683 7  21658630.808 7 -11305256.14247  21658633.29347      2056.049
 15  1 19  3 48  0.0000000  0  8G07G15G16G18G19G21G22G27
  -2227404.865 3  24994743.468 3  -1162908.36145  24994742.36345      1044.815
   -358647.878 4  25327822.082 4   -137881.62545  25327821.98145      1447.885
 -22798104.248 7  20940445.005 7 -17167362.35747  20940445.10447      -126.133
 -15036743.524 7  21798755.289 7 -10421265.99846  21798755.94346       845.157
  -8053626.936 5  23769140.023 5  -5857095.05745  23769139.90145      2963.808
 -14486887.968 7  22111138.881 7 -11096408.74446  22111138.81146     -1733.203
 -14079847.455 6  22637430.053 6 -10831080.03746  22637429.03246      2900.853
 -14786785.423 7  21646914.653 7 -11353231.77947  21646917.37247      2048.509
 15  1 19  3 48 30.0000000  0  8G07G15G16G18G19G21G22G27
  -2258482.254 4  24988829.682 4  -1187124.48645  24988830.01345      1027.011
   -401882.563 5  25319594.719 5   -171570.98445  25319598.05245      1434.405
 -22794028.308 7  20941220.635 7 -17164186.30647  20941220.63447      -145.588
 -15061851.068 7  21793977.460 7 -10440830.30846  21793977.72746       828.671
  -8142490.021 5  23752229.912 5  -5926339.01145  23752229.88245      2960.372
 -14434784.439 7  22121053.888 7 -11055808.59746  22121053.81546     -1740.354
 -14166729.680 6  22620896.913 6 -10898780.47346  22620895.99746      2891.281
 -14848127.547 7  21635241.631 7 -11401030.83547  21635244.25647      2040.946
 15  1 19  3 49  0.0000000  0  8G07G15G16G18G19G21G22G27
  -2289025.422 3  24983017.448 3  -1210924.34445  24983019.71045      1009.236
   -444711.553 5  25311444.643 5   -204944.20445  25311445.83545      1420.834
 -22789368.957 7  20942107.273 7 -17160555.64847  20942107.28847      -165.063
 -15086463.796 7  21789293.796 7 -10460009.03046  21789294.02046       812.162
  -8231249.515 5  23735339.551 5  -5995502.23745  23735339.18845      2956.910
 -14382466.936 7  22131009.601 7 -11015041.71746  22131009.49146     -1747.474
 -14253323.279 6  22604418.688 6 -10966255.99346  22604417.71946      2881.607
 -14909241.903 7  21623611.938 7 -11448652.39847  21623614.66547      2033.339
 15  1 19  3 49 30.0000000  0  8G07G15G16G18G19G21G22G27
  -2319034.053 3  24977307.006 3  -1234307.71245  24977304.83045       991.341
   -487132.557 5  25303372.110 5   -237999.50045  25303369.55445      1407.209
 -22784124.460 7  20943105.268 7 -17156469.03747  20943105.00947      -184.562
 -15110580.757 7  21784704.474 7 -10478801.46546  21784704.69846       795.625
  -8319904.338 5  23718469.142 5  -6064583.92345  23718467.76445      2953.397
 -14329936.630 7  22141005.774 7 -10974109.01746  22141005.67846     -1754.545
 -14339625.878 6  22587995.827 6 -11033504.75346  22587994.69046      2871.871
 -14970127.275 7  21612025.834 7 -11496095.54647  21612028.42347      2025.683
 15  1 19  3 50  0.0000000  0  8G07G15G16G18G19G21G22G27
  -2348506.942 3  24971698.518 3  -1257273.63545  24971701.24345       973.503
   -529143.505 5  25295377.689 5   -270735.36245  25295374.68745      1393.507
 -22778295.411 7  20944214.516 7 -17151926.92447  20944214.39447      -204.026
 -15134201.332 7  21780209.620 7 -10497207.08946  21780209.59146       779.064
  -8408453.611 5  23701618.785 5  -6133583.34146  23701618.43846      2949.855
 -14277194.782 7  22151042.186 7 -10933011.47746  22151041.88146     -1761.575
 -14425634.707 6  22571628.853 6 -11100524.59746  22571627.89046      2862.034
 -15030782.410 7  21600483.545 7 -11543359.28647  21600486.54547      2017.984
 15  1 19  3 50 30.0000000  0  8G07G15G16G18G19G21G22G27
  -2377443.362 3  24966192.154 3  -1279821.50745  24966190.95345       955.603
   -570742.020 5  25287461.751 5   -303149.69445  25287460.24845      1379.714
 -22771881.831 7  20945434.985 7 -17146929.33847  20945434.87047      -223.532
 -15157324.563 7  21775809.420 7 -10515225.17646  21775809.65746       762.466
  -8496896.329 5  23684788.663 5  -6202499.69246  23684786.98746      2946.298
 -14224242.644 7  22161118.636 7 -10891750.07846  22161118.19946     -1768.571
 -14511347.480 7  22555318.265 7 -11167313.77046  22555317.16946      2852.127
 -15091206.122 7  21588985.284 7 -11590442.69247  21588987.92847      2010.240
 15  1 19  3 51  0.0000000  0  8G07G15G16G18G19G21G22G27
  -2405842.747 3  24960787.902 3  -1301950.91645  24960786.30545       937.685
   -611925.943 4  25279624.701 4   -335241.01445  25279621.83345      1365.865
 -22764883.052 8  20946766.823 8 -17141475.74647  20946766.87447      -243.063
 -15179949.466 7  21771504.042 7 -10532854.95746  21771504.13446       745.856
  -8585231.676 5  23667978.958 5  -6271332.42546  23667977.98146      2942.695
 -14171081.358 7  22171234.892 7 -10850325.70346  22171234.75646     -1775.513
 -14596762.017 7  22539064.435 7 -11233870.53546  22539063.30446      2842.161
 -15151397.172 7  21577531.277 7 -11637344.80347  21577533.75947      2002.472
 15  1 19  3 51 30.0000000  0  8G07G15G16G18G19G21G22G27
  -2433704.275 3  24955485.962 3  -1323661.22545  24955487.79845       919.722
   -652692.821 5  25271866.975 5   -367007.48945  25271869.55045      1351.941
 -22757298.640 7  20948210.105 7 -17135565.82547  20948210.24847      -262.572
 -15202075.706 7  21767293.550 7 -10550096.17746  21767294.00746       729.211
  -8673458.595 5  23651189.925 5  -6340080.69346  23651188.61146      2939.094
 -14117712.191 7  22181390.705 7 -10808739.33346  22181390.41446     -1782.421
 -14681875.840 7  22522867.797 7 -11300193.00146  22522867.18546      2832.079
 -15211354.302 7  21566121.798 7 -11684064.63647  21566124.38147      1994.654
 15  1 19  3 52  0.0000000  0  8G07G15G16G18G19G21G22G27
  -2461026.990 2  24950286.726 2  -1344951.67845  24950287.63645       901.792
   -693040.797 5  25264188.996 5   -398447.40045  25264188.21545      1337.929
 -22749128.850 7  20949764.768 7 -17129199.76547  20949764.90047      -282.058
 -15223702.468 7  21763178.100 7 -10566948.18846  21763178.05446       712.554
  -8761576.105 5  23634421.729 5  -6408743.67045  23634421.44745      2935.411
 -14064136.287 7  22191585.869 7 -10766991.88346  22191585.79846     -1789.292
 -14766686.232 7  22506728.920 7 -11366279.01646  22506728.24246      2821.933
 -15271076.306 7  21554757.053 7 -11730601.26647  21554759.60947      1986.796
 15  1 19  3 52 30.0000000  0  8G07G15G16G18G19G21G22G27
  -2487810.508 3  24945189.955 3  -1365821.92545  24945192.60245       883.799
   -732967.482 5  25256591.200 5   -429559.07145  25256593.29845      1323.830
 -22740373.999 7  20951430.758 7 -17122377.80747  20951430.78847      -301.600
 -15244829.064 7  21759157.828 7 -10583410.45546  21759157.94546       695.872
  -8849583.151 5  23617674.532 5  -6477320.56146  23617674.22246      2931.718
 -14010355.131 7  22201820.107 7 -10725084.48246  22201819.77846     -1796.119
 -14851191.063 7  22490648.160 7 -11432126.93246  22490647.04046      2811.714
 -15330561.932 7  21543437.313 7 -11776953.69847  21543439.99647      1978.898
