     2.10           OBSERVATION DATA    G (GPS)             RINEX VERSION / TYPE
teqc  2001May8                          20040302 02:18:13UTCPGM / RUN BY / DATE
MSWinNT 4.0|PentPro|wcl386 10.6|MSWin95/98/NT|486/DX+       COMMENT
teqc  2001May8      ICC                 20040302 02:17:33UTCCOMMENT
BIT 2 OF LLI FLAGS DATA COLLECTED UNDER A/S CONDITION       COMMENT
BELL                                                        MARKER NAME
13431M001                                                   MARKER NUMBER
ICC                 ICC                                     OBSERVER / AGENCY
18091               TRIMBLE 4000SSI     7.29 / 3.07         REC # / TYPE / VERS
0220080346          TRM29659.00     NONE                    ANT # / TYPE
  4775849.6200   116814.1000  4213018.7100                  APPROX POSITION XYZ
        0.0540        0.0000        0.0000                  ANTENNA: DELTA H/E/N
     1     1                                                WAVELENGTH FACT L1/2
     5    L1    L2    C1    P2    P1                        # / TYPES OF OBSERV
    30.0000                                                 INTERVAL
 SNR is mapped to RINEX snr flag value [1-9]                COMMENT
  L1: 3 -> 1; 8 -> 5; 40 -> 9                               COMMENT
  L2: 1 -> 1; 5 -> 5; 60 -> 9                               COMMENT
teqc windowed: start @ 2004 Mar  1 00:00: 0.000             COMMENT
teqc windowed: delta = 86400.000 sec                        COMMENT
Forced Modulo Decimation to 30 seconds                      COMMENT
  2004     3     1     0     0    0.0000000     GPS         TIME OF FIRST OBS
                                                            END OF HEADER
 04  3  1  0  0  0.0000000  0  9G21G10G28G27G29G24G 8G26G17
  -2064195.02043   -368079.53145  25005941.1324   25005943.8634
 -23887266.03746 -10338331.60147  20743622.2004   20743627.1584
 -13085456.78547 -10007244.19746  22129196.4824   22129200.1624
  -5389729.83046  -4013022.32246  23564758.8164   23564763.2244
  -6096605.03848  -4619595.15447  21640915.0234   21640918.8924
  -5607984.57542  -3879785.91944  25012269.2444   25012279.7824
 -22496298.37646 -17307634.36547  20949408.9344   20949413.4004
  -2335736.28847  -1675746.95046  22004738.6684   22004742.9934
   4713181.59645   3703567.78945  23017239.5834   23017246.2644
 04  3  1  0  0 30.0000000  0  9G21G10G28G27G29G24G 8G26G17
  -2115162.71445   -407794.62345  24996242.9904   24996244.6674
 -23868300.11146 -10323552.98047  20747231.3774   20747235.8554
 -13147728.65948 -10055767.70946  22117346.3404   22117349.7624
  -5314346.09746  -3954281.79846  23579104.0224   23579108.1604
  -6151437.92748  -4662322.06847  21630480.8564   21630484.6074
  -5518542.49843  -3810090.88044  25029288.8684   25029288.8564
 -22451217.66146 -17272506.53747  20957987.3124   20957991.2624
  -2409766.74047  -1733433.00546  21990651.0854   21990655.8804
   4783757.15645   3758561.74345  23030669.6014   23030676.7164
 04  3  1  0  1  0.0000000  0  9G21G10G28G27G29G24G 8G26G17
  -2165617.56345   -447110.09345  24986641.9924   24986645.9904
 -23848778.92446 -10308341.66647  20750945.9204   20750950.9024
 -13209548.89147 -10103939.30146  22105582.3204   22105586.3404
  -5238880.74446  -3895477.63546  23593464.3314   23593470.2754
  -6206094.41448  -4704911.55047  21620080.0344   21620083.7264
  -5429138.46343  -3740425.46944  25046303.1184   25046311.2304
 -22405767.13347 -17237090.53647  20966636.2594   20966640.7374
  -2483605.64947  -1790969.77746  21976600.0164   21976604.3064
   4854686.91646   3813831.65046  23044168.4814   23044173.9084
 04  3  1  0  1 30.0000000  0  9G21G10G28G27G29G24G 8G26G17
  -2215556.46443   -486023.55245  24977137.6754   24977142.9854
 -23828701.03946 -10292696.56847  20754766.7754   20754771.4764
 -13270913.65647 -10151756.02346  22093904.9484   22093908.6524
  -5163333.31645  -3836609.53946  23607840.4394   23607845.5154
  -6260571.89748  -4747361.55947  21609713.3654   21609716.5194
  -5339773.89543  -3670790.64344  25063308.0614   25063320.3454
 -22359946.87747 -17201386.44147  20975355.5114   20975360.3184
  -2557250.20547  -1848355.14446  21962586.0574   21962589.6914
   4925969.49146   3869376.47346  23057732.8254   23057737.9594
 04  3  1  0  2  0.0000000  0  9G21G10G28G27G29G24G 8G26G17
  -2264971.43844   -524528.79445  24967735.1904   24967738.5204
 -23808059.79147 -10276612.49847  20758694.4664   20758699.6594
 -13331814.14748 -10199210.91346  22082315.8854   22082318.7574
  -5087697.91646  -3777672.87746  23622233.9104   23622238.7164
  -6314862.85748  -4789666.20547  21599382.0314   21599385.5244
  -5250444.16142  -3601183.19244  25080305.0744   25080308.5214
 -22313751.92746 -17165390.38447  20984146.1744   20984150.5934
  -2630692.67147  -1905583.03846  21948610.2844   21948614.4684
   4997608.39845   3925199.00745  23071364.4364   23071371.0244
 04  3  1  0  2 30.0000000  0  9G21G10G28G27G29G24G 8G26G17
  -2313857.66345   -562621.89545  24958433.5684   24958435.7364
 -23786851.70746 -10260086.71747  20762730.3834   20762735.4824
 -13392244.38447 -10246299.40246  22070816.3394   22070820.3134
  -5011972.20746  -3718665.85546  23636644.4124   23636649.9334
  -6368962.50447  -4831821.74647  21589086.8434   21589091.2034
  -5161148.10843  -3531601.83744  25097301.2454   25097301.8434
 -22267180.10746 -17129100.64747  20993008.5274   20993013.0994
  -2703928.41847  -1962649.83446  21934673.8874   21934678.4124
   5069604.22646   3981299.62945  23085065.2744   23085071.3224
 04  3  1  0  3  0.0000000  0  9G21G10G28G27G29G24G 8G26G17
  -2362229.45644   -600314.37545  24949226.5544   24949230.9144
 -23765093.70546 -10243132.45047  20766870.8494   20766875.1864
 -13452218.59547 -10293032.54946  22059403.7694   22059408.1654
  -4936173.75646  -3659602.14046  23651067.9424   23651072.6074
  -6422886.23747  -4873840.23247  21578825.5284   21578829.7364
  -5071905.06743  -3462061.83444  25114281.9744   25114297.9634
 -22220250.00147 -17092531.74347  21001939.0024   21001944.0194
  -2776972.76147  -2019567.50146  21920774.4094   21920778.8874
   5141937.49646   4037663.17845  23098829.4964   23098835.8854
 04  3  1  0  3 30.0000000  0  9G21G10G28G27G29G24G 8G26G17
  -2410077.63244   -637598.72645  24940122.1854   24940132.1604
 -23742777.41747 -10225743.15447  20771117.5014   20771122.7184
 -13511726.56847 -10339402.39646  22048079.8484   22048084.6544
  -4860295.28146  -3600476.07446  23665507.2654   23665511.0274
  -6476624.88047  -4915714.49647  21568599.4604   21568603.9974
  -4982709.21242                  25131254.2614
 -22172954.63746 -17055678.21347  21010939.0684   21010944.1094
  -2849816.45347  -2076328.82046  21906912.5664   21906916.2124
   5214613.44946   4094293.77945  23112659.0224   23112664.2854
 04  3  1  0  4  0.0000000  0  9G21G10G28G27G29G24G 8G26G17
  -2457404.55245   -674476.77345  24931116.9074   24931119.5334
 -23719907.06446 -10207922.08847  20775469.5064   20775475.0624
 -13570769.95647 -10385410.22446  22036844.0054   22036847.8034
  -4784341.89045  -3541291.63445  23679960.6704   23679966.8364
  -6530181.48348  -4957446.91047  21558408.0914   21558412.4754
  -4893567.21543                  25148218.8444
 -22125299.89046 -17018544.65647  21020007.4984   21020011.7654
  -2922462.49547  -2132936.12146  21893088.1854   21893092.7684
   5287624.62745   4151185.58945  23126552.5394   23126559.6314
 04  3  1  0  4 30.0000000  0  9G21G10G28G27G29G24G 8G26G17
  -2504208.25144   -710947.14645  24922209.9434   24922212.3354
 -23696482.52846 -10189669.21947  20779927.1214   20779931.7984
 -13629346.17948 -10431054.01646  22025697.3634   22025700.3414
  -4708313.87746  -3482049.06646  23694428.3924   23694431.6984
  -6583554.41448  -4999036.21947  21548251.7074   21548255.7404
  -4804480.72942                  25165171.2394
 -22077286.84246 -16981131.87347  21029143.7854   21029148.5684
  -2994909.14747  -2189388.05046  21879302.1204   21879306.2824
   5360968.99645   4208337.03145  23140510.0314   23140515.4354
 04  3  1  0  5  0.0000000  0  9G21G10G28G27G29G24G 8G26G17
  -2550482.32242   -747004.88745  24913403.7994   24913408.1014
 -23672498.67347 -10170980.52647  20784491.0424   20784495.5674
 -13687447.67747 -10476327.89346  22014641.0244   22014645.3974
  -4632207.18245  -3422745.11145  23708911.0934   23708916.8264
  -6636737.26548  -5040477.40347  21538131.3944   21538135.2744
  -4715447.34542                  25182112.9134
 -22028911.76046 -16943437.02747  21038349.4004   21038353.4684
  -3067150.09548  -2245679.70646  21865555.4654   21865559.6504
   5434648.32746   4265749.44945  23154531.7814   23154537.3254
 04  3  1  0  5 30.0000000  0  9G21G10G28G27G29G24G 8G26G17
  -2596230.44844   -782652.85345  24904699.5064   24904702.0264
 -23647960.77548 -10151860.08747  20789160.2734   20789165.9584
 -13745077.62648 -10521234.34446  22003674.5364   22003678.4624
  -4556027.90246  -3363384.65445  23723407.0604   23723410.7414
  -6689734.23248  -5081773.74447  21528046.1344   21528050.3894
  -4626474.40743                  25199044.9464
 -21980181.66146 -16905465.51547  21047622.5474   21047626.8964
  -3139189.34848  -2301814.18146  21851846.7594   21851850.2994
   5508654.40846   4323416.50545  23168613.6824   23168620.2114
 04  3  1  0  6  0.0000000  0  9G21G10G28G27G29G24G 8G26G17
  -2641448.80843   -817887.89245  24896093.1124   24896096.8284
 -23622866.87946 -10132306.41847  20793935.9634   20793940.9094
 -13802231.34948 -10565769.70546  21992798.7064   21992802.0354
  -4479774.41646  -3303966.40445  23737918.1394   23737923.5904
  -6742541.72347  -5122922.43547  21517997.0614   21518001.6444
  -4537562.23742                  25215961.9324
 -21931095.62746 -16867216.67547  21056963.2674   21056967.4874
  -3211023.22148  -2357788.64646  21838177.0194   21838180.9704
   5582986.74546   4381337.85745  23182758.7244   23182763.5424
 04  3  1  0  6 30.0000000  0  9G21G10G28G27G29G24G 8G26G17
  -2686137.96343   -852710.60645  24887588.9524   24887590.6404
 -23597219.17346 -10112321.20547  20798816.5104   20798821.0234
 -13858908.86647 -10609934.00646  21982013.0794   21982016.8534
  -4403449.92045  -3244492.76945  23752441.8754   23752447.0444
  -6795160.74447  -5163924.25247  21507983.8564   21507988.3694
  -4448715.33143                  25232871.0334
 -21881657.37547 -16828693.36147  21066371.1534   21066375.9704
  -3282652.73848  -2413603.85147  21824546.5744   21824550.3604
   5657640.27946   4439509.32245  23196964.4954   23196968.2464
 04  3  1  0  7  0.0000000  0  9G21G10G28G27G29G24G 8G26G17
  -2730300.05742   -887122.67045  24879186.1834   24879193.4984
 -23571021.20446 -10091907.20847  20803801.6124   20803806.5704
 -13915111.24948 -10653728.05546  21971318.2564   21971321.5504
  -4327058.43446  -3184966.93846  23766979.0204   23766983.8494
  -6847593.48048  -5204780.92747  21498006.4474   21498010.7724
  -4359939.22543                  25249764.2304
 -21831871.66446 -16789899.30847  21075844.9334   21075848.9424
  -3354080.03348  -2469261.46446  21810954.1044   21810958.0314
   5732608.44245   4497926.11645  23211230.9214   23211236.6424
 04  3  1  0  7 30.0000000  0  9G21G10G28G27G29G24G 8G26G17
  -2773938.44444   -921126.65745  24870882.6894   24870883.2294
 -23544277.81747 -10071068.22047  20808890.7954   20808895.7194
 -13970840.94947 -10697153.76846  21960713.0884   21960716.3944
  -4250605.77746  -3125393.47746  23781527.4274   23781532.1514
  -6899843.39648  -5245495.14147  21488063.7554   21488067.5774
  -4271241.08043                  25266642.7774
 -21781745.11946 -16750839.66147  21085383.7084   21085387.9644
  -3425308.53948  -2524764.18346  21797400.0044   21797403.4264
   5807883.81245   4556582.23245  23225555.3794   23225561.1814
 04  3  1  0  8  0.0000000  0  9G21G10G28G27G29G24G 8G26G17
  -2817046.69645   -954717.49445  24862679.5054   24862684.2754
 -23516984.68147 -10049800.85447  20814084.4794   20814089.5674
 -14026091.17448 -10740205.89146  21950199.1954   21950202.6064
  -4174088.03346  -3065769.28045  23796088.4274   23796092.3314
  -6951904.59948  -5286062.32947  21478156.8174   21478160.4634
  -4182618.69643     36820.55244  25283507.4394   25283506.1734
 -21731274.48148 -16711511.90947  21094988.1514   21094992.4774
  -3496332.43347  -2580107.47346  21783884.5324   21783888.6814
   5883467.67345   4615478.68645  23239938.0904   23239943.8694
 04  3  1  0  8 30.0000000  0  9G21G10G28G27G29G24G 8G26G17
  -2859617.83844   -987889.85545  24854578.1054   24854582.3024
 -23489136.09046 -10028100.66747  20819383.9964   20819388.6734
 -14080853.72848 -10782878.00646  21939778.1424   21939781.6704
  -4097499.98146  -3006090.28245  23810662.4784   23810666.4404
  -7003769.92948  -5326476.87047  21468287.1024   21468290.8064
  -4094068.34342                  25300358.6084
 -21680455.29446 -16671912.54247  21104658.7764   21104662.7624
  -3567144.37347  -2635285.60046  21770409.3914   21770413.2594
   5959363.14646   4674617.98545  23254380.6354   23254387.3514
 04  3  1  0  9  0.0000000  0  9G21G10G28G27G29G24G 8G26G17
  -2901656.10543  -1020646.85643  24846578.1464   24846581.8744
 -23460738.10746 -10005972.37647  20824787.8664   20824792.4724
 -14135132.35747 -10825173.03946  21929449.6764   21929453.3104
  -4020848.21146  -2946361.64845  23825248.7374   23825253.5314
  -7055443.79748  -5366742.20047  21458454.0504   21458457.6484
  -4005598.02742                  25317193.6884
 -21629294.66547 -16632047.12747  21114394.2174   21114399.0824
  -3637748.77747  -2690302.00746  21756973.7634   21756977.9944
   6035561.82245   4733993.55445  23268881.0564   23268888.3004
 04  3  1  0  9 30.0000000  0  9G21G10G28G27G29G24G 8G26G17
  -2943156.62443  -1052985.03645  24838680.4664   24838684.3574
 -23431787.53746  -9983413.50347  20830296.9404   20830301.7704
 -14188921.29948 -10867086.49846  21919213.9234   21919217.0764
  -3944129.87846  -2886581.14745  23839848.0794   23839853.1544
  -7106921.43648  -5406854.63647  21448658.0764   21448662.2844
  -3917206.35542                  25334013.4044
 -21577790.80246 -16591914.24947  21124195.1864   21124199.4534
  -3708140.92047  -2745153.03446  21743578.5304   21743582.9844
   6112063.95946   4793605.64545  23283439.4944   23283445.9884
 04  3  1  0 10  0.0000000  0  9G21G10G28G27G29G24G 8G26G17
  -2984124.40344  -1084907.95945  24830885.0254   24830889.9134
 -23402290.81546  -9960429.05947  20835909.9944   20835914.4484
 -14242224.63548 -10908621.53146  21909070.3944   21909073.6064
  -3867352.23146  -2826754.42845  23854458.2474   23854463.4874
  -7158207.88648  -5446818.09247  21438898.5704   21438902.4854
  -3828901.90142                  25350819.4074
 -21525951.41048 -16551519.92947  21134059.8834   21134065.1934
  -3778325.61047  -2799842.37446  21730222.7844   21730226.3244
   6188860.47346   4853447.05945  23298052.9534   23298058.6274
 04  3  1  0 10 30.0000000  0  8G21G10G28G27G29G 8G26G17
  -3024555.45144  -1116412.68845  24823191.7194   24823196.8184
 -23372245.47746  -9937017.11947  20841627.3974   20841631.8994
 -14295037.52547 -10949774.43546  21899020.3744   21899024.0554
  -3790513.09846  -2766879.76445  23869080.1564   23869084.6924
  -7209299.15948  -5486629.47847  21429176.4204   21429179.9374
 -21473775.33747 -16510863.25147  21143988.6714   21143993.2544
  -3848298.96347  -2854367.07146  21716907.5164   21716911.2674
   6265950.81845   4913517.43145  23312722.8314   23312728.6344
 04  3  1  0 11  0.0000000  0  8G21G10G28G27G29G 8G26G17
  -3064445.99344  -1147496.13445  24815599.5824   24815606.4044
 -23341649.42546  -9913176.05047  20847449.8394   20847454.8804
 -14347355.52148 -10990541.70746  21889064.7614   21889068.2074
  -3713610.89345  -2706956.04145  23883713.8644   23883718.9524
  -7260191.59448  -5526285.92647  21419491.5354   21419495.5204
 -21421261.49748 -16469943.36547  21153981.4824   21153986.8284
  -3918057.26247  -2908724.14046  21703632.9104   21703636.6734
   6343334.61545   4973816.39945  23327447.3564   23327453.5814
 04  3  1  0 11 30.0000000  0  8G21G10G28G27G29G 8G26G17
  -3103798.27745  -1178160.30245  24808112.5524   24808111.7674
 -23310506.82346  -9888909.11247  20853376.0494   20853380.8674
 -14399180.15148 -11030924.52146  21879202.9064   21879206.4924
  -3636650.23945  -2646986.71145  23898358.6284   23898365.5684
  -7310887.69748  -5565789.36547  21409844.2214   21409848.9104
 -21368415.41248 -16428764.61847  21164037.8534   21164042.5424
  -3987602.83347  -2962915.52146  21690398.9294   21690403.9694
   6421004.93845   5034338.76345  23342227.7644   23342236.4614
 04  3  1  0 12  0.0000000  0  8G21G10G28G27G29G 8G26G17
  -3142611.99944  -1208404.74745  24800725.9894   24800730.3264
 -23278818.48446  -9864216.90747  20859406.0284   20859410.9394
 -14450510.07947 -11070921.86846  21869435.1854   21869439.3934
  -3559632.37045  -2586972.81745  23913014.3704   23913020.1024
  -7361386.70448  -5605139.22447  21400234.8484   21400238.7514
 -21315239.07748 -16387328.49647  21174156.8134   21174162.1344
  -4056935.17247  -3016940.70546  21677204.9514   21677209.2184
   6498958.28945   5095081.63745  23357062.6334   23357069.5144
 04  3  1  0 12 30.0000000  0  8G21G10G28G27G29G 8G26G17
  -3180884.40344  -1238227.47845  24793443.4144   24793446.8374
 -23246583.51846  -9839098.76847  20865540.3734   20865545.2844
 -14501341.65048 -11110530.86246  21859762.1374   21859765.3604
  -3482556.75445  -2526913.93945  23927681.5784   23927687.7094
  -7411685.86348  -5644333.36947  21390663.1994   21390667.0094
 -21261732.72248 -16345635.26147  21184338.9044   21184343.6054
  -4126051.25747  -3070797.39346  21664053.0704   21664057.0324
   6577193.17745   5156043.82245  23371950.2324   23371955.5194
 04  3  1  0 13  0.0000000  0  8G21G10G28G27G29G 8G26G17
  -3218619.65744  -1267631.62745  24786261.5914   24786265.2604
 -23213807.71747  -9813559.18947  20871777.0774   20871782.5164
 -14551678.40148 -11149754.29446  21850183.1784   21850186.0734
  -3405429.18645  -2466814.54245  23942359.0004   23942364.8614
  -7461789.17148  -5683374.90047  21381128.8804   21381132.9594
 -21207902.97748 -16303689.98547  21194582.2074   21194587.1424
  -4194955.18147  -3124488.76146  21650940.7464   21650945.6934
   6655701.24645   5217218.92645  23386889.7394   23386896.0224
 04  3  1  0 13 30.0000000  0  8G21G10G28G27G29G 8G26G17
  -3255811.29744  -1296612.20345  24779184.3124   24779194.2644
 -23180486.35547  -9787594.50547  20878117.9274   20878122.9444
 -14601512.98347 -11188586.42446  21840700.0944   21840704.1034
  -3328245.56146  -2406671.45445  23957046.6204   23957049.1054
  -7511690.17348  -5722258.80747  21371633.1564   21371637.0244
 -21153746.28748 -16261489.99547  21204887.9174   21204892.2074
  -4263640.48547  -3178009.74446  21637870.5354   21637874.5564
   6734484.70645   5278608.65245  23401881.8614   23401887.4884
 04  3  1  0 14  0.0000000  0  8G21G10G28G27G29G 8G26G17
  -3292459.07945  -1325168.85145  24772210.6334   24772208.6524
 -23146620.67646  -9761205.68447  20884562.5554   20884567.4554
 -14650844.37047 -11227026.46346  21831312.4564   21831316.8294
  -3251007.24445  -2346485.76345  23971745.0794   23971750.1674
  -7561388.52748  -5760984.79147  21362175.8144   21362180.2574
 -21099265.19448 -16219037.18547  21215255.1444   21215259.5174
  -4332106.69147  -3231360.02546  21624841.7564   21624846.9144
   6813539.67745   5340209.89745  23416925.2964   23416930.8764
 04  3  1  0 14 30.0000000  0  8G21G10G28G27G29G 8G26G17
  -3328559.67645  -1353299.02845  24765340.7374   24765345.4964
 -23112208.78946  -9734391.23647  20891110.9784   20891115.9604
 -14699668.29248 -11265071.06246  21822021.7914   21822026.0114
  -3173712.82245  -2286256.36345  23986453.4634   23986459.8404
  -7610880.66848  -5799550.07547  21352757.5774   21352762.1604
 -21044458.56448 -16176330.73447  21225684.7864   21225688.6314
  -4400350.21747  -3284536.77846  21611855.6464   21611859.6434
   6892865.22145   5402021.94145  23432020.8984   23432025.7164
 04  3  1  0 15  0.0000000  0  8G21G10G28G27G29G 8G26G17
  -3364116.58945  -1381005.86945  24758575.9164   24758579.1874
 -23077255.86446  -9707155.19547  20897762.1914   20897766.8924
 -14747987.22148 -11302722.16546  21812827.1194   21812830.4014
  -3096367.23545  -2225987.11945  24001172.1364   24001178.1614
  -7660169.88948  -5837957.25347  21343378.2584   21343382.6184
 -20989332.92547 -16133375.69647  21236174.7614   21236178.4064
  -4468374.23747  -3337542.50646  21598910.8284   21598914.9434
   6972453.76145   5464038.99245  23447165.9354   23447172.4994
 04  3  1  0 15 30.0000000  0  8G21G10G28G27G29G 8G26G17
  -3399126.07745  -1408285.97145  24751912.7514   24751913.5954
 -23041759.75348  -9679495.90947  20904516.7924   20904521.7854
 -14795796.65848 -11339976.26846  21803729.2694   21803732.5984
  -3018968.90245  -2165676.77045  24015900.2184   24015905.8684
  -7709252.02648  -5876203.07147  21334038.4284   21334042.3904
 -20933886.84048 -16090170.96347  21246725.8724   21246730.3274
  -4536174.73547  -3390374.05546  21586009.0864   21586012.5564
   7052305.13845   5526260.86945  23462360.3034   23462367.9934
 04  3  1  0 16  0.0000000  0  8G21G10G28G27G29G 8G26G17
  -3433591.59344  -1435142.16745  24745353.6704   24745356.2014
 -23005725.52448  -9651417.29547  20911374.0234   20911379.4624
 -14843099.20848 -11376835.38646  21794728.0254   21794730.9674
  -2941523.00045  -2105329.33345  24030638.0054   24030642.8114
  -7758130.50748  -5914290.18947  21324737.0934   21324741.1494
 -20878126.56246 -16046721.40347  21257336.9484   21257341.2034
  -4603754.93847  -3443033.94946  21573149.0324   21573152.9594
   7132411.69545   5588681.56545  23477604.4274   23477609.0334
 04  3  1  0 16 30.0000000  0  8G21G10G28G27G29G 8G26G17
  -3467516.46743  -1461577.29845  24738898.2704   24738900.7674
 -22969158.17448  -9622923.27047  20918332.3914   20918337.7014
 -14889897.38748 -11413301.49947  21785822.5164   21785826.2084
  -2864034.49745  -2044948.72645  24045383.8914   24045388.5334
  -7806808.28848  -5952220.91347  21315473.7814   21315477.7554
 -20822057.96747 -16003031.58147  21268006.2944   21268010.5144
  -4671117.90948  -3495524.54846  21560330.1314   21560334.4454
   7212766.00245   5651295.26945  23492895.8764   23492902.7224
 04  3  1  0 17  0.0000000  0  8G21G10G28G27G29G 8G26G17
  -3500894.21245  -1487585.86745  24732547.2584   24732550.8914
 -22932052.53048  -9594009.77947  20925393.1914   20925398.4774
 -14936183.89048 -11449368.89646  21777014.3324   21777017.8134
  -2786498.53246  -1984531.12245  24060138.5084   24060142.2234
  -7855278.30348  -5989989.75247  21306250.3124   21306254.6144
 -20765676.72348 -15959098.16247  21278735.3724   21278739.5804
  -4738256.40848  -3547840.25846  21547554.0684   21547558.4884
   7293370.54745   5714103.96745  23508232.7224   23508237.7984
 04  3  1  0 17 30.0000000  0  8G21G10G28G27G29G 8G26G17
  -3533721.90545  -1513165.93845  24726301.8414   24726304.8654
 -22894407.78847  -9564676.23547  20932557.0954   20932562.0304
 -14981955.04748 -11485034.70946  21768304.3524   21768307.5884
  -2708914.26445  -1924075.81145  24074901.7524   24074906.2184
  -7903537.81348  -6027594.56947  21297067.0314   21297071.0634
 -20708982.97248 -15914921.20647  21289523.7014   21289529.1054
  -4805167.77948  -3599978.98147  21534821.5534   21534825.1284
   7374223.74844   5777106.49145  23523619.6424   23523627.4484
 04  3  1  0 18  0.0000000  0  8G21G10G28G27G29G 8G26G17
  -3565998.06645  -1538316.14645  24720158.0964   24720158.9054
 -22856223.71747  -9534922.43447  20939823.2664   20939828.4354
 -15027208.17948 -11520296.87246  21759692.9394   21759696.8074
  -2631281.31645  -1863582.58645  24089674.9114   24089680.3864
  -7951584.51548  -6065033.55947  21287923.9264   21287928.2634
 -20651977.25648 -15870501.16647  21300371.4734   21300376.4204
  -4871849.63248  -3651938.85046  21522131.8674   21522136.7904
   7455323.84745   5840301.31245  23539053.1544   23539057.4684
 04  3  1  0 18 30.0000000  0  8G21G10G28G27G29G 8G26G17
  -3597723.62445  -1563037.29945  24714121.0594   24714123.5684
 -22817503.04346  -9504750.48547  20947191.4744   20947196.2684
 -15071943.59648 -11555155.64246  21751179.8554   21751183.6424
  -2553602.58145  -1803053.73645  24104456.9044   24104462.7884
  -7999419.29548  -6102307.39947  21278821.2104   21278825.6534
 -20594663.42548 -15825841.05347  21311278.0824   21311282.3144
  -4938303.04748  -3703720.73046  21509486.3354   21509490.5784
   7536665.38145   5903684.32645  23554531.0524   23554537.5344
 04  3  1  0 19  0.0000000  0  8G21G10G28G27G29G 8G26G17
  -3628899.12945  -1587329.95545  24708188.1754   24708191.0354
 -22778247.75747  -9474161.96447  20954661.6594   20954666.5124
 -15116160.91648 -11589610.66846  21742765.9714   21742769.1954
  -2475880.25145  -1742490.93945  24119246.1314   24119252.5664
  -8047042.20448  -6139416.15147  21269759.0154   21269762.6374
 -20537044.46548 -15780943.14247  21322242.4804   21322247.3924
  -5004527.93448  -3755324.53446  21496884.2244   21496887.9994
   7618243.98145   5967252.04845  23570055.4344   23570061.2134
 04  3  1  0 19 30.0000000  0  8G21G10G28G27G29G 8G26G17
  -3659528.07345  -1611196.78845  24702360.0994   24702364.2024
 -22738462.60747  -9443160.57747  20962232.5544   20962237.0084
 -15159862.36948 -11623663.73847  21734449.7294   21734453.2574
  -2398118.80145  -1681897.63645  24134043.2664   24134048.2364
  -8094455.85548  -6176361.85747  21260736.5004   21260740.2514
 -20479125.68248 -15735811.64447  21333264.0794   21333268.6394
  -5070526.87947  -3806752.26046  21484324.6714   21484328.9384
   7700052.60945   6030999.02345  23585623.7574   23585629.3614
 04  3  1  0 20  0.0000000  0  8G21G10G28G27G29G 8G26G17
  -3689606.34145  -1634634.41645  24696636.6904   24696638.7064
 -22698145.42448  -9411744.60047  20969904.5434   20969909.5024
 -15203043.27548 -11657311.19946  21726232.8404   21726237.0014
  -2320316.11245  -1621272.19245  24148849.4864   24148853.8004
  -8141655.94748  -6213141.13747  21251754.7774   21251758.6104
 -20420905.70248 -15690445.42547  21344342.9014   21344348.2474
  -5136295.45748  -3858000.50446  21471809.8374   21471814.0684
   7782090.94245   6094924.96145  23601234.1164   23601240.5634
 04  3  1  0 20 30.0000000  0  8G21G10G28G27G29G 8G26G17
  -3719134.26845  -1657643.14045  24691017.9614   24691020.0484
 -22657298.20646  -9379915.60247  20977677.7274   20977682.1234
 -15245703.30548 -11690552.77846  21718114.5954   21718118.2404
  -2242473.97045  -1560616.02545  24163662.1284   24163668.7874
  -8188642.35048  -6249753.92247  21242813.4454   21242817.2554
 -20362387.32048 -15644846.69747  21355478.7174   21355484.2264
  -5201833.57348  -3909069.15146  21459337.9214   21459341.9534
   7864354.96145   6159026.79645  23616889.5884   23616894.4414
 04  3  1  0 21  0.0000000  0  8G21G10G28G27G29G 8G26G17
  -3748112.35945  -1680223.36245  24685503.5164   24685508.9094
 -22615922.99046  -9347675.19247  20985551.1954   20985555.6614
 -15287841.79648 -11723387.95646  21710095.9344   21710099.3454
  -2164594.37945  -1499930.63945  24178482.1184   24178487.2524
  -8235414.97247  -6286200.12547  21233913.1554   21233916.5664
 -20303573.21548 -15599017.52847  21366670.6004   21366675.8864
  -5267141.17047  -3959958.16846  21446910.3994   21446914.2434
   7946840.36245   6223301.10445  23632585.2104   23632591.8564
 04  3  1  0 21 30.0000000  0  8G21G10G28G27G29G 8G26G17
  -3776534.36844  -1702370.39045  24680093.9214   24680096.8404
 -22574015.13847  -9315019.72847  20993525.8304   20993530.9654
 -15329451.70648 -11755811.25047  21702177.9974   21702181.7714
  -2086672.56245  -1439212.38145  24193310.7534   24193313.9064
  -8281967.13348  -6322474.54647  21225054.2034   21225058.1534
 -20244459.60648 -15552954.98947  21377919.5664   21377924.1614
  -5332211.53447  -4010662.34246  21434527.9624   21434532.1824
   8029549.21745   6287749.60345  23648323.7854   23648329.8804
 04  3  1  0 22  0.0000000  0  8G21G10G28G27G29G 8G26G17
  -3804405.79244  -1724088.42345  24674789.9214   24674796.7324
 -22531581.33147  -9281954.44047  21001601.0104   21001605.8164
 -15370537.51548 -11787826.15347  21694359.5544   21694363.4344
  -2008714.98744  -1378466.28645  24208145.1414   24208151.9164
  -8328303.32048  -6358580.64547  21216236.6634   21216241.1644
 -20185054.05548 -15506664.96547  21389224.3204   21389228.9974
  -5397049.02948  -4061185.07846  21422189.8684   21422193.7374
   8112472.72745   6352365.28445  23664104.5834   23664108.6274
 04  3  1  0 22 30.0000000  0  8G21G10G28G27G29G 8G26G17
  -3831723.06745  -1745374.68845  24669593.4334   24669596.8674
 -22488619.69548  -9248477.84347  21009775.9374   21009780.9904
 -15411094.72448 -11819429.16647  21686641.8214   21686645.9354
  -1930719.86945  -1317690.82645  24222986.6184   24222991.9524
  -8374419.76648  -6394515.53747  21207461.0424   21207465.2274
 -20125355.37048 -15460146.50247  21400584.4234   21400588.8774
  -5461649.88447  -4111523.39246  21409896.8924   21409900.5734
   8195610.39345   6417147.85745  23679923.9304   23679930.1204
 04  3  1  0 23  0.0000000  0  8G21G10G28G27G29G 8G26G17
  -3858493.06045  -1766234.37545  24664498.8644   24664501.2084
 -22445138.63047  -9214596.50747  21018050.3264   21018055.1554
 -15451129.15448 -11850624.81647  21679023.4924   21679027.2314
  -1852694.99844  -1256892.27345  24237834.5374   24237840.4924
  -8420322.23048  -6430283.69547  21198726.2104   21198729.7974
 -20065372.35548 -15413406.49447  21411998.7264   21412003.2284
  -5526020.09547  -4161681.99446  21397647.2704   21397651.6784
   8278951.63845   6482089.09445  23695784.0744   23695791.9634
 04  3  1  0 23 30.0000000  0  8G21G10G28G27G29G 8G26G17
  -3884706.10044  -1786660.12245  24659509.5924   24659513.8354
 -22401130.16348  -9180304.22047  21026424.7284   21026429.2764
 -15490630.50648 -11881405.07547  21671506.5644   21671510.6554
  -1774632.21745  -1196064.08445  24252689.5834   24252695.6094
  -8466000.75248  -6465877.35047  21190033.8754   21190037.5094
 -20005097.84448 -15366439.35747  21423468.7574   21423473.1304
  -5590149.38947  -4211652.83346  21385443.9084   21385448.3864
   8362502.41245   6547193.57545  23711683.7304   23711689.6384
 04  3  1  0 24  0.0000000  0  8G21G10G28G27G29G 8G26G17
  -3910369.11044  -1806657.30445  24654626.0724   24654627.5614
 -22356602.64948  -9145607.47447  21034898.0984   21034903.5264
 -15529604.70448 -11911774.57047  21664090.0364   21664094.0804
  -1696539.79645  -1135212.92645  24267550.2634   24267554.3074
  -8511461.37348  -6501301.20847  21181383.1084   21181387.1404
 -19944541.13048 -15319252.32247  21434992.2404   21434996.3434
  -5654043.97847  -4261440.80847  21373285.2814   21373289.4544
   8446251.77645   6612452.80545  23727621.2884   23727625.4384
 04  3  1  0 24 30.0000000  0  8G21G10G28G27G29G 8G26G17
  -3935481.34444  -1826225.30345  24649848.0314   24649855.9554
 -22311557.02348  -9110506.98947  21043469.9254   21043475.5524
 -15568050.15948 -11941732.05647  21656773.9634   21656777.7264
  -1618418.40345  -1074339.16945  24282416.2604   24282422.9184
  -8556702.74348  -6536554.21947  21172773.8504   21172778.1174
 -19883703.50348 -15271846.36146  21446569.1064   21446574.8504
  -5717702.36848  -4311044.74647  21361171.4474   21361175.6904
   8530196.73545   6677864.46145  23743594.6534   23743603.1164
 04  3  1  0 25  0.0000000  0  8G21G10G28G27G29G 8G26G17
  -3960045.88545  -1845366.46345  24645174.1834   24645177.4534
 -22265997.52148  -9075006.08747  21052139.6874   21052144.7514
 -15605968.81648 -11971279.05546  21649558.3304   21649562.0934
  -1540271.89845  -1013445.77445  24297287.5334   24297292.7034
  -8601726.89848  -6571637.97747  21164205.6344   21164210.1004
 -19822589.82448 -15224225.34046  21458198.8044   21458203.5404
  -5781126.65548  -4360466.25547  21349102.1594   21349106.3094
   8614331.22045   6743423.78945  23759604.2364   23759614.1184
 04  3  1  0 25 30.0000000  0  9G21G10G28G 9G27G29G 8G26G17
  -3984052.18145  -1864072.66345  24640605.0824   24640610.5334
 -22219915.51747  -9039098.04247  21060908.6954   21060913.5134
 -15643349.50948 -12000406.84947  21642444.9664   21642448.6944
    -37278.43443                  25131213.2404
  -1462091.13745   -952525.74945  24312164.2534   24312169.4234
  -8646522.71848  -6606543.80447  21155681.5714   21155686.0494
 -19761191.85348 -15176382.75147  21469882.4064   21469887.3884
  -5844305.61448  -4409696.61347  21337079.8264   21337083.7534
   8698661.57945   6809135.73045  23775653.1004   23775658.0354
 04  3  1  0 26  0.0000000  0  9G21G10G28G 9G27G29G 8G26G17
  -4007506.17344  -1882348.56945  24636141.3204   24636148.0254
 -22173318.42148  -9002788.63047  21069775.9514   21069780.6284
 -15680197.11648 -12029119.26347  21635433.1174   21635437.2314
   -149051.88142                  25109943.5404
  -1383883.25845   -891584.53445  24327046.6884   24327051.3064
  -8691095.36148  -6641275.72847  21147199.6754   21147203.8844
 -19699517.88748 -15128325.12847  21481618.4414   21481623.0604
  -5907244.50848  -4458739.91647  21325103.2024   21325106.8014
   8783178.19945   6874992.81445  23791735.0724   23791739.9844
 04  3  1  0 26 30.0000000  0  9G21G10G28G 9G27G29G 8G26G17
  -4030405.67544  -1900192.34545  24631784.9124   24631791.0544
 -22126205.21947  -8966077.05847  21078741.3934   21078745.9414
 -15716508.18348 -12057413.58947  21628523.4424   21628527.2994
   -260716.76044                  25088695.5644
  -1305646.91145   -830621.17545  24341934.8684   24341939.6744
  -8735441.44448  -6675831.11247  21138760.8674   21138764.7704
 -19637567.25248 -15080051.91847  21493407.2724   21493411.3984
  -5969939.91948  -4507593.47547  21313172.2404   21313176.0734
   8867880.03145   6940994.20245  23807853.7394   23807859.7174
 04  3  1  0 27  0.0000000  0  9G21G10G28G 9G27G29G 8G26G17
  -4052758.11244  -1917609.81645  24627531.1884   24627538.3274
 -22078585.16048  -8928970.53247  21087803.1914   21087808.1614
 -15752289.49348 -12085295.12147  21621714.6634   21621718.1684
   -372280.03843    -78233.28145  25067464.8644   25067467.6194
  -1227390.90945   -769642.47145  24356826.3184   24356831.1244
  -8779567.78648  -6710215.27647  21130363.7744   21130367.3734
 -19575349.80548 -15031570.79747  21505246.9644   21505251.8174
  -6032398.74148  -4556262.66547  21301287.0364   21301290.6354
   8952755.77745   7007131.17445  23824005.7834   23824011.3394
 04  3  1  0 27 30.0000000  0  9G21G10G28G 9G27G29G 8G26G17
  -4074557.45645  -1934596.21645  24623382.9754   24623384.9914
 -22030453.55648  -8891465.39147  21096962.2664   21096967.2604
 -15787534.24548 -12112758.55547  21615007.2944   21615010.9514
   -483734.57542   -165081.08845  25046254.2484   25046264.0714
  -1149110.23045   -708644.54445  24371723.3764   24371726.5644
  -8823467.32048  -6744422.69947  21122010.1114   21122014.2494
 -19512861.40848 -14982878.56047  21517138.1744   21517141.6794
  -6094613.89348  -4604742.00947  21289448.1244   21289451.3834
   9037807.81445   7073405.41945  23840190.4714   23840195.9924
 04  3  1  0 28  0.0000000  0  9G21G10G28G 9G27G29G 8G26G17
  -4095805.88344  -1951153.46745  24619338.5774   24619340.3244
 -21981814.24548  -8853564.64547  21106218.0164   21106223.0564
 -15822243.49948 -12139804.71547  21608402.4694   21608405.8214
   -595081.39443   -251844.76345  25025066.6984   25025076.1344
  -1070808.05245   -647629.91945  24386623.1824   24386630.4854
  -8867141.44347  -6778454.49447  21113699.4564   21113703.2074
 -19450106.12848 -14933978.33846  21529080.0724   21529084.4334
  -6156586.47448  -4653032.31747  21277654.8094   21277659.1584
   9123030.71945   7139812.93145  23856407.5244   23856414.8504
 04  3  1  0 28 30.0000000  0  9G21G10G28G 9G27G29G 8G26G17
  -4116501.02445  -1967279.62845  24615401.0744   24615405.8104
 -21932666.07448  -8815267.38447  21115570.6644   21115575.7164
 -15856413.73848 -12166430.87047  21601900.3094   21601904.1184
   -706317.05343   -338521.93045  25003899.9714   25003906.6524
   -992482.83644   -586597.30845  24401527.8444   24401534.0574
  -8910586.73048  -6812307.96947  21105431.9214   21105436.2114
 -19387083.27648 -14884869.63746  21541073.0724   21541077.4564
  -6218313.22048  -4701131.06547  21265908.3514   21265912.6764
   9208423.48045   7206352.64645  23872657.0884   23872662.2464
 04  3  1  0 29  0.0000000  0  9G21G10G28G 9G27G29G 8G26G17
  -4136640.87345  -1982973.03845  24611569.0974   24611571.9924
 -21883008.85548  -8776573.46447  21125019.8814   21125025.2614
 -15890042.42848 -12192635.03947  21595500.7504   21595504.6414
   -817438.85643   -425110.43145  24982754.1434   24982760.9534
   -914133.72045   -525546.07445  24416437.1794   24416443.4864
  -8953800.25048  -6845980.82947  21097208.4674   21097213.0274
 -19323793.19048 -14835552.68746  21553116.6244   21553121.2074
  -6279791.05148  -4749035.86447  21254209.6514   21254213.6014
   9293984.22545   7273023.35545  23888938.9534   23888943.4894
 04  3  1  0 29 30.0000000  0  9G21G10G28G 9G27G29G 8G26G17
  -4156223.90445  -1998232.55545  24607841.9634   24607844.1204
 -21832842.19248  -8737482.56747  21134566.2824   21134571.5574
 -15923126.65248 -12218414.93747  21589205.1654   21589209.1744
   -928444.08243   -511607.93745  24961629.5434   24961630.7504
   -835759.98545   -464475.69545  24431351.3144   24431355.9334
  -8996779.34448  -6879471.02947  21089030.2284   21089034.1434
 -19260235.95748 -14786027.57746  21565210.9384   21565215.7804
  -6341017.51748  -4796744.82047  21242558.6144   21242561.8144
   9379711.21344   7339823.61445  23905250.7934   23905258.4014
 04  3  1  0 30  0.0000000  0  9G21G10G28G 9G27G29G 8G26G17
  -4175253.54144  -2013060.76345  24604220.3674   24604224.8564
 -21782171.19548  -8697998.69447  21144208.8314   21144213.8134
 -15955668.97648 -12243772.58947  21583012.7484   21583016.7574
  -1039334.81944   -598016.31445  24940529.0104   24940527.3694
   -757365.98245   -403389.43345  24446270.3954   24446276.7014
  -9039526.43447  -6912780.43447  21080895.6444   21080899.4544
 -19196416.96947 -14736298.50246  21577355.3634   21577360.4154
  -6401994.92548  -4844259.68847  21230954.8724   21230958.0484
   9465597.69445   7406748.12145  23921595.2844   23921601.4624
 04  3  1  0 30 30.0000000  0  9G21G10G28G 9G27G29G 8G26G17
  -4193730.98344  -2027458.91345  24600705.1264   24600711.5844
 -21730998.54448  -8658123.91747  21153946.6374   21153952.0294
 -15987669.84848 -12268708.32547  21576923.1574   21576926.8034
  -1150111.22545   -684335.56345  24919448.8334   24919450.3804
   -678953.73345   -342289.04145  24461190.3474   24461195.5164
  -9082041.52747  -6945909.09347  21072805.3334   21072809.1314
 -19132339.05447 -14686367.67246  21589548.9864   21589554.2504
  -6462723.20748  -4891580.41047  21219398.7594   21219402.4984
   9551639.03545   7473793.28845  23937969.3304   23937972.8824
 04  3  1  0 31  0.0000000  0  9G21G10G28G 9G27G29G 8G26G17
  -4211651.01845  -2041422.51845  24597295.3064   24597297.9324
 -21679320.51648  -8617855.31347  21163780.5764   21163785.7224
 -16019122.88948 -12293217.17147  21570937.8594   21570941.1884
  -1260766.89245   -770560.81345  24898391.8944   24898396.6654
   -600518.95045   -281171.04945  24476115.9854   24476120.5564
  -9124318.36548  -6978852.08647  21064760.2354   21064764.4434
 -19067998.99748 -14636232.57146  21601792.4944   21601796.8194
  -6523196.30347  -4938702.29146  21207890.9434   21207895.0694
   9637837.10145   7540960.60545  23954371.4664   23954377.2104
 04  3  1  0 31 30.0000000  0  9G21G10G28G 9G27G29G 8G26G17
  -4229016.15645  -2054953.82545  24593990.7814   24593991.4384
 -21627141.15047  -8577196.09247  21173710.1364   21173714.9424
 -16050029.82048 -12317300.48647  21565056.3854   21565059.8674
  -1371303.31944   -856693.04745  24877356.8324   24877358.9074
   -522064.91944   -220038.02845  24491045.4094   24491048.7264
  -9166358.22748  -7011610.39847  21056759.9924   21056764.3524
 -19003400.99447 -14585896.47246  21614085.1394   21614090.2384
  -6583415.41748  -4985626.26646  21196431.6824   21196434.9994
   9724185.89345   7608245.38845  23970803.1164   23970811.4274
 04  3  1  0 32  0.0000000  0  9G21G10G28G 9G27G29G 8G26G17
  -4245830.73545  -2068056.03745  24590791.1414   24590791.5514
 -21574465.38348  -8536150.05747  21183733.9914   21183739.1964
 -16080393.26348 -12340960.30347  21559278.2504   21559281.7084
  -1481723.10443   -942734.41445  24856343.4944   24856354.1614
   -443596.11243   -158893.46845  24505976.7194   24505982.6504
  -9208163.81048  -7044186.16847  21048804.7584   21048808.6504
 -18938550.75548 -14535363.82646  21626425.8154   21626430.2814
  -6643383.24548  -5032354.45347  21185020.1954   21185023.8874
   9810678.36645   7675642.09445  23987262.4664   23987269.0074
 04  3  1  0 32 30.0000000  0  9G21G10G28G 9G27G29G 8G26G17
  -4262088.85444  -2080724.74945  24587696.6464   24587702.2964
 -21521290.03048  -8494714.73747  21193852.8894   21193858.0004
 -16110207.84748 -12364192.43247  21553604.8144   21553608.7884
  -1592020.22144  -1028680.31945  24835355.4984   24835357.5154
   -365108.64444    -97734.39345  24520913.2404   24520919.1604
  -9249729.22348  -7076574.81547  21040895.2354   21040898.9514
 -18873445.08747 -14484632.14046  21638814.8864   21638819.9394
  -6703093.78948  -5078882.13647  21173657.6594   21173661.0004
   9897315.97945   7743151.96245  24003748.5454   24003755.6604
 04  3  1  0 33  0.0000000  0  9G21G10G28G 9G27G29G 8G26G17
  -4277794.05045  -2092962.51045  24584708.2394   24584713.2914
 -21467619.51248  -8452893.56347  21204065.9814   21204071.5024
 -16139475.11648 -12386998.09547  21548035.4574   21548039.0794
  -1702196.49444  -1114531.88845  24814390.1624   24814394.1944
   -286606.01844    -36563.66645  24535851.2294   24535856.1284
  -9291056.03148  -7108777.52247  21033030.9164   21033035.2414
 -18808088.57448 -14433704.99046  21651251.8624   21651256.2704
  -6762548.71548  -5125210.65047  21162343.8404   21162347.6614
   9984092.71845   7810770.09345  24020262.0214   24020268.2934
 04  3  1  0 33 30.0000000  0  9G21G10G28G 9G27G29G 8G26G17
  -4292949.79245  -2104772.17945  24581823.6054   24581830.9794
 -21413458.38446  -8410690.09847  21214372.7054   21214377.7344
 -16168197.77148 -12409379.37247  21542569.6314   21542573.1714
  -1812253.95645  -1200290.95245  24793447.7044   24793454.2444
   -208092.39545     24615.81645  24550792.4214   24550795.7744
  -9332146.54248  -7140796.09647  21025211.5944   21025215.9904
 -18742486.28847 -14382586.34046  21663735.5494   21663740.5434
  -6821750.25348  -5171341.71147  21151078.3194   21151082.3754
  10071001.78143   7878491.43345  24036799.3704   24036807.4824
 04  3  1  0 34  0.0000000  0  9G21G10G28G 9G27G29G 8G26G17
  -4307553.99645  -2116152.09845  24579045.4964   24579049.1774
 -21358806.34547  -8368104.11147  21224772.6084   21224777.2974
 -16196372.83148 -12431333.95147  21537208.0794   21537211.9244
  -1922189.42745  -1285954.88345  24772527.9194   24772533.2304
   -129566.58344     85804.75045  24565735.8094   24565741.7644
  -9372997.40548  -7172627.93047  21017438.2824   21017442.3374
 -18676637.79548 -14331275.82446  21676266.0694   21676270.5934
  -6880694.98248  -5217272.66547  21139861.4304   21139865.7084
  10158041.96245   7946314.94945  24053363.4164   24053364.8464
 04  3  1  0 34 30.0000000  0  9G21G10G28G 9G27G29G 8G26G17
  -4321600.11445  -2127097.13245  24576371.9454   24576375.9314
 -21303658.16148  -8325131.49947  21235266.7364   21235271.8004
 -16223992.45748 -12452855.73847  21531952.2944   21531956.1744
  -2031995.13345  -1371517.74945  24751631.0724   24751633.3464
    -51022.44245    147007.97545  24580681.5704   24580685.0754
  -9413600.64947  -7204266.82347  21009711.7124   21009715.3694
 -18610538.16047 -14279769.63146  21688844.5044   21688849.4864
  -6939375.12548  -5262997.43747  21128694.8834   21128699.2204
  10245216.71545   8014243.34045  24069953.1934   24069959.1364
 04  3  1  0 35  0.0000000  0  9G21G10G28G 9G27G29G 8G26G17
  -4335094.59145  -2137612.26945  24573804.2774   24573812.4124
 -21248021.97748  -8281778.63347  21245854.1064   21245859.0654
 -16251062.42148 -12473949.21047  21526800.9904   21526804.5424
  -2141676.29643  -1456983.62045  24730759.1964   24730766.3354
     27533.03944    208220.03645  24595630.2144   24595635.4074
  -9453961.74748  -7235717.02947  21002030.9434   21002035.1394
 -18544195.63648 -14228074.15346  21701469.1244   21701473.0984
  -6997795.94048  -5308520.13147  21117577.5634   21117582.2054
  10332516.30345   8082268.94845  24086566.3134   24086569.1734
 04  3  1  0 35 30.0000000  0  9G21G10G28G 9G27G29G 8G26G17
  -4348038.98245  -2147698.94245  24571340.4574   24571345.4744
 -21191900.38448  -8238047.54447  21256533.7724   21256538.8594
 -16277583.36148 -12494614.86347  21521754.1514   21521757.0934
  -2251232.93244  -1542352.39345  24709910.8694   24709919.6024
    106097.49043    269439.03345  24610580.3694   24610586.8514
  -9494080.53348  -7266978.41347  20994396.7024   20994401.0394
 -18477613.18447 -14176191.74246  21714139.5714   21714143.9904
  -7055957.40848  -5353840.75347  21106509.8744   21106514.5404
  10419936.16645   8150388.29745  24103200.9664   24103206.6394
 04  3  1  0 36  0.0000000  0  9G21G10G28G 9G27G29G 8G26G17
  -4360433.87745  -2157357.22745  24568982.3154   24568985.2454
 -21135295.48948  -8193939.86347  21267305.5444   21267310.7954
 -16303554.83748 -12514852.36147  21516812.0624   21516815.1214
  -2360664.42145  -1627623.68745  24689088.4714   24689093.1954
    184669.89743    330664.27945  24625532.6744   24625539.1684
  -9533956.35246  -7298050.48647  20986808.8744   20986812.7894
 -18410792.93447 -14124124.02546  21726854.8364   21726859.0214
  -7113859.03048  -5398958.89347  21095491.7504   21095496.2164
  10507472.35945   8218598.40445  24119858.4764   24119865.4864
 04  3  1  0 36 30.0000000  0  9G21G10G28G 9G27G29G 8G26G17
  -4372275.99445  -2166584.86445  24566728.9474   24566733.0854
 -21078205.35548  -8149454.05047  21278169.2844   21278175.2164
 -16328972.18148 -12534658.07747  21511975.3574   21511978.8034
  -2469965.94545  -1712793.63145  24668288.1134   24668292.3334
    263253.47944    391898.19345  24640486.7004   24640492.4794
  -9573584.29248  -7328929.39847  20979267.8114   20979271.8324
 -18343732.71947 -14071869.30746  21739615.8654   21739621.0004
  -7171495.48448  -5443870.40447  21084523.7474   21084527.8974
  10595125.69145   8286899.52345  24136537.0904   24136542.3184
 04  3  1  0 37  0.0000000  0  9G21G10G28G 9G27G29G 8G26G17
  -4383573.38545  -2175388.03545  24564579.1994   24564583.2904
 -21020639.35748  -8104597.43247  21289123.7664   21289129.2754
 -16353842.60548 -12554037.63447  21507242.5374   21507246.5354
  -2579143.84243  -1797867.30745  24647512.3014   24647520.7874
    341839.45545    453133.95045  24655441.6174   24655445.1104
  -9612970.90348  -7359620.25747  20971772.6894   20971776.6624
 -18276442.32347 -14019435.24346  21752420.8764   21752425.3894
  -7228873.45548  -5488580.50347  21073605.1024   21073609.8264
  10682884.91545   8355283.33745  24153237.5264   24153244.6534
 04  3  1  0 37 30.0000000  0  9G21G10G28G 9G27G29G 8G26G17
  -4394315.71444  -2183758.66345  24562535.3524   24562540.3934
 -20962588.83848  -8059363.28147  21300170.2944   21300175.6394
 -16378155.21448 -12572982.51547  21502615.8904   21502619.6064
  -2688186.95143  -1882835.99745  24626761.8464   24626768.3874
    420437.35145    514379.06145  24670398.6104   24670403.0414
  -9652104.83446  -7390114.23347  20964325.7694   20964329.6254
 -18208912.94547 -13966814.95446  21765271.3644   21765276.4874
  -7285981.64148  -5533080.38647  21062737.8494   21062742.0344
  10770756.96744   8423755.12945  24169959.5004   24169965.1384
 04  3  1  0 38  0.0000000  0  9G21G10G28G 9G27G29G 8G26G17
  -4404507.31945  -2191700.22345  24560596.1524   24560599.9504
 -20904059.38148  -8013755.93347  21311308.1304   21311313.5694
 -16401913.32748 -12591495.31347  21498094.9354   21498098.6744
  -2797098.08445  -1967701.70345  24606037.8884   24606040.5724
    499042.65545    575629.95945  24685357.8014   24685361.1884
  -9690988.70348  -7420413.35547  20956926.4004   20956930.8074
 -18141150.39447 -13914012.97646  21778166.0754   21778170.4484
  -7342822.69948  -5577372.12047  21051921.3884   21051925.3864
  10858734.66845   8492309.10545  24186700.6244   24186707.0354
 04  3  1  0 38 30.0000000  0  9G21G10G28G 9G27G29G 8G26G17
  -4414147.76445  -2199212.28245  24558761.0104   24558764.1874
 -20845051.54148  -7967775.80147  21322537.0874   21322542.6084
 -16425115.02048 -12609574.54247  21493679.7674   21493683.4724
  -2905875.11245  -2052462.96945  24585337.5244   24585340.8534
    577655.76145    636886.88645  24700315.6554   24700318.0344
  -9729620.45448  -7450516.01347  20949574.7894   20949579.3374
 -18073155.17647 -13861029.69646  21791105.0674   21791110.1904
  -7399394.48148  -5621454.01547  21041156.0584   21041160.9704
  10946815.60743   8560943.50745  24203461.9664   24203469.9374
 04  3  1  0 39  0.0000000  0  9G21G10G28G 9G27G29G 8G26G17
  -4423240.48745  -2206297.54445  24557030.8014   24557034.0024
 -20785570.20847  -7921426.72747  21333856.0534   21333860.8474
 -16447762.71848 -12627222.09047  21489370.2574   21489373.5044
  -3014519.89142  -2137121.27045  24564661.8274   24564664.1254
    656272.75344    698146.86845  24715275.6154   24715280.3744
  -9768001.99648  -7480423.70547  20942271.1594   20942275.7194
 -18004932.21747 -13807868.95746  21804087.6774   21804092.6364
  -7455698.91848  -5665327.59247  21030441.5114   21030445.7784
  11034993.61944   8629653.66045  24220241.4824   24220248.1644
 04  3  1  0 39 30.0000000  0  9G21G10G28G 9G27G29G 8G26G17
  -4431781.88045  -2212953.10745  24555405.0674   24555404.9264
 -20725613.07648  -7874706.90447  21345265.3734   21345271.0474
 -16469852.06848 -12644434.56347  21485166.6794   21485169.9504
  -3123027.55843  -2221672.68245  24544013.9984   24544020.4924
    734896.98343    759412.50845  24730237.5144   24730244.0784
  -9806127.98446  -7510132.27447  20935016.1064   20935019.8814
 -17936479.12447 -13754528.87346  21817113.9754   21817118.6764
  -7511730.76447  -5708988.77647  21019779.2584   21019783.0324
  11123269.09544   8698439.79845  24237040.6924   24237050.2694
 04  3  1  0 40  0.0000000  0  9G21G10G28G 9G27G29G 8G26G17
  -4439773.73844  -2219180.54145  24553883.8634   24553891.2954
 -20665183.72448  -7827619.09947  21356764.6454   21356770.3424
 -16491384.20848 -12661212.84747  21481069.1634   21481072.7384
  -3231398.87245  -2306117.78945  24523391.7444   24523398.1324
    813525.82643    820681.69045  24745200.6564   24745206.8574
  -9843999.16548  -7539642.28347  20927809.2524   20927813.2844
 -17867799.33447 -13701012.16646  21830183.2374   21830187.7744
  -7567490.54248  -5752437.94947  21009168.4124   21009173.0314
  11211637.23445   8767298.06045  24253856.2614   24253860.4694
 04  3  1  0 40 30.0000000  0  9G21G10G28G 9G27G29G 8G26G17
  -4447221.79644  -2224984.21445  24552466.9674   24552474.9034
 -20604289.23848  -7780168.85947  21368352.2394   21368358.1584
 -16512363.64448 -12677560.45147  21477076.6544   21477080.5934
  -3339637.85345  -2390459.85445  24502795.2094   24502802.9344
    892153.58545    881950.05045  24760163.0304   24760169.6414
  -9881619.45848  -7568956.77647  20920650.3214   20920654.6704
 -17798899.91647 -13647324.31346  21843294.3364   21843299.2474
  -7622982.39248  -5795678.32247  20998608.5504   20998613.5204
  11300089.55645   8836221.88845  24270688.1954   24270693.7634
 04  3  1  0 41  0.0000000  0  9G21G10G28G 9G27G29G 8G26G17
  -4454124.15745  -2230362.68945  24551153.6544   24551158.7304
 -20542928.40848  -7732355.23847  21380028.8964   21380034.4874
 -16532787.25148 -12693474.93847  21473190.3674   21473194.3064
  -3447740.49145  -2474695.65845  24482223.5034   24482229.0944
    970782.32545    943219.14945  24775125.9334   24775131.1374
  -9918984.80247  -7598072.63847  20913540.2754   20913544.0384
 -17729779.75347 -13593464.43646  21856447.5824   21856452.3884
  -7678202.13748  -5838706.68147  20988100.6304   20988104.6394
  11388625.43745   8905210.90145  24287535.8724   24287543.8204
 04  3  1  0 41 30.0000000  0  9G21G10G28G 9G27G29G 8G26G17
  -4460477.56545  -2235313.39945  24549945.2244   24549948.9754
 -20481099.29348  -7684176.73747  21391794.9644   21391800.3804
 -16552650.66748 -12708952.91847  21469410.5304   21469414.4684
  -3555701.93745  -2558821.39245  24461678.3674   24461682.6114
   1049414.84243   1004491.27345  24790089.6094   24790095.7874
  -9956090.42548  -7626986.10547  20906479.0914   20906483.2764
 -17660436.53047 -13539430.78646  21869642.9794   21869647.0124
  -7733144.98148  -5881519.28747  20977645.4884   20977649.3094
  11477245.43945   8974265.49745  24304399.9344   24304407.2724
 04  3  1  0 42  0.0000000  0  9G21G10G28G 9G27G29G 8G26G17
  -4466282.98345  -2239837.11545  24548840.0284   24548842.5834
 -20418804.45548  -7635635.31647  21403649.1014   21403654.2004
 -16571953.78448 -12723994.29447  21465737.4244   21465741.5154
  -3663521.50645  -2642836.65445  24441161.0364   24441167.5894
   1128050.14245   1065765.50545  24805052.2104   24805056.9224
  -9992935.74748  -7655696.73947  20899467.6444   20899471.7004
 -17590872.94847 -13485225.37346  21882880.4094   21882885.3794
  -7787810.27448  -5924115.61347  20967242.7274   20967246.8534
  11565945.67143   9043382.50845  24321278.4764   24321283.8804
 04  3  1  0 42 30.0000000  0  9G21G10G28G 9G27G29G 8G26G17
  -4471543.37745  -2243936.14945  24547839.9884   24547841.6764
 -20356047.94148  -7586734.14347  21415591.3024   21415596.7884
 -16590698.74048 -12738600.74747  21462170.0434   21462174.3224
  -3771200.92745  -2726742.68745  24420671.8174   24420678.8034
   1206685.13745   1127039.45845  24820016.1184   24820018.7444
 -10029521.87046  -7684205.40747  20892505.8274   20892509.3204
 -17521092.81147 -13430851.25646  21896159.3044   21896164.4274
  -7842199.26348  -5966496.63447  20956892.9694   20956896.9434
  11654720.53342   9112557.63945  24338171.8504   24338179.9274
 04  3  1  0 43  0.0000000  0  9G21G10G28G 9G27G29G 8G26G17
  -4476256.83645  -2247609.06945  24546941.6754   24546943.9494
 -20292829.38348  -7537472.94047  21427621.5684   21427626.9144
 -16608882.71348 -12752770.06347  21458709.8694   21458713.8544
  -3878736.68245  -2810536.79845  24400207.9204   24400213.1724
   1285321.54945   1188314.59945  24834979.8664   24834985.8324
 -10065845.08447  -7712509.20347  20885593.4414   20885597.1804
 -17451095.39147 -13376307.82046  21909479.1894   21909484.3004
  -7896308.25248  -6008659.48747  20946596.4624   20946600.8354
  11743569.18244   9181790.35345  24355079.6464   24355084.6634
 04  3  1  0 43 30.0000000  0  9G21G10G28G 9G27G29G 8G26G17
  -4480427.74845  -2250859.10245  24546147.6584   24546150.3544
 -20229154.52448  -7487856.17647  21439738.5474   21439743.4944
 -16626509.34848 -12766505.08447  21455355.5714   21455359.4404
  -3986131.48545  -2894221.08645  24379772.1804   24379778.7444
   1363954.64744   1249587.02445  24849943.8514   24849949.1494
 -10101908.36447  -7740610.45047  20878730.8664   20878735.2264
 -17380886.52547 -13321599.60846  21922839.4114   21922844.5334
  -7950140.06048  -6050606.35247  20936352.5524   20936356.5964
  11832484.28144   9251074.93145  24371999.6754   24372007.1074
 04  3  1  0 44  0.0000000  0  9G21G10G28G 9G27G29G 8G26G17
  -4484059.01844  -2253688.70645  24545457.0824   24545462.6854
 -20165027.32148  -7437886.94447  21451941.4034   21451946.7834
 -16643580.49148 -12779807.25647  21452107.1134   21452110.9224
  -4093386.47545  -2977796.36245  24359360.8464   24359366.1104
   1442581.92144   1310855.03245  24864906.4784   24864913.5114
 -10137712.47548  -7768509.76247  20871917.6894   20871921.9214
 -17310469.75747 -13266729.43346  21936239.3644   21936244.5694
  -8003695.71748  -6092338.01847  20926161.1134   20926165.0284
  11921460.37944   9320406.88845  24388930.3634   24388940.4564
 04  3  1  0 44 30.0000000  0  9G21G10G28G 9G27G29G 8G26G17
  -4487141.84145  -2256090.89945  24544870.2664   24544874.5444
 -20100440.08848  -7387559.24047  21464231.7694   21464236.9504
 -16660085.84148 -12792668.56347  21448966.4334   21448970.4304
  -4200490.87644  -3061254.36245  24338979.7284   24338987.4064
   1521212.13145   1372125.39445  24879869.0084   24879868.5974
 -10173246.74547  -7796198.79747  20865155.5464   20865159.4854
 -17239837.21647 -13211691.07746  21949680.1354   21949685.8084
  -8056964.26248  -6133845.95947  20916024.6474   20916029.0674
  12010504.08045   9389791.56545  24405875.4094   24405880.8134
 04  3  1  0 45  0.0000000  0  9G21G10G28G 9G27G29G 8G26G17
  -4489680.86245  -2258069.40345  24544387.0264   24544387.7054
 -20035399.20748  -7336878.05547  21476608.8174   21476614.0334
 -16676029.50548 -12805092.19747  21445932.4934   21445936.2564
  -4307448.16545  -3144597.63445  24318626.5604   24318633.2894
   1599840.14345   1433393.97245  24894831.5584   24894835.5904
 -10208514.13148  -7823679.87847  20858444.5364   20858448.3344
 -17168995.11747 -13156489.45746  21963161.0594   21963166.6624
  -8109949.08548  -6175132.83047  20905941.8874   20905946.2484
  12099607.45844   9459222.65645  24422831.5074   24422840.0764
 04  3  1  0 45 30.0000000  0  9G21G10G28G 9G27G29G 8G26G17
  -4491678.82945  -2259626.27645  24544007.2724   24544010.7654
 -19969908.06648  -7285846.00247  21489071.2564   21489076.5434
 -16691412.90048 -12817079.24347  21443004.7174   21443008.5384
  -4414258.93745  -3227826.79945  24298301.4974   24298308.9284
   1678463.84045   1494659.17045  24909793.2414   24909799.0314
 -10243515.35448  -7850953.56047  20851783.8454   20851787.9484
 -17097946.38647 -13101126.79746  21976681.1144   21976686.6004
  -8162650.44548  -6216198.82047  20895913.0284   20895917.9284
  12188765.88644   9528696.81845  24439798.9854   24439807.2024
 04  3  1  0 46  0.0000000  0  9G21G10G28G 9G27G29G 8G26G17
  -4493135.68345  -2260761.57645  24543730.6344   24543733.3664
 -19903967.93448  -7234464.10347  21501619.4374   21501624.5604
 -16706234.88948 -12828628.83947  21440184.2744   21440187.6394
  -4520921.37745  -3310940.32545  24278004.3594   24278008.6614
   1757083.50745   1555921.17845  24924754.4864   24924758.2254
 -10278248.35046  -7878018.22247  20845174.8974   20845178.7894
 -17026692.14347 -13045604.04546  21990240.2674   21990245.1554
  -8215066.30448  -6257042.33147  20885938.6694   20885943.2874
  12277976.81944   9598211.70345  24456774.6654   24456776.7874
 04  3  1  0 46 30.0000000  0  9G21G10G28G 9G27G29G 8G26G17
  -4494050.57345  -2261474.47045  24543556.9274   24543557.5014
 -19837579.52148  -7182732.88347  21514252.5834   21514258.0934
 -16720494.14548 -12839739.93947  21437470.7674   21437474.5304
  -4627433.08645  -3393936.41045  24257735.0554   24257741.0334
   1835699.44245   1617180.39045  24939714.0004   24939719.7324
 -10312710.61648  -7904871.94147  20838616.5994   20838620.5154
 -16955232.96847 -12989921.56046  22003838.7164   22003843.4404
  -8267194.32848  -6297661.57347  20876019.0364   20876022.8694
  12367238.08443   9667766.04045  24473759.6964   24473762.0874
 04  3  1  0 47  0.0000000  0  9G21G10G28G 9G27G29G 8G26G17
  -4494426.74945  -2261767.58945  24543485.8044   24543487.1164
 -19770746.63048  -7130655.32147  21526970.5174   21526975.6044
 -16734192.14648 -12850413.68847  21434864.2594   21434868.1744
  -4733794.80645  -3476815.62245  24237495.9944   24237502.5354
   1914309.20942   1678434.77845  24954673.0994   24954677.9874
 -10346902.78848  -7931515.15747  20832109.9084   20832114.2104
 -16883572.17647 -12934081.99646  22017475.2874   22017480.1294
  -8319035.13948  -6338057.00947  20866153.9004   20866157.4164
  12456544.92743   9737355.88444  24490753.9244   24490757.7804
 04  3  1  0 47 30.0000000  0  9G21G10G28G 9G27G29G 8G26G17
  -4494270.21545  -2261645.63745  24543514.3754   24543518.8644
 -19703476.68048  -7078237.17647  21539771.6354   21539776.7934
 -16747334.02048 -12860654.10847  21432363.5954   21432367.2524
  -4840011.32645  -3559581.67545  24217283.3774   24217287.9964
   1992906.88742   1739679.60545  24969628.9674   24969629.2834
 -10380829.20446  -7957951.34547  20825654.0404   20825657.6394
 -16811716.86447 -12878090.84246  22031148.8874   22031154.2794
  -8370593.01848  -6378231.97747  20856342.9024   20856346.9814
  12545888.48843   9806974.13745  24507756.7454   24507767.2484
 04  3  1  0 48  0.0000000  0  9G21G10G28G 9G27G29G 8G26G17
  -4493576.76545  -2261105.26145  24543646.6304   24543650.3234
 -19635766.77348  -7025476.22647  21552656.2354   21552661.5924
 -16759914.83348 -12870457.33147  21429969.4934   21429973.5024
  -4946076.50145  -3642229.82945  24197099.2964   24197105.7544
   2071496.64542   1800918.33545  24984584.8904   24984590.2824
 -10414483.87848  -7984175.75447  20819249.6134   20819254.0794
 -16739663.88647 -12821945.66746  22044859.9264   22044864.8734
  -8421861.93447  -6418181.78047  20846586.9084   20846590.9644
  12635270.40642   9876622.40545  24524764.2634   24524772.8324
 04  3  1  0 48 30.0000000  0  8G21G10G28G 9G29G 8G26G17
  -4492344.82045  -2260145.28145  24543880.8454   24543885.3704
 -19567616.62548  -6972372.23347  21565624.8614   21565630.8504
 -16771932.15048 -12879821.46647  21427682.6294   21427686.1574
  -5051987.14245  -3724757.53545  24176945.4154   24176952.4604
 -10447863.09948  -8010185.53547  20812898.0194   20812901.9814
 -16667412.24647 -12765645.69746  22058609.1944   22058614.5984
  -8472838.33147  -6457903.64347  20836886.3454   20836890.7294
  12724689.81741   9946299.90144  24541778.9284   24541783.1594
 04  3  1  0 49  0.0000000  0  8G21G10G28G 9G29G 8G26G17
  -4490571.13245  -2258763.27945  24544218.4644   24544224.0904
 -19499023.86048  -6918923.34447  21578677.8134   21578683.0884
 -16783381.30348 -12888742.87747  21425503.9674   21425507.4604
  -5157737.74645  -3807160.61745  24156821.7484   24156826.2144
 -10480961.20646  -8035976.25647  20806599.7054   20806603.4564
 -16594959.42347 -12709188.96646  22072396.4604   22072400.0944
  -8523516.35348  -6497393.00147  20827242.5724   20827246.9914
  12814147.91342  10016007.32945  24558803.5544   24558807.0354
 04  3  1  0 49 30.0000000  0  7G21G10G28G 9G29G 8G26
  -4488260.58945  -2256962.90745  24544658.1954   24544663.7164
 -19429994.63248  -6865134.34147  21591813.8024   21591819.2064
 -16794266.35448 -12897224.73347  21423432.3434   21423436.2584
  -5263331.41145  -3889441.36945  24136727.9434   24136731.5534
 -10513781.35046  -8061550.39647  20800354.0194   20800357.5604
 -16522311.03247 -12652579.83646  22086220.8774   22086225.7654
  -8573899.21348  -6536652.35847  20817655.1274   20817659.3004
 04  3  1  0 50  0.0000000  0  8G21G10G28G 9G29G 8G26G17
  -4485414.84444  -2254745.44545  24545199.3804   24545200.0724
 -19360531.84448  -6811007.48247  21605031.6884   21605037.4214
 -16804587.85048 -12905267.44247  21421468.2484   21421471.3784
  -5368767.86545  -3971599.57545  24116663.8564   24116671.5114
 -10546322.85847  -8086907.42047  20794161.7054   20794165.6904
 -16449469.66347 -12595820.33346  22100082.1524   22100087.0984
  -8623986.33148  -6575681.27747  20808123.7494   20808127.6294
     68628.42043                  24592867.2164
 04  3  1  0 50 30.0000000  0  8G21G10G28G 9G29G 8G26G17
  -4482041.13444  -2252116.57345  24545840.9274   24545844.5384
 -19290643.66148  -6756549.19346  21618331.0254   21618335.9604
 -16814352.07648 -12912875.91347  21419610.2424   21419613.4314
  -5474052.03945  -4053639.21645  24096628.7594   24096634.0584
 -10578590.62946  -8112051.13447  20788021.5574   20788025.6724
 -16376442.81647 -12538916.30946  22113978.9404   22113983.4774
  -8673782.64547  -6614483.59647  20798647.9884   20798651.8444
    158163.42743                  24609906.5814
 04  3  1  0 51  0.0000000  0  8G21G10G28G 9G29G 8G26G17
  -4478132.30144  -2249070.79445  24546584.9724   24546589.8844
 -19220324.16848  -6701754.78946  21631712.4654   21631717.9984
 -16823550.65848 -12920043.63847  21417859.9004   21417863.4994
  -5579175.22045  -4135553.36245  24076624.4404   24076629.0824
 -10610575.73946  -8136974.60047  20781934.8874   20781938.4984
 -16303224.10947 -12481862.76846  22127911.7164   22127917.4834
  -8723279.06747  -6653052.24347  20789229.1474   20789233.1094
    247721.39342     25587.89045  24626946.8394   24626951.7974
 04  3  1  0 51 30.0000000  0  8G21G10G28G 9G29G 8G26G17
  -4473683.47345  -2245604.18245  24547431.3894   24547433.8974
 -19149569.69648  -6646621.44747  21645176.8134   21645182.0764
 -16832177.96048 -12926766.19847  21416218.1524   21416221.7624
  -5684130.65545  -4217336.75945  24056652.3564   24056658.1124
 -10642271.03548  -8161672.22647  20775903.3184   20775907.5264
 -16229809.54346 -12424656.64046  22141882.2514   22141887.8664
  -8772468.38948  -6691381.56447  20779868.5594   20779872.9664
    337304.95443     95393.22445  24643996.0944   24644000.1504
 04  3  1  0 52  0.0000000  0  8G21G10G28G 9G29G 8G26G17
  -4468708.13045  -2241727.30545  24548379.0374   24548385.2624
 -19078394.74848  -6591160.46846  21658721.0384   21658726.5594
 -16840246.19948 -12933053.14447  21414683.0154   21414686.7664
  -5788929.63845  -4298998.30345  24036709.9554   24036714.9724
 -10673687.54746  -8186152.62747  20769925.0614   20769928.6954
 -16156212.87047 -12367308.57646  22155887.2384   22155890.8254
  -8821361.89248  -6729480.38647  20770564.2084   20770568.6744
    426898.65343    165206.56645  24661044.9894   24661051.4244
 04  3  1  0 52 30.0000000  0  8G21G10G28G 9G29G 8G26G17
  -4463207.44245  -2237441.14645  24549425.7144   24549428.3874
 -19006801.54948  -6535373.56246  21672344.3534   21672350.1084
 -16847755.57848 -12938904.60347  21413253.8124   21413257.3994
  -5893571.20045  -4380537.14945  24016797.4414   24016801.4734
 -10704824.26947  -8210415.01447  20763999.8454   20764003.7374
 -16082435.82347 -12309819.97246  22169926.5744   22169931.3924
  -8869958.36348  -6767347.75847  20761316.8474   20761321.2314
    516499.17544    235025.15045  24678095.2374   24678100.4194
 04  3  1  0 53  0.0000000  0  8G21G10G28G 9G29G 8G26G17
  -4457180.29245  -2232744.68345  24550573.3304   24550575.9444
 -18934790.22548  -6479260.85846  21686047.7314   21686053.2874
 -16854703.99148 -12944318.94647  21411931.5214   21411934.7804
  -5998052.24745  -4461950.94745  23996915.4484   23996920.6764
 -10735677.79746  -8234456.70547  20758128.4154   20758132.3314
 -16008477.91147 -12252190.44346  22184000.4114   22184005.0184
  -8918254.37847  -6804981.01747  20752126.2914   20752130.4994
    606105.51142    304848.32745  24695146.2834   24695153.6804
 04  3  1  0 53 30.0000000  0  8G21G10G28G 9G29G 8G26G17
  -4450620.94245  -2227633.53245  24551821.0454   24551826.5554
 -18862355.86248  -6422818.51346  21699831.6174   21699837.1964
 -16861084.56848 -12949290.80047  21410717.3614   21410720.4564
  -6102364.86745  -4543233.43345  23977065.2594   23977070.3584
 -10766240.10246  -8258271.50047  20752312.7044   20752316.3734
 -15934333.75047 -12194415.77246  22198109.3074   22198113.7144
  -8966242.13547  -6842374.05847  20742994.5984   20742998.4434
    695721.28741    374678.88345  24712198.3914   24712209.4924
 04  3  1  0 54  0.0000000  0  8G21G10G28G 9G29G 8G26G17
  -4443533.47745  -2222110.88045  24553169.8244   24553172.9654
 -18789503.68648  -6366050.60046  21713695.0324   21713700.0504
 -16866900.55048 -12953822.72347  21409610.5064   21409613.6954
  -6206511.18145  -4624386.36045  23957246.3564   23957250.2484
 -10796513.26648  -8281860.99447  20746551.9114   20746556.2014
 -15860008.08147 -12136499.68146  22212253.2324   22212257.6164
  -9013923.29547  -6879528.21047  20733921.3424   20733925.4334
     41817.15942    444511.63344  24729253.1034   24729261.2504
 04  3  1  0 54 30.0000000  0  7G21G10G28G 9G29G 8G26
  -4435922.12646  -2216179.96545  24554618.1194   24554620.9324
 -18716239.19648  -6308961.38546  21727636.8864   21727642.4654
 -16872155.33448 -12957917.35147  21408610.7524   21408614.4444
  -6310493.27645  -4705411.36345  23937458.7004   23937466.0854
 -10826499.01848  -8305226.50447  20740845.6184   20740850.4014
 -15785505.69747 -12078445.89546  22226430.5094   22226434.7884
  -9061300.04447  -6916445.14547  20724905.5534   20724909.5514
 04  3  1  0 55  0.0000000  0  7G21G10G28G 9G29G 8G26
  -4427786.39745  -2209840.44045  24556166.5604   24556170.0184
 -18642562.48148  -6251550.97346  21741657.0124   21741661.8534
 -16876846.85348 -12961573.06947  21407717.9884   21407721.5164
  -6414308.12045  -4786306.03445  23917703.8484   23917708.8304
 -10856193.93047  -8328365.38547  20735195.0464   20735199.1604
 -15710826.05647 -12020253.96546  22240641.8364   22240647.0294
  -9108368.81248  -6953122.09647  20715948.6964   20715953.0574
 04  3  1  0 55 30.0000000  0  7G21G10G28G 9G29G 8G26
  -4419128.28745  -2203093.89845  24557813.6464   24557817.5034
 -18568476.74747  -6193821.82746  21755755.0174   21755760.6204
 -16880976.30648 -12964790.82447  21406932.1124   21406935.7584
  -6517956.02945  -4867070.58645  23897980.3084   23897987.5404
 -10885598.17946  -8351277.79047  20729599.6454   20729603.3494
 -15635971.63047 -11961925.85846  22254886.2814   22254890.2324
  -9155129.52146  -6989559.00647  20707050.7494   20707054.5824
 04  3  1  0 56  0.0000000  0  7G21G10G28G 9G29G 8G26
  -4409951.47546  -2195943.17745  24559560.1324   24559563.4854
 -18493986.62248  -6135777.57846  21769929.9994   21769934.8524
 -16884546.20948 -12967572.55947  21406252.6404   21406256.2394
  -6621438.18545  -4947706.03845  23878289.0134   23878294.9214
 -10914712.73447  -8373964.46347  20724059.2514   20724063.2134
 -15560946.36846 -11903464.64746  22269162.9254   22269167.3674
  -9201583.40347  -7025756.84247  20698210.6034   20698214.2144
 04  3  1  0 56 30.0000000  0  7G21G10G28G 9G29G 8G26
  -4400255.14945  -2188387.57945  24561405.0904   24561410.2244
 -18419092.45148  -6077418.50246  21784182.0684   21784186.8624
 -16887554.97048 -12969917.03947  21405680.2304   21405684.2154
  -6724752.02045  -5028210.24245  23858627.4604   23858635.0214
 -10943534.52648  -8396422.98747  20718574.6144   20718579.1624
 -15485750.00847 -11844870.06846  22283472.2784   22283475.8894
  -9247727.35847  -7061713.16247  20689429.8984   20689434.1884
 04  3  1  0 57  0.0000000  0  7G21G10G28G 9G29G 8G26
  -4390040.77045  -2180428.32845  24563349.5344   24563353.3564
 -18343796.65547  -6018746.49246  21798510.2914   21798515.5664
 -16890003.09748 -12971824.66047  21405214.3284   21405218.1964
  -6827896.71445  -5108582.68145  23839000.6954   23839006.5324
 -10972062.62747  -8418652.67647  20713145.8404   20713149.7794
 -15410384.35346 -11786143.55546  22297813.7824   22297817.8034
  -9293560.33446  -7097427.16047  20680708.2354   20680711.7754
 04  3  1  0 57 30.0000000  0  7G21G10G28G 9G29G 8G26
  -4379304.80545  -2172062.70245  24565391.5364   24565397.8194
 -18268096.23047  -5959759.13946  21812915.5744   21812920.9544
 -16891885.68048 -12973291.60947  21404856.0774   21404859.6174
  -6930866.34745  -5188818.69745  23819405.4074   23819410.5414
 -11000290.69647  -8440648.57547  20707774.3704   20707778.7544
 -15334845.59647 -11727282.26146  22312188.6014   22312192.0004
  -9339076.14247  -7132894.02047  20672046.8444   20672050.4904
 04  3  1  0 58  0.0000000  0  7G21G10G28G 9G29G 8G26
  -4368052.98345  -2163295.03245  24567532.5434   24567535.7434
 -18191998.95647  -5900462.57046  21827396.4124   21827402.3084
 -16893207.90348 -12974321.90147  21404604.6234   21404607.9404
  -7033664.89345  -5268921.42445  23799844.1784   23799849.1604
 -11028222.58646  -8462413.69047  20702458.9964   20702462.7004
 -15259140.54946 -11668291.31646  22326594.7664   22326599.2554
  -9384278.56447  -7168116.68047  20663444.7824   20663448.5804
 04  3  1  0 58 30.0000000  0  7G21G10G28G 9G29G 8G26
  -4356296.99145  -2154134.51545  24569770.5374   24569771.9214
 -18115516.40547  -5840865.79546  21841950.6054   21841956.4194
 -16893979.60948 -12974923.22347  21404457.6054   21404460.9584
  -7136301.12345  -5348897.73145  23780312.7024   23780316.7934
 -11055866.62646  -8483954.50147  20697198.7334   20697202.9534
 -15183280.32146 -11609179.45246  22341030.4984   22341035.3984
  -9429175.91947  -7203101.62147  20654901.3054   20654905.5724
 04  3  1  0 59  0.0000000  0  7G21G10G28G 9G29G 8G26
  -4344024.81445  -2144571.84345  24572105.4464   24572109.9824
 -18038637.92247  -5780960.51146  21856580.1764   21856586.3414
 -16894188.49548 -12975085.98147  21404417.8684   21404421.5844
  -7238761.01745  -5428736.62945  23760815.7794   23760820.4214
 -11083208.90746  -8505260.16747  20691995.7284   20691999.4444
 -15107253.39946 -11549937.71846  22355497.6594   22355502.9814
  -9473754.12446  -7237837.89247  20646418.3814   20646422.1434
 04  3  1  0 59 30.0000000  0  7G21G10G28G 9G29G 8G26
  -4331236.22345  -2134606.67645  24574539.4754   24574542.1604
 -17961364.31748  -5720747.31046  21871284.8494   21871289.8314
 -16893833.08048 -12974809.01647  21404485.4254   21404488.7774
  -7341041.88845  -5508435.98545  23741352.0354   23741355.2234
 -11110246.19147  -8526328.17647  20686850.6584   20686854.5974
 -15031059.70946 -11490565.99646  22369997.1104   22370002.6434
  -9518010.27447  -7272323.18447  20637996.4694   20638000.6074
 04  3  1  1  0  0.0000000  0  8G21G10G28G 9G18G29G 8G26
  -4317944.76444  -2124249.72045  24577067.7984   24577072.6404
 -17883710.18647  -5660237.62046  21886062.0154   21886067.1154
 -16892926.02148 -12974102.21947  21404658.1674   21404661.5194
  -7443155.02245  -5588004.63245  23721919.6894   23721925.7504
    -39899.97043                  25104685.6524
 -11136989.89446  -8547167.43747  20681761.3994   20681765.1614
 -14954712.93146 -11431075.03546  22384525.4694   22384531.2604
  -9561955.41847  -7306566.15947  20629634.0384   20629638.2114
 04  3  1  1  0 30.0000000  0  8G21G10G28G 9G18G29G 8G26
  -4304144.02343  -2113496.00645  24579694.3974   24579698.7814
 -17805669.88847  -5599427.00746  21900912.2054   21900917.4454
 -16891459.57848 -12972959.53547  21404936.8244   21404940.4704
  -7545091.60946  -5667435.68145  23702523.1304   23702528.7454
   -148597.53743                  25084000.4464
 -11163430.58146  -8567770.56847  20676729.8664   20676734.1684
 -14878206.66046 -11371459.76046  22399083.9284   22399089.0744
  -9605580.23548  -7340559.51647  20621332.3474   20621336.8834
 04  3  1  1  1  0.0000000  0  8G21G10G28G 9G18G29G 8G26
  -4289832.82643  -2102344.40445  24582418.2294   24582423.3634
 -17727243.12347  -5538315.25346  21915836.3514   21915842.0834
 -16889431.68248 -12971379.35147  21405323.0914   21405327.1474
  -7646848.22645  -5746726.51845  23683158.5674   23683164.6624
   -257105.80643                  25063352.6904
 -11189564.54946  -8588134.69747  20671756.9354   20671760.6754
 -14801539.70146 -11311719.29046  22413673.3064   22413678.6284
  -9648881.14746  -7374300.48147  20613092.8514   20613096.7434
 04  3  1  1  1 30.0000000  0  8G21G10G28G 9G18G29G 8G26
  -4275021.05043  -2090802.77745  24585236.4604   24585243.6344
 -17648440.55847  -5476910.66046  21930832.1174   21930837.8374
 -16886851.29848 -12969368.65247  21405813.9434   21405818.3044
  -7748432.60345  -5825883.12145  23663828.0834   23663833.4994
   -365430.64243    -81590.80945  25042736.6164   25042742.6174
 -11215399.18346  -8608265.58347  20666840.6034   20666844.4014
 -14724722.13046 -11251861.47846  22428291.1644   22428295.8534
  -9691865.40446  -7407794.71347  20604913.2514   20604917.2134
 04  3  1  1  2  0.0000000  0  8G21G10G28G 9G18G29G 8G26
  -4259707.55843  -2078870.19044  24588151.9894   24588159.9484
 -17569261.67348  -5415212.86046  21945899.5944   21945904.6584
 -16883715.79848 -12966925.39547  21406410.6714   21406414.4814
  -7849840.73445  -5904902.41345  23644531.1424   23644536.8514
   -473566.46244   -165852.49145  25022161.4244   25022163.9094
 -11240930.37046  -8628160.01047  20661982.1774   20661986.1744
 -14647752.57346 -11191885.18246  22442937.8694   22442941.7134
  -9734528.79846  -7441038.90147  20596794.5274   20596798.6654
 04  3  1  1  2 30.0000000  0  8G21G10G28G 9G18G29G 8G26
  -4243892.435 3                  24591159.952
 -17489708.06847  -5353223.03646  21961038.1134   21961043.9384
 -16880024.62848 -12964049.15747  21407113.3024   21407116.9834
  -7951070.59445  -5983782.85045  23625267.9594   23625271.9794
   -581509.42744   -249963.86545  25001620.6694   25001621.4204
 -11266155.66546  -8647816.09347  20657181.8704   20657185.7974
 -14570631.23146 -11131790.64546  22457613.8684   22457618.2754
  -9776869.12346  -7474031.36247  20588737.2854   20588740.9664
 04  3  1  1  3  0.0000000  0  8G21G10G28G 9G18G29G 8G26
  -4227579.508 2                  24594263.289
 -17409783.72348  -5290944.34846  21976247.2494   21976252.0204
 -16875780.41648 -12960741.95847  21407920.8344   21407924.6794
  -8052123.53045  -6062525.35845  23606037.6564   23606041.5594
   -689258.86143   -333924.44945  24981115.8764   24981116.9434
 -11291076.15646  -8667234.65547  20652439.8794   20652443.8884
 -14493361.68046 -11071580.62946  22472317.4724   22472321.9624
  -9818887.19946  -7506772.71447  20580741.4824   20580745.5964
 04  3  1  1  3 30.0000000  0  8G21G10G28G 9G18G29G 8G26
  -4210773.488 2                  24597461.585
 -17329494.79647  -5228381.54646  21991525.4574   21991531.7284
 -16870987.23548 -12957007.01447  21408832.7934   21408837.0364
  -8153001.83745  -6141131.78545  23586840.9274   23586845.5224
   -796815.77642   -417735.02245  24960646.4854   24960650.0024
 -11315693.98346  -8686417.36947  20647755.3224   20647759.0144
 -14415948.94346 -11011259.02346  22487048.5304   22487052.9384
  -9860585.42446  -7539264.84447  20572806.9044   20572810.7024
 04  3  1  1  4  0.0000000  0  8G21G10G28G 9G18G29G 8G26
  -4193472.579 2                  24600757.820
 -17248839.84347  -5165533.54446  22006873.6294   22006879.1154
 -16865641.66048 -12952841.62547  21409849.8554   21409853.9694
  -8253701.16946  -6219598.75345  23567678.7354   23567682.7324
   -904173.67842   -501390.52645  24940218.7224   24940225.6154
 -11340004.17947  -8705360.38747  20643128.9834   20643132.9224
 -14338390.73246 -10950824.06846  22501807.8204   22501813.3064
  -9901958.72646  -7571503.79347  20564933.6074   20564937.9094
 04  3  1  1  4 30.0000000  0  7G10G28G 9G18G29G 8G26
 -17167822.02747  -5102402.77346  22022290.9904   22022295.9484
 -16859745.23748 -12948247.00547  21410972.1234   21410975.5354
  -8354221.31845  -6297926.10145  23548549.5884   23548555.5194
  -1011330.98943   -584889.69045  24919827.9984   24919831.4684
 -11364006.44346  -8724063.44247  20638561.5354   20638565.8024
 -14260689.30746 -10890277.50446  22516593.3354   22516598.1294
  -9943006.78747  -7603489.27747  20557122.4644   20557127.0714
 04  3  1  1  5  0.0000000  0  7G10G28G 9G18G29G 8G26
 -17086436.44047  -5038985.45846  22037778.2044   22037783.0804
 -16853291.27648 -12943217.94147  21412200.2564   21412204.0074
  -8454554.04845  -6376107.43145  23529457.2534   23529463.5604
  -1118277.68443   -668224.72045  24899476.1924   24899478.2554
 -11387692.36546  -8742520.00547  20634054.3234   20634058.5904
 -14182838.65046 -10829614.67346  22531408.2674   22531412.3114
  -9983721.02646  -7635214.65347  20549374.9014   20549378.7464
 04  3  1  1  5 30.0000000  0  7G10G28G 9G18G29G 8G26
 -17004686.23147  -4975283.98946  22053334.5684   22053339.3744
 -16846280.93448 -12937755.32247  21413534.3964   21413537.5264
  -8554699.17045  -6454142.52745  23510400.6194   23510406.6684
  -1225011.22742   -751393.76845  24879164.0514   24879167.4384
 -11411061.18846  -8760729.47847  20629607.4204   20629611.4174
 -14104841.02746 -10768837.31046  22546250.4884   22546255.9504
 -10024100.80646  -7666679.41547  20541690.9144   20541694.5484
 04  3  1  1  6  0.0000000  0  7G10G28G 9G18G29G 8G26
 -16922578.79747  -4911304.17546  22068959.2794   22068964.8944
 -16838719.56048 -12931863.33847  21414973.2534   21414976.3244
  -8654660.72046  -6532034.58045  23491378.5024   23491383.8594
  -1331534.09543   -834398.54345  24858893.9584   24858899.0454
 -11434116.68046  -8778694.79747  20625219.9864   20625223.7254
 -14026702.63146 -10707950.27346  22561119.8474   22561124.9344
 -10064149.99146  -7697886.56947  20534069.6424   20534073.6514
 04  3  1  1  6 30.0000000  0  7G10G28G 9G18G29G 8G26
 -16840111.93447  -4847044.30146  22084652.0614   22084657.0204
 -16830603.55748 -12925539.17547  21416517.5814   21416520.9344
  -8754433.26446  -6609779.39646  23472392.5644   23472398.2384
  -1437839.03943   -917233.63645  24838665.7184   24838672.3414
 -11456853.16646  -8796411.53747  20620893.6284   20620897.8484
 -13948420.42846 -10646951.16046  22576016.6064   22576021.6824
 -10103862.67746  -7728831.53047  20526512.6924   20526516.7364
 04  3  1  1  7  0.0000000  0  7G10G28G 9G18G29G 8G26
 -16757295.61647  -4782512.13146  22100411.3344   22100416.4454
 -16821940.90348 -12918789.05347  21418166.2584   21418169.5644
  -8854023.50245  -6687382.15045  23453440.8064   23453446.3624
  -1543930.81844   -999902.51845  24818477.3124   24818481.0054
 -11479277.03946  -8813884.67747  20616626.3814   20616630.3434
 -13870003.15946 -10585846.81046  22590938.6464   22590943.8514
 -10143245.35946  -7759519.32547  20519018.2854   20519022.2714
 04  3  1  1  7 30.0000000  0  7G10G28G 9G18G29G 8G26
 -16674127.29747  -4717705.66546  22116237.8074   22116242.2264
 -16812727.25548 -12911609.57447  21419919.2154   21419922.5794
  -8953425.28845  -6764838.07045  23434525.4274   23434530.1864
  -1649801.77544  -1082399.34945  24798330.1054   24798334.9814
 -11501381.84847  -8831109.20847  20612419.9574   20612424.2004
 -13791447.29946 -10524634.45746  22605887.7424   22605892.1264
 -10182291.60946  -7789944.96347  20511588.1094   20511592.1644
 04  3  1  1  8  0.0000000  0  7G10G28G 9G18G29G 8G26
 -16590609.49747  -4652626.86846  22132130.7494   22132136.8214
 -16802963.32748 -12904001.30847  21421777.0724   21421780.9054
  -9052637.89445  -6842146.56845  23415646.0384   23415651.4424
  -1755449.15545  -1164722.02845  24778227.0574   24778232.8594
 -11523166.50946  -8848084.26847  20608274.5304   20608278.4684
 -13712754.25446 -10463315.19946  22620862.1254   22620867.3074
 -10221000.28546  -7820107.56247  20504222.0524   20504226.3544
 04  3  1  1  8 30.0000000  0  7G10G28G 9G18G29G 8G26
 -16506740.95947  -4587274.78146  22148090.7894   22148096.3104
 -16792646.01948 -12895961.85147  21423740.5794   21423744.9984
  -9151656.50246  -6919303.86045  23396803.2434   23396808.7994
  -1860866.72045  -1246865.57645  24758167.1554   24758171.1064
 -11544626.17046  -8864806.08847  20604190.5654   20604194.7274
 -13633921.60346 -10401887.17446  22635863.4104   22635867.6654
 -10259366.45246  -7850003.28447  20496921.0604   20496925.6434
 04  3  1  1  9  0.0000000  0  8G21G10G28G 9G18G29G 8G26
      8193.105 5                  24638821.930
 -16422526.54147  -4521653.16246  22164116.0964   22164121.5004
 -16781778.67048 -12887493.77947  21425808.7804   21425812.3084
  -9250482.77545  -6996311.23045  23377997.2574   23378002.9424
  -1966053.74245  -1328829.51345  24738149.9444   24738156.9544
 -11565761.98446  -8881275.54847  20600168.8224   20600172.7494
 -13554953.41046 -10340353.52046  22650890.5304   22650895.1484
 -10297391.30046  -7879633.02247  20489685.2934   20489689.1624
 04  3  1  1  9 30.0000000  0  8G21G10G28G 9G18G29G 8G26
     30862.84645                  24643136.4354
 -16337974.25847  -4455768.27646  22180206.0414   22180211.5274
 -16770367.45848 -12878601.91947  21427980.1044   21427983.0934
  -9349121.35246  -7073172.43745  23359227.0734   23359233.7434
  -2071013.34545  -1410616.23445  24718177.5634   24718182.4044
 -11586578.19146  -8897495.97647  20596207.7424   20596211.3174
 -13475856.10346 -10278719.28646  22665942.5494   22665947.6604
 -10335079.12346  -7909000.14147  20482513.6234   20482517.8084
 04  3  1  1 10  0.0000000  0  8G21G10G28G 9G18G29G 8G26
     54004.98545     10262.20445  24647539.7724   24647546.6184
 -16253087.89547  -4389623.07046  22196359.3914   22196364.5374
 -16758414.65548 -12869288.05147  21430254.6854   21430258.3194
  -9447573.05645  -7149888.04545  23340491.9794   23340497.8174
  -2175743.90645  -1492224.50745  24698248.6184   24698250.7284
 -11607075.27247  -8913467.72347  20592307.1274   20592311.5474
 -13396632.70546 -10216986.77846  22681017.9324   22681023.0314
 -10372430.23146  -7938104.90547  20475406.1494   20475409.9234
 04  3  1  1 10 30.0000000  0  8G21G10G28G 9G18G29G 8G26
     77628.12445     28670.01745  24652034.6414   24652038.8844
 -16167859.35147  -4323211.23246  22212577.8734   22212582.6094
 -16745910.21048 -12859544.30547  21432634.3154   21432637.5274
  -9545826.19846  -7226448.92545  23321795.1244   23321801.9354
  -2280232.28645  -1573643.98145  24678364.7764   24678367.6484
 -11627241.22646  -8929181.45747  20588469.8054   20588473.4624
 -13317273.89646 -10155148.75646  22696119.2314   22696124.4834
 -10409432.83346  -7966938.10447  20468364.3524   20468368.6194
 04  3  1  1 11  0.0000000  0  8G21G10G28G 9G18G29G 8G26
    101720.66545     47443.34745  24656619.8374   24656625.7104
 -16082300.93147  -4256542.35546  22228859.0134   22228864.7684
 -16732864.90548 -12849379.13047  21435116.5814   21435119.6284
  -9643889.60746  -7302861.89046  23303134.1454   23303138.1424
  -2384485.62345  -1654880.36245  24658524.4134   24658527.8004
 -11647084.74946  -8944643.93747  20584693.5574   20584697.3314
 -13237790.75546 -10093213.86446  22711244.8984   22711249.5284
 -10446095.28846  -7995506.23247  20461387.6824   20461392.0554
 04  3  1  1 11 30.0000000  0  8G21G10G28G 9G18G29G 8G26
    126285.89645     66585.06045  24661295.4964   24661303.1984
 -15996409.99847  -4189614.35446  22245203.2814   22245208.5804
 -16719274.35148 -12838789.08047  21437702.8844   21437706.0374
  -9741757.29046  -7379122.36146  23284510.7834   23284514.6394
  -2488496.16244  -1735927.53145  24638731.0124   24638736.1944
 -11666599.35246  -8959850.12147  20580980.1004   20580984.2624
 -13158179.51046 -10031179.13946  22726394.2234   22726399.3924
 -10482411.34046  -8023804.45947  20454477.2934   20454481.3724
 04  3  1  1 12  0.0000000  0  8G21G10G28G 9G18G29G 8G26
    151323.75745     86095.07445  24666059.8214   24666063.2444
 -15910187.19147  -4122427.77546  22261610.8694   22261615.7224
 -16705137.36248 -12827773.24247  21440393.1594   21440395.7964
  -9839426.48346  -7455228.18645  23265924.6474   23265929.8514
  -2592259.17445  -1816781.85245  24618987.4214   24618989.1914
 -11685781.80346  -8974797.49547  20577329.6554   20577333.8994
 -13078439.61846  -9969044.15846  22741568.4494   22741572.1414
 -10518377.86346  -8051830.31847  20447632.9904   20447637.1514
 04  3  1  1 12 30.0000000  0  8G21G10G28G 9G18G29G 8G26
    176824.83545    105965.96544  24670913.0844   24670919.7774
 -15823642.77247  -4054990.57646  22278080.0534   22278085.1534
 -16690462.77348 -12816338.49447  21443185.4974   21443188.6504
  -9936904.19446  -7531184.85245  23247375.1934   23247379.8934
  -2695779.49245  -1897447.04245  24599287.7684   24599286.6664
 -11704639.02446  -8989491.42147  20573741.1754   20573745.1614
 -12998580.15646  -9906816.01146  22756765.0294   22756769.4604
 -10554001.47946  -8079588.95947  20440853.8464   20440858.3004
 04  3  1  1 13  0.0000000  0  9G21G10G28G 9G18G29G 7G 8G26
    202790.322 3                  24675852.757
 -15736775.94247  -3987302.14646  22294610.3254   22294615.8344
 -16675248.12348 -12804482.91847  21446080.8764   21446083.6314
 -10034186.23545  -7606989.01045  23228863.1394   23228867.8054
  -2799051.21944  -1977918.49245  24579635.1014   24579642.9194
 -11723166.35246  -9003928.30947  20570215.8004   20570219.6694
                                  24658308.6554
 -12918598.90746  -9844492.97746  22771984.9694   22771991.4044
 -10589277.52446  -8107076.78847  20434141.1814   20434145.0374
 04  3  1  1 13 30.0000000  0  8G10G28G 9G18G29G 7G 8G26
 -15649587.67647  -3919363.23946  22311201.4574   22311206.0294
 -16659493.13648 -12792206.29747  21449078.6974   21449081.8394
 -10131270.58645  -7682639.12845  23210388.1594   23210394.8874
  -2902070.52644  -2058193.33945  24560032.3424   24560034.8864
 -11741361.48846  -9018106.34047  20566753.4014   20566757.2814
    -77208.29242                  24643107.6684
 -12838495.97746  -9782075.11546  22787228.3204   22787234.0524
 -10624203.75446  -8134292.03747  20427495.0344   20427498.9964
 04  3  1  1 14  0.0000000  0  8G10G28G 9G18G29G 7G 8G26
 -15562075.89047  -3851172.25646  22327854.5004   22327859.6224
 -16643193.43548 -12779505.22947  21452180.6064   21452183.6774
 -10228151.26646  -7758130.52945  23191952.9084   23191958.1474
  -3004829.03445  -2138264.88745  24540478.5394   24540481.2944
 -11759218.13046  -9032020.60247  20563355.4014   20563359.3164
   -157003.84042    -14501.93745  24627922.6774   24627928.9604
 -12758267.86946  -9719559.73846  22802495.4404   22802499.9064
 -10658773.69046  -8161229.63847  20420916.5364   20420920.6394
 04  3  1  1 14 30.0000000  0  8G10G28G 9G18G29G 7G 8G26
 -15474248.75447  -3782735.51846  22344567.4794   22344573.2234
 -16626355.75348 -12766384.95347  21455384.7324   21455387.6984
 -10324832.95945  -7833466.83345  23173554.8264   23173560.1484
  -3107330.25745  -2218136.00745  24520973.2554   24520973.0794
 -11776740.54146  -9045674.43047  20560020.9694   20560024.7324
   -236724.13642    -76621.60145  24612752.7904   24612758.5454
 -12677921.25146  -9656951.98646  22817784.6354   22817789.1014
 -10692991.91446  -8187893.17847  20414404.8364   20414409.0684
 04  3  1  1 15  0.0000000  0  8G10G28G 9G18G29G 7G 8G26
 -15386106.68647  -3714053.39346  22361340.5804   22361346.1244
 -16608979.24548 -12752844.80847  21458691.3384   21458694.8204
 -10421312.99645  -7908646.07245  23155195.1514   23155201.0234
  -3209569.73144  -2297803.18845  24501516.3584   24501519.6754
 -11793925.82146  -9059065.55647  20556750.6914   20556754.7004
   -316364.38943   -138678.86845  24597597.5204   24597604.3774
 -12597455.45746  -9594251.37546  22833096.8144   22833102.5584
 -10726855.18846  -8214280.14547  20407960.9754   20407965.3594
 04  3  1  1 15 30.0000000  0  8G10G28G 9G18G29G 7G 8G26
 -15297651.70247  -3645127.43646  22378172.7924   22378178.9224
 -16591064.26648 -12738885.06847  21462100.4994   21462103.8634
 -10517589.70446  -7983666.88146  23136874.2544   23136878.9314
  -3311543.09843  -2377262.87145  24482111.4154   24482114.2874
 -11810772.07446  -9072192.50747  20553544.6804   20553549.0174
   -395921.13942   -200671.20645  24582459.5774   24582466.9154
 -12516871.10846  -9531458.38746  22848430.6984   22848435.9734
 -10760361.82246  -8240389.20647  20401584.9364   20401588.7694
 04  3  1  1 16  0.0000000  0  8G10G28G 9G18G29G 7G 8G26
 -15208887.57247  -3575960.59346  22395063.7524   22395068.8284
 -16572612.69948 -12724507.22847  21465611.4214   21465614.9964
 -10613663.64946  -8058529.64445  23118591.8764   23118595.8854
  -3413249.16644  -2456514.32945  24462757.4304   24462762.2824
 -11827279.38446  -9085055.35047  20550403.8204   20550407.8764
   -475392.91544   -262597.27745  24567336.5094   24567342.8744
 -12436170.78646  -9468575.05346  22863788.1184   22863792.9484
 -10793511.77646  -8266220.33847  20395276.6614   20395280.3774
 04  3  1  1 16 30.0000000  0  8G10G28G 9G18G29G 7G 8G26
 -15119817.52947  -3506555.38146  22412013.3484   22412019.2684
 -16553626.39148 -12709712.69947  21469224.4294   21469227.7704
 -10709534.73646  -8133234.36946  23100348.4864   23100352.4724
  -3514686.18745  -2535556.16045  24443454.2204   24443459.6944
 -11843447.39146  -9097653.80647  20547327.0844   20547330.7174
   -554777.74744   -324455.58045  24552229.3514   24552237.5914
 -12355356.60546  -9405602.97946  22879167.0334   22879173.3634
 -10826304.56146  -8291773.15247  20389036.4224   20389040.3604
 04  3  1  1 17  0.0000000  0  8G10G28G 9G18G29G 7G 8G26
 -15030442.22947  -3436912.31046  22429020.5524   22429026.5544
 -16534104.55548 -12694500.87747  21472939.5134   21472943.1244
 -10805200.13646  -8207778.82146  23082144.2404   23082148.4024
  -3615849.16445  -2614384.45845  24424203.9844   24424207.8414
 -11859272.94446  -9109985.39247  20544315.5074   20544319.7514
   -634070.74444   -386242.29545  24537140.9054   24537146.2864
 -12274427.60046  -9342541.44446  22894567.2124   22894571.5024
 -10858737.15546  -8317045.30447  20382864.6764   20382868.9074
 04  3  1  1 17 30.0000000  0  8G10G28G 9G18G29G 7G 8G26
 -14940766.91946  -3367035.47146  22446085.3664   22446091.4154
 -16514050.65748 -12678874.44547  21476755.6554   21476759.4064
 -10900661.43646  -8282164.22246  23063978.3054   23063983.3924
  -3716737.97945  -2692999.09645  24405006.4784   24405009.6904
 -11874757.28646  -9122051.12547  20541368.9724   20541372.5704
   -713271.54345   -447957.15445  24522069.5714   24522075.5844
 -12193387.79946  -9279393.53146  22909988.3974   22909993.0514
 -10890810.62746  -8342037.62147  20376761.2314   20376765.6384
 04  3  1  1 18  0.0000000  0  8G10G28G 9G18G29G 7G 8G26
 -14850791.86046  -3296925.06346  22463207.0334   22463213.3164
 -16493463.16148 -12662832.23747  21480673.1964   21480676.4554
 -10995915.54045  -8356388.23146  23045851.7224   23045857.4304
  -3817347.03045  -2771395.75445  24385860.9764   24385864.5864
 -11889897.04946  -9133848.35047  20538487.9934   20538492.1544
   -792375.18545   -509596.35945  24507017.1374   24507022.3774
 -12112235.66746  -9216158.15646  22925431.0644   22925436.9954
 -10922521.78446  -8366747.60847  20370726.8014   20370730.9504
 04  3  1  1 18 30.0000000  0  8G10G28G 9G18G29G 7G 8G26
 -14760524.91347  -3226587.18546  22480384.5064   22480389.8514
 -16472348.79148 -12646379.48647  21484691.0774   21484695.0624
 -11090967.25546  -8430454.49946  23027764.3034   23027770.0244
  -3917679.70945  -2849577.08745  24366768.6604   24366772.2354
 -11904696.58646  -9145380.44647  20535671.8614   20535675.7294
   -871384.15743   -571161.77345  24491981.6714   24491986.1724
 -12030978.20946  -9152840.64746  22940893.6124   22940898.8874
 -10953874.78046  -8391178.51347  20364760.7924   20364764.7424
 04  3  1  1 19  0.0000000  0  8G10G28G 9G18G29G 7G 8G26
 -14669967.27747  -3156022.81346  22497617.2934   22497623.4364
 -16450707.69348 -12629516.28047  21488809.3214   21488813.6464
 -11185814.22046  -8504361.16946  23009715.0094   23009721.4564
  -4017731.89345  -2927539.79845  24347729.2384   24347735.8034
 -11919153.34046  -9156645.46347  20532920.6334   20532924.5714
   -950294.38644   -632650.20045  24476965.4454   24476971.1074
 -11949615.25446  -9089440.94846  22956376.5704   22956382.9704
 -10984867.22046  -8415328.46747  20358863.1654   20358866.5764
 04  3  1  1 19 30.0000000  0  8G10G28G 9G18G29G 7G 8G26
 -14579116.67046  -3085230.13346  22514905.2334   22514911.1414
 -16428536.03648 -12612239.65447  21493028.2994   21493032.0504
 -11280450.61346  -8578103.81246  22991706.6524   22991711.3884
  -4117495.73544  -3005277.86345  24328743.5444   24328746.6154
 -11933261.02146  -9167638.45647  20530236.0794   20530240.0534
  -1029098.04444   -694055.63745  24461969.6894   24461978.2114
 -11868142.78946  -9025955.97446  22971880.3994   22971885.9094
 -11015492.51746  -8439192.32447  20353034.8874   20353039.0134
 04  3  1  1 20  0.0000000  0  8G10G28G 9G18G29G 7G 8G26
 -14487978.04246  -3014213.02846  22532248.6734   22532254.3584
 -16405837.09048 -12594552.16347  21497347.7424   21497351.5644
 -11374878.05146  -8651683.56046  22973738.1094   22973742.9974
  -4216971.12744  -3082791.12145  24309814.5964   24309820.8684
 -11947021.05046  -9178360.55947  20527617.7664   20527621.5524
  -1107794.64345   -755377.60645  24446994.6834   24447000.8134
 -11786564.76246  -8962388.64246  22987403.5084   22987409.0644
 -11045752.24346  -8462771.32947  20347276.8884   20347280.8744
 04  3  1  1 20 30.0000000  0  8G10G28G 9G18G29G 7G 8G26
 -14396550.16346  -2942970.49446  22549646.4814   22549651.7094
 -16382607.75148 -12576451.37947  21501768.3624   21501772.1834
 -11469091.36946  -8725096.49846  22955808.8814   22955815.0354
  -4316150.88045  -3160073.99345  24290941.5824   24290944.8644
 -11960428.11846  -9188807.61647  20525066.1974   20525070.4174
  -1186377.29444   -816610.84045  24432039.3864   24432044.4854
 -11704878.04746  -8898736.68046  23002948.5094   23002953.6204
 -11075641.03946  -8486061.30747  20341589.3084   20341592.9784
 04  3  1  1 21  0.0000000  0  8G10G28G 9G18G29G 7G 8G26
 -14304840.61547  -2871508.53846  22567098.6084   22567103.6254
 -16358854.73948 -12557942.53047  21506288.3174   21506292.1154
 -11563095.26846  -8798346.28046  22937920.9644   22937927.0594
  -4415037.72745  -3237128.72545  24272124.4794   24272129.7544
 -11973486.36946  -9198982.88747  20522581.3574   20522585.0264
  -1264848.49942   -877757.23445  24417105.9604   24417112.9934
 -11623089.24846  -8835005.17746  23018512.3854   23018517.2854
 -11105162.98946  -8509065.42147  20335971.3134   20335975.2284
 04  3  1  1 21 30.0000000  0  8G10G28G 9G18G29G 7G 8G26
 -14212849.60746  -2799827.25646  22584603.9344   22584609.9124
 -16334576.76648 -12539024.60847  21510907.9634   21510911.9484
 -11656886.33246  -8871430.21846  22920073.0724   22920078.1954
  -4513626.13345  -3313950.84645  24253362.9954   24253365.2934
 -11986192.12046  -9208883.46847  20520163.5854   20520167.7124
  -1343202.74042   -938812.43245  24402196.6144   24402201.6904
 -11541196.87346  -8771192.90746  23034095.8564   23034102.4444
 -11134314.43546  -8531780.82347  20330423.9764   20330428.0914
 04  3  1  1 22  0.0000000  0  8G10G28G 9G18G29G 7G 8G26
 -14120580.17746  -2727929.01346  22602162.3464   22602166.6484
 -16309775.21048 -12519698.72447  21515627.5774   21515631.1764
 -11750464.38145  -8944348.15445  22902264.2434   22902269.6364
  -4611913.93945  -3390538.76345  24234658.9374   24234660.9064
 -11998544.56946  -9218508.75147  20517813.1244   20517817.3794
  -1421437.75743   -999774.81645  24387308.8804   24387317.6024
 -11459202.41246  -8707301.18846  23049699.3014   23049704.7754
 -11163094.46846  -8554206.83747  20324947.4944   20324951.2914
 04  3  1  1 22 30.0000000  0  8G10G28G 9G18G29G 7G 8G26
 -14028035.17346  -2655816.05046  22619773.0974   22619777.8324
 -16284451.76648 -12499966.16047  21520446.7834   21520449.9484
 -11843828.84746  -9017099.71346  22884499.3054   22884504.4984
  -4709898.64645  -3466890.45445  24216012.9404   24216016.1174
 -12010543.14546  -9227858.29247  20515529.6824   20515533.9614
  -1499550.97544  -1060642.22145  24372444.6964   24372451.2614
 -11377107.38546  -8643331.02046  23065321.6554   23065326.6604
 -11191502.35946  -8576342.85347  20319541.5934   20319545.3324
 04  3  1  1 23  0.0000000  0  8G10G28G 9G18G29G 7G 8G26
 -13935220.47346  -2583492.88546  22637434.9084   22637440.7814
 -16258610.83348 -12479830.36147  21525364.0664   21525366.9144
 -11936982.33846  -9089686.78246  22866773.2814   22866777.5604
  -4807580.61345  -3543006.23445  24197425.8694   24197426.8314
 -12022189.76146  -9236933.57547  20513313.5604   20513317.8154
  -1577542.83544  -1121415.11645  24357603.7294   24357608.4414
 -11294916.22345  -8579285.98446  23080961.4744   23080968.0504
 -11219540.14146  -8598190.46147  20314206.2034   20314210.1534
 04  3  1  1 23 30.0000000  0  8G10G28G 9G18G29G 7G 8G26
 -13842138.84846  -2510961.75846  22655147.7384   22655152.3334
 -16232254.01348 -12459292.57947  21530379.4074   21530382.9234
 -12029924.00246  -9162108.80946  22849086.5074   22849092.5904
  -4904957.42246  -3618884.27445  24178895.3734   24178899.5464
 -12033483.67746  -9245734.03547  20511164.3494   20511168.1244
  -1655410.82743  -1182091.38245  24342785.7884   24342792.2004
 -11212630.31646  -8515167.13645  23096620.3104   23096624.6584
 -11247206.94447  -8619749.01547  20308941.4924   20308944.7864
 04  3  1  1 24  0.0000000  0  8G10G28G 9G18G29G 7G 8G26
 -13748796.69846  -2438227.61546  22672910.0324   22672915.5774
 -16205386.18748 -12438356.60147  21535492.4804   21535495.5404
 -12122656.58146  -9234367.93346  22831440.1354   22831444.5074
  -5002030.10746  -3694525.33645  24160423.6134   24160424.6914
 -12044427.33146  -9254261.55547  20509081.8564   20509085.7834
  -1733155.60044  -1242671.73245  24327991.7274   24327997.9864
 -11130254.46946  -8450978.15446  23112296.1084   23112301.5364
 -11274505.40946  -8641020.55847  20303746.5584   20303750.2274
 04  3  1  1 24 30.0000000  0  8G10G28G 9G18G29G 7G 8G26
 -13655191.63646  -2365288.62346  22690722.5864   22690728.0954
 -16178003.72848 -12417019.61447  21540703.0844   21540706.2034
 -12215174.38346  -9306459.67346  22813834.6824   22813838.9604
  -5098790.56345  -3769923.11245  24142010.5774   24142013.5784
 -12055014.72846  -9262511.47447  20507067.2064   20507071.0974
  -1810769.48544  -1303150.09145  24313221.7934   24313226.0834
 -11047784.75146  -8386716.05045  23127989.5474   23127994.4474
 -11301429.19146  -8662000.12347  20298623.1904   20298627.2354
 04  3  1  1 25  0.0000000  0  8G10G28G 9G18G29G 7G 8G26
 -13561320.46846  -2292142.26946  22708585.6054   22708590.3644
 -16150101.84948 -12395277.88547  21546012.5484   21546015.6554
 -12307470.66746  -9378378.77946  22796270.7074   22796276.4164
  -5195230.09745  -3845070.81645  24123658.8244   24123660.0204
 -12065238.57146  -9270478.11347  20505121.7184   20505125.2944
  -1888243.53943  -1363519.39645  24298477.7814   24298480.1254
 -10965216.32446  -8322377.03245  23143701.4484   23143706.9464
 -11327971.03546  -8682682.06447  20293572.4604   20293576.9964
 04  3  1  1 25 30.0000000  0  8G10G28G 9G18G29G 7G 8G26
 -13467189.19546  -2218793.24246  22726498.1724   22726503.6574
 -16121685.27548 -12373135.10547  21551420.1954   21551423.1734
 -12399548.28246  -9450127.60846  22778749.1394   22778754.1444
  -5291349.54045  -3919969.04145  24105366.5884   24105369.9294
 -12075101.29146  -9278163.35347  20503244.8084   20503248.7004
  -1965578.52944  -1423780.45845  24283761.9804   24283765.6144
 -10882553.62046  -8257964.58946  23159431.7914   23159437.8634
 -11354133.48546  -8703068.39247  20288593.8584   20288597.9964
 04  3  1  1 26  0.0000000  0  8G10G28G 9G18G29G 7G 8G26
 -13372802.45146  -2145245.15246  22744459.3384   22744464.1214
 -16092757.42048 -12350593.91047  21556924.9134   21556928.5244
 -12491408.30546  -9521706.82846  22761269.0624   22761273.0474
  -5387148.42845  -3994617.55145  24087136.7494   24087141.9424
 -12084603.84946  -9285567.94847  20501436.6064   20501440.0174
  -2042773.51743  -1483932.38445  24269072.3414   24269077.7094
 -10799800.05046  -8193481.31446  23175179.8444   23175185.3184
 -11379917.56946  -8723159.88747  20283687.1534   20283691.5024
 04  3  1  1 26 30.0000000  0  8G10G28G 9G18G29G 7G 8G26
 -13278160.77246  -2071498.41146  22762468.8154   22762474.3944
 -16063317.58748 -12327653.76647  21562526.9904   21562531.0814
 -12583047.73546  -9593114.10446  22743830.3834   22743834.8964
  -5482621.61745  -4069012.20545  24068969.4614   24068973.2244
 -12093743.01746  -9292689.39247  20499697.3644   20499701.1854
  -2119823.64442  -1543971.34245  24254409.7464   24254417.7294
 -10716954.45146  -8128926.30546  23190944.0274   23190949.1614
 -11405319.72146  -8742953.76647  20278853.3524   20278857.3504
 04  3  1  1 27  0.0000000  0  8G10G28G 9G18G29G 7G 8G26
 -13183273.71446  -1997560.47046  22780525.4574   22780530.8034
 -16033373.81347 -12304320.95847  21568225.1014   21568229.6844
 -12674472.80846  -9664354.39046  22726433.0454   22726438.0854
  -5577773.41645  -4143156.43345  24050862.7654   24050867.2434
 -12102524.49946  -9299532.09647  20498026.2964   20498030.1654
  -2196732.77943  -1603900.54245  24239774.8194   24239778.8984
 -10634024.63546  -8064305.69045  23206725.3594   23206730.4584
 -11430345.81547  -8762454.62647  20274091.2794   20274095.0544
 04  3  1  1 27 30.0000000  0  8G10G28G 9G18G29G 7G 8G26
 -13088139.41246  -1923429.82446  22798629.0814   22798635.1064
 -16002922.98048 -12280593.02647  21574019.7604   21574023.7814
 -12765677.93846  -9735423.29946  22709077.5594   22709081.6614
  -5672596.04645  -4217044.19345  24032818.8304   24032823.2384
 -12110942.64346  -9306091.70147  20496424.3634   20496428.1964
  -2273493.51744  -1663714.08145  24225169.0104   24225174.8594
 -10551006.99345  -7999616.63945  23222523.4504   23222528.5374
 -11454989.97846  -8781657.85847  20269401.3974   20269405.6524
 04  3  1  1 28  0.0000000  0  8G10G28G 9G18G29G 7G 8G26
 -12992758.11546  -1849106.72946  22816779.7844   22816785.1884
 -15971964.27748 -12256469.35747  21579911.0214   21579915.1824
 -12856660.18146  -9806318.54446  22691763.6484   22691768.9474
  -5767084.74045  -4290671.73445  24014837.4674   24014839.4714
 -12118994.11446  -9312365.57247  20494892.3574   20494896.6704
  -2350100.80144  -1723408.08445  24210590.6314   24210595.7064
 -10467900.49946  -7934858.36245  23238338.0184   23238340.6564
 -11479248.83346  -8800560.86047  20264785.2614   20264789.2354
 04  3  1  1 28 30.0000000  0  8G10G28G 9G18G29G 7G 8G26
 -12897139.72346  -1774598.88946  22834975.2984   22834979.9644
 -15940506.50648 -12231956.80247  21585897.2274   21585900.6734
 -12947426.12046  -9877045.21146  22674490.8654   22674496.5864
  -5861244.10645  -4364042.64945  23996919.8854   23996925.4294
 -12126685.15346  -9318358.60047  20493428.5904   20493432.7284
  -2426559.12944  -1782986.05945  24196040.7034   24196047.4554
 -10384713.61345  -7870037.39645  23254167.7964   23254173.0244
 -11503128.62546  -8819168.50247  20260241.2044   20260245.1194
 04  3  1  1 29  0.0000000  0  8G10G28G 9G18G29G 7G 8G26
 -12801278.47246  -1699901.85346  22853217.2944   22853221.6904
 -15908542.55448 -12207049.83447  21591979.6044   21591982.9694
 -13037966.54646  -9947596.14146  22657262.1654   22657267.2764
  -5955063.05445  -4437148.39845  23979066.5214   23979072.4184
 -12134006.19646  -9324063.30847  20492035.4834   20492039.7154
  -2502857.29645  -1842439.08345  24181522.3174   24181528.0614
 -10301438.79446  -7805147.95445  23270014.2984   23270018.2834
 -11526619.81146  -8837473.32647  20255770.7814   20255774.6494
 04  3  1  1 29 30.0000000  0  8G10G28G 9G18G29G 7G 8G26
 -12705183.54646  -1625022.66946  22871503.4334   22871509.3294
 -15876079.97148 -12181754.31847  21598157.0754   21598160.6514
 -13128287.03946 -10017975.70846  22640074.6014   22640079.7234
  -6048544.84145  -4509991.27345  23961278.1564   23961283.1034
 -12140962.53046  -9329483.83447  20490711.6834   20490715.9154
  -2578998.60145  -1901769.97845  24167032.8344   24167036.9484
 -10218083.35345  -7740195.72545  23285876.7154   23285881.0884
 -11549727.56646  -8855479.35847  20251373.5344   20251378.0234
 04  3  1  1 30  0.0000000  0  8G10G28G 9G18G29G 7G 8G26
 -12608853.59746  -1549960.39346  22889834.1404   22889839.4734
 -15843116.65648 -12156068.60947  21604429.9104   21604433.4384
 -13218382.81346 -10088180.23046  22622929.7984   22622935.3074
  -6141682.95745  -4582566.44345  23943555.2254   23943557.0654
 -12147549.29946  -9334616.38247  20489458.3744   20489462.5824
  -2654976.50245  -1960973.47545  24152575.0694   24152580.1684
 -10134644.57246  -7675178.48145  23301754.5374   23301759.0034
 -11572446.77846  -8873182.63447  20247050.2544   20247054.1464
 04  3  1  1 30 30.0000000  0  8G10G28G 9G18G29G 7G 8G26
 -12512293.44546  -1474718.75146  22908209.1364   22908213.9424
 -15809656.03848 -12129995.41147  21610797.3384   21610801.0304
 -13308255.12546 -10158210.58146  22605828.0004   22605833.7324
  -6234477.02746  -4654873.49545  23925896.4264   23925898.9704
 -12153767.25846  -9339461.55447  20488275.1384   20488279.0884
  -2730790.28245  -2020049.14945  24138148.0524   24138153.1984
 -10051125.52746  -7610098.74645  23317648.1054   23317651.6104
 -11594778.68146  -8890584.12547  20242800.6884   20242804.6744
 04  3  1  1 31  0.0000000  0  8G10G28G 9G18G29G 7G 8G26
 -12415503.89846  -1399298.31446  22926627.4344   22926632.9204
 -15775697.98648 -12103534.58247  21617259.2834   21617263.1284
 -13397901.53546 -10228064.84846  22588768.5614   22588773.2034
  -6326922.59145  -4726909.00645  23908304.5494   23908306.5184
 -12159613.94446  -9344017.41547  20487162.6524   20487166.4264
  -2806435.18545  -2078993.22745  24123753.2604   24123761.4654
  -9967525.49446  -7544955.87245  23333556.2864   23333561.0334
 -11616720.43546  -8907681.59547  20238625.0574   20238629.3474
 04  3  1  1 31 30.0000000  0  8G10G28G 9G18G29G 7G 8G26
 -12318487.41346  -1323701.07846  22945088.7214   22945094.5474
 -15741243.54748 -12076686.97347  21623815.7694   21623819.7784
 -13487320.93446 -10297742.26646  22571752.0524   22571757.7494
  -6419016.16945  -4798670.18945  23890778.9834   23890782.0194
 -12165087.71846  -9348282.70047  20486121.0454   20486124.8554
  -2881908.23645  -2137803.36745  24109391.2374   24109396.8294
  -9883845.14245  -7479750.43145  23349480.1144   23349484.3574
 -11638270.47147  -8924473.82547  20234524.4484   20234528.1174
 04  3  1  1 32  0.0000000  0  8G10G28G 9G18G29G 7G 8G26
 -12221247.95846  -1247930.09246  22963592.7984   22963599.0584
 -15706295.78247 -12049454.94146  21630466.0374   21630469.6124
 -13576514.09146 -10367243.43246  22554779.3604   22554784.9284
  -6510756.65245  -4870156.26845  23873321.3514   23873324.3994
 -12170189.22146  -9352257.90347  20485150.3394   20485154.0194
  -2957207.99145  -2196478.49445  24095062.1934   24095068.5934
  -9800086.94546  -7414484.32545  23365419.2224   23365423.4664
 -11659429.18347  -8940961.13547  20230498.0824   20230501.7164
 04  3  1  1 32 30.0000000  0  8G10G28G 9G18G29G 7G 8G26
 -12123786.87146  -1171986.42346  22982138.6054   22982144.4084
 -15670854.98948 -12021838.74746  21637210.1864   21637213.0354
 -13665478.99546 -10436566.68946  22537850.0034   22537855.8874
  -6602140.14145  -4941364.20745  23855931.8824   23855935.1054
 -12174915.79746  -9355940.95547  20484250.8494   20484254.8934
  -3032330.26545  -2255015.33845  24080767.1684   24080771.8574
  -9716250.55545  -7349157.26645  23381371.8604   23381377.1124
 -11680194.11846  -8957141.60747  20226546.5934   20226550.4974
 04  3  1  1 33  0.0000000  0  8G10G28G 9G18G29G 7G 8G26
 -12026112.18146  -1095876.27446  23000725.9994   23000730.9704
 -15634927.74348 -11993843.48846  21644046.9384   21644050.1144
 -13754219.81246 -10505715.34346  22520963.5144   22520968.9894
  -6693169.02245  -5012295.80745  23838609.8794   23838614.3924
 -12179271.95246  -9359335.37147  20483421.9504   20483426.0184
  -3107277.54345  -2313415.81845  24066504.0634   24066509.4204
  -9632342.27945  -7283774.20445  23397339.4744   23397343.8814
 -11700569.42946  -8973018.47947  20222669.2354   20222673.2334
 04  3  1  1 33 30.0000000  0  8G10G28G 9G18G29G 7G 8G26
 -11928216.68946  -1019594.10546  23019355.0304   23019360.2124
 -15598505.81448 -11965462.76046  21650977.9604   21650980.2224
 -13842725.95646 -10574681.16746  22504121.3004   22504125.6384
  -6783830.83445  -5082941.33945  23821357.2614   23821360.9894
 -12183246.53646  -9362432.45547  20482665.4524   20482669.8484
  -3182036.96045  -2371669.89845  24052277.8364   24052282.8774
  -9548352.98945  -7218328.02845  23413322.2204   23413327.7534
 -11720544.22046  -8988583.25747  20218868.2704   20218872.5024
 04  3  1  1 34  0.0000000  0  8G10G28G 9G18G29G 7G 8G26
 -11830107.84646   -943145.64645  23038024.5774   23038030.3794
 -15561595.16448 -11936701.21946  21658001.7724   21658004.8904
 -13931001.50047 -10643467.27446  22487323.2564   22487326.7724
  -6874127.75945  -5153302.52645  23804174.3284   23804179.6264
 -12186843.51846  -9365235.29347  20481981.1264   20481984.9824
  -3256610.50544  -2429779.12645  24038087.8524   24038092.5764
  -9464288.56246  -7152823.30345  23429319.6214   23429326.5614
 -11740122.08847  -9003838.72747  20215142.7844   20215146.6644
 04  3  1  1 34 30.0000000  0  8G10G28G 9G18G29G 7G 8G26
 -11731786.28246   -866531.44246  23056734.0744   23056739.6314
 -15524195.99448 -11907559.00346  21665118.5074   21665121.8014
 -14019044.07847 -10712071.84946  22470569.3964   22470573.0074
  -6964054.85945  -5223375.60445  23787061.3364   23787065.2744
 -12190059.75346  -9367741.46947  20481369.1444   20481372.8254
  -3330993.64745  -2487739.97445  24023931.9534   24023940.2174
  -9380148.13145  -7087259.38845  23445330.8714   23445337.0484
 -11759300.19147  -9018782.70747  20211493.4554   20211496.8204
 04  3  1  1 35  0.0000000  0  8G10G28G 9G18G29G 7G 8G26
 -11633258.61746   -789756.69346  23075483.9674   23075488.1994
 -15486313.57748 -11878040.24046  21672327.4714   21672330.8944
 -14106856.49146 -10780497.09946  22453858.6014   22453863.0434
  -7053612.92846  -5293161.09345  23770019.2784   23770024.8104
 -12192898.07446  -9369953.14947  20480829.0524   20480832.7914
  -3405187.04045  -2545552.99145  24009813.9824   24009821.0274
  -9295936.27546  -7021639.77945  23461355.5144   23461360.4844
 -11778081.00846  -9033417.11747  20207919.3754   20207923.3734
 04  3  1  1 35 30.0000000  0  8G10G28G 9G18G29G 7G 8G26
 -11534535.92246   -712829.92546  23094270.3974   23094276.3404
 -15447957.81547 -11848152.62446  21679626.0624   21679629.7904
 -14194446.29746 -10848748.93246  22437190.7624   22437196.1784
  -7142807.94646  -5362663.74145  23753047.0154   23753049.9344
 -12195365.82546  -9371876.07347  20480359.4024   20480363.0124
  -3479196.43245  -2603222.66945  23995731.3994   23995737.4244
  -9211662.27245  -6955971.79445  23477392.1774   23477398.4714
 -11796472.04546  -9047747.79747  20204419.7514   20204423.4444
 04  3  1  1 36  0.0000000  0  8G10G28G 9G18G29G 7G 8G26
 -11435611.23946   -635745.76746  23113094.6994   23113100.3964
 -15409120.51447 -11817889.78646  21687016.4294   21687020.4854
 -14281803.22546 -10916819.23746  22420567.7384   22420572.8374
  -7231627.66046  -5431873.93945  23736144.4464   23736146.1344
 -12197452.49546  -9373502.06047  20479962.2554   20479965.9594
  -3553009.27545  -2660739.15945  23981684.9014   23981689.2504
  -9127317.67746  -6890248.71245  23493443.3354   23493449.2084
 -11814462.50847  -9061766.34447  20200996.2374   20201000.0474
 04  3  1  1 36 30.0000000  0  8G10G28G 9G18G29G 7G 8G26
 -11336485.08946   -558504.64046  23131957.9904   23131962.7254
 -15369801.54648 -11787251.63646  21694498.7864   21694501.6694
 -14368924.63247 -10984706.02546  22403989.1384   22403993.4404
  -7320067.71445  -5500788.27445  23719314.9314   23719317.7094
 -12199155.13146  -9374828.79947  20479638.2434   20479642.2874
  -3626620.96445  -2718098.89445  23967676.7474   23967681.9294
  -9042901.20545  -6824469.64145  23509507.2524   23509513.1494
 -11832049.53946  -9075470.52547  20197649.3994   20197653.5964
 04  3  1  1 37  0.0000000  0  8G10G28G 9G18G29G 7G 8G26
 -11237161.61346   -481109.73446  23150858.8894   23150864.7964
 -15330003.93848 -11756240.51746  21702071.8434   21702074.3404
 -14455810.70746 -11052409.46346  22387454.7374   22387459.1104
  -7408126.14545  -5569405.24045  23702558.1984   23702562.8404
 -12200473.91246  -9375856.42547  20479387.3684   20479391.2364
  -3700029.71045  -2775300.52545  23953707.4914   23953712.4034
  -8958415.25845  -6758636.47245  23525584.0224   23525589.5084
 -11849233.17847  -9088860.37547  20194379.6874   20194383.1454
 04  3  1  1 37 30.0000000  0  8G10G28G 9G18G29G 7G 8G26
 -11137654.26546   -403571.53646  23169794.3394   23169800.3644
 -15289739.70048 -11724865.79046  21709734.1844   21709736.9274
 -14542471.38047 -11119937.25446  22370964.3664   22370968.3994
  -7495811.04146  -5637731.13645  23685872.5444   23685875.8844
 -12201418.47146  -9376592.44747  20479207.7634   20479211.7254
  -3773243.52945  -2832350.26245  23939775.5264   23939780.4844
  -8873871.01046  -6692757.82145  23541672.2894   23541677.1544
 -11866023.05647  -9101943.39847  20191184.7014   20191187.9364
 04  3  1  1 38  0.0000000  0  8G10G28G 9G18G29G 7G 8G26
 -11037954.67446   -325883.56346  23188766.4614   23188771.7014
 -15248999.90348 -11693120.48646  21717486.5884   21717489.4834
 -14628895.13147 -11187280.38646  22354518.5384   22354522.6294
  -7583109.13946  -5705755.60545  23669260.2224   23669263.3764
 -12201976.93146  -9377027.61647  20479101.4694   20479105.0914
  -3846248.62645  -2889237.32745  23925884.1224   23925888.2724
  -8789258.89645  -6626826.34545  23557773.3144   23557778.8354
 -11882407.39046  -9114710.41347  20188066.6744   20188070.9294
 04  3  1  1 38 30.0000000  0  8G10G28G 9G18G29G 7G 8G26
 -10938068.51346   -248050.18846  23207774.3234   23207780.8054
 -15207789.08948 -11661008.16946  21725328.5874   21725332.0344
 -14715084.44746 -11254440.83346  22338116.8224   22338121.3354
  -7670020.75346  -5773478.91345  23652721.4684   23652723.4614
 -12202151.60746  -9377163.73747  20479068.0064   20479072.1094
  -3919045.23445  -2945961.91145  23912030.3324   23912033.5094
  -8704582.69745  -6560844.92645  23573886.2864   23573893.0144
 -11898388.02146  -9127162.85047  20185025.6564   20185029.7234
 04  3  1  1 39  0.0000000  0  8G10G28G 9G18G29G 7G 8G26
 -10837998.97446   -170073.95846  23226816.9304   23226821.1854
 -15166109.30447 -11628530.40246  21733259.9534   21733263.9154
 -14801038.99946 -11321418.37746  22321760.0444   22321765.2024
  -7756543.43945  -5840899.18545  23636256.1844   23636261.0144
 -12201941.88846  -9377000.30947  20479107.7964   20479112.0754
  -3991631.19345  -3002522.33845  23898217.0104   23898223.9154
  -8619843.85945  -6494814.69545  23590011.6234   23590015.9844
 -11913964.58147  -9139300.43047  20182061.5814   20182065.5544
 04  3  1  1 39 30.0000000  0  8G10G28G 9G18G29G 7G 8G26
 -10737746.41646    -91955.08646  23245894.4914   23245899.4734
 -15123960.05348 -11595686.83846  21741280.7664   21741284.8224
 -14886755.61446 -11388210.51546  22305448.7634   22305453.7224
  -7842672.23645  -5908012.55845  23619866.5134   23619869.9124
 -12201344.37746  -9376534.73547  20479221.7054   20479225.4804
  -4064001.07845  -3058914.46045  23884445.5854   23884451.0364
  -8535040.71746  -6428734.43145  23606149.0514   23606153.4934
 -11929133.62646  -9151120.47847  20179175.0294   20179178.9564
 04  3  1  1 40  0.0000000  0  8G10G28G 9G18G29G 7G 8G26
 -10637319.13446    -13700.06246  23265005.0034   23265010.6894
 -15081348.71348 -11562483.19446  21749389.4824   21749392.0384
 -14972239.31046 -11454821.15946  22289181.4934   22289186.3814
  -7928410.08845  -5974821.24745  23603550.6874   23603553.8644
 -12200363.79146  -9375770.63147  20479408.1414   20479412.5254
  -4136157.94045  -3115140.58845  23870715.1664   23870720.9334
  -8450180.12445  -6362609.27845  23622297.9524   23622303.3094
 -11943899.79546  -9162626.57847  20176365.2364   20176369.6444
 04  3  1  1 40 30.0000000  0  8G10G28G 9G18G29G 7G 8G26
 -10536716.47246     64691.62146  23284148.5584   23284153.5984
 -15038273.84848 -11528918.36246  21757586.4854   21757589.6974
 -15057486.07046 -11521247.17846  22272959.9834   22272964.4494
  -8013751.54345  -6041321.23045  23587310.5874   23587311.6894
 -12198995.93846  -9374704.78447  20479668.6794   20479672.3484
  -4208095.65545  -3171195.93245  23857026.4534   23857031.2364
  -8365259.31946  -6296437.22745  23638457.8294   23638461.8614
 -11958258.88047  -9173815.48047  20173632.7124   20173636.9914
 04  3  1  1 41  0.0000000  0  8G10G28G 9G18G29G 7G 8G26
 -10435939.91246    143218.74746  23303325.8564   23303330.4054
 -14994736.05348 -11494992.81546  21765871.1734   21765874.0684
 -15142493.82046 -11587486.97446  22256783.5224   22256788.0354
  -8098692.16746                  23571147.6534
 -12197238.94546  -9373335.70247  20480003.0564   20480007.0544
  -4279810.16345  -3227077.38245  23843379.6344   23843384.4984
  -8280278.14845  -6230218.16345  23654628.5614   23654634.0944
 -11972208.50047  -9184685.32047  20170978.1084   20170981.8714
 04  3  1  1 41 30.0000000  0  8G10G28G 9G18G29G 7G 8G26
 -10334995.65346    221876.61446  23322535.2154   23322540.5834
 -14950740.32848 -11460710.42746  21774243.3364   21774245.9854
 -15227265.07246 -11653542.48946  22240652.2004   22240656.7724
  -8183233.15946                  23555060.4064
 -12195094.89146  -9371665.01847  20480410.9984   20480414.7384
  -4351302.11545  -3282785.34145  23829774.3494   23829780.0224
  -8195240.84745  -6163955.30745  23670810.9114   23670816.7254
 -11985751.17347  -9195238.05647  20168401.1494   20168404.7124
 04  3  1  1 42  0.0000000  0  8G10G28G 9G18G29G 7G 8G26
 -10233885.69646    300663.57846  23341775.8644   23341780.8234
 -14906287.61948 -11426071.96346  21782702.6744   21782705.8984
 -15311798.51346 -11719412.71246  22224565.4424   22224569.7324
  -8267370.97746    -56800.53845  23539048.7964   23539050.4734
 -12192562.40146  -9369691.65247  20480892.9434   20480896.7184
  -4422568.08945  -3338317.24045  23816211.8934   23816218.6564
  -8110147.64245  -6097649.02245  23687003.5844   23687008.0384
 -11998885.15947  -9205472.33247  20165901.8464   20165905.7614
 04  3  1  1 42 30.0000000  0  8G10G28G 9G18G29G 7G 8G26
 -10132606.83246    379582.16346  23361048.6764   23361054.8894
 -14861374.13848 -11391074.43646  21791249.3764   21791252.6584
 -15396087.94446 -11785092.78246  22208525.8084   22208531.2234
  -8351097.05946   -122041.61245  23523116.0114   23523117.8404
 -12189634.64946  -9367410.29247  20481449.9114   20481453.8964
  -4493599.46045  -3393666.34045  23802695.7324   23802702.0854
  -8024993.48545  -6031295.10445  23703208.5984   23703214.6124
 -12011603.69947  -9215382.88647  20163481.4284   20163485.2974
 04  3  1  1 43  0.0000000  0  8G10G28G 9G18G29G 7G 8G26
 -10031166.00546    458626.96746  23380352.0474   23380356.7944
 -14816005.72147 -11355722.42646  21799882.8334   21799886.9714
 -15480136.55447 -11850585.19846  22192532.1024   22192536.9904
  -8434412.92646   -186963.04345  23507262.0964   23507264.4884
 -12186315.00346  -9364823.55147  20482081.7614   20482085.7234
  -4564397.63345  -3448833.71945  23789223.3084   23789227.9624
  -7939783.23746  -5964897.55845  23719423.5494   23719428.9064
 -12023910.04347  -9224972.24647  20161139.7694   20161143.6384
 04  3  1  1 43 30.0000000  0  8G10G28G 9G18G29G 7G 8G26
  -9929561.25146    537799.45546  23399687.3754   23399692.1464
 -14770179.69948 -11320013.82446  21808603.2184   21808606.4304
 -15563939.25447 -11915885.98046  22176584.9194   22176589.0224
  -8517312.03645   -251559.77745  23491486.0694   23491490.2074
 -12182598.05346  -9361927.24147  20482788.7804   20482792.5434
  -4634955.41945  -3503813.81845  23775796.9134   23775800.7344
  -7854513.47845  -5898453.65045  23735650.0564   23735657.3474
 -12035798.79147  -9234236.21047  20158877.3954   20158881.1824
 04  3  1  1 44  0.0000000  0  8G10G28G 9G18G29G 7G 8G26
  -9827798.97746    617094.73546  23419051.8584   23419057.2734
 -14723901.39748 -11283952.80546  21817409.4734   21817412.9544
 -15647498.63947 -11980997.16446  22160683.9794   22160688.3044
  -8599795.08545   -315832.27545  23475790.5364   23475794.3574
 -12178486.51946  -9358723.44647  20483571.3474   20483575.6374
  -4705273.44445  -3558607.09845  23762416.0094   23762421.1674
  -7769188.46445  -5831966.58945  23751886.0434   23751890.5914
 -12047272.34646  -9243176.64347  20156693.9974   20156697.7954
 04  3  1  1 44 30.0000000  0  8G10G28G 9G18G29G 7G 8G26
  -9725885.30146    696507.97545  23438444.9594   23438449.1324
 -14677176.10447 -11247543.49746  21826301.0994   21826304.8274
 -15730817.48747 -12045920.92246  22144829.2364   22144833.8194
  -8681862.87746   -379781.22145  23460173.7524   23460177.2334
 -12173982.84546  -9355214.10947  20484428.4034   20484432.0014
  -4775352.42645  -3613214.14045  23749080.8164   23749086.2784
  -7683812.44445  -5765439.88945  23768132.7014   23768138.7964
 -12058333.47747  -9251795.71247  20154589.1254   20154592.7944
 04  3  1  1 45  0.0000000  0  8G10G28G 9G18G29G 7G 8G26
  -9623816.76646    776041.88645  23457868.2264   23457872.8794
 -14629999.58548 -11210782.57646  21835278.5814   21835281.1134
 -15813889.16747 -12110652.07746  22129021.1144   22129025.9324
  -8763506.51445   -443399.64345  23444636.9204   23444642.0194
 -12169080.31246  -9351393.96247  20485361.1784   20485365.2694
  -4845183.58745  -3667628.03645  23735791.8654   23735797.5974
  -7598380.21845  -5698869.27945  23784389.3184   23784392.3074
 -12068974.97046  -9260087.78147  20152564.0084   20152568.3224
 04  3  1  1 45 30.0000000  0  8G10G28G 9G18G29G 7G 8G26
  -9521598.76345    855692.25745  23477319.5354   23477323.8374
 -14582376.40547 -11173673.59646  21844340.9324   21844344.6954
 -15896715.74247 -12175192.27546  22113259.7044   22113264.4984
  -8844726.40446   -506687.89345  23429182.0454   23429185.2574
 -12163780.55246  -9347264.26847  20486369.7634   20486374.0654
  -4914766.90845  -3721848.78245  23722550.4104   23722556.6584
  -7512895.11144  -5632257.52945  23800656.7844   23800663.7944
 -12079198.67946  -9268054.31047  20150618.4714   20150622.8674
 04  3  1  1 46  0.0000000  0  8G10G28G 9G18G29G 7G 8G26
  -9419228.77046    935461.08745  23496799.7664   23496805.5804
 -14534303.22148 -11136213.97546  21853489.0354   21853492.7514
 -15979291.13947 -12239536.73246  22097546.2994   22097550.9534
  -8925514.63846   -569639.73746  23413808.5324   23413812.3304
 -12158077.51746  -9342820.36647  20487455.0164   20487459.0484
  -4984094.40945  -3775870.18145  23709358.1914   23709364.7914
  -7427352.82445  -5565601.29545  23816936.3524   23816942.0724
 -12088998.39447  -9275690.46647  20148753.8404   20148757.7904
 04  3  1  1 46 30.0000000  0  8G10G28G 9G18G29G 7G 8G26
  -9316720.67546   1015337.51745  23516306.6754   23516311.7634
 -14485792.88348 -11098413.70446  21862720.0724   21862722.7104
 -16061625.75947 -12303693.55746  22081878.3424   22081882.6324
  -9005879.81846   -632261.93546  23398515.5304   23398519.4224
 -12151981.58348  -9338070.29147  20488615.0914   20488619.6634
  -5053174.55345  -3829698.80345  23696212.4094   23696219.2204
  -7341765.59445  -5498909.93145  23833223.5674   23833230.0374
 -12098384.42747  -9283004.26247  20146967.8434   20146971.6884
 04  3  1  1 47  0.0000000  0  8G10G28G 9G18G29G 7G 8G26
  -9214073.42246   1095322.35545  23535840.1374   23535844.8254
 -14436843.59647 -11060271.40546  21872034.7344   21872038.0514
 -16143715.29147 -12367659.42546  22066257.0844   22066261.3044
  -9085816.05846   -694549.90845  23383304.0214   23383307.4904
 -12145488.30646  -9333010.59647  20489850.8164   20489854.7544
  -5122000.70245  -3883329.57645  23683115.4014   23683121.1804
  -7256129.99746  -5432180.96345  23849518.7554   23849524.0774
 -12107352.18747  -9289992.12947  20145261.2774   20145265.2864
 04  3  1  1 47 30.0000000  0  8G10G28G 9G18G29G 7G 8G26
  -9111283.50345   1175418.36345  23555400.4664   23555405.2844
 -14387451.18247 -11021783.80846  21881433.7404   21881437.8664
 -16225552.85547 -12431428.93846  22050683.8554   22050689.4474
  -9165313.86246   -756496.25846  23368176.5494   23368179.3164
 -12138590.45346  -9327635.65447  20491163.3784   20491167.7394
  -5190563.99346  -3936755.52745  23670068.1564   23670073.3264
  -7170440.67346  -5365410.11745  23865825.8364   23865831.1004
 -12115894.44047  -9296648.42847  20143635.7484   20143639.7344
 04  3  1  1 48  0.0000000  0  8G10G28G 9G18G29G 7G 8G26
  -9008357.48445   1255620.44945  23574986.6564   23574992.4704
 -14337621.45747 -10982955.44746  21890916.0104   21890919.5504
 -16307141.90947 -12495004.80146  22035158.2374   22035163.3944
  -9244375.46846   -818102.71246  23353131.4014   23353134.8824
 -12131291.36446  -9321948.05847  20492552.3924   20492556.0854
  -5258865.88846  -3989977.73745  23657070.6794   23657076.0954
  -7084702.64345  -5298601.30145  23882140.3904   23882145.6534
 -12124014.55947  -9302975.79947  20142090.3874   20142094.1614
 04  3  1  1 48 30.0000000  0  8G10G28G 9G18G29G 7G 8G26
  -8905305.38646   1335920.75445  23594597.0614   23594602.1254
 -14287363.59747 -10943793.47746  21900479.8334   21900482.2604
 -16388489.05247 -12558392.16846  22019678.5504   22019683.0634
  -9323005.52646   -879372.86645  23338168.5214   23338171.7564
 -12123597.67846  -9315952.98547  20494016.2134   20494020.3394
  -5326910.80346  -4042999.80745  23644122.5784   23644125.7664
  -6998923.85846  -5231760.64645  23898463.4904   23898467.5224
 -12131718.65747  -9308978.98947  20140624.4174   20140628.0864
 04  3  1  1 49  0.0000000  0  8G10G28G 9G18G29G 7G 8G26
  -8802123.61345   1416322.12345  23614231.8704   23614237.5674
 -14236673.30548 -10904294.56946  21910126.0464   21910129.2234
 -16469587.04147 -12621585.37346  22004245.7944   22004250.1194
  -9401195.04346   -940299.74045  23323289.4364   23323292.7184
 -12115501.91446  -9309644.60547  20495557.1064   20495560.7404
  -5394689.72945  -4095814.58045  23631224.6304   23631230.1634
  -6913098.66845  -5164883.87345  23914794.8294   23914799.3184
 -12138999.62247  -9314652.47647  20139238.9514   20139242.8434
 04  3  1  1 49 30.0000000  0  8G10G28G 9G18G29G 7G 8G26
  -8698817.44445   1496820.45045  23633889.8194   23633893.5824
 -14185555.07147 -10864462.16946  21919853.3854   21919856.7964
 -16550437.80147 -12684585.91746  21988860.4154   21988864.9404
  -9478944.21246  -1000883.50845  23308494.1024   23308495.7324
 -12107006.07846  -9303024.47847  20497173.6674   20497177.5944
  -5462202.61145  -4148421.99745  23618376.4624   23618381.7614
  -6827230.73045  -5097973.78145  23931135.5734   23931142.2554
 -12145859.26246  -9319997.64847  20137933.4024   20137937.9504
 04  3  1  1 50  0.0000000  0  8G10G28G 9G18G29G 7G 8G26
  -8595391.85845   1577411.75545  23653571.2044   23653575.6824
 -14134013.14647 -10824299.63446  21929661.3574   21929665.3664
 -16631043.13547 -12747395.24446  21973521.8984   21973526.8334
  -9556252.68346  -1061123.90246  23293783.3664   23293787.3164
 -12098111.76546  -9296093.85547  20498866.2794   20498870.0074
  -5529449.14245  -4200821.89545  23605580.5394   23605586.4594
  -6741322.75246  -5031032.51345  23947483.4114   23947487.4554
 -12152299.16647  -9325015.76347  20136708.2594   20136712.1624
 04  3  1  1 50 30.0000000  0  8G10G28G 9G18G29G 7G 8G26
  -8491847.27045   1658095.88645  23673274.9984   23673280.6834
 -14082046.99247 -10783806.53146  21939550.2604   21939553.6254
 -16711399.69047 -12810010.73246  21958229.9924   21958234.1424
  -9633115.77046  -1121017.22646  23279156.1564   23279160.4584
 -12088815.81846  -9288850.27047  20500635.1254   20500639.5094
  -5596424.09345  -4253010.09045  23592835.2034   23592841.5914
  -6655373.13745  -4964058.80845  23963839.0794   23963844.1904
 -12158315.77446  -9329704.02247  20135562.9814   20135567.1074
 04  3  1  1 51  0.0000000  0  8G10G28G 9G18G29G 7G 8G26
  -8388184.21145   1738872.29145  23693001.7224   23693008.4514
 -14029656.58947 -10742982.84046  21949519.7234   21949523.3214
 -16791505.02946 -12872430.48146  21942986.8194   21942991.1684
  -9709529.02946  -1180560.03946  23264615.6544   23264617.9874
 -12079115.55546  -9281291.62447  20502481.2064   20502484.6764
  -5663122.93245  -4304983.16845  23580143.2984   23580148.2804
  -6569380.82545  -4897051.81945  23980201.6284   23980205.4734
 -12163906.64747  -9334060.54547  20134499.2684   20134503.0204
 04  3  1  1 51 30.0000000  0  8G10G28G 9G18G29G 7G 8G26
  -8284401.27745   1819742.10345  23712751.0874   23712757.4174
 -13976839.84347 -10701826.93846  21959570.5644   21959574.3984
 -16871354.26646 -12934650.64446  21927791.8684   21927796.8504
  -9785485.78146  -1239747.10446  23250161.1234   23250164.4414
 -12069005.98246  -9273414.04847  20504404.8634   20504408.9184
  -5729538.62945  -4356735.64446  23567505.0004   23567511.3774
  -6483342.07345  -4830008.70345  23996574.6034   23996580.7584
 -12169066.57547  -9338081.28947  20133517.5344   20133521.2034
 04  3  1  1 52  0.0000000  0  8G10G28G 9G18G29G 7G 8G26
  -8180501.90145   1900702.64945  23732522.3434   23732524.5354
 -13923599.23048 -10660340.74446  21969702.0324   21969704.8104
 -16950947.60946 -12996671.43646  21912645.6764   21912650.7524
  -9860984.27346  -1298577.05946  23235794.9454   23235798.2504
 -12058487.12246  -9265217.53147  20506406.6254   20506410.9974
  -5795669.37546  -4408266.07345  23554921.0094   23554926.6004
  -6397258.62045  -4762930.69845  24012956.3814   24012960.9654
 -12173795.47147  -9341766.13947  20132617.4624   20132621.5424
 04  3  1  1 52 30.0000000  0  8G10G28G 9G18G29G 7G 8G26
  -8076493.30645   1981748.25445  23752313.7674   23752316.2174
 -13869941.40348 -10618529.45846  21979912.7584   21979915.1964
 -17030288.81646 -13058495.73846  21897547.4394   21897552.0464
  -9936026.63646  -1357051.62446  23221514.4524   23221517.5704
 -12047562.94946  -9256705.20347  20508485.2444   20508489.0774
  -5861517.00745  -4459575.90645  23542390.1884   23542395.1824
  -6311135.70245  -4695822.02545  24029344.9074   24029350.8384
 -12178097.11247  -9345118.07147  20131799.1044   20131802.9494
 04  3  1  1 53  0.0000000  0  8G10G28G 9G18G29G 7G 8G26
  -7972382.41845   2062873.65145  23772126.8304   23772130.1594
 -13815872.91447 -10576398.16246  21990201.4614   21990204.3334
 -17109381.54846 -13120126.44946  21882496.5834   21882500.9214
 -10010614.88846  -1415172.29146  23207321.2484   23207324.5064
 -12036236.99546  -9247879.78647  20510640.4704   20510644.9014
  -5927083.21445  -4510666.45945  23529912.7794   23529918.3124
  -6224978.08844  -4628686.31145  24045739.6594   24045747.1624
 -12181975.04547  -9348139.85247  20131061.0424   20131064.8754
 04  3  1  1 53 30.0000000  0  8G10G28G 9G18G29G 7G 8G26
  -7868169.07744   2144078.83245  23791956.9544   23791961.5964
 -13761392.40247 -10533945.81446  22000568.7764   22000572.3994
 -17188222.37747 -13181560.83546  21867493.9444   21867499.0784
 -10084743.73946  -1472935.02445  23193214.2934   23193218.4304
 -12024505.51246  -9238738.37847  20512873.0344   20512876.9614
  -5992362.62946  -4561533.57745  23517491.2504   23517497.5224
  -6138783.79445  -4561521.81145  24062142.1974   24062146.6524
 -12185425.55447  -9350828.55647  20130404.2204   20130408.2764
 04  3  1  1 54  0.0000000  0  8G10G28G 9G18G29G 7G 8G26
  -7763856.92344   2225361.04845  23811807.0464   23811810.9034
 -13706503.24747 -10491175.04546  22011013.9014   22011017.9334
 -17266811.56847 -13242799.12746  21852539.2604   21852544.2424
 -10158411.79646  -1530338.70445  23179195.6944   23179199.4814
 -12012368.99547  -9229281.35947  20515182.4134   20515186.8914
  -6057353.52545  -4612175.81345  23505122.9574   23505129.2524
  -6052554.71545  -4494330.37345  24078550.7884   24078556.2274
 -12188448.95347  -9353184.46047  20129829.0584   20129833.1964
 04  3  1  1 54 30.0000000  0  8G10G28G 9G18G29G 7G 8G26
  -7659447.40745   2306719.11345  23831675.6424   23831681.1164
 -13651206.48347 -10448086.65646  22021536.5974   22021540.0554
 -17345147.42347 -13303840.00046  21837632.1194   21837636.4914
 -10231615.83046  -1587380.84745  23165265.4824   23165268.6944
 -11999825.66546  -9219507.34847  20517569.5234   20517573.2394
  -6122052.16945  -4662590.33545  23492811.9204   23492817.9924
  -5966290.42845  -4427111.41445  24094966.8324   24094974.0064
 -12191043.39247  -9355206.10747  20129335.3524   20129339.3844
 04  3  1  1 55  0.0000000  0  8G10G28G 9G18G29G 7G 8G26
  -7554941.66344   2388152.15545  23851561.7384   23851568.6904
 -13595502.20547 -10404680.73346  22032136.7924   22032139.7934
 -17423227.46047 -13364681.56146  21822774.1884   21822777.2714
 -10304351.47446  -1644057.92046  23151424.9194   23151427.9794
 -11986873.10246  -9209414.45147  20520034.4004   20520038.5144
  -6186454.13946  -4712773.70145  23480556.6624   23480562.3364
  -5879989.61045  -4359864.06645  24111390.1554   24111394.3864
 -12193206.34547  -9356891.52747  20128923.9894   20128927.6114
 04  3  1  1 55 30.0000000  0  8G10G28G 9G18G29G 7G 8G26
  -7450340.80045   2469659.30845  23871467.4494   23871470.5554
 -13539390.97447 -10360957.68746  22042814.2964   22042817.1214
 -17501049.50947 -13425322.09546  21807964.7734   21807969.3214
 -10376614.90046  -1700367.08446  23137673.4154   23137676.3694
 -11973509.08546  -9199000.93447  20522577.5764   20522581.3624
  -6250555.33746  -4762722.67645  23468358.7814   23468364.1024
  -5793651.47645  -4292587.62245  24127819.0784   24127824.3294
 -12194935.67947  -9358239.06447  20128594.7874   20128598.7264
 04  3  1  1 56  0.0000000  0  8G10G28G 9G18G29G 7G 8G26
  -7345654.58645   2551232.97145  23891387.8494   23891394.7654
 -13482881.65447 -10316924.45946  22053567.5374   22053571.1004
 -17578619.84746 -13485766.46146  21793203.4834   21793208.6644
 -10448410.80346  -1756311.90446  23124010.9114   23124013.4204
 -11959740.00746  -9188271.79447  20525197.4804   20525201.6184
  -6314360.13146  -4812440.66145  23456216.2674   23456221.4134
  -5707283.79945  -4225288.13045  24144254.7834   24144259.5544
 -12196237.31847  -9359253.33647  20128346.9914   20128350.8714
 04  3  1  1 56 30.0000000  0  8G10G28G 9G18G29G 7G 8G26
  -7240885.51245   2632871.09145  23911324.8834   23911330.0644
 -13425976.35047 -10272582.65846  22064396.4044   22064399.7454
 -17655938.02246 -13546014.34546  21778490.6054   21778495.6104
 -10519737.02746  -1811890.80346  23110438.1664   23110441.0264
 -11945565.29446  -9177226.57447  20527894.8924   20527898.9474
  -6377865.99646  -4861925.73145  23444131.2634   23444138.1214
  -5620887.33945  -4157966.25645  24160695.3604   24160699.0644
 -12197110.80746  -9359933.97947  20128180.5054   20128184.9954
 04  3  1  1 57  0.0000000  0  8G10G28G 9G18G29G 7G 8G26
  -7136021.50145   2714583.35845  23931280.5304   23931285.6174
 -13368662.52347 -10227922.53246  22075302.7874   22075306.4094
 -17732988.57647 -13606053.71446  21763828.5484   21763833.0504
 -10590576.16647  -1867090.11246  23096958.0874   23096960.9474
 -11930969.49746  -9165853.23847  20530672.4644   20530676.4024
  -6441055.56346  -4911164.34746  23432107.3974   23432113.9624
  -5534447.80745  -4090610.77645  24177143.8844   24177151.9264
 -12197540.60346  -9360268.88447  20128098.7814   20128103.2234
 04  3  1  1 57 30.0000000  0  8G10G28G 9G18G29G 7G 8G26
  -7031078.86845   2796356.79745  23951250.5254   23951255.3204
 -13310955.52547 -10182956.04446  22086284.1634   22086287.4454
 -17809784.58647 -13665894.72546  21749214.6684   21749218.5604
 -10660939.77846  -1921918.86646  23083568.2874   23083572.0734
 -11915965.80346  -9154162.04847  20533527.4104   20533531.5484
  -6503939.85646  -4960165.10645  23420140.9744   23420146.9874
  -5447979.52545  -4023232.91045  24193598.4664   24193605.4874
 -12197539.63247  -9360268.13647  20128099.0734   20128103.2344
 04  3  1  1 58  0.0000000  0  8G10G28G 9G18G29G 7G 8G26
  -6926056.54345   2878192.39245  23971235.5494   23971239.0654
 -13252853.83647 -10137682.01446  22097340.8724   22097344.0254
 -17886321.30246 -13725533.69546  21734650.2294   21734654.2854
 -10730821.30046  -1976371.98446  23070270.1614   23070274.0884
 -11900549.45346  -9142149.31347  20536461.0964   20536465.0584
  -6566512.50346  -5008922.99146  23408233.6354   23408239.2264
  -5361479.43144  -3955830.23145  24210058.9534   24210065.0254
 -12197103.24146  -9359928.08747  20128181.9384   20128186.2284
 04  3  1  1 58 30.0000000  0  9G 5G10G28G 9G18G29G 7G 8G26
                                  24621139.739
  -6820955.94145   2960088.94045  23991235.3994   23991241.8004
 -13194358.45947 -10092101.17946  22108471.7724   22108475.8514
 -17962597.09046 -13784969.36746  21720135.2274   21720138.7094
 -10800217.73846  -2030447.12246  23057063.8274   23057066.7114
 -11884719.22246  -9129814.07747  20539473.5864   20539477.2554
  -6628769.95346  -5057435.26346  23396386.0994   23396391.5734
  -5274946.99045  -3888402.35645  24226525.4464   24226528.7164
 -12196229.89646  -9359247.56947  20128348.3084   20128352.3994
 04  3  1  1 59  0.0000000  0  9G 5G10G28G 9G18G29G 7G 8G26
   -115427.685 5                  24598418.350
  -6715789.40045   3042036.86745  24011247.7634   24011252.5694
 -13135480.93247 -10046222.59646  22119675.7884   22119680.3474
 -18038620.87746 -13844208.66346  21705668.4304   21705672.8844
 -10869136.44646  -2084150.08446  23043949.7674   23043951.9124
 -11868483.71846  -9117163.04447  20542563.0004   20542567.2084
  -6690718.93446  -5105707.19845  23384597.4714   23384603.8004
  -5188392.28045  -3820957.23245  24242995.9424   24243002.2254
 -12194928.20047  -9358233.26747  20128596.2544   20128600.0404
 04  3  1  1 59 30.0000000  0  9G 5G10G28G 9G18G29G 7G 8G26
   -234752.14945                  24575711.1774
  -6610549.81245   3124041.75345  24031273.9504   24031276.4814
 -13076213.65647 -10000040.30446  22130954.0994   22130957.4174
 -18114382.27247 -13903243.51246  21691251.2044   21691254.8844
 -10937565.61846  -2137471.49246  23030927.7954   23030932.8354
 -11851832.54146  -9104188.11347  20545731.7514   20545735.8304
  -6752347.31746  -5153729.32345  23372870.1154   23372875.8484
  -5101806.34045  -3753487.68845  24259472.4904   24259475.5624
 -12193187.87947  -9356877.18147  20128927.3144   20128931.2764
 04  3  1  2  0  0.0000000  0  9G 5G10G28G 9G18G29G 7G 8G26
   -353988.37845    -49541.23445  24553020.9514   24553026.5194
  -6505242.52245   3206099.37145  24051314.1094   24051317.6494
 -13016561.13847  -9953557.81346  22142305.4354   22142308.7524
 -18189882.98647 -13962075.23746  21676883.8624   21676887.7424
 -11005505.30746  -2190411.48546  23017999.8384   23018002.2994
 -11834767.89846  -9090890.99647  20548978.9784   20548982.9754
  -6813655.19846  -5201501.70345  23361204.0674   23361211.4164
  -5015192.28745  -3685996.23445  24275955.8754   24275959.3444
 -12191010.90046  -9355180.83547  20129341.5424   20129345.8324
 04  3  1  2  0 30.0000000  0  9G 5G10G28G 9G18G29G 7G 8G26
   -473135.58545   -142383.23645  24530349.0574   24530354.9184
  -6399871.20145   3288206.87945  24071365.0714   24071372.8074
 -12956526.85947  -9906777.85846  22153729.5914   22153732.3104
 -18265123.94047 -14020704.54546  21662565.8644   21662570.0724
 -11072954.58146  -2242969.37546  23005163.8464   23005165.9684
 -11817290.65447  -9077272.37047  20552304.8414   20552309.1784
  -6874641.27446  -5249023.27745  23349598.9714   23349603.8594
  -4928552.23345  -3618484.49745  24292441.9044   24292447.8714
 -12188397.87447  -9353144.71547  20129839.0134   20129842.6824
 04  3  1  2  1  0.0000000  0  9G 5G10G28G 9G18G29G 7G 8G26
   -592191.65445   -235154.23345  24507692.9104   24507698.3844
  -6294438.35645   3370362.29345  24091428.3354   24091435.1104
 -12896112.84647  -9859702.01246  22165226.1164   22165229.6454
 -18340104.57847 -14079131.02646  21648297.5344   21648301.9304
 -11139911.33246  -2295143.41646  22992422.3974   22992424.8704
 -11799400.04846  -9063331.64247  20555709.2884   20555713.1684
  -6935303.03846  -5296292.20146  23338055.1994   23338061.5994
  -4841886.50045  -3550952.75145  24308933.7844   24308939.0714
 -12185348.13846  -9350768.30447  20130418.9964   20130423.0754
 04  3  1  2  1 30.0000000  0  9G 5G10G28G 9G18G29G 7G 8G26
   -711150.65345   -327849.48445  24485055.8564   24485058.1774
  -6188942.96745   3452566.55145  24111503.7024   24111510.4664
 -12835317.35447  -9812328.90146  22176795.2904   22176798.9484
 -18414820.51847 -14137351.20946  21634079.7794   21634084.6794
 -11206369.27046  -2346928.86746  22979775.9804   22979780.7634
 -11781091.68646  -9049065.39947  20559193.2974   20559197.1074
  -6995633.98446  -5343303.30746  23326574.3044   23326579.9424
  -4755191.92245  -3483398.56345  24325430.9104   24325435.9624
 -12181857.03347  -9348047.96547  20131083.6344   20131087.3974
 04  3  1  2  2  0.0000000  0  9G 5G10G28G 9G18G29G 7G 8G26
   -830014.07145   -420470.29645  24462436.8214   24462441.5224
  -6083391.28345   3534814.57945  24131588.6734   24131593.7014
 -12774146.27647  -9764663.09946  22188435.5004   22188439.3214
 -18489274.62848 -14195367.37246  21619911.6424   21619915.8154
 -11272330.09446  -2398326.90646  22967224.0434   22967227.9354
 -11762368.80146  -9034476.14847  20562756.1364   20562759.8764
  -7055635.28745  -5390057.54946  23315156.1834   23315161.8574
  -4668472.71543  -3415825.19545  24341932.9234   24341935.7364
 -12177927.70947  -9344986.16947  20131831.1974   20131835.2414
 04  3  1  2  2 30.0000000  0  9G 5G10G28G 9G18G29G 7G 8G26
   -948782.24745   -513016.92845  24439835.2014   24439838.7294
  -5977788.44145   3617102.54745  24151684.7764   24151692.1024
 -12712604.08147  -9716708.16446  22200146.5244   22200149.3964
 -18563468.70748 -14253180.91446  21605792.8684   21605797.1944
 -11337794.56146  -2449338.17946  22954766.4994   22954770.2274
 -11743233.62246  -9019565.62547  20566397.6124   20566401.5164
  -7115307.14445  -5436555.09846  23303801.3914   23303806.4554
  -4581732.08944  -3348235.03545  24358439.1574   24358446.9054
 -12173562.11346  -9341584.40547  20132662.0094   20132666.1704
 04  3  1  2  3  0.0000000  0  9G 5G10G28G 9G18G29G 7G 8G26
  -1067452.10244   -605487.00445  24417253.5344   24417258.9614
  -5872135.62944   3699429.37345  24171789.4714   24171795.5434
 -12650691.26947  -9668464.42346  22211928.2144   22211931.9424
 -18637400.67248 -14310790.21547  21591724.0464   21591728.3714
 -11402758.52846  -2499959.44846  22942404.5774   22942408.3054
 -11723683.71546  -9004331.94647  20570117.6424   20570121.6864
  -7174645.40746  -5482792.70846  23292510.1504   23292516.1284
  -4494969.00044  -3280627.52645  24374950.0654   24374953.9104
 -12168758.11247  -9337841.03347  20133576.3184   20133580.3154
 04  3  1  2  3 30.0000000  0  9G 5G10G28G 9G18G29G 7G 8G26
  -1186018.36745   -697876.26745  24394690.7954   24394696.1994
  -5766432.61545   3781795.38745  24191904.4114   24191907.5994
 -12588407.29247  -9619931.45046  22223780.4014   22223785.1954
 -18711066.85347 -14368192.42847  21577705.8654   21577710.8004
 -11467216.66846  -2550186.54146  22930138.5124   22930142.3454
 -11703715.93046  -8988772.64147  20573917.5144   20573921.3484
  -7233644.83246  -5528766.27246  23281282.4744   23281288.9924
  -4408181.21945  -3213000.70345  24391465.8314   24391471.7514
 -12163512.31447  -9333753.40947  20134574.4264   20134578.3424
 04  3  1  2  4  0.0000000  0  9G 5G10G28G 9G18G29G 7G 8G26
  -1304477.01345   -790181.68245  24372149.4684   24372154.4624
  -5660679.93744   3864200.06345  24212029.0874   24212029.8144
 -12525752.53647  -9571109.55046  22235703.3844   22235707.4404
 -18784464.96848 -14425385.75947  21563738.6074   21563743.1914
 -11531165.21146  -2600016.58246  22917969.2544   22917973.6964
 -11683328.09446  -8972886.02247  20577797.0794   20577801.2054
  -7292301.07346  -5574472.41245  23270120.1544   23270127.0934
  -4321367.68944  -3145353.86245  24407985.7644   24407990.6874
 -12157822.27146  -9329319.61347  20135657.1004   20135661.1204
 04  3  1  2  4 30.0000000  0  9G 5G10G28G 9G18G29G 7G 8G26
  -1422830.80245   -882405.35245  24349626.8814   24349632.0624
  -5554885.38243   3946637.35445  24232160.3744   24232166.7284
 -12462734.02247  -9522004.23946  22247695.3074   22247698.1444
 -18857599.47248 -14482373.67647  21549821.6404   21549825.7314
 -11594607.38546  -2649452.02446  22905897.1114   22905900.2054
 -11662524.74446  -8956675.61547  20581755.7254   20581759.7114
  -7350616.78246  -5619913.21045  23259022.9774   23259028.4284
  -4234533.79945  -3077691.12645  24424509.4614   24424514.9824
 -12151692.49347  -9324543.17447  20136823.6204   20136827.2774
 04  3  1  2  5  0.0000000  0  9G 5G10G28G 9G18G29G 7G 8G26
  -1541075.92645   -974544.45145  24327125.9984   24327131.0854
                                  24252305.2864
 -12399352.09847  -9472615.71546  22259756.7844   22259759.5854
 -18930467.86648 -14539154.22647  21535955.2144   21535959.4104
 -11657539.32446  -2698489.89246  22893921.4094   22893924.2924
 -11641303.30247  -8940139.43847  20585793.9814   20585798.0134
  -7408587.55246  -5665085.23446  23247992.0814   23247997.1804
  -4147678.15745  -3010011.38045  24441037.3874   24441042.2404
 -12145120.32846  -9319422.00447  20138074.0994   20138078.1674
 04  3  1  2  5 30.0000000  0  9G 5G10G28G 9G18G29G 7G 8G26
  -1659207.96344  -1066595.34445  24304644.6674   24304649.0984
    102343.62941                  24272447.4884
 -12335606.37747  -9422943.71146  22271886.9694   22271888.9974
 -19003067.13948 -14595725.07847  21522139.9604   21522144.3794
 -11719956.52346  -2747126.62546  22882044.0514   22882047.1804
 -11619661.16446  -8923275.43847  20589912.6154   20589917.1164
  -7466208.56046  -5709984.70246  23237027.4634   23237032.7384
  -4060799.04044  -2942313.46745  24457569.9764   24457576.5174
 -12138103.04546  -9313953.99147  20139409.6004   20139413.8324
 04  3  1  2  6  0.0000000  0  9G 5G10G28G 9G18G29G 7G 8G26
  -1777226.55843  -1158557.86645  24282187.0494   24282192.9924
                                  24292598.1314
 -12271500.88347  -9372991.39146  22284085.9834   22284088.7734
 -19075398.49748 -14652087.16947  21508375.8984   21508380.1184
 -11781858.40546  -2795361.90446  22870264.4074   22870267.2904
 -11597599.71846  -8906084.71747  20594110.7254   20594114.3944
  -7523479.28846  -5754611.22146  23226128.9594   23226133.3084
  -3973898.97843  -2874599.12345  24474105.9914   24474109.6724
 -12130641.95447  -9308140.16547  20140829.3674   20140833.3064
 04  3  1  2  6 30.0000000  0  8G 5G28G 9G18G29G 7G 8G26
  -1895128.51345  -1250429.53245  24259751.9584   24259758.5934
 -12207036.70947  -9322759.58646  22296353.0934   22296355.6364
 -19147460.11448 -14708239.04547  21494663.0424   21494667.3794
 -11843242.20346  -2843193.42946  22858583.0864   22858586.7794
 -11575117.50447  -8888566.12047  20598388.7834   20598393.0624
  -7580396.14746  -5798962.04246  23215298.0944   23215302.4784
  -3886977.23144  -2806867.94645  24490647.3664   24490650.7314
 -12122735.40346  -9301979.21547  20142333.9844   20142338.7084
 04  3  1  2  7  0.0000000  0  8G 5G28G 9G18G29G 7G 8G26
  -2012919.56745  -1342214.78545  24237336.3904   24237342.2864
 -12142224.16447  -9272256.28646  22308686.5274   22308689.6804
 -19219259.74348 -14764186.78247  21480999.9814   21481004.5764
 -11904113.75346  -2890625.82146  22846999.9414   22847003.4464
 -11552222.25446  -8870725.66747  20602745.8074   20602749.8754
  -7636964.85546  -5843041.55546  23204533.3704   23204539.2544
  -3800042.57845  -2739126.67045  24507191.0324   24507192.1814
 -12114390.97747  -9295477.07647  20143922.0744   20143926.0714
 04  3  1  2  7 30.0000000  0  8G 5G28G 9G18G29G 7G 8G26
  -2130594.92345  -1433909.86945  24214944.0364   24214951.2334
 -12077062.17547  -9221480.71046  22321086.3814   22321089.2534
 -19290793.54348 -14819927.37147  21467387.4794   21467392.3324
 -11964468.31346  -2937655.35346  22835514.5464   22835517.7224
 -11528910.26746  -8852560.49247  20607181.7294   20607185.5514
  -7693179.92946  -5886845.53346  23193835.4164   23193840.5624
  -3713092.27045  -2671373.16245  24523736.8754   24523743.3464
 -12105605.01847  -9288630.88547  20145593.7454   20145597.6834
 04  3  1  2  8  0.0000000  0  8G 5G28G 9G18G29G 7G 8G26
  -2248143.98445  -1525506.49645  24192574.4754   24192579.8084
 -12011544.56547  -9170428.03546  22333553.8504   22333556.9914
 -19362052.52748 -14875453.80147  21453827.3444   21453831.6584
 -12024295.57146  -2984273.97446  22824129.9884   22824134.1264
 -11505173.07347  -8834063.97647  20611698.7034   20611702.8184
  -7749030.67346  -5930365.55646  23183207.6654   23183211.9094
  -3626118.70245  -2603601.60545  24540287.0194   24540290.6424
 -12096368.83146  -9281433.86047  20147351.3674   20147355.6814
 04  3  1  2  8 30.0000000  0  8G 5G28G 9G18G29G 7G 8G26
  -2365565.42345  -1617003.73945  24170230.6924   24170236.5764
 -11945674.44747  -9119100.66446  22346088.7184   22346092.5054
 -19433036.98548 -14930766.35147  21440319.6404   21440323.8134
 -12083594.11046  -3030480.66846  22812845.6384   22812850.3164
 -11481011.02446  -8815236.40747  20616296.6994   20616300.6384
  -7804515.70146  -5973600.62546  23172648.8734   23172653.6674
  -3539123.15145  -2535812.84845  24556842.2754   24556849.5784
 -12086682.70447  -9273886.24047  20149194.7204   20149198.6474
 04  3  1  2  9  0.0000000  0  8G 5G28G 9G18G29G 7G 8G26
  -2482868.26245  -1708408.48945  24147908.3824   24147913.4114
 -11879465.03947  -9067508.91246  22358687.9064   22358691.0244
 -19503757.35347 -14985873.12046  21426861.5884   21426865.9954
 -12142373.38346  -3076282.71046  22801660.6704   22801663.7764
 -11456434.91046  -8796086.19847  20620973.5964   20620977.5934
  -7859643.60145  -6016557.39546  23162158.7394   23162164.7294
  -3452117.47045  -2468016.29545  24573398.5494   24573403.0044
 -12076557.35247  -9265996.36347  20151121.4234   20151125.3154
 04  3  1  2  9 30.0000000  0  8G 5G28G 9G18G29G 7G 8G26
  -2600045.32345  -1799715.29645  24125610.1334   24125617.0964
 -11812913.47147  -9015650.55946  22371351.9864   22371354.8344
 -19574207.94647 -15040769.68346  21413455.5594   21413459.4984
 -12200625.92946  -3121674.32946  22790575.4804   22790578.4694
 -11431439.38747  -8776609.17147  20625729.9074   20625734.5144
  -7914407.01846  -6059230.16446  23151736.9394   23151743.3394
  -3365096.76645  -2400208.01245  24589957.4884   24589960.1494
 -12065987.11147  -9257759.81247  20153132.8614   20153136.6704
 04  3  1  2 10  0.0000000  0  8G 5G28G 9G18G29G 7G 8G26
  -2717095.52745  -1890923.24245  24103335.9564   24103345.8734
 -11746022.96547  -8963528.08046  22384080.8304   22384084.4644
 -19644389.31147 -15095456.47146  21400100.1864   21400105.1564
 -12258351.34247  -3166655.16546  22779590.6564   22779594.2084
 -11406025.13246  -8756805.86747  20630566.1954   20630570.1104
  -7968804.71246  -6101617.97246  23141386.3404   23141391.9084
  -3278062.75144  -2332389.27345  24606519.4124   24606527.3014
 -12054972.72147  -9249177.18447  20155229.0254   20155232.9524
 04  3  1  2 10 30.0000000  0  8G 5G28G 9G18G29G 7G 8G26
  -2834011.60845  -1982026.69445  24081088.3574   24081095.9064
 -11678789.90947  -8911138.70646  22396875.0184   22396877.8074
 -19714295.24646 -15149928.60346  21386797.6254   21386802.7244
 -12315541.71746  -3211219.09246  22768707.5454   22768710.8504
 -11380186.11547  -8736671.57747  20635483.1604   20635487.7204
  -8022828.53546  -6143714.45446  23131105.9714   23131111.9144
  -3191010.25045  -2264556.13745  24623084.9854   24623090.2954
 -12043507.92346  -9240243.57947  20157410.4584   20157414.8654
 04  3  1  2 11  0.0000000  0  8G 5G28G 9G18G29G 7G 8G26
  -2950795.69845  -2073027.19145  24058864.3964   24058869.5544
 -11611220.93046  -8858487.56146  22409732.7064   22409736.1874
 -19783929.51247 -15204189.07746  21373546.4514   21373551.0234
 -12372199.98746  -3255368.38246  22757925.3374   22757928.2674
 -11353926.71746  -8716209.70847  20640480.1514   20640483.8914
  -8076480.76446  -6185521.38246  23120896.3544   23120901.6294
  -3103944.13645  -2196712.54545  24639653.4224   24639658.4044
 -12031596.87446  -9230962.24747  20159677.1794   20159681.3754
 04  3  1  2 11 30.0000000  0  8G 5G28G 9G18G29G 7G 8G26
  -3067443.09045  -2163921.28645  24036667.9314   24036674.4254
 -11543316.05146  -8805574.65446  22422654.7394   22422659.0534
 -19853289.15547 -15258235.52546  21360347.7984   21360352.1714
 -12428321.66046  -3299099.60446  22747246.2204   22747250.0654
 -11327243.93946  -8695417.94247  20645557.8674   20645561.7364
  -8129756.73846  -6227035.14046  23110757.9894   23110762.9594
  -3016862.62145  -2128856.82345  24656224.1664   24656230.0394
 -12019236.82946  -9221331.05447  20162029.2944   20162033.6194
 04  3  1  2 12  0.0000000  0  8G 5G28G 9G18G29G 7G 8G26
  -3183954.03945  -2254708.96945  24014495.0714   24014503.7804
 -11475079.53147  -8752403.33946  22435639.6974   22435642.9674
 -19922375.83047 -15312069.28846  21347201.5294   21347206.3824
 -12483907.25446  -3342413.05646  22736668.7984   22736672.6084
 -11300139.93547  -8674297.93547  20650715.3704   20650719.7664
  -8182656.42246  -6268255.65946  23100691.4884   23100697.1154
  -2929768.47644  -2060991.27545  24672798.4974   24672803.7014
 -12006429.61647  -9211351.40647  20164466.3704   20164470.3904
 04  3  1  2 12 30.0000000  0  8G 5G28G 9G18G29G 7G 8G26
  -3300330.24545  -2345391.76545  23992350.0474   23992357.0344
 -11406517.19747  -8698978.16346  22448686.8454   22448690.1514
 -19991192.62747 -15365692.75046  21334106.0354   21334109.9854
 -12538958.66246  -3385310.22146  22726192.9184   22726195.4744
 -11272618.10446  -8652852.36447  20655952.7074   20655956.5874
  -8235181.12746  -6309183.97646  23090696.2664   23090702.8664
  -2842665.60945  -1993118.95945  24689373.3954   24689377.8494
 -11993178.39546  -9201025.78147  20166987.8884   20166991.8744
 04  3  1  2 13  0.0000000  0  8G 5G28G 9G18G29G 7G 8G26
  -3416572.42144  -2435970.07045  23970231.2114   23970238.3624
 -11337634.37947  -8645303.23846  22461794.8524   22461798.2874
 -20059741.91447 -15419107.74746  21321061.3274   21321064.9964
 -12593476.72646  -3427791.83746  22715818.7304   22715822.2234
 -11244681.12547  -8631083.30347  20661268.9104   20661272.7554
  -8287331.68346  -6349820.76946  23080772.6964   23080777.8654
  -2755558.02045  -1925242.83845  24705949.2594   24705954.7214
 -11979486.01446  -9190356.39947  20169593.4314   20169597.9094
 04  3  1  2 13 30.0000000  0  8G 5G28G 9G18G29G 7G 8G26
  -3532671.30145  -2526436.64445  23948136.7354   23948143.5584
 -11268425.76047  -8591374.45446  22474964.9694   22474967.1504
 -20128015.72347 -15472308.13146  21308069.2894   21308072.7354
 -12647452.63046  -3469850.95846  22705546.8094   22705550.2094
 -11216321.47546  -8608984.88047  20666665.7474   20666670.2484
  -8339098.45646  -6390158.50746  23070921.5034   23070926.8254
  -2668438.22645  -1857357.32945  24722527.8904   24722531.2074
 -11965344.54146  -9179337.07847  20172284.4904   20172288.9794
 04  3  1  2 14  0.0000000  0  8G 5G28G 9G18G29G 7G 8G26
  -3648622.53945  -2616788.25945  23926072.5304   23926078.9074
 -11198891.22447  -8537191.70546  22488196.9604   22488199.6094
 -20196011.04547 -15525291.50346  21295130.3534   21295134.6434
 -12700881.89547  -3511484.15246  22695380.1474   22695382.5384
 -11187536.43246  -8586554.99247  20672143.1364   20672146.8524
  -8390476.76146  -6430193.51346  23061144.1814   23061150.2534
  -2581304.67945  -1789461.03745  24739109.2674   24739114.1084
 -11950751.32347  -9167965.75347  20175061.6664   20175065.1474
 04  3  1  2 14 30.0000000  0  8G 5G28G 9G18G29G 7G 8G26
  -3764430.54045  -2707028.29545  23904035.8484   23904041.4864
 -11129039.58246  -8482761.83946  22501489.0114   22501493.3134
 -20263734.08247 -15578062.69146  21282243.0764   21282246.9094
 -12753769.79147  -3552695.47846  22685315.5214   22685318.2644
 -11158332.53048  -8563798.71647  20677700.5204   20677704.8814
  -8441471.07346  -6469929.34546  23051440.8744   23051447.5794
  -2494164.23145  -1721559.45245  24755691.8084   24755696.2974
 -11935712.66447  -9156247.32547  20177923.4524   20177927.4964
 04  3  1  2 15  0.0000000  0  9G 5G28G 9G18G29G 7G 8G26G22
  -3880082.20845  -2797146.39045  23882028.0604   23882034.6134
 -11058862.11346  -8428078.10146  22514843.1094   22514846.7904
 -20331173.11847 -15630612.59246  21269410.1394   21269414.5814
 -12806103.37146  -3593474.91746  22675357.1104   22675360.2174
 -11128698.65746  -8540707.37847  20683339.8724   20683344.1744
  -8492068.39446  -6509355.79846  23041812.3474   23041817.9864
  -2407006.68545  -1653644.42645  24772276.5494   24772281.1214
 -11920217.33247  -9144173.03447  20180872.0924   20180875.7384
                                  25339235.1214
 04  3  1  2 15 30.0000000  0  9G 5G28G 9G18G29G 7G 8G26G22
  -3995581.48845  -2887145.82445  23860048.1784   23860054.5204
 -10988366.67246  -8373146.61446  22528257.9814   22528261.3924
 -20398333.60946 -15682945.40846  21256629.2494   21256634.0904
 -12857887.11146  -3633825.84646  22665502.9434   22665506.6824
 -11098640.33146  -8517285.31447  20689059.4934   20689063.1274
  -8542272.12946  -6548475.60046  23032258.9984   23032263.9094
  -2319838.08044  -1585720.96745  24788864.8624   24788870.4544
 -11904270.78947  -9131747.17147  20183906.5834   20183910.2404
    -90008.93242                  25321513.5704
 04  3  1  2 16  0.0000000  0  9G 5G28G 9G18G29G 7G 8G26G22
  -4110923.10145  -2977022.38045  23838099.2144   23838104.7234
 -10917552.56746  -8317966.79546  22541733.2974   22541737.2714
 -20465211.94446 -15735058.36246  21243902.8394   21243907.9974
 -12909116.19246  -3673744.64546  22655754.0714   22655758.1504
 -11068154.55246  -8493530.15747  20694860.7924   20694865.0474
  -8592077.15646  -6587284.71146  23022781.1124   23022786.4584
  -2232656.14545  -1517786.95845  24805453.7444   24805458.9724
 -11887869.69547  -9118967.10147  20187027.5524   20187031.5494
   -182839.65742                  25303849.4144
 04  3  1  2 16 30.0000000  0  9G 5G28G 9G18G29G 7G 8G26G22
  -4226116.05945  -3066783.13645  23816179.1304   23816184.2054
 -10846432.99546  -8262548.94646  22555267.2354   22555271.3494
 -20531818.39346 -15786959.44246  21231228.2564   21231232.2414
 -12959799.99746  -3713238.51346  22646109.2894   22646113.5804
 -11037252.06347  -8469450.31947  20700741.3024   20700745.4644
  -8641492.18346  -6625789.88746  23013377.3364   23013383.0444
  -2145472.05644  -1449851.21845  24822045.2204   24822049.6274
 -11871024.79047  -9105841.21447  20190233.1264   20190236.8534
   -275389.92142    -50456.33345  25286237.0084   25286240.2194
 04  3  1  2 17  0.0000000  0  9G 5G28G 9G18G29G 7G 8G26G22
  -4341148.58146  -3156418.83245  23794289.4744   23794293.1664
 -10775000.30746  -8206887.10646  22568860.3714   22568864.6964
 -20598142.55046 -15838640.57846  21218607.6334   21218611.3374
 -13009926.76746  -3752298.32546  22636570.5914   22636574.6114
 -11005922.84047  -8445037.94947  20706702.8854   20706707.5974
  -8690505.44146  -6663982.05546  23004050.8514   23004057.1344
  -2058276.39545  -1381906.57545  24838637.6584   24838643.3434
 -11853725.92546  -9092361.58047  20193524.8744   20193529.1294
   -367647.85041   -122345.68645  25268679.8794   25268680.3014
 04  3  1  2 17 29.9990000  0  9G 5G28G 9G18G29G 7G 8G26G22
  -4456021.34945  -3245930.08345  23772429.6424   23772435.5854
 -10703265.70346  -8150990.03446  22582511.2154   22582515.3414
 -20664188.30446 -15890104.74945  21206038.9974   21206043.3574
 -13059499.89347  -3790926.74346  22627137.1854   22627140.8664
 -10974174.37146  -8420298.90247  20712744.6284   20712748.6254
  -8739119.62546  -6701863.22046  22994799.9794   22994805.4774
  -1971079.14744  -1313960.75245  24855231.7534   24855237.4384
 -11835980.20847  -9078533.75647  20196902.0174   20196905.6274
   -459613.87242                  25251181.4584
 04  3  1  2 17 59.9990000  0  9G 5G28G 9G18G29G 7G 8G26G22
  -4570745.68846  -3335325.65445  23750598.5924   23750602.8234
 -10631232.44947  -8094860.21846  22596218.6874   22596221.7824
 -20729965.17846 -15941359.37345  21193521.7824   21193526.7174
 -13108527.00747  -3829129.68646  22617807.7444   22617810.1594
 -10942010.26447  -8395235.95847  20718865.2054   20718869.6824
  -8787341.58846  -6739438.74946  22985623.6374   22985629.3924
  -1883880.60444  -1246013.77645  24871824.7464   24871828.3214
 -11817791.64347  -9064360.85847  20200363.1744   20200367.1134
   -551297.64344                  25233734.2084
 04  3  1  2 18 29.9990000  0  9G 5G28G 9G18G29G 7G 8G26G22
  -4685310.46446  -3424596.90745  23728797.7564   23728802.9144
 -10558899.64546  -8038497.00446  22609982.8894   22609986.6284
 -20795465.28646 -15992398.42045  21181057.7604   21181061.5114
 -13156999.32847  -3866900.28746  22608583.3554   22608587.3054
 -10909426.21046  -8369845.79847  20725065.7424   20725069.9974
  -8835162.46846  -6776701.78246  22976523.6294   22976529.6314
  -1796679.00644  -1178064.58445  24888418.4134   24888425.9974
 -11799155.56947  -9049839.24547  20203909.4494   20203913.1644
   -642688.23745                  25216344.3154
 04  3  1  2 18 59.9990000  0  9G 5G28G 9G18G29G 7G 8G26G22
  -4799708.60546  -3513738.30745  23707027.8114   23707032.6174
 -10486264.48146  -7981898.20946  22623805.1794   22623808.6494
 -20860682.87745 -16043217.30645  21168647.4184   21168652.0834
 -13204910.55546  -3904233.70046  22599466.1654   22599470.0694
 -10876417.02146  -8344124.35147  20731347.3324   20731351.4704
  -8882574.93646  -6813646.54546  22967501.5104   22967506.7854
  -1709469.73744  -1110109.23645  24905013.6184   24905019.1624
 -11780066.49547  -9034964.64747  20207541.8464   20207545.6914
   -733777.72144                  25199008.9494
 04  3  1  2 19 29.9990000  0  9G 5G28G 9G18G29G 7G 8G26G22
  -4913941.35145  -3602750.87445  23685289.9324   23685294.5984
 -10413332.68146  -7925068.23046  22637683.5364   22637687.9084
 -20925620.80145 -16093818.24645  21156289.2684   21156292.7264
 -13252262.46847  -3941131.29546  22590455.5114   22590458.3604
 -10842985.82746  -8318074.08047  20737708.9924   20737713.0374
  -8929580.44246  -6850274.18646  22958556.4414   22958562.5254
  -1622256.30745  -1042150.76145  24921610.0124   24921610.4224
 -11760527.75146  -9019739.66447  20211259.9454   20211264.3764
   -824567.27143    -23553.91545  25181731.9004   25181736.0614
 04  3  1  2 19 59.9990000  0  9G 5G28G 9G18G29G 7G 8G26G22
  -5028006.13545  -3691632.45445  23663584.0784   23663589.3534
 -10340105.83446  -7868008.34246  22651617.9254   22651622.4264
 -20990277.55246 -16144200.20345  21143986.1564   21143988.6874
 -13299052.86246  -3977591.32046  22581551.0744   22581555.2834
 -10809132.19448  -8291694.63747  20744151.0704   20744155.6304
  -8976176.20546  -6886582.57146  22949689.1534   22949695.0144
  -1535038.72543   -974189.06845  24938206.6064   24938212.0214
 -11740538.56746  -9004163.69147  20215063.8264   20215067.8124
   -915053.74444    -94062.86545  25164514.1554   25164516.2774
 04  3  1  2 20 29.9990000  0  8G 5G28G 9G18G29G 7G26G22
  -5141899.70345  -3780380.70845  23641911.1894   23641915.8554
 -10266584.94746  -7810719.34146  22665608.8784   22665612.7584
 -21054651.86346 -16194362.02646  21131736.2754   21131740.9754
 -13345278.94046  -4013611.63746  22572755.1864   22572757.5074
 -10774854.83548  -8264985.01247  20750673.8074   20750678.5194
  -9022359.25746  -6922569.34846  22940901.1374   22940906.2834
 -11720097.47646  -8988235.57547  20218953.7294   20218957.8674
  -1005233.34444   -164332.74645  25147353.1804   25147354.0714
 04  3  1  2 20 59.9990000  0  8G 5G28G 9G18G29G 7G26G22
  -5255619.11445  -3868993.22845  23620271.2404   23620277.6174
 -10192771.29346  -7753202.21446  22679654.9854   22679659.5924
 -21118741.97746 -16244302.37446  21119540.1424   21119544.5494
 -13390938.57246  -4049190.57546  22564066.1094   22564069.1564
 -10740152.86447  -8237944.53147  20757277.4374   20757281.5404
  -9068126.30646  -6958231.98646  22932192.1264   22932198.3744
 -11699203.50947  -8971954.55547  20222929.4954   20222933.8094
  -1095102.53743   -234360.67545  25130249.8034   25130255.0194
 04  3  1  2 21 29.9990000  0  8G 5G28G 9G18G29G 7G26G22
  -5369168.34346  -3957473.16745  23598663.8104   23598668.3584
 -10118672.92546  -7695463.23346  22693755.5564   22693759.3784
 -21182553.31246 -16294025.52746  21107397.0034   21107401.1534
 -13436035.98546  -4084331.42946  22555484.6244   22555487.7194
 -10705031.93047  -8210577.57647  20763960.9404   20763965.4424
  -9113481.24846  -6993573.50546  22923561.1804   22923567.0994
 -11677862.25647  -8955325.02447  20226990.7534   20226994.3404
  -1184664.52544   -304149.31045  25113207.9294   25113209.6874
 04  3  1  2 21 59.9990000  0  8G 5G28G 9G18G29G 7G26G22
  -5482546.39045  -4045819.62745  23577088.9004   23577095.2064
 -10044292.77247  -7637504.67346  22707909.9424   22707912.4984
 -21246086.31546 -16343531.72046  21095307.3634   21095311.9004
 -13480570.87646  -4119033.94046  22547009.7934   22547012.5604
 -10669493.07646  -8182884.97447  20770723.8134   20770727.5764
  -9158423.17846  -7028593.18746  22915009.2484   22915015.3204
 -11656074.63746  -8938347.66047  20231136.6824   20231141.2194
  -1273918.12243   -373697.78345  25096223.3574   25096227.2844
 04  3  1  2 22 29.9990000  0  8G 5G28G 9G18G29G 7G26G22
  -5595752.49545  -4134032.22145  23555546.3024   23555553.0194
  -9969635.00646  -7579329.79546  22722116.5074   22722119.8124
 -21309341.87846 -16392821.75346  21083269.9104   21083273.6264
 -13524543.35846  -4153298.24746  22538641.8644   22538645.5214
 -10633537.87947  -8154867.94147  20777565.7294   20777569.9614
  -9202951.72346  -7063290.71946  22906535.4114   22906541.1084
 -11633841.99647  -8921023.53147  20235367.3954   20235371.2634
  -1362862.34342   -443004.86944  25079298.0354   25079299.6414
 04  3  1  2 22 59.9990000  0  8G 5G28G 9G18G29G 7G26G22
  -5708773.54145  -4222100.53845  23534038.7074   23534044.8854
  -9894690.44746  -7520931.42546  22736377.8854   22736381.1794
 -21372307.93647 -16441886.23546  21071288.1494   21071291.1974
 -13567940.57647  -4187114.25646  22530383.7844   22530387.1954
 -10597155.13748  -8126517.75547  20784489.2524   20784493.6134
  -9247053.39546  -7097655.64946  22898143.3734   22898148.9064
 -11611152.90547  -8903343.73347  20239685.0494   20239688.6714
  -1451483.27143   -512060.26245  25062434.1034   25062436.7294
 04  3  1  2 23 29.9990000  0  8G 5G28G 9G18G29G 7G26G22
  -5821619.71246  -4310032.61045  23512564.3934   23512570.2664
  -9819473.70746  -7462320.99046  22750691.1744   22750693.3434
 -21434996.50347 -16490734.43946  21059359.1574   21059364.1274
 -13610773.57947  -4220490.64246  22522233.0544   22522236.5234
 -10560357.13948  -8097843.99647  20791491.6134   20791495.8914
  -9290738.75446  -7131696.19846  22889830.1774   22889836.3664
 -11588019.54647  -8885317.74247  20244087.2214   20244091.0544
  -1539790.61143   -580871.07645  25045628.9904   25045629.3184
 04  3  1  2 23 59.9990000  0  8G 5G28G 9G18G29G 7G26G22
  -5934281.57546  -4397821.06245  23491126.0524   23491131.3624
  -9743979.37946  -7403494.23846  22765057.2264   22765060.7194
 -21497399.74147 -16539360.29746  21047484.1074   21047488.4564
 -13653033.58447  -4253420.50246  22514191.5864   22514194.5404
 -10523136.56146  -8068840.95947  20798574.3784   20798578.8204
  -9333998.46346  -7165405.04046  22881598.0424   22881604.5244
 -11564434.66747  -8866939.92247  20248575.2894   20248579.1574
  -1627774.81542   -649430.32445  25028886.9254   25028890.1734
 04  3  1  2 24 29.9990000  0  8G 5G28G 9G18G29G 7G26G22
  -6046760.68546  -4485467.11745  23469722.2314   23469726.4514
  -9668213.03546  -7344455.53646  22779475.0874   22779478.1944
 -21559520.20547 -16587765.85546  21035663.0054   21035667.2834
 -13694722.61047  -4285905.44946  22506258.3434   22506261.6724
 -10485496.83948  -8039511.31347  20805737.0954   20805741.7614
  -9376833.81146  -7198783.20946  22873446.9464   22873452.6544
 -11540401.34246  -8848212.66847  20253148.7504   20253152.6774
  -1715436.24943   -717737.98245  25012205.7264   25012208.5404
 04  3  1  2 24 59.9990000  0  8G 5G28G 9G18G29G 7G26G22
  -6159051.13345  -4572966.13345  23448354.0094   23448357.8784
  -9592173.03146  -7285203.59746  22793945.1034   22793947.2134
 -21621353.64247 -16635947.74646  21023896.2464   21023900.7714
 -13735835.72747  -4317941.62746  22498434.7584   22498438.2984
 -10447434.02547  -8009851.98147  20812980.1514   20812984.4894
  -9419239.12446  -7231826.28746  22865376.8954   22865383.2254
 -11515915.66146  -8829132.92247  20257808.2234   20257812.5024
  -1802768.88643   -785789.33645  24995587.2554   24995591.9204
 04  3  1  2 25 29.9990000  0  8G 5G28G 9G18G29G 7G26G22
  -6271151.77745  -4660317.28945  23427020.7524   23427028.0664
  -9515862.34946  -7225740.74146  22808466.8424   22808470.5584
 -21682900.41847 -16683906.26946  21012184.2284   21012188.6124
 -13776372.30447  -4349528.57146  22490720.5974   22490724.3724
 -10408949.07148  -7979863.72447  20820303.5124   20820307.6034
  -9461213.14446  -7264533.30346  22857390.0594   22857395.7564
 -11490978.29846  -8809701.21047  20262553.5464   20262557.7314
  -1889770.87944   -853583.19445  24979030.6584   24979033.0614
 04  3  1  2 25 59.9990000  0  8G 5G28G 9G18G29G 7G26G22
  -6383055.62745  -4747515.12745  23405727.5314   23405733.9194
  -9439278.38246  -7166064.90446  22823039.7784   22823044.1744
 -21744155.12847 -16731637.19646  21000527.7234   21000532.0144
 -13816326.37847  -4380661.62046  22483117.8454   22483121.5964
 -10370037.36748  -7949542.90647  20827708.2924   20827712.7694
  -9502749.26546  -7296899.11946  22849485.8204   22849491.2124
 -11465584.56646  -8789913.89547  20267385.7864   20267390.0534
  -1976435.04245   -921113.64545  24962540.8784   24962541.2304
 04  3  1  2 26 29.9990000  0  8G 5G28G 9G18G29G 7G26G22
  -6494767.66345  -4834563.42345  23384469.0074   23384474.1534
  -9362430.10446  -7106183.15446  22837663.7244   22837668.9284
 -21805123.71347 -16779145.15746  20988925.4324   20988930.3324
 -13855703.21947  -4411344.87746  22475624.2194   22475627.7944
 -10330705.64448  -7918894.83047  20835192.7554   20835197.1274
  -9543852.44446  -7328927.53846  22841664.6494   22841670.1354
 -11439741.00446  -8769776.05747  20272303.5374   20272308.0854
  -2062765.79545   -988384.39545  24946112.8764   24946113.3094
 04  3  1  2 26 59.9990000  0  8G 5G28G 9G18G29G 7G26G22
  -6606285.26346  -4921460.24345  23363247.9814   23363252.1074
  -9285319.40546  -7046096.91546  22852337.2994   22852340.7464
 -21865805.34747 -16826429.55446  20977378.3654   20977383.3714
 -13894501.37847  -4441577.20046  22468241.6214   22468244.9734
 -10290953.82247  -7887919.38747  20842757.3274   20842761.2774
  -9584520.42746  -7360616.88646  22833925.2794   22833930.4364
 -11413447.37247  -8749287.52547  20277307.4134   20277311.4344
  -2148759.84445  -1055392.75745  24929747.1164   24929751.3014
 04  3  1  2 27 29.9990000  0  8G 5G28G 9G18G29G 7G26G22
  -6717607.90645  -5008205.11445  23342063.0584   23342069.7044
  -9207949.64346  -6985808.78046  22867060.7184   22867063.1924
 -21926200.59947 -16873490.77546  20965885.8614   20965890.3624
 -13932721.13747  -4471358.82146  22460968.3574   22460972.1784
 -10250782.99548  -7856617.46347  20850401.6024   20850405.5174
  -9624752.51546  -7391966.55746  22826269.1084   22826275.6264
 -11386704.82546  -8728449.18247  20282396.1984   20282400.1494
  -2234416.16645  -1122138.00545  24913447.7894   24913451.0954
 04  3  1  2 27 59.9990000  0  8G 5G28G 9G18G29G 7G26G22
  -6828732.82446  -5094795.96746  23320917.3564   23320924.2024
  -9130322.23346  -6925319.87346  22881832.6084   22881836.1834
 -21986308.35747 -16920327.97846  20954447.5164   20954452.7324
 -13970360.36147  -4500688.07646  22453806.1534   22453808.8844
 -10210192.67447  -7824988.64847  20858125.8874   20858129.6384
  -9664546.16646  -7422974.57446  22818696.8484   22818702.2764
 -11359512.56946  -8707260.41247  20287570.6934   20287574.8084
  -2319731.69445  -1188617.63745  24897212.8504   24897215.9454
 04  3  1  2 28 29.9990000  0  8G 5G28G 9G18G29G 7G26G22
  -6939654.81345  -5181228.66046  23299809.1234   23299815.4294
  -9052436.63546  -6864629.79746  22896653.5714   22896656.9124
 -22046125.18448 -16966938.48146  20943064.5494   20943069.1324
 -14007414.95847  -4529561.77346  22446755.0594   22446758.1534
 -10169180.17748  -7793030.86647  20865930.1994   20865934.2664
  -9703896.81246  -7453637.39446  22811208.5964   22811214.0354
 -11331867.78246  -8685719.03747  20292831.2954   20292835.1634
  -2404700.78145  -1254827.32745  24881043.0994   24881044.2244
 04  3  1  2 28 59.9990000  0  8G 5G28G 9G18G29G 7G26G22
  -7050375.63945  -5267504.61345  23278740.1804   23278746.1114
  -8974298.39646  -6803742.85746  22911522.7134   22911525.9724
 -22105653.82348 -17013324.42546  20931736.8364   20931741.1264
 -14043887.38647  -4557981.85846  22439814.4444   22439817.7974
 -10127749.03046  -7760746.85847  20873814.2764   20873818.0394
  -9742805.97046  -7483956.20146  22803804.2924   22803810.2464
 -11303773.96446  -8663827.74847  20298177.4594   20298181.4094
  -2489324.61045  -1320768.02445  24864939.3534   24864942.1664
 04  3  1  2 29 29.9990000  0  8G 5G28G 9G18G29G 7G26G22
  -7160889.52646  -5353619.29245  23257709.6934   23257715.4484
  -8895906.03346  -6742657.89046  22926440.3924   22926443.4164
 -22164890.09348 -17059482.55247  20920464.5794   20920468.6474
 -14079772.53047  -4585944.32546  22432985.5484   22432988.7484
 -10085895.80248  -7728133.97447  20881778.7494   20881783.1094
  -9781268.09146  -7513926.71246  22796485.6664   22796491.3404
 -11275227.33846  -8641583.64047  20303609.6524   20303613.5444
  -2573596.90945  -1386434.84145  24848903.3574   24848904.0724
 04  3  1  2 29 59.9990000  0  8G 5G28G 9G18G29G 7G26G22
  -7271196.93046  -5439573.07745  23236719.3374   23236722.3144
  -8817263.71946  -6681378.16746  22941405.7254   22941408.4094
 -22223835.66648 -17105414.14947  20909247.6534   20909252.2484
 -14115071.76347  -4613450.24446  22426268.3584   22426272.2264
 -10043622.88946  -7695194.03147  20889823.1424   20889826.8814
  -9819283.83546  -7543549.32646  22789250.9044   22789256.7654
 -11246230.27946  -8618988.53747  20309127.7194   20309132.0334
  -2657517.76645  -1451827.71245  24832934.6814   24832936.4044
 04  3  1  2 30 29.9990000  0  9G 5G10G28G 9G18G29G 7G26G22
  -7381300.36745  -5525367.89845  23215766.6724   23215772.2404
     59157.30942                  25277908.2634
  -8738378.24746  -6619908.95146  22956417.2154   22956419.3844
 -22282494.36748 -17151122.21447  20898085.2404   20898089.0384
 -14149788.36547  -4640502.16246  22419661.8944   22419665.1764
 -10000934.91448  -7661930.68947  20897946.3184   20897950.1634
  -9856855.78346  -7572826.14946  22782101.1304   22782106.6984
 -11216787.27646  -8596045.93847  20314730.4434   20314735.0614
  -2741088.87143  -1516948.12745  24817030.6004   24817035.0314
 04  3  1  2 30 59.9990000  0  8G 5G28G 9G18G29G 7G26G22
  -7491185.69046  -5610992.84546  23194857.0884   23194862.1054
  -8659239.72246  -6558242.60246  22971476.7704   22971479.5604
 -22340853.72348 -17196597.03247  20886980.0084   20886983.9354
 -14183909.54347  -4667090.10346  22413169.1164   22413172.3644
  -9957820.22746  -7628334.82747  20906150.6944   20906154.5154
  -9893970.10546  -7601746.39146  22775039.2254   22775044.4534
 -11186886.47746  -8572746.62647  20320420.4384   20320424.1304
  -2824296.06844  -1581784.92445  24801197.2914   24801199.7294
 04  3  1  2 31 29.9990000  0  8G 5G28G 9G18G29G 7G26G22
  -7600861.53145  -5696454.51946  23173985.9044   23173991.2024
  -8579860.99646  -6496389.05046  22986581.3894   22986584.9764
 -22398923.96647 -17241846.56747  20875929.7114   20875933.5674
 -14217444.61247  -4693221.34846  22406787.2544   22406791.5684
  -9914289.59048  -7594414.86147  20914434.1704   20914438.8594
  -9930635.88546  -7630317.13146  22768061.7084   22768068.4844
 -11156538.40646  -8549098.78247  20326195.4654   20326199.8374
  -2907147.27445  -1646344.21845  24785431.7784   24785433.0674
 04  3  1  2 31 59.9990000  0  8G 5G28G 9G18G29G 7G26G22
  -7710319.76146  -5781746.64146  23153156.9754   23153162.5904
  -8500238.03346  -6434345.20846  23001733.4084   23001736.4334
 -22456698.17948 -17286865.41847  20864935.3164   20864939.6304
 -14250386.83747  -4718890.60346  22400519.2094   22400521.6134
  -9870337.17347  -7560166.23447  20922797.9624   20922801.9594
  -9966845.30046  -7658532.24046  22761171.3394   22761176.9424
 -11125737.26946  -8525097.89547  20332056.7894   20332060.9044
  -2989634.05545  -1710619.62645  24769733.9474   24769735.7054
 04  3  1  2 32 29.9990000  0  8G 5G28G 9G18G29G 7G26G22
  -7819565.37446  -5866873.04646  23132368.2204   23132374.2454
  -8420380.11646  -6372118.24446  23016930.1754   23016933.7034
 -22514182.86947 -17331658.67547  20853996.3634   20854000.0554
 -14282742.07547  -4744102.46546  22394362.1244   22394365.4654
  -9825970.22248  -7525594.60747  20931240.8054   20931245.3534
 -10002603.52546  -7686395.78846  22754366.9634   22754371.9684
 -11094490.11746  -8500749.48147  20338002.7594   20338007.1314
  -3071761.12845  -1774614.78845  24754105.7394   24754107.9544
 04  3  1  2 32 59.9990000  0  8G 5G28G 9G18G29G 7G26G22
  -7928593.95346  -5951830.38946  23111620.9444   23111627.1334
  -8340286.50846  -6309707.63546  23032171.1634   23032174.5394
 -22571374.58848 -17376223.63847  20843113.3034   20843117.7704
 -14314506.51746  -4768853.98646  22388317.4104   22388320.6104
  -9781186.00147  -7490697.81447  20939763.0914   20939766.8894
 -10037906.21546  -7713904.33746  22747648.9004   22747654.1634
 -11062794.15046  -8476051.33147  20344034.4604   20344038.1884
  -3153522.88344  -1838325.29745  24738547.2564   24738550.4914
 04  3  1  2 33 29.9990000  0  8G 5G28G 9G18G29G 7G26G22
  -8037402.88446  -6036616.53746  23090915.0404   23090920.5854
  -8259958.68346  -6247114.53746  23047457.1294   23047460.3884
 -22628272.14747 -17420559.38747  20832285.8824   20832289.7384
 -14345678.78546  -4793144.08046  22382385.1504   22382388.1514
  -9735984.23848  -7455475.67047  20948364.8044   20948368.5444
 -10072751.12946  -7741056.20646  22741018.0714   22741024.0264
 -11030648.87946  -8451003.07747  20350151.4064   20350155.3224
  -3234916.77944  -1901749.07745  24723056.8584   24723061.1604
 04  3  1  2 33 59.9990000  0  8G 5G28G 9G18G29G 7G26G22
  -8145983.37546  -6121224.72346  23070253.2444   23070258.2734
  -8179392.14746  -6184335.42946  23062788.1984   23062791.4694
 -22684868.30146 -17464660.27747  20821516.0784   20821520.0044
 -14376251.14746  -4816966.70746  22376567.1564   22376570.2044
  -9690358.72647  -7419923.32247  20957046.9534   20957050.8684
 -10107129.73346  -7767844.76846  22734476.3044   22734482.4464
 -10998047.83646  -8425599.66947  20356355.1764   20356359.3024
  -3315933.44445  -1964879.01645  24707642.2754   24707645.7104
 04  3  1  2 34 29.9990000  0  8G 5G28G 9G18G29G 7G26G22
  -8254342.21446  -6205660.17746  23049632.4874   23049638.8994
  -8098597.99146  -6121378.93546  23078162.7554   23078167.3154
 -22741171.33947 -17508532.76047  20810801.9184   20810806.3734
 -14406231.62646  -4840328.11846  22370862.2224   22370866.4314
  -9644318.42148  -7384047.76847  20965807.9554   20965812.0114
 -10141049.36546  -7794275.61746  22728021.5564   22728026.2924
 -10964999.83446  -8399847.99347  20362644.1464   20362648.3784
  -3396579.27745  -2027719.87245  24692296.1214   24692298.6884
 04  3  1  2 34 59.9990000  0  8G 5G28G 9G18G29G 7G26G22
  -8362475.86046  -6289920.14246  23029055.4974   23029060.8774
  -8017576.40946  -6058245.23246  23093580.9014   23093586.1764
 -22797179.03446 -17552175.11647  20800144.2054   20800148.1794
 -14435617.23846  -4863226.01646  22365270.5924   22365275.1764
  -9597861.94347  -7347847.92947  20974648.5774   20974652.6214
 -10174506.71246  -7820346.23046  22721654.2384   22721659.1024
 -10931503.40846  -8373746.88147  20369018.3484   20369022.2874
  -3476850.05145  -2090268.54845  24677019.8914   24677021.6964
 04  3  1  2 35 29.9990000  0  8G 5G28G 9G18G29G 7G26G22
  -8470380.07446  -6374001.30446  23008522.3054   23008526.8654
  -7936327.29946  -5994934.22446  23109041.8344   23109046.7464
 -22852888.70246 -17595585.23447  20789542.7904   20789546.9994
 -14464405.45846  -4885658.42746  22359792.2704   22359795.7644
  -9550987.55848  -7311322.43547  20983568.1964   20983572.5804
 -10207498.00646  -7846053.72646  22715375.7134   22715381.5744
 -10897556.92446  -8347295.07247  20375478.0134   20375482.1394
  -3556741.64445  -2152521.82945  24661817.7214   24661821.4614
 04  3  1  2 35 59.9990000  0  8G 5G28G 9G18G29G 7G26G22
  -8578054.39946  -6457903.37546  22988032.8344   22988036.8904
  -7854854.39146  -5931448.86646  23124546.1074   23124549.9054
 -22908300.85747 -17638763.50747  20778998.1404   20779002.6184
 -14492596.72546  -4907625.64946  22354427.6384   22354432.2924
  -9503696.68348  -7274472.42047  20992567.3534   20992571.3154
 -10240022.80146  -7871397.75246  22709186.9824   22709192.6444
 -10863161.33746  -8320493.32447  20382023.1694   20382027.3074
  -3636252.85646  -2214478.64845  24646687.2574   24646688.9804
 04  3  1  2 36 29.9990000  0  8G 5G28G 9G18G29G 7G26G22
  -8685497.86346  -6541625.53546  22967586.8964   22967590.7174
  -7773160.65546  -5867791.39945  23140091.7504   23140094.5634
 -22963416.00846 -17681710.37547  20768510.0314   20768514.0054
 -14520191.30646  -4929127.92046  22349176.4034   22349180.1304
  -9455990.72748  -7237298.95447  21001645.6294   21001649.5324
 -10272080.76746  -7896377.95946  22703087.0004   22703091.6894
 -10828318.05746  -8293342.72447  20388653.6154   20388658.2454
  -3715382.20745  -2276137.88445  24631628.8384   24631630.6314
 04  3  1  2 36 59.9990000  0  8G 5G28G 9G18G29G 7G26G22
  -8792703.95246  -6625162.73646  22947185.8124   22947191.9904
  -7691243.42646  -5803959.80946  23155679.6354   23155683.5384
 -23018229.16048 -17724421.91147  20758079.3464   20758083.7544
 -14547183.60146  -4950160.88446  22344040.4224   22344043.7284
  -9407865.38848  -7199798.68847  21010803.5524   21010807.4324
 -10303665.53046  -7920989.43746  22697076.4844   22697081.6884
 -10793022.59246  -8265839.76947  20395370.0824   20395374.4314
  -3794122.33645  -2337493.84445  24616645.3584   24616647.1754
 04  3  1  2 37 29.9990000  0  8G 5G28G 9G18G29G 7G26G22
  -8899670.87946  -6708513.58946  22926830.8824   22926836.2044
  -7609105.20946  -5739956.01546  23171310.7094   23171313.8624
 -23072739.90548 -17766897.81047  20747706.3364   20747710.6384
 -14573572.99246  -4970724.02846  22339018.5084   22339020.9704
  -9359321.43948  -7161972.24647  21020041.2164   21020045.4014
 -10334775.87946  -7945231.26246  22691156.7204   22691162.3704
 -10757275.37846  -8237984.80547  20402172.7074   20402176.4124
  -3872471.62545  -2398545.25645  24601735.3174   24601738.7164
 04  3  1  2 37 59.9990000  0  8G 5G28G 9G18G29G 7G26G22
  -9006399.26446  -6791678.51546  22906521.1874   22906524.1764
  -7526750.52746  -5675783.54846  23186982.2034   23186985.6494
 -23126949.98948 -17809139.43747  20737390.5924   20737395.1644
 -14599361.64346  -4990819.06445  22334111.4424   22334116.1314
  -9310361.62148  -7123821.74547  21029357.8824   21029362.2544
 -10365412.82246  -7969104.20446  22685326.4394   22685331.7614
 -10721079.16746  -8209779.96747  20409060.6704   20409064.7614
  -3950430.11045  -2459292.13645  24586900.8844   24586905.5154
 04  3  1  2 38 29.9990000  0  8G 5G28G 9G18G29G 7G26G22
  -9112882.55446  -6874652.50646  22886257.9974   22886263.2844
  -7444177.18446  -5611440.67745  23202695.1834   23202698.8764
 -23180854.47147 -17851142.90847  20727132.9314   20727137.0104
 -14624544.30946  -5010441.92745  22329319.1854   22329322.7024
  -9260982.12248  -7085344.22347  21038754.6084   21038758.7464
 -10395570.53146  -7992603.70446  22679587.1794   22679593.8494
 -10684430.00446  -8181222.18247  20416034.7794   20416039.2804
  -4027991.03946  -2519729.23745  24572141.5354   24572142.2154
 04  3  1  2 38 59.9990000  0  8G 5G28G 9G18G29G 7G26G22
  -9219124.77646  -6957438.67146  22866041.2434   22866045.6634
  -7361392.98746  -5546933.53046  23218448.2344   23218451.4114
 -23234458.54748 -17892912.30747  20716932.3404   20716936.6664
 -14649126.19045  -5029596.64445  22324641.4394   22324644.2294
  -9211188.93647  -7046544.33647  21048230.1834   21048233.9224
 -10425253.33246  -8015733.13746  22673938.4884   22673944.6424
 -10647333.72046  -8152315.98347  20423093.8224   20423098.2304
  -4105157.95146  -2579859.22545  24557457.5074   24557458.4914
 04  3  1  2 39 29.9990000  0  8G 5G28G 9G18G29G 7G26G22
  -9325120.77246  -7040032.91946  22845870.6694   22845874.3384
  -7278396.65746  -5482261.05646  23234242.4354   23234246.1164
 -23287758.41148 -17934444.64247  20706789.5224   20706794.0004
 -14673103.05045  -5048279.81945  22320078.5414   22320078.7874
  -9160979.13448  -7007419.82747  21057784.6064   21057788.6034
 -10454456.21346  -8038488.61746  22668381.8184   22668387.5274
 -10609787.28846  -8123059.02947  20430238.8964   20430242.8114
  -4181924.81745  -2639677.63045  24542848.8254   24542852.3184
 04  3  1  2 39 59.9990000  0  8G 5G28G 9G18G29G 7G26G22
  -9430873.64446  -7122437.72046  22825746.0584   22825750.1604
  -7195195.13746  -5417428.71145  23250074.9334   23250078.8364
 -23340758.45648 -17975743.37147  20696704.1264   20696708.2294
 -14696479.34245  -5066495.12145  22315629.3354   22315631.2234
  -9110358.04348  -6967974.82847  21067417.4424   21067421.9904
 -10483182.77447  -8060872.93646  22662915.8004   22662920.5124
 -10571795.96346  -8093455.40647  20437468.3984   20437472.7594
  -4258294.50046  -2699186.53145  24528316.9864   24528318.6274
 04  3  1  2 40 29.9990000  0  8G 5G28G 9G18G29G 7G26G22
  -9536381.67746  -7204651.83246  22805669.4284   22805675.6644
  -7111790.90446  -5352438.37645  23265945.8844   23265949.9054
 -23393458.32148 -18016808.20747  20686675.6214   20686679.7594
 -14719254.75145  -5084242.22145  22311296.2424   22311298.7394
  -9059326.50148  -6928210.00247  21077128.2344   21077132.6534
 -10511431.88147  -8082885.22446  22657539.9094   22657544.4814
 -10533360.32946  -8063505.56247  20444782.2774   20444786.5324
  -4334265.08045  -2758384.39145  24513859.9214   24513862.2314
 04  3  1  2 40 59.9990000  0  8G 5G28G 9G18G29G 7G26G22
  -9641645.16246  -7286675.28446  22785638.0464   22785643.0754
  -7028187.80046  -5287293.10045  23281854.6594   23281858.2464
 -23445859.25247 -18057640.08147  20676703.8854   20676708.2464
 -14741430.54045  -5101522.04445  22307077.5484   22307080.2914
  -9007886.86348  -6888127.17347  21086917.1714   21086921.0974
 -10539204.00946  -8104525.82946  22652255.1744   22652259.8754
 -10494482.57046  -8033211.20947  20452180.4724   20452184.4344
  -4409835.98245  -2817270.78945  24499478.5074   24499481.4264
 04  3  1  2 41 29.9990000  0  8G 5G28G 9G18G29G 7G26G22
  -9746652.92446  -7368499.50246  22765655.2004   22765660.6164
  -6944379.09246  -5221987.62545  23297803.0954   23297807.4444
 -23497951.65247 -18098231.55547  20666791.0114   20666795.4894
 -14762997.01745  -5118327.14945  22302973.0234   22302975.1924
  -8956030.54948  -6847719.66947  21096785.0654   21096789.2734
 -10566488.72146  -8125786.63646  22647062.6694   22647068.5074
 -10455153.96546  -8002565.56047  20459664.6434   20459668.4414
  -4484995.96745  -2875836.98245  24485175.6454   24485182.0694
 04  3  1  2 41 59.9990000  0  8G 5G28G 9G18G29G 7G26G22
  -9851406.51346  -7450125.65646  22745720.6524   22745726.8534
  -6860370.45845  -5156526.34145  23313789.4004   23313794.9454
 -23549738.49346 -18138584.92347  20656936.5084   20656940.5754
 -14783957.78544  -5134660.19745  22298983.9174   22298984.9144
  -8903761.63148  -6806990.64547  21106731.4974   21106735.4244
 -10593288.33546  -8146669.43146  22641963.0454   22641968.6014
 -10415378.43546  -7971571.63547  20467233.5514   20467237.8064
  -4559746.53845  -2934084.24945  24470952.4544   24470956.0994
 04  3  1  2 42 29.9990000  0  8G 5G28G 9G18G29G 7G26G22
  -9955902.59546  -7531551.14446  22725835.6674   22725841.2474
  -6776161.87046  -5090909.29245  23329814.0964   23329817.0384
 -23601217.37346 -18178698.35447  20647140.5574   20647144.8594
 -14804310.19544  -5150519.17445  22295113.0684   22295113.9124
  -8851078.69948  -6765939.01547  21116756.6214   21116760.5364
 -10619599.64446  -8167171.72146  22636955.9794   22636961.2194
 -10375154.37546  -7940228.21547  20474888.0054   20474892.0964
  -4634083.34445  -2992009.02445  24456806.8534   24456806.0204
 04  3  1  2 42 59.9990000  0  8G 5G28G 9G18G29G 7G26G22
 -10060142.51046  -7612777.04846  22706000.6504   22706005.8894
  -6691758.77546  -5025140.65845  23345875.3924   23345878.1124
 -23652391.44448 -18218574.23947  20637402.1474   20637406.7314
 -14824057.01542  -5165906.40244  22291354.3104   22291356.5614
  -8797985.74648  -6724567.88947  21126859.9234   21126863.8384
 -10645424.65146  -8187295.10646  22632041.4374   22632047.2164
 -10334485.71446  -7908538.35247  20482626.8824   20482630.9614
  -4708007.68643  -3049612.47445  24442737.2004   24442741.0344
 04  3  1  2 43 29.9990000  0  7G 5G28G 9G29G 7G26G22
 -10164121.47246  -7693799.62146  22686213.4974   22686218.9714
  -6607160.77846  -4959220.11145  23361974.0914   23361977.9594
 -23703257.17846 -18258209.86347  20627723.0444   20627727.3114
  -8744480.67948  -6682875.62947  21137041.7574   21137045.9894
 -10670759.44746  -8207036.50146  22627220.6354   22627225.7574
 -10293370.04646  -7876500.17347  20490450.9244   20490455.3674
  -4781514.55745  -3106890.51945  24428749.8824   24428754.1374
 04  3  1  2 43 59.9990000  0  7G 5G28G 9G29G 7G26G22
 -10267844.35046  -7774622.61846  22666475.7774   22666481.6854
  -6522376.17046  -4893154.18945  23378108.1444   23378110.5354
 -23753820.36146 -18297609.73447  20618101.0994   20618105.0144
  -8690570.30448  -6640867.55247  21147300.4584   21147304.5964
 -10695609.09546  -8226399.86646  22622492.0014   22622496.3504
 -10251814.29846  -7844119.08947  20498358.6674   20498362.9694
  -4854608.08045  -3163846.50045  24414842.1974   24414845.0924
 04  3  1  2 44 29.9990000  0  7G 5G28G 9G29G 7G26G22
 -10371304.32446  -7855240.77246  22646788.0854   22646793.5824
  -6437402.13546  -4826940.67245  23394278.4174   23394280.7614
 -23804075.71746 -18336769.75447  20608537.8344   20608541.7144
  -8636250.61148  -6598540.52847  21157637.2334   21157641.5704
 -10719967.61546  -8245380.51846  22617857.0674   22617861.6744
 -10209813.93146  -7811391.53047  20506351.2354   20506355.7604
  -4927281.27045  -3220474.99745  24401012.4694   24401013.1134
 04  3  1  2 44 59.9990000  0  7G 5G28G 9G29G 7G26G22
 -10474500.21746  -7935653.13546  22627150.4814   22627154.9594
  -6352241.61146  -4760581.79845  23410483.5924   23410487.1444
 -23854023.82547 -18375690.33647  20599032.9324   20599037.1644
  -8581522.73548  -6555895.44247  21168051.4254   21168056.0204
 -10743834.44846  -8263978.03446  22613314.8984   22613319.9034
 -10167370.37946  -7778318.64647  20514427.9894   20514431.7634
  -4999532.94445  -3276774.99745  24387262.8304   24387265.5964
 04  3  1  2 45 29.9990000  0  7G 5G28G 9G29G 7G26G22
 -10577433.80046  -8015861.11346  22607562.5824   22607569.6984
  -6266900.27045  -4694082.05245  23426723.4124   23426728.4994
 -23903667.14046 -18414373.42547  20589586.1604   20589590.0404
  -8526391.02448  -6512935.68047  21178542.8464   21178547.0314
 -10767211.93146  -8282194.24346  22608866.2244   22608871.3124
 -10124487.36746  -7744903.31447  20522588.5034   20522592.6064
  -5071364.14046  -3332747.36645  24373595.3064   24373595.5054
 04  3  1  2 45 59.9990000  0  7G 5G28G 9G29G 7G26G22
 -10680097.42246  -8095858.71546  22588026.8474   22588032.8134
  -6181373.87045  -4627438.10145  23442998.6734   23443003.7484
 -23952998.81546 -18452813.68847  20580198.7954   20580202.7684
  -8470849.54148  -6469656.63247  21189112.0174   21189115.7914
 -10790092.53346  -8300023.28346  22604512.4524   22604518.1964
 -10081159.09346  -7711141.02347  20530833.5004   20530837.6144
  -5142766.49846  -3388385.54746  24360007.3154   24360009.7534
 04  3  1  2 46 29.9990000  0  7G 5G28G 9G29G 7G26G22
 -10782494.69746  -8175648.78846  22568541.1624   22568546.6944
  -6095670.14045  -4560655.99445  23459307.3384   23459311.5814
 -24002024.35247 -18491015.41347  20570869.3284   20570873.3024
  -8414904.81348  -6426063.32947  21199757.9174   21199761.6334
 -10812481.07146  -8317468.88846  22600252.3464   22600256.6604
 -10037392.02646  -7677036.82247  20539161.8794   20539165.7824
  -5213743.54345  -3443692.36245  24346500.3524   24346504.7944
 04  3  1  2 46 59.9990000  0  7G 5G28G 9G29G 7G26G22
 -10884621.73646  -8255228.29346  22549107.1664   22549112.5464
  -6009789.31145  -4493735.87945  23475650.1524   23475654.8874
 -24050741.05546 -18528976.45247  20561598.7814   20561603.2124
  -8358555.61348  -6382154.86447  21210481.0084   21210484.9714
 -10834374.43946  -8334528.64146  22596085.8324   22596090.3454
  -9993184.52646  -7642589.43347  20547574.3644   20547578.8184
  -5284291.45545  -3498664.80645  24333074.9534   24333082.3264
 04  3  1  2 47 29.9990000  0  7G 5G28G 9G29G 7G26G22
 -10986479.40146  -8334597.89946  22529724.3204   22529729.1964
  -5923735.57845  -4426681.02045  23492025.7084   23492027.9824
 -24099150.79046 -18566698.33047  20552386.6444   20552391.3104
  -8301804.90848  -6337933.53947  21221280.1014   21221284.3214
 -10855773.71346  -8351203.37346  22592013.5874   22592018.3814
  -9948539.47146  -7607801.07447  20556070.2664   20556074.2054
  -5354410.33746  -3553302.87945  24319732.6444   24319735.0004
 04  3  1  2 47 59.9990000  0  7G 5G28G 9G29G 7G26G22
 -11088064.48246  -8413755.07146  22510393.2504   22510397.5874
  -5837509.61346  -4359491.95745  23508433.6834   23508435.8164
 -24147251.75646 -18604179.59747  20543233.4494   20543237.9274
  -8244651.82348  -6293398.68447  21232156.1444   21232160.2594
 -10876676.23646  -8367491.06446  22588035.9294   22588041.4974
  -9903455.88546  -7572671.02547  20564649.3054   20564653.3384
  -5424096.55246  -3607603.84345  24306472.1054   24306474.0154
 04  3  1  2 48 29.9990000  0  7G 5G28G 9G29G 7G26G22
 -11189374.49546  -8492697.93146  22491114.4434   22491120.2694
  -5751112.77346  -4292169.73645  23524875.0444   23524876.7684
 -24195042.82246 -18641419.38447  20534139.2134   20534143.2344
  -8187096.47148  -6248550.34447  21243108.3314   21243113.0434
 -10897080.44146  -8383390.43346  22584152.9664   22584158.3824
  -9857933.75547  -7537199.24147  20573312.0084   20573315.5724
  -5493347.49246  -3661565.62845  24293293.4764   24293296.1014
 04  3  1  2 48 59.9990000  0  7G 5G28G 9G29G 7G26G22
 -11290407.25446  -8571424.72746  22471887.8714   22471892.8064
  -5664546.72645  -4224715.65345  23541347.2884   23541350.7004
 -24242522.82946 -18678416.78547  20525104.0494   20525108.0344
  -8129139.19648  -6203388.85347  21254137.2474   21254141.2914
 -10916984.89146  -8398900.36246  22580364.9774   22580371.2374
  -9811973.18546  -7501385.83147  20582057.8094   20582061.4664
  -5562160.48746  -3715186.16345  24280199.2304   24280201.7624
 04  3  1  2 49 29.9990000  0  7G 5G28G 9G29G 7G26G22
 -11391166.97646  -8649938.78246  22452714.3964   22452720.3634
  -5577819.27945  -4157135.86045  23557850.9294   23557855.8994
 -24289697.07547 -18715175.92347  20516126.8614   20516130.7174
  -8070786.40048  -6157919.17047  21265241.6304   21265246.1434
 -10936394.31146  -8414024.57646  22576671.7144   22576677.1414
  -9765580.56646  -7465235.73347  20590886.0124   20590890.2564
  -5630539.32946  -3768468.40645  24267187.1254   24267187.4894
 04  3  1  2 49 59.9990000  0  7G 5G28G 9G29G 7G26G22
 -11491647.02946  -8728234.92546  22433593.8644   22433598.8694
  -5490927.71045  -4089428.12345  23574385.8404   23574390.3064
 -24336560.35247 -18751692.75147  20507209.1294   20507213.0914
  -8012034.24448  -6112138.27947  21276421.7784   21276425.9404
 -10955302.95646  -8428758.58646  22573074.0954   22573079.1954
  -9718751.77646  -7428745.77947  20599797.3004   20599801.2864
  -5698477.34346  -3821407.11745  24254258.4194   24254260.6704
 04  3  1  2 50 29.9990000  0  7G 5G28G 9G29G 7G26G22
 -11591846.75246  -8806312.62546  22414526.9614   22414532.6464
  -5403875.54145  -4021595.27145  23590951.4494   23590955.1414
 -24383113.82446 -18787968.17647  20498350.1404   20498354.1374
  -7952885.05448  -6066047.99847  21287677.4564   21287681.7004
 -10973711.30846  -8443102.74946  22569570.7634   22569575.5224
  -9671488.96546  -7391917.62347  20608791.2264   20608795.0604
  -5765974.09646  -3874002.01645  24241414.8394   24241417.0894
 04  3  1  2 50 59.9990000  0  8G 5G28G 9G18G29G 7G26G22
 -11691765.58846  -8884171.47146  22395512.9544   22395518.3114
  -5316665.46246  -3953639.37045  23607547.9284   23607548.9834
 -24429357.58846 -18824002.28847  20489550.4944   20489554.5154
     -1631.64643                  22246927.6254
  -7893339.97148  -6019649.23847  21299008.2804   21299012.3014
 -10991619.18446  -8457056.91746  22566162.9304   22566168.5564
  -9623793.31046  -7354752.18347  20617867.1384   20617871.3344
  -5833028.00246  -3926251.84245  24228655.1034   24228655.4784
 04  3  1  2 51 29.9990000  0  8G 5G28G 9G18G29G 7G26G22
 -11791395.56946  -8961805.21246  22376553.6114   22376558.1244
  -5229293.29345  -3885557.18745  23624173.7194   23624176.7794
 -24475284.57946 -18859789.54047  20480810.8714   20480815.2314
    -11067.32942                  22245130.7144
  -7833393.67748  -5972937.85147  21310415.9654   21310420.9004
 -11009019.13446  -8470615.31946  22562851.8464   22562858.1644
  -9575659.05946  -7317244.98247  20627026.8034   20627030.8944
  -5899630.86045  -3978150.17045  24215980.4304   24215981.5434
 04  3  1  2 51 59.9990000  0  8G 5G28G 9G18G29G 7G26G22
 -11890737.19546  -9039214.23946  22357649.4704   22357654.2524
  -5141763.48345  -3817352.16145  23640830.1444   23640832.6304
 -24520896.93246 -18895331.65247  20472131.0044   20472135.1664
    -19894.41642                  22243453.5304
  -7773049.53448  -5925916.44147  21321899.1014   21321903.6504
 -11025912.84046  -8483779.25246  22559637.3964   22559642.8234
  -9527089.48046  -7279398.57147  20636269.4694   20636273.4314
  -5965783.05445  -4029697.33645  24203391.3804   24203394.2874
 04  3  1  2 52 29.9990000  0  7G 5G28G 9G29G 7G26G22
 -11989792.38646  -9116400.09246  22338799.8184   22338805.1404
  -5054081.24445  -3749028.32645  23657514.9374   23657517.5744
 -24566197.23247 -18930630.55847  20463510.4744   20463514.3664
  -7712311.48448  -5878588.09947  21333457.2064   21333461.3914
 -11042302.85347  -8496550.64646  22556518.4404   22556522.4494
  -9478088.61846  -7241216.08547  20645594.0164   20645598.3894
  -6031486.20746  -4080894.56845  24190889.4484   24190892.6604
 04  3  1  2 52 59.9990000  0  7G 5G28G 9G29G 7G26G22
 -12088553.52846  -9193356.80946  22320006.3064   22320010.8664
  -4966242.79745  -3680582.71545  23674230.1054   23674233.7974
 -24611179.22648 -18965681.45647  20454950.9244   20454954.9684
  -7651174.53348  -5830948.92847  21345091.0544   21345095.0394
 -11058182.18946  -8508924.13246  22553495.9084   22553501.1254
  -9428651.09346  -7202693.34647  20655001.6994   20655006.2004
  -6096732.16346  -4131735.59745  24178473.7834   24178474.5804
 04  3  1  2 53 29.9990000  0  7G 5G28G 9G29G 7G26G22
 -12187025.37046  -9270088.11346  22301267.7284   22301273.1204
  -4878256.51645  -3612022.01245  23690973.9394   23690978.5464
 -24655848.92546 -19000489.01247  20446450.5504   20446455.2864
  -7589646.12648  -5783004.72147  21356799.5714   21356803.8264
 -11073556.44446  -8520904.08246  22550570.7784   22550576.9204
  -9378784.07846  -7163835.94247  20664491.0534   20664495.2144
  -6161525.63146  -4182224.01645  24166143.7564   24166146.5354
 04  3  1  2 53 59.9990000  0  7G 5G28G 9G29G 7G26G22
 -12285206.28646  -9346592.69646  22282584.5674   22282589.3504
  -4790124.56045  -3543347.78045  23707744.6274   23707747.8624
 -24700205.87346 -19035052.86347  20438009.8364   20438014.0564
  -7527726.97947  -5734756.04746  21368582.0754   21368586.2724
 -11088424.98646  -8532489.95946  22547741.3594   22547747.1144
  -9328488.53046  -7124644.61747  20674061.9064   20674066.3844
  -6225864.62746  -4232358.25145  24153900.9134   24153902.0034
 04  3  1  2 54 29.9990000  0  7G 5G28G 9G29G 7G26G22
 -12383096.24346  -9422870.53446  22263956.7514   22263960.7364
  -4701850.43145  -3474562.74245  23724543.0334   23724545.8114
 -24744251.02546 -19069373.77147  20429628.3224   20429632.4484
  -7465419.79247  -5686204.98546  21380438.8934   21380443.1484
 -11102788.54347  -8543682.31746  22545008.2974   22545012.9394
  -9277766.52946  -7085120.99447  20683714.0064   20683718.5434
  -6289748.85045  -4282138.14945  24141743.4914   24141745.5894
 04  3  1  2 54 59.9990000  0  7G 5G28G 9G29G 7G26G22
 -12480695.32247  -9498921.76546  22245384.3244   22245388.9194
  -4613437.99745  -3405669.95145  23741367.0204   23741370.1264
 -24787985.74146 -19103452.76547  20421305.7494   20421310.0274
  -7402726.93048  -5637353.42647  21392369.1384   21392373.0414
 -11116648.03547  -8554481.89946  22542371.0354   22542375.1614
  -9226620.70646  -7045267.11647  20693446.8744   20693450.5664
  -6353178.25945  -4331563.72645  24129673.0384   24129676.9534
 04  3  1  2 55 29.9990000  0  7G 5G28G 9G29G 7G26G22
 -12577993.35147  -9574738.39246  22226869.7224   22226874.2124
  -4524880.82245  -3336664.39845  23758218.6274   23758221.2184
 -24831401.25446 -19137282.99647  20413043.8654   20413048.2264
  -7339641.15348  -5588195.66647  21404373.9604   21404378.7664
 -11129994.45647  -8564881.70246  22539830.8824   22539835.6304
  -9175043.46346  -7005077.06647  20703261.4634   20703265.5664
  -6416142.72946  -4380626.98445  24117691.8804   24117694.2594
 04  3  1  2 55 59.9990000  0  7G 5G28G 9G29G 7G26G22
 -12674991.49747  -9650321.34146  22208411.0144   22208414.9764
  -4436183.43845  -3267549.56545  23775096.8994   23775099.5964
 -24874499.61846 -19170866.14347  20404842.8934   20404846.8914
  -7276165.98548  -5538734.51247  21416452.8014   21416456.2364
 -11142829.71846  -8574883.19946  22537388.5614   22537394.3514
  -9123038.19246  -6964553.48247  20713157.8234   20713161.7974
  -6478642.83146  -4429328.35145  24105798.3314   24105798.9064
 04  3  1  2 56 29.9990000  0  7G 5G28G 9G29G 7G26G22
 -12771692.74647  -9725672.95746  22190009.4104   22190013.8884
  -4347352.17045  -3198330.34245  23792001.3534   23792005.6554
 -24917284.64846 -19204205.12747  20396700.9614   20396705.2404
  -7212306.54047  -5488973.91646  21428604.8274   21428609.2814
 -11155157.30146  -8584489.09646  22535042.6574   22535048.6584
  -9070609.87546  -6923700.26247  20723134.8364   20723138.6344
  -6540681.06846  -4477669.75946  24093993.4524   24093994.8704
 04  3  1  2 56 59.9990000  0  7G 5G28G 9G29G 7G26G22
 -12868093.51946  -9800790.41346  22171664.5324   22171669.4674
  -4258387.37145  -3129007.07945  23808930.4334   23808933.7044
 -24959754.00247 -19237298.13547  20388619.5694   20388623.2734
  -7148062.00847  -5438913.25646  21440830.0914   21440834.6984
 -11166974.71546  -8593697.44346  22532793.5234   22532799.6894
  -9017757.48546  -6882516.58247  20733192.2854   20733196.7284
  -6602253.61846  -4525648.43245  24082275.9454   24082279.0044
 04  3  1  2 57 29.9990000  0  7G 5G28G 9G29G 7G26G22
 -12964194.93146  -9875674.61846  22153377.1264   22153382.7884
  -4169293.86145  -3059583.59845  23825884.8334   23825886.8494
 -25001910.03446 -19270147.00947  20380597.4754   20380601.5664
  -7083436.53147  -5388555.73346  21453127.7714   21453132.3194
 -11178284.20446  -8602510.02546  22530641.6014   22530647.8254
  -8964484.83146  -6841005.42747  20743329.6734   20743333.3544
  -6663361.90245  -4573265.31645  24070647.5174   24070649.8974
 04  3  1  2 57 59.9990000  0  7G 5G28G 9G29G 7G26G22
 -13059989.91647  -9950320.05946  22135148.2854   22135152.7164
  -4080067.93945  -2990056.92845  23842863.4324   23842867.7814
 -25043747.03046 -19302747.25147  20372636.1424   20372640.1274
  -7018425.24148  -5337897.59446  21465499.1784   21465503.6674
 -11189079.65446  -8610922.05846  22528587.5944   22528592.9514
  -8910787.40147  -6799163.29047  20753547.7204   20753551.8814
  -6723998.71846  -4620514.75545  24059109.0874   24059109.3214
 04  3  1  2 58 29.9990000  0  7G 5G28G 9G29G 7G26G22
 -13155479.46747 -10024727.49046  22116976.9224   22116981.5764
  -3990714.23545  -2920430.66545  23859866.9524   23859872.5554
 -25085266.98446 -19335100.44347  20364735.1044   20364738.8904
  -6953032.00748  -5286941.82046  21477943.3084   21477947.8804
 -11199363.08346  -8618935.09946  22526630.5434   22526636.0414
  -8856668.56247  -6756992.77247  20763846.3344   20763850.6364
  -6784164.77146  -4667397.34845  24047659.4754   24047660.2014
 04  3  1  2 58 59.9990000  0  7G 5G28G 9G29G 7G26G22
 -13250664.12746 -10098897.36046  22098863.6854   22098869.6634
  -3901236.70745  -2850707.94745  23876894.3774   23876899.2424
 -25126471.54246 -19367207.87147  20356894.0574   20356897.9724
  -6887259.59848  -5235690.59946  21490459.4324   21490463.8514
 -11209135.83946  -8626550.22546  22524770.8024   22524776.5104
  -8802130.99446  -6714495.97947  20774224.6094   20774228.4194
  -6843860.22446  -4713913.30045  24036299.4014   24036301.6864
 04  3  1  2 59 29.9990000  0  7G 5G28G 9G29G 7G26G22
 -13345540.16246 -10172826.72046  22080809.4954   22080815.1104
  -3811634.82145  -2780888.28145  23893944.8884   23893947.8664
 -25167357.49646 -19399067.05447  20349113.6694   20349117.7954
  -6821106.72047  -5184142.91646  21503047.6284   21503052.2124
 -11218394.87446  -8633765.06146  22523008.7464   22523015.1584
  -8747173.14647  -6671671.68647  20784682.6424   20784686.7564
  -6903080.87945  -4760059.28245  24025029.8364   24025032.4384
 04  3  1  2 59 59.9990000  0  7G 5G28G 9G29G 7G26G22
 -13440102.48147 -10246511.63746  22062814.9354   22062820.3044
  -3721907.09445  -2710970.55345  23911019.6954   23911023.2594
 -25207921.08546 -19430675.05747  20341394.6074   20341399.1904
  -6754570.97047  -5132296.88346  21515708.8984   21515714.0334
 -11227136.07046  -8640576.35346  22521345.4484   22521350.3714
  -8691792.50046  -6628517.93547  20795221.2474   20795225.5144
  -6961821.61346  -4805831.26945  24013852.6864   24013854.2344
 04  3  1  3  0 29.9990000  0  7G 5G28G 9G29G 7G26G22
 -13534355.32947 -10319955.40846  22044878.8884   22044883.4594
  -3632061.66345  -2640961.17245  23928117.1114   23928120.3584
 -25248168.02046 -19462036.30447  20333735.8994   20333740.6824
  -6687659.43647  -5080158.06146  21528441.9494   21528445.8294
 -11235365.28946  -8646988.71546  22519779.2554   22519784.6234
  -8635996.06746  -6585040.21447  20805839.1214   20805843.2124
  -7020086.76246  -4851232.70145  24002765.3074   24002765.8114
 04  3  1  3  0 59.9990000  0  7G 5G28G 9G29G 7G26G22
 -13628289.34046 -10393150.70746  22027003.6974   22027007.9764
  -3542092.65044  -2570855.45145  23945237.7004   23945242.7874
 -25288089.93146 -19493144.28147  20326139.0994   20326143.4374
  -6620365.44347  -5027721.16646  21541247.5504   21541252.1574
 -11243074.01046  -8652995.49446  22518312.1664   22518317.9684
  -8579777.04946  -6541233.18947  20816537.2714   20816541.2804
  -7077866.79946  -4896256.15245  23991769.9034   23991771.4504
 04  3  1  3  1 29.9990000  0  7G 5G28G 9G29G 7G26G22
 -13721911.55447 -10466103.06746  22009188.2504   22009193.0214
  -3452010.16945  -2500661.23545  23962379.2384   23962383.2474
 -25327694.74346 -19524005.15047  20318602.5054   20318606.4784
  -6552698.38248  -4974993.60546  21554124.4064   21554128.3334
 -11250270.19146  -8658602.90146  22516942.5614   22516949.3254
  -8523144.51446  -6497103.94947  20827314.0764   20827317.7574
  -7135168.53045  -4940906.84945  23980865.5054   23980868.1434
 04  3  1  3  1 59.9990000  0  7G 5G28G 9G29G 7G26G22
 -13815221.88147 -10538812.42346  21991431.9084   21991436.2804
  -3361817.37045  -2430381.16845  23979542.6894   23979546.8394
 -25366983.15746 -19554619.49247  20311126.3354   20311130.2864
  -6484660.62647  -4921977.16646  21567071.4364   21567075.5744
 -11256954.42546  -8663811.39746  22515671.0934   22515676.1334
  -8466100.82246  -6452654.32747  20838168.9814   20838172.8384
  -7191991.45046  -4985184.38745  23970052.6764   23970053.3444
 04  3  1  3  2 29.9990000  0  7G 5G28G 9G29G 7G26G22
 -13908214.39147 -10611274.12646  21973736.5444   21973740.6944
  -3271511.94545  -2360013.34445  23996727.1844   23996730.3614
 -25405950.19646 -19584983.43147  20303711.1244   20303715.2384
  -6416248.81447  -4868669.28346  21580089.7954   21580094.0044
 -11263121.90347  -8668617.22446  22514497.7464   22514502.6344
  -8408642.38446  -6407881.53147  20849103.1784   20849107.2814
  -7248329.63946  -5029084.27346  23959332.4394   23959332.5334
 04  3  1  3  2 59.9990000  0  7G 5G28G 9G29G 7G26G22
 -14000891.13146 -10683489.73846  21956100.0774   21956105.7744
  -3181099.66845  -2289562.21745  24013932.1684   24013938.7564
 -25444599.28046 -19615099.58947  20296356.3094   20296360.1314
  -6347467.77948  -4815073.67346  21593178.5004   21593182.0994
 -11268776.05747  -8673023.02646  22513421.4064   22513426.2594
  -8350773.92246  -6362789.23147  20860115.1384   20860119.1714
  -7304185.10445  -5072608.02646  23948702.4704   23948704.4864
 04  3  1  3  3 29.9990000  0  7G 5G28G 9G29G 7G26G22
 -14093239.94747 -10755449.86446  21938527.1274   21938532.1324
  -3090571.41645  -2219020.74645  24031159.0274   24031163.0364
 -25482919.48546 -19644959.48147  20289064.2044   20289068.1894
  -6278308.09347  -4761183.02746  21606339.0694   21606342.3984
 -11273905.94546  -8677020.32546  22512444.9284   22512450.2384
  -8292485.90646  -6317370.01347  20871206.8624   20871210.9174
  -7359545.66845  -5115746.20445  23938167.8234   23938172.0074
 04  3  1  3  3 59.9990000  0  7G 5G28G 9G29G 7G26G22
 -14185268.64347 -10827160.51546  21921014.4234   21921018.9244
  -2999938.34145  -2148397.55545  24048406.4204   24048409.8194
 -25520919.08547 -19674569.56047  20281833.1904   20281837.0584
  -6208780.06947  -4707005.34446  21619569.7604   21619574.2734
 -11278519.90446  -8680615.61046  22511567.1554   22511573.1454
  -8233788.13547  -6271631.48747  20882376.6174   20882380.9434
  -7414418.86246  -5158504.51046  23927726.3344   23927728.7964
 04  3  1  3  4 29.9990000  0  7G 5G28G 9G29G 7G26G22
 -14276980.39347 -10898624.22046  21903562.2904   21903567.7994
  -2909207.02945  -2077697.79945  24065671.8814   24065672.7604
 -25558602.46246 -19703933.22447  20274662.2814   20274666.2314
  -6138889.49247  -4652545.17046  21632869.4964   21632873.5414
 -11282622.48446  -8683812.43446  22510786.4684   22510791.9784
  -8174686.69048  -6225578.42547  20893623.2814   20893627.8764
  -7468807.83546  -5200885.50646  23917376.5894   23917377.7264
 04  3  1  3  4 59.9990000  0  7G 5G28G 9G29G 7G26G22
 -14368369.38547 -10969836.40446  21886171.4054   21886175.8244
  -2818375.04245  -2006919.64145  24082955.5734   24082958.0584
 -25595964.77646 -19733046.70247  20267552.3514   20267556.3834
  -6068633.16347  -4597799.98146  21646238.7414   21646242.9614
 -11286209.10047  -8686607.18946  22510104.3974   22510109.8834
  -8115177.98046  -6179208.00847  20904947.5354   20904951.3924
  -7522706.65146  -5242884.56745  23907119.5604   23907120.4634
 04  3  1  3  5 29.9990000  0  7G 5G28G 9G29G 7G26G22
 -14459429.59147 -11040792.41046  21868843.4524   21868848.4814
  -2727439.99145  -1936061.16445  24100260.4264   24100264.1774
 -25633001.00546 -19761906.09247  20260504.8134   20260508.5404
  -5998007.63847  -4542767.12046  21659678.3044   21659682.3604
 -11289274.76447  -8688995.99546  22509520.7594   22509525.8474
  -8055258.55746  -6132517.55747  20916349.9214   20916353.9774
  -7576109.16446  -5284496.96346  23896957.6034   23896960.4984
 04  3  1  3  5 59.9990000  0  8G 5G28G 9G18G29G 7G26G22
 -14550165.97747 -11111496.08046  21851577.0254   21851581.3034
  -2636409.71045  -1865128.49645  24117583.3794   24117588.1264
 -25669716.93746 -19790515.91647  20253517.9334   20253521.8484
      1365.65446                  22242942.8034
  -5927020.30148  -4487452.29646  21673187.0234   21673190.3764
 -11291825.36146  -8690983.43446  22509035.1654   22509039.9594
  -7994935.52948  -6085512.59947  20927828.8384   20927833.3984
  -7629020.13145  -5325726.29745  23886888.2794   23886892.8984
 04  3  1  3  6 29.9990000  0  8G 5G28G 9G18G29G 7G26G22
 -14640581.08747 -11181949.37346  21834371.0954   21834376.7104
  -2545290.27345  -1794126.37345  24134922.9294   24134926.3174
 -25706116.29846 -19818879.04647  20246591.2524   20246595.7534
      9906.77546      1139.71446  22244567.8404   22244571.2284
  -5855676.37047  -4431859.63446  21686763.1334   21686766.8964
 -11293864.65646  -8692572.49646  22508647.1204   22508652.6654
  -7934214.03947  -6038197.15747  20939383.8344   20939388.1944
  -7681441.99146  -5366574.51646  23876913.7184   23876915.7224
 04  3  1  3  6 59.9990000  0  8G 5G28G 9G18G29G 7G26G22
 -14730666.11847 -11252145.51946  21817228.5794   21817233.8314
  -2454075.78045  -1723050.12845  24152280.0364   24152283.3414
 -25742190.95646 -19846989.16047  20239726.5214   20239731.1164
     19037.11646      8254.26845  22246304.7414   22246308.2694
  -5783969.94147  -4375984.49146  21700408.2704   21700412.9944
 -11295385.04846  -8693757.19646  22508358.0574   22508363.4964
  -7873087.92247  -5990566.43347  20951015.5804   20951019.9184
  -7733366.01646  -5407034.79246  23867033.0284   23867033.1104
 04  3  1  3  7 29.9990000  0  8G 5G28G 9G18G29G 7G26G22
 -14820427.22147 -11322089.22246  21800148.1524   21800152.3254
  -2362775.60745  -1651907.19345  24169653.8594   24169656.4384
 -25777948.47946 -19874852.15547  20232922.1154   20232926.5584
     28748.27345     15821.37945  22248152.8724   22248157.2794
  -5711909.86447  -4319833.79746  21714120.8094   21714124.7244
 -11296394.13046  -8694543.48146  22508165.7854   22508171.2834
  -7811565.97148  -5942627.26147  20962722.7614   20962726.9574
  -7784798.62646  -5447112.15846  23857245.5304   23857246.3864
 04  3  1  3  7 59.9990000  0  8G 5G28G 9G18G29G 7G26G22
 -14909857.99747 -11391775.52046  21783130.1244   21783133.8294
  -2271387.05745  -1580695.32745  24187044.1864   24187048.5594
 -25813383.28046 -19902463.68947  20226178.9824   20226183.2374
     39043.98045     23844.00445  22250112.4724   22250116.1534
  -5639492.09347  -4263404.37846  21727901.6234   21727905.9134
 -11296886.57146  -8694927.19846  22508071.9364   22508077.0824
  -7749644.09047  -5894376.44247  20974506.1654   20974510.3384
  -7835733.02846  -5486801.30146  23847552.3724   23847555.9484
 04  3  1  3  8 29.9990000  0  8G 5G28G 9G18G29G 7G26G22
 -14998963.68747 -11461208.50246  21766173.3604   21766177.9904
  -2179918.61745  -1509421.15145  24204450.6184   24204453.9944
 -25848501.66547 -19929828.67947  20219496.3444   20219499.8724
     49916.23045     32315.87845  22252181.5354   22252186.3534
  -5566724.98047  -4206702.73546  21741748.6504   21741752.7414
 -11296868.91146  -8694913.42446  22508075.4594   22508080.0664
  -7687330.21948  -5845820.20047  20986364.1304   20986368.5264
  -7886174.89746  -5526106.63646  23837954.1824   23837958.0154
 04  3  1  3  8 59.9990000  0  8G 5G28G 9G18G29G 7G26G22
 -15087731.76347 -11530378.42346  21749281.5004   21749286.4124
  -2088360.77845  -1438077.43945  24221873.4814   24221874.6654
 -25883291.67846 -19956937.78547  20212875.9084   20212880.2694
     61375.58345     41245.21045  22254362.3494   22254366.6984
  -5493598.23447  -4149720.88846  21755664.0894   21755667.8174
 -11296329.60746  -8694493.18046  22508178.4384   22508183.2794
  -7624614.14148  -5796950.53647  20998298.6814   20998303.1244
  -7936111.25745  -5565018.10345  23828451.3594   23828452.6834
 04  3  1  3  9 29.9990000  0  8G 5G28G 9G18G29G 7G26G22
 -15176172.48947 -11599293.26746  21732451.9814   21732456.8464
  -1996726.85245  -1366674.38145  24239312.1194   24239318.5314
 -25917764.39746 -19983799.61947  20206315.9314   20206320.1984
     73409.44745     50622.27445  22256652.3054   22256657.0874
  -5420124.50947  -4092468.63746  21769645.9344   21769650.6004
 -11295279.78746  -8693675.13646  22508377.8064   22508383.3504
  -7561508.20147  -5747777.09247  21010307.5814   21010311.8124
  -7985551.99445  -5603543.34845  23819042.6644   23819044.1304
 04  3  1  3  9 59.9990000  0  8G 5G28G 9G18G29G 7G26G22
 -15264274.67647 -11667944.31246  21715686.7144   21715690.9814
  -1905009.42445  -1295206.22345  24256763.9894   24256767.7634
 -25951910.10347 -20010406.67247  20199818.3974   20199822.0074
     86026.29545     60453.53245  22259053.2854   22259057.4234
  -5346296.01047  -4034939.94246  21783694.9874   21783699.0904
 -11293710.27947  -8692452.14346  22508676.6474   22508681.6874
  -7498004.43747  -5698293.63447  21022391.7954   21022395.9924
  -8034486.71146  -5641674.24945  23809730.7664   23809731.8564
 04  3  1  3 10 29.9990000  0  8G 5G28G 9G18G29G 7G26G22
 -15352036.86847 -11736330.42146  21698985.6424   21698990.8234
  -1813209.43045  -1223673.77645  24274232.0444   24274234.9164
 -25985727.66947 -20036758.02447  20193383.0794   20193386.7954
     99225.40744     70738.57145  22261564.4304   22261569.1904
  -5272113.32047  -3977135.24346  21797811.4314   21797815.7804
 -11291620.41846  -8690823.66246  22509074.1284   22509079.2744
  -7434103.45446  -5648500.67547  21034551.8004   21034555.3524
  -8082913.34346  -5679409.33046  23800516.7004   23800518.0244
 04  3  1  3 10 59.9990000  0  8G 5G28G 9G18G29G 7G26G22
 -15439463.92147 -11804455.39246  21682349.1984   21682354.6614
  -1721335.13845  -1152083.51945  24291715.1924   24291717.6894
 -26019223.02746 -20062858.29647  20187009.0454   20187013.0894
    112999.68044     81471.75645  22264185.0284   22264189.8584
  -5197584.04947  -3919060.48746  21811993.7624   21811998.4164
 -11289016.33146  -8688794.48946  22509569.8464   22509574.9684
  -7369812.59048  -5598403.90147  21046785.9304   21046790.0214
  -8130837.08246  -5716752.47546  23791396.4844   23791397.6914
 04  3  1  3 11 29.9990000  0  8G 5G28G 9G18G29G 7G26G22
 -15526552.53947 -11872316.63146  21665776.3534   21665781.3234
  -1629386.40245  -1080435.17145  24309213.7234   24309213.4194
 -26052394.06546 -20088705.84947  20180696.8474   20180701.1254
    127349.62345     92653.52245  22266916.4164   22266922.1484
  -5122707.59747  -3860715.22546  21826242.4444   21826246.3594
 -11285896.05446  -8686363.11246  22510163.4174   22510169.0324
  -7305131.27048  -5548002.87747  21059094.1714   21059098.0744
  -8178254.48046  -5753701.13446  23782372.9294   23782374.3944
 04  3  1  3 11 59.9990000  0  8G 5G28G 9G18G29G 7G26G22
 -15613297.70647 -11939910.25146  21649269.3804   21649274.8194
  -1537361.36645  -1008727.27345  24326725.6804   24326727.1694
 -26085236.25446 -20114297.16047  20174447.1864   20174451.5354
    142277.96345    104286.00945  22269756.7984   22269760.4784
  -5047481.51847  -3802097.50046  21840557.7754   21840562.2534
 -11282255.66147  -8683526.43346  22510856.5614   22510861.6614
  -7240056.58448  -5497295.34147  21071477.5474   21071481.2394
  -8225160.52146  -5790251.26946  23773447.4444   23773449.3204
 04  3  1  3 12 29.9990000  0  8G 5G28G 9G18G29G 7G26G22
 -15699703.35147 -12007239.33146  21632827.0454   21632832.3554
  -1445267.04645   -936965.49545  24344250.1474   24344253.0784
 -26117754.43146 -20139636.01347  20168259.1584   20168263.3314
    157778.20245    116364.08345  22272706.5934   22272708.9144
  -4971912.53547  -3743212.60046  21854938.1594   21854942.2394
 -11278100.56247  -8680288.68046  22511647.0604   22511651.7844
  -7174595.12548  -5446286.42347  21083934.4844   21083938.6464
  -8271559.24146  -5826406.14646  23764617.8184   23764619.5534
 04  3  1  3 12 59.9990000  0  8G 5G28G 9G18G29G 7G26G22
 -15785767.00747 -12074301.91246  21616449.6524   21616454.4474
  -1353104.08545   -865150.21145  24361788.4564   24361791.3984
 -26149947.32946 -20164721.38447  20162132.8324   20162137.4034
    173850.08246    128887.59645  22275765.2954   22275767.1124
  -4896001.01847  -3684060.76146  21869383.3504   21869387.6054
 -11273429.68647  -8676649.01746  22512535.8184   22512540.8824
  -7108747.24748  -5394976.39147  21096464.9384   21096468.8414
  -8317448.45046  -5862163.98346  23755884.9664   23755888.2364
 04  3  1  3 13 29.9990000  0  8G 5G28G 9G18G29G 7G26G22
 -15871486.40147 -12141096.23246  21600138.0934   21600142.3834
  -1260872.93443   -793281.78145  24379338.6264   24379342.9634
 -26181812.87147 -20189551.66647  20156069.3204   20156073.5984
    190493.80246    141856.70545  22278932.1184   22278935.3184
  -4819746.95547  -3624642.02946  21883893.9894   21883898.1974
 -11268241.85946  -8672606.53946  22513523.0854   22513528.1614
  -7042512.82248  -5343365.16847  21109069.1574   21109073.2594
  -8362825.43846  -5897522.66546  23747250.3444   23747253.6384
 04  3  1  3 13 59.9990000  0  8G 5G28G 9G18G29G 7G26G22
 -15956863.20647 -12207623.60246  21583890.8374   21583896.0064
  -1168578.59143   -721364.23745  24396901.9014   24396908.1134
 -26213353.79847 -20214129.02547  20150067.3364   20150071.2044
    207704.96046    155267.95046  22282208.1414   22282210.5794
  -4743154.83547  -3564959.86446  21898468.8824   21898473.6414
 -11262540.13947  -8668163.65446  22514608.3184   22514612.9254
  -6975896.15148  -5291456.06647  21121745.7884   21121750.4064
  -8407692.21246  -5932483.78346  23738712.8254   23738713.6224
 04  3  1  3 14 29.9990000  0  8G 5G28G 9G18G29G 7G26G22
 -16041898.22447 -12273884.66146  21567709.2294   21567714.9384
  -1076224.74543   -649400.20745  24414476.4704   24414482.0854
 -26244571.80646 -20238454.73247  20144126.3624   20144131.1454
    225480.27947    169118.81646  22285590.5354   22285593.3494
  -4666228.06047  -3505016.93446  21913107.5644   21913111.7024
 -11256326.62847  -8663321.94346  22515790.4674   22515795.2964
  -6908900.55548  -5239251.73847  21134494.5934   21134498.4614
  -8452049.75146  -5967048.06546  23730271.2774   23730274.3014
 04  3  1  3 14 59.9990000  0  8G 5G28G 9G18G29G 7G26G22
 -16126583.83247 -12339873.42746  21551594.5904   21551598.8684
   -983806.95445   -577386.38045  24432063.6804   24432064.3254
 -26275460.28446 -20262523.66647  20138248.5734   20138252.9924
    243824.70346    183413.14946  22289081.0384   22289084.2154
  -4588961.92247  -3444809.56946  21927811.0664   21927814.7464
 -11249595.16847  -8658076.64846  22517071.6144   22517077.1944
  -6841520.95748  -5186748.15647  21147316.4894   21147320.4984
  -8495890.42146  -6001209.70445  23721928.7114   23721930.7274
 04  3  1  3 15 29.9990000  0  8G 5G28G 9G18G29G 7G26G22
 -16210916.48147 -12405587.17346  21535546.5404   21535550.8074
   -891324.73745   -505322.25145  24449662.2974   24449665.7904
 -26306016.23747 -20286333.51447  20132434.2894   20132438.3104
    262739.13447    198151.63946  22292680.1484   22292683.2194
  -4511355.30847  -3384336.90546  21942579.1854   21942583.5454
 -11242343.53746  -8652426.02646  22518451.5404   22518457.1554
  -6773756.27147  -5133944.52047  21160211.6804   21160215.1384
  -8539210.83546  -6034965.89045  23713685.5414   23713688.0144
 04  3  1  3 15 59.9990000  0  8G 5G28G 9G18G29G 7G26G22
 -16294901.70747 -12471030.19946  21519564.6924   21519569.3814
   -798786.61145   -433214.63445  24467271.5764   24467277.3554
 -26336246.33046 -20309889.41547  20126681.3244   20126685.8484
    282215.45046    213327.97946  22296386.4114   22296389.7284
  -4433416.67647  -3323605.50246  21957410.3974   21957414.6404
 -11234578.87347  -8646375.63046  22519929.2454   22519934.2274
  -6705614.86148  -5080847.32047  21173178.6214   21173182.8534
  -8582016.84946  -6068321.17145  23705539.8924   23705540.9944
 04  3  1  3 16 29.9990000  0  8G 5G28G 9G18G29G 7G26G22
 -16378533.44847 -12536197.78446  21503650.0974   21503654.9384
   -706189.39143   -361060.89645  24484891.8474   24484899.4664
 -26366145.19547 -20333187.21447  20120992.1384   20120996.1114
    302257.32446    228945.01546  22300200.4864   22300203.6274
  -4355142.47647  -3262612.63846  21972305.6814   21972310.0074
 -11226296.28347  -8639921.64846  22521505.4504   22521510.1864
  -6637092.91948  -5027453.59947  21186217.9684   21186221.8364
  -8624302.35846  -6101270.91245  23697492.7534   23697494.8394
 04  3  1  3 16 59.9990000  0  8G 5G28G 9G18G29G 7G26G22
 -16461812.02247 -12601090.17846  21487802.3034   21487807.8014
   -613535.83843   -288863.33445  24502522.2384   24502527.3144
 -26395713.43847 -20356227.42247  20115365.5014   20115369.1704
    322861.77746    245000.41746  22304120.9764   22304124.8574
  -4276535.41647  -3201360.39046  21987263.8894   21987267.4524
 -11217497.24047  -8633065.24446  22523179.5384   22523184.3204
  -6568192.94548  -4973765.32447  21199329.0274   21199332.6024
  -8666067.36746  -6133815.09246  23689545.7384   23689547.5554
 04  3  1  3 17 29.9990000  0  8G 5G28G 9G18G29G 7G26G22
 -16544735.67347 -12665705.98046  21472022.5944   21472028.0694
   -520827.33143   -216622.98545  24520165.3814   24520169.3084
 -26424950.33546 -20379009.42547  20109801.4344   20109805.9244
    344027.65846    261493.29246  22308148.9954   22308153.2034
  -4197596.69947  -3139849.71346  22002285.6184   22002289.3814
 -11208181.42446  -8625806.14546  22524952.0934   22524957.9084
  -6498915.88348  -4919783.20847  21212512.1494   21212516.1114
  -8707310.53546  -6165952.63146  23681697.4814   23681700.4714
 04  3  1  3 17 59.9990000  0  8G 5G28G 9G18G29G 7G26G22
 -16627307.44547 -12730047.60146  21456309.7364   21456314.2494
   -428070.09645   -144344.63345  24537816.0694   24537820.3244
 -26453859.93446 -20401536.36947  20104300.3754   20104304.8524
    365749.38446    278419.30146  22312282.4304   22312286.7084
  -4118331.97447  -3078084.97346  22017368.9864   22017372.5384
 -11198353.45846  -8618148.00046  22526822.3714   22526827.2474
  -6429267.63648  -4865511.85247  21225765.7264   21225770.2514
  -8748035.38946  -6197686.28546  23673947.7704   23673947.3724
 04  3  1  3 18 29.9990000  0  8G 5G28G 9G18G29G 7G26G22
 -16709526.89547 -12794114.69746  21440664.0054   21440668.3894
   -335266.27143    -72029.99145  24555475.7224   24555481.4084
 -26482442.37847 -20423808.41147  20098861.5014   20098865.4284
    388025.10047    295776.99246  22316521.5594   22316525.4624
  -4038743.39447  -3016067.93146  22032513.9494   22032517.8294
 -11188014.32546  -8610091.53546  22528789.6604   22528794.5254
  -6359249.93048  -4810952.61047  21239089.5754   21239092.7984
  -8788241.40046  -6229015.60745  23666296.3484   23666297.4264
 04  3  1  3 18 59.9990000  0  8G 5G28G 9G18G29G 7G26G22
 -16791387.80347 -12857902.41646  21425086.3404   21425090.8184
   -242412.84943       323.26645  24573145.8034   24573150.7264
 -26510692.22446 -20445821.28847  20093485.4634   20093489.2374
    410858.02747    313568.88846  22320867.0004   22320870.8454
  -3958827.52446  -2953795.83846  22047721.3424   22047725.8324
 -11177159.07747  -8601632.88546  22530855.4854   22530860.1984
  -6288859.05348  -4756102.59747  21252484.5574   21252488.6714
  -8827922.45745  -6259935.90445  23658744.1774   23658747.1434
 04  3  1  3 19 29.9990000  0  8G 5G28G 9G18G29G 7G26G22
 -16872899.05747 -12921417.68546  21409575.2424   21409580.9274
   -149521.32843     72706.32645  24590821.5584   24590828.6504
 -26538618.98646 -20467582.38647  20088171.1504   20088175.1004
    434236.59747    331785.94146  22325315.5554   22325319.1184
  -3878595.83546  -2891277.64946  22062989.0964   22062993.3984
 -11165798.30546  -8592780.30546  22533017.4254   22533022.7354
  -6218106.62948  -4700970.83747  21265948.3204   21265952.5644
  -8867087.81646  -6290454.41645  23651292.5334   23651293.3304
 04  3  1  3 19 59.9990000  0  8G 5G28G 9G18G29G 7G26G22
 -16954052.89547 -12984654.42546  21394132.4494   21394137.3264
    -56586.86442    145122.77843  24608506.4294   24608514.3304
 -26566215.82947 -20489086.41747  20082919.8624   20082923.4844
    458165.82547    350432.08046  22329869.0634   22329872.4394
  -3798043.46847  -2828509.58946  22078318.0264   22078321.4844
 -11153925.67946  -8583528.90646  22535276.3994   22535282.3534
  -6146987.38348  -4645553.25647  21279481.7704   21279485.6624
  -8905729.72946  -6320564.98845  23643938.9064   23643942.7864
 04  3  1  3 20 29.9990000  0  8G 5G28G 9G18G29G 7G26G22
 -17034849.13147 -13047612.49446  21378757.2674   21378761.3224
     36387.88642    217570.60745  24626197.9054   24626201.5984
 -26593483.20246 -20510333.73447  20077730.8754   20077734.4744
    482643.38547    369505.46646  22334526.9294   22334530.7034
  -3717172.51547  -2765493.25246  22093707.0614   22093711.1284
 -11141542.33446  -8573879.56246  22537633.1864   22537638.9764
  -6075503.63348  -4589851.64147  21293085.0374   21293088.7884
  -8943848.34346  -6350267.82746  23636685.6304   23636687.5994
 04  3  1  3 20 59.9990000  0  8G 5G28G 9G18G29G 7G26G22
 -17115276.98847 -13110283.53046  21363451.6174   21363457.6654
    129411.27445    290056.44845  24643901.4024   24643902.5284
 -26620410.98646 -20531316.40947  20072606.6524   20072611.4124
    507677.42647    389012.47746  22339290.7754   22339293.6474
  -3635974.96047  -2702222.44446  22109158.5244   22109162.2404
 -11128638.78646  -8563824.85746  22540088.7034   22540094.4584
  -6003646.85048  -4533859.35247  21306758.7014   21306762.4404
  -8981432.81546  -6379554.46445  23629533.3674   23629535.2074
 04  3  1  3 21 29.9990000  0  8G 5G28G 9G18G29G 7G26G22
 -17195348.59147 -13172676.99146  21348214.9774   21348220.4404
    222468.06745    362568.12245  24661610.2214   24661614.1834
 -26647011.99347 -20552044.45747  20067544.7604   20067548.9224
    533252.75846    408941.28546  22344157.6024   22344161.5294
  -3554465.70347  -2638708.75546  22124669.3294   22124673.4094
 -11115228.87846  -8553375.57146  22542640.5524   22542645.6744
  -5931431.99248  -4477588.03747  21320500.6714   21320504.8444
  -9018495.79846  -6408434.75446  23622481.1704   23622481.8384
 04  3  1  3 21 59.9990000  0  8G 5G28G 9G18G29G 7G26G22
 -17275058.98848 -13234788.95646  21333046.8804   21333050.5494
    315560.42244    435107.65645  24679323.2194   24679329.3384
 -26673281.87446 -20572514.51347  20062545.7334   20062549.5554
    559371.82546    429293.79046  22349127.6974   22349131.2024
  -3472642.38847  -2574950.32446  22140239.6674   22140243.2074
 -11101309.10246  -8542528.97746  22545289.4924   22545294.0644
  -5858856.47748  -4421035.70747  21334311.3264   21334315.5574
  -9055032.41146  -6436904.78146  23615528.2664   23615528.7354
 04  3  1  3 22 29.9990000  0  8G 5G28G 9G18G29G 7G26G22
 -17354406.68647 -13296618.30646  21317946.9374   21317950.9114
    408687.53544    507674.21245  24697045.7204   24697050.5614
 -26699219.62946 -20592725.73347  20057609.9664   20057613.8814
    586033.31846    450068.99746  22354200.5484   22354204.0884
  -3390506.06747  -2510947.99046  22155869.5834   22155873.7914
 -11086879.24447  -8531284.91646  22548034.9284   22548039.2304
  -5785921.15348  -4364203.00047  21348190.4914   21348194.9924
  -9091041.19546  -6464963.58345  23608674.7674   23608676.3024
 04  3  1  3 22 59.9990000  0  8G 5G28G 9G18G29G 7G26G22
 -17433389.66647 -13358163.50646  21302917.5984   21302922.4164
    501848.21544    580266.98045  24714774.3774   24714780.1444
 -26724824.26247 -20612677.39447  20052737.6774   20052741.5924
    613236.20646    471266.05046  22359377.5484   22359381.6514
  -3308057.64347  -2446702.48646  22171559.0024   22171562.7894
 -11071939.22447  -8519643.34246  22550877.8724   22550882.0104
  -5712626.80648  -4307090.52647  21362138.0514   21362142.1074
  -9126520.71546  -6492609.97945  23601923.5304   23601926.7894
 04  3  1  3 23 29.9990000  0  8G 5G28G 9G18G29G 7G26G22
 -17512004.11548 -13419421.49246  21287958.0324   21287962.3344
    595044.06245    652887.03545  24732508.6354   24732508.9174
 -26750092.39247 -20632366.85047  20047929.2304   20047933.0984
    640981.71546    492885.94146  22364657.6624   22364661.9294
  -3225295.56646  -2382212.57746  22187307.9104   22187311.9194
 -11056486.30146  -8507602.09046  22553818.3704   22553823.2114
  -5638971.90348  -4249697.09646  21376154.0664   21376158.3334
  -9161467.13946  -6519840.97045  23595273.6834   23595276.8724
 04  3  1  3 23 59.9990000  0  8G 5G28G 9G18G29G 7G26G22
 -17590246.37747 -13480389.49646  21273068.2144   21273072.7624
    688275.44245    725534.83045  24750250.4544   24750252.4004
 -26775021.36446 -20651792.00747  20043185.2114   20043189.0914
    669270.49146    514929.12746  22370040.7474   22370044.4864
  -3142219.04947  -2317477.63846  22203117.2504   22203121.4464
 -11040518.54746  -8495159.67546  22556856.9994   22556862.4384
  -5564955.32748  -4192021.85646  21390239.1044   21390243.5814
  -9195877.65646  -6546654.36946  23588726.1074   23588728.4634
 04  3  1  3 24 29.9990000  0  8G 5G28G 9G18G29G 7G26G22
 -17668125.37247 -13541074.42046  21258248.5814   21258253.2584
    781531.36545    798201.81645  24767996.2104   24767998.2854
 -26799620.78547 -20670960.38547  20038504.3914   20038508.1194
    698091.55846    537387.08946  22375525.3714   22375529.4624
  -3058840.03347  -2252506.98446  22218983.6274   22218987.4134
 -11024046.72546  -8482324.49846  22559991.6274   22559997.6294
  -5490588.97948  -4134074.05446  21404390.1904   21404394.7864
  -9229760.84446  -6573056.86446  23582278.2414   23582279.6824
 04  3  1  3 24 59.9990000  0  8G 5G28G 9G18G29G 7G26G22
 -17745636.04848 -13601472.30946  21243499.0214   21243503.1364
    874814.10544    870889.69345  24785747.2154   24785753.1934
 -26823885.88047 -20689868.25947  20033886.9464   20033890.5804
    727446.83446    560261.31246  22381111.3274   22381115.2664
  -2975155.63247  -2187298.38446  22234908.4814   22234912.2564
 -11007066.95446  -8469093.52046  22563223.0794   22563228.1664
  -5415869.78148  -4075851.31647  21418609.2654   21418613.5554
  -9263112.10846  -6599044.83946  23575931.6724   23575933.5594
 04  3  1  3 25 29.9990000  0  8G 5G28G 9G18G29G 7G26G22
 -17822783.56747 -13661587.23146  21228817.9594   21228822.5664
    968115.84145    943592.35945  24803502.1054   24803504.2854
 -26847822.38846 -20708520.07747  20029331.6844   20029335.5884
    757327.94746    583545.26646  22386797.6334   22386801.5024
  -2891173.91446  -2121858.06946  22250889.4894   22250894.2014
 -10989585.97847  -8455471.96146  22566549.7544   22566553.9624
  -5340805.50048  -4017359.67546  21432893.2144   21432897.6454
  -9295937.00746  -6624622.69346  23569685.3834   23569686.2514
 04  3  1  3 25 59.9990000  0  8G 5G28G 9G18G29G 7G26G22
 -17899556.06847 -13721409.97446  21214208.4524   21214213.8564
   1061445.70944   1016316.90045  24821262.5624   24821265.5864
 -26871419.12647 -20726907.14247  20024841.6814   20024845.6904
    787744.00546    607246.02646  22392586.0874   22392589.7564
  -2806885.62846  -2056178.89646  22266929.0294   22266933.7774
 -10971593.70447  -8441451.99346  22569973.2084   22569978.1084
  -5265386.93748  -3958591.96446  21447244.9934   21447249.6234
  -9328224.11646  -6649781.44546  23563541.3254   23563542.5564
 04  3  1  3 26 29.9990000  0  9G 5G28G 9G18G29G 7G30G26G22
 -17975958.67748 -13780944.45546  21199669.8624   21199674.6794
   1154795.84542   1089057.33945  24839025.3564   24839033.0584
 -26894682.13146 -20745034.16247  20020414.6714   20020418.8094
    818686.76846    631357.22946  22398473.9604   22398476.9964
  -2722298.83346  -1990267.12146  22283025.1854   22283029.6514
 -10953096.89146  -8427038.88946  22573492.9814   22573498.2564
                                  24588214.2454
  -5189621.98948  -3899554.35346  21461662.4134   21461666.7734
  -9359978.94546  -6674525.48345  23557498.2784   23557500.1654
 04  3  1  3 26 59.9990000  0  9G 5G28G 9G18G29G 7G30G26G22
 -18051991.48048 -13840190.74946  21185201.3514   21185205.4184
   1248163.58243   1161811.37045  24856793.5644   24856797.9604
 -26917611.95646 -20762901.55047  20016051.1334   20016054.9314
    850153.48746    655876.73546  22404461.5604   22404465.8974
  -2637416.06646  -1924124.73146  22299177.7484   22299182.9064
 -10934097.15246  -8412233.89546  22577108.3084   22577113.8884
   -109308.00442                  24566693.5394
  -5113512.97948  -3840248.64646  21476145.4034   21476149.4014
  -9391202.13045  -6698855.21645  23551556.4114   23551558.1104
 04  3  1  3 27 29.9990000  0  9G 5G28G 9G18G29G 7G30G26G22
 -18127651.93147 -13899146.91746  21170803.2454   21170807.8524
   1341549.24045   1234579.23845  24874565.0684   24874565.0454
 -26940206.45447 -20780507.65347  20011751.9524   20011755.3404
    882143.67946    680804.19646  22410549.4534   22410553.5564
  -2552237.34546  -1857751.69046  22315386.6484   22315391.5944
 -10914593.39347  -8397036.14046  22580820.3284   22580825.0754
   -222297.28444                  24545195.8244
  -5037059.78148  -3780674.74646  21490694.3014   21490698.8974
  -9421891.10846  -6722768.77246  23545716.6844   23545718.4654
 04  3  1  3 27 59.9990000  0  9G 5G28G 9G18G29G 7G30G26G22
 -18202940.08047 -13957812.99546  21156476.5394   21156481.7084
   1434950.06644   1307359.24445  24892337.5144   24892339.6244
 -26962466.18546 -20797852.89747  20007515.6604   20007519.3524
    914655.09346    706137.76146  22416736.3254   22416739.7834
  -2466765.34346  -1791150.16346  22331652.0624   22331655.8024
 -10894587.32946  -8381446.99846  22584626.8454   22584631.7804
   -335193.41045    -49839.33845  24523711.5114   24523713.7264
  -4960265.11648  -3720834.73246  21505307.7584   21505311.7554
  -9452046.15946  -6746266.19646  23539978.3334   23539981.7914
 04  3  1  3 28 29.9990000  0  9G 5G28G 9G18G29G 7G30G26G22
 -18277853.31947 -14016186.93946  21142221.1904   21142226.2664
   1528366.26044   1380151.07245  24910113.8554   24910113.2114
 -26984389.11146 -20814935.69847  20003344.0374   20003348.0344
    947687.12646    731876.99546  22423022.0134   22423025.6234
  -2381000.16146  -1724320.14746  22347972.2164   22347976.2714
 -10874077.81646  -8365465.56846  22588529.8954   22588535.3344
   -447993.07842   -137735.05645  24502245.4504   24502254.6284
  -4883128.53748  -3660728.31446  21519986.4174   21519990.1924
  -9481665.27046  -6769346.05946  23534342.3934   23534344.9014
 04  3  1  3 28 59.9990000  0  9G 5G28G 9G18G29G 7G30G26G22
 -18352390.62347 -14074267.91046  21128036.8634   21128041.3294
   1621796.22944   1452953.69245  24927893.2964   24927897.3174
 -27005974.90747 -20831755.80147  19999236.3574   19999240.0974
    981237.76846    758020.35146  22429406.1214   22429409.7784
  -2294943.44046  -1657262.98346  22364348.4154   22364351.9794
 -10853065.65546  -8349092.42946  22592528.5254   22592533.2604
                                  24480799.5334
  -4805651.87548  -3600356.89746  21534729.7264   21534733.5954
  -9510747.82445  -6792007.80546  23528807.5534   23528809.9334
 04  3  1  3 29 29.9990000  0  9G 5G28G 9G18G29G 7G30G26G22
 -18426555.11847 -14132058.41846  21113923.7844   21113929.2824
   1715234.56343   1525762.67545  24945673.9804   24945681.2714
 -27027227.39246 -20848316.16747  19995191.9294   19995196.5594
   1015300.67346    784562.86746  22435887.9874   22435892.6054
  -2208601.08246  -1589983.23646  22380778.7184   22380783.0324
 -10831555.65546  -8332331.39446  22596621.3554   22596625.9974
   -108848.75844                  24459369.9184
  -4727840.85048  -3539724.94446  21549536.4134   21549540.3634
  -9539297.45046  -6814254.29046  23523375.3604   23523376.3804
 04  3  1  3 29 59.9990000  0  9G 5G28G 9G18G29G 7G30G26G22
 -18500342.46548 -14189555.04846  21099882.8784   21099888.2704
   1808683.36543   1598580.01445  24963456.3004   24963455.0934
 -27048142.03347 -20864613.30047  19991212.1824   19991216.1444
   1049878.09246    811506.31046  22442468.0594   22442472.3024
  -2121970.89946  -1522479.22046  22397263.9284   22397268.8994
 -10809544.42946  -8315179.77646  22600809.8784   22600815.0244
   -221354.95643                  24437961.3064
  -4649692.92448  -3478830.46346  21564407.6594   21564411.9724
  -9567309.57846  -6836081.90446  23518044.4774   23518047.4674
 04  3  1  3 30 29.9990000  0  9G 5G28G 9G18G29G 7G30G26G22
 -18573751.02448 -14246756.49946  21085913.4174   21085918.3634
   1902141.54643   1671404.46345  24981241.6074   24981241.3734
 -27068718.30246 -20880646.75747  19987296.5164   19987300.8414
   1084968.12546    838849.19846  22449145.5254   22449148.9604
  -2035054.16646  -1454751.90246  22413803.6094   22413808.2044
 -10787032.71046  -8297638.16746  22605093.6164   22605099.7234
   -333759.07444    -58380.21445  24416572.0864   24416576.3294
  -4571209.50848  -3417674.57546  21579342.5704   21579347.0484
  -9594783.54046  -6857490.21446  23512816.6364   23512818.2784
 04  3  1  3 30 59.9990000  0  9G 5G28G 9G18G29G 7G30G26G22
 -18646774.97247 -14303658.25246  21072017.3084   21072022.1144
   1995612.44942   1744238.96845  24999027.6914   24999024.0464
 -27088951.00647 -20896412.48547  19983446.6594   19983450.7504
   1120573.52946    866593.63746  22455921.4324   22455924.7734
  -1947848.11746  -1386799.16046  22430398.5344   22430402.1914
 -10764016.34946  -8279703.36046  22609473.9764   22609480.0714
   -446054.79943   -145883.32145  24395201.9534   24395210.4404
  -4492387.45847  -3356254.81046  21594342.0264   21594346.6914
  -9621714.15246  -6878475.08046  23507692.1834   23507693.8004
 04  3  1  3 31 29.9990000  0  9G 5G28G 9G18G29G 7G30G26G22
 -18719423.24148 -14360267.27646  21058192.9634   21058197.9684
   2089084.76942   1817074.48745  25016815.6824   25016820.2664
 -27108849.42147 -20911917.75847  19979660.1284   19979664.0194
   1156682.28446    894730.29046  22462792.4824   22462795.6234
  -1860363.97546  -1318629.71446  22447046.2714   22447050.2684
 -10740505.81847  -8261383.47546  22613947.8004   22613953.2164
   -558250.46043   -233308.43145  24373852.9374   24373858.0134
  -4413238.06147  -3294579.95546  21609403.4084   21609407.9914
  -9648110.62046  -6899043.74646  23502669.0064   23502670.5424
 04  3  1  3 31 59.9990000  0  8G 5G 9G18G29G 7G30G26G22
 -18791689.11448 -14416578.33146  21044441.1674   21044446.0084
 -27128406.92646 -20927157.37047  19975938.1544   19975942.2454
   1193298.88746    923262.70446  22469760.1074   22469765.0544
  -1772597.13646  -1250239.97546  22463747.6844   22463751.9754
 -10716495.55746  -8242674.17346  22618516.9724   22618522.2244
   -670338.08344   -320649.47345  24352524.4094   24352523.6364
  -4333756.50147  -3232646.26946  21624528.3164   21624532.4774
  -9673966.12646  -6919190.89546  23497748.6284   23497751.1254
 04  3  1  3 32 29.9990000  0  8G 5G 9G18G29G 7G30G26G22
 -18863574.25547 -14472592.71746  21030761.7214   21030767.3714
 -27147625.93447 -20942133.21347  19972281.2684   19972285.1724
   1230418.60346    952187.15746  22476823.8064   22476828.3434
  -1684552.33446  -1181633.64046  22480501.8184   22480505.9214
 -10691989.20846  -8223578.29946  22623179.9204   22623184.9954
   -782319.28444   -407907.51245  24331213.1394   24331215.0734
  -4253947.27947  -3170457.28146  21639715.5034   21639719.7474
  -9699283.11946  -6938918.45546  23492931.4194   23492932.9314
 04  3  1  3 32 59.9990000  0  8G 5G 9G18G29G 7G30G26G22
 -18935077.26148 -14528309.33246  21017155.5374   21017160.5424
 -27166505.69547 -20956844.71447  19968688.5064   19968692.2574
   1268039.73546    981502.33246  22483982.7634   22483987.6044
  -1596231.08646  -1112811.90146  22497308.7464   22497312.9194
 -10666987.31146  -8204096.29146  22627937.7874   22627942.5114
   -894192.35642   -495081.35645  24309923.3464   24309929.5244
  -4173811.84747  -3108014.08346  21654964.8454   21654969.7684
  -9724061.15346  -6958225.99946  23488216.0714   23488217.2784
 04  3  1  3 33 29.9990000  0  8G 5G 9G18G29G 7G30G26G22
 -19006197.96948 -14583728.03946  21003621.7864   21003626.2524
 -27185046.42547 -20971292.04347  19965160.2344   19965164.2084
   1306159.22346   1011205.80246  22491237.2504   22491240.4744
  -1507635.66346  -1043776.51146  22514168.1544   22514172.9374
 -10641491.35146  -8184229.31746  22632789.6594   22632794.6294
  -1005956.32444   -582170.12745  24288657.1114   24288662.5504
  -4093352.20647  -3045318.27446  21670275.7454   21670280.1294
  -9748300.11546  -6977113.50446  23483603.5874   23483605.2284
 04  3  1  3 33 59.9990000  0  8G 5G 9G18G29G 7G30G26G22
 -19076929.45848 -14638843.46646  20990161.8394   20990166.4814
 -27203241.71547 -20985470.19348  19961698.0824   19961701.8454
   1344780.93546   1041300.64146  22498586.3654   22498588.2994
  -1418761.62446   -974524.01946  22531080.5064   22531085.8164
 -10615495.91646  -8163973.12846  22637736.7164   22637742.0034
  -1117603.73843   -669168.12445  24267409.8264   24267414.7614
  -4012564.00147  -2982366.43546  21685649.3074   21685653.3284
  -9771993.86146  -6995576.17846  23479094.9354   23479097.8074
 04  3  1  3 34 29.9990000  0  8G 5G 9G18G29G 7G30G26G22
 -19147275.22248 -14693658.33546  20976775.2804   20976780.1924
 -27221095.29746 -20999382.07247  19958300.1454   19958304.2944
   1383898.88346   1071782.15146  22506030.3404   22506033.5164
  -1329614.84446   -905059.00846  22548044.3554   22548048.4114
 -10589006.06046  -8143331.67146  22642777.0954   22642782.8514
  -1229137.25242   -756077.41543  24246184.6274   24246189.5034
  -3931453.08648  -2919163.12846  21701084.3054   21701088.2794
  -9795145.97046  -7013616.80946  23474689.2174   23474691.1984
 04  3  1  3 34 59.9990000  0  8G 5G 9G18G29G 7G30G26G22
 -19217234.88948 -14748172.34347  20963462.5864   20963467.0054
 -27238607.12147 -21013027.65547  19954968.0524   19954972.0264
   1423510.04046   1102648.00246  22513568.2954   22513571.0614
  -1240197.93246   -835383.49946  22565060.2284   22565064.3424
 -10562023.20146  -8122306.06846  22647911.6554   22647916.9654
  -1340556.01643   -842897.09745  24224984.7194   24224982.7854
  -3850021.43047  -2855709.90346  21716580.1874   21716584.7474
  -9817756.79046  -7031235.66446  23470386.4804   23470387.9334
 04  3  1  3 35 29.9990000  0  8G 5G 9G18G29G 7G30G26G22
 -19286806.56748 -14802384.01847  20950223.4764   20950227.7784
 -27255775.92546 -21026405.95647  19951700.7544   19951705.1144
   1463613.38547   1133897.34046  22521199.6684   22521203.2434
  -1150511.61846   -765498.04246  22582126.8704   22582132.0634
 -10534547.32346  -8100896.28246  22653140.1444   22653145.1034
  -1451857.64243   -929625.69945  24203804.3884   24203811.2814
  -3768270.02047  -2792007.50446  21732136.8034   21732141.3984
  -9839824.84846  -7048431.57446  23466187.0914   23466189.6234
 04  3  1  3 35 59.9990000  0  8G 5G 9G18G29G 7G30G26G22
 -19355987.46048 -14856291.18747  20937058.6944   20937063.2894
 -27272599.61947 -21039515.29847  19948499.2004   19948503.5254
   1504208.59646   1165529.93646  22528924.5574   22528928.1564
  -1060555.55446   -695402.43146  22599244.7324   22599248.8814
 -10506577.40746  -8079101.54446  22658462.3824   22658467.3884
  -1563038.89744  -1016260.36145  24182647.7354   24182655.2964
  -3686198.40648  -2728055.60746  21747754.6284   21747758.9064
  -9861348.22046  -7065203.02346  23462091.3374   23462093.1894
 04  3  1  3 36 29.9990000  0  8G 5G 9G18G29G 7G30G26G22
 -19424778.71748 -14909894.74447  20923968.1844   20923973.2364
 -27289079.14347 -21052356.51347  19945363.5984   19945367.2444
   1545291.76046   1197542.77346  22536742.4504   22536746.7874
   -970333.36846   -625099.44746  22616413.4804   22616416.7504
 -10478115.96146  -8056923.80346  22663878.7494   22663882.6884
  -1674099.70144  -1102801.27445  24161513.2134   24161517.7614
  -3603809.83148  -2663856.74046  21763432.9224   21763436.8024
  -9882328.19646  -7081551.05146  23458098.9744   23458101.5994
 04  3  1  3 36 59.9990000  0  8G 5G 9G18G29G 7G30G26G22
 -19493175.60048 -14963190.99747  20910952.5464   20910957.4104
 -27305210.52846 -21064926.40447  19942293.7754   19942298.4404
   1586864.25546   1229936.93046  22544653.6584   22544657.7614
   -879843.16946   -554587.62846  22633633.1784   22633636.6834
 -10449160.32346  -8034360.94146  22669388.9384   22669393.6504
  -1785035.21644  -1189244.52345  24140402.4274   24140406.2024
  -3521102.41547  -2599409.39046  21779171.2974   21779175.8104
  -9902761.00946  -7097472.72746  23454210.1144   23454211.5794
 04  3  1  3 37 29.9990000  0  8G 5G 9G18G29G 7G30G26G22
 -19561175.35748 -15016177.80847  20898012.6084   20898017.2384
 -27320991.37047 -21077223.15147  19939290.7814   19939295.1764
   1628925.98846   1262712.30446  22552657.7944   22552661.1944
   -789084.83246   -483866.85546  22650904.0964   22650908.2924
 -10419709.46046  -8011412.21246  22674993.3654   22674998.2654
  -1895841.86145  -1275587.34245  24119318.3194   24119320.8624
  -3438075.71447  -2534713.26646  21794970.7734   21794975.4734
  -9922644.48146  -7112966.35846  23450426.5464   23450428.4454
 04  3  1  3 37 59.9990000  0  8G 5G 9G18G29G 7G30G26G22
 -19628786.74048 -15068861.98247  20885146.4884   20885151.4824
 -27336430.84747 -21089253.91847  19936352.7234   19936356.4504
   1671464.95146   1295859.51446  22560752.7274   22560755.1894
   -698069.75246   -412946.02246  22668223.3874   22668227.5834
 -10389773.92146  -7988085.80546  22680689.6054   22680694.4474
  -2006528.12144  -1361836.35145  24098253.7754   24098258.1594
  -3354741.22347  -2469777.29546  21810828.7834   21810832.9684
  -9941987.92346  -7128039.23646  23446746.3194   23446747.9964
 04  3  1  3 38 29.9990000  0  8G 5G 9G18G29G 7G30G26G22
 -19696007.88048 -15121242.06847  20872354.6984   20872360.1144
 -27351527.32347 -21101017.41047  19933480.0624   19933483.6384
   1714480.21746   1329377.86146  22568937.9864   22568940.8814
   -606798.36046   -341825.46046  22685592.0474   22685597.0994
 -10359353.27446  -7964381.41846  22686478.9704   22686484.3394
  -2117090.96145  -1447989.27545  24077215.2904   24077222.2424
  -3271099.16047  -2404601.68546  21826745.5334   21826750.3984
  -9960789.76246  -7142690.01246  23443168.4414   23443169.9424
 04  3  1  3 38 59.9990000  0  8G 5G 9G18G29G 7G30G26G22
 -19762832.47448 -15173313.17247  20859638.4524   20859643.5634
 -27366274.96246 -21112509.06847  19930673.3864   19930677.7934
   1757974.85146   1363269.78146  22577214.3494   22577217.1154
   -515266.96746   -270502.31146  22703009.8454   22703014.3354
 -10328443.19746  -7940295.62146  22692360.7514   22692366.7884
  -2227523.35344  -1534040.43945  24056200.2314   24056206.1274
  -3187145.60847  -2339183.31946  21842721.0554   21842725.8034
  -9979044.39646  -7156914.38546  23439694.3574   23439695.6584
 04  3  1  3 39 29.9990000  0  8G 5G 9G18G29G 7G30G26G22
 -19829264.20648 -15225078.12847  20846997.0434   20847001.9674
 -27380677.85947 -21123732.10647  19927932.8534   19927936.8974
   1801941.76046   1397529.69946  22585581.2434   22585585.0174
   -423482.08646   -198981.63846  22720475.5774   22720480.5364
 -10297049.30646  -7915832.85346  22698334.0634   22698338.5764
  -2337828.96345  -1619992.90445  24035210.6814   24035213.7174
  -3102887.10647  -2273527.37946  21858755.0194   21858759.1804
  -9996756.45646  -7170715.97646  23436323.4394   23436326.1584
 04  3  1  3 39 59.9990000  0  8G 5G 9G18G29G 7G30G26G22
 -19895298.15748 -15276533.13547  20834431.3794   20834435.5994
 -27394731.21546 -21134682.77247  19925258.5004   19925262.8494
   1846383.40446   1432159.53346  22594038.5174   22594041.7874
   -331441.31846   -127261.59846  22737990.3894   22737994.7154
 -10265168.28346  -7890990.50546  22704401.3994   22704405.8774
  -2448001.75345  -1705841.75945  24014244.6274   24014248.3544
  -3018320.92647  -2207631.65246  21874847.2404   21874852.0924
 -10013921.58146  -7184091.41045  23433057.2204   23433059.6464
 04  3  1  3 40 29.9990000  0  8G 5G 9G18G29G 7G30G26G22
 -19960929.28948 -15327674.24547  20821942.3234   20821946.2274
 -27408429.98947 -21145357.13147  19922651.7754   19922656.1824
   1891301.71646   1467160.78246  22602586.0244   22602590.4084
   -239141.86546    -55339.95746  22755554.7134   22755558.8744
 -10232796.64046  -7865765.82846  22710561.5124   22710564.6534
  -2558035.78145  -1791582.62545  23993305.3584   23993310.9264
  -2933444.22447  -2141493.98546  21890998.9294   21891002.8804
 -10030534.87246  -7197036.79545  23429895.9414   23429898.7784
 04  3  1  3 40 59.9990000  0  8G 5G 9G18G29G 7G30G26G22
 -20026160.56948 -15378503.80047  20809529.0184   20809533.2504
 -27421777.75447 -21155757.99447  19920111.8104   19920115.9484
   1936690.45646   1502528.63446  22611223.3644   22611227.3264
   -146589.37646     16778.85545  22773167.0964   22773171.1874
 -10199939.27546  -7840162.69446  22716814.3594   22716819.0364
  -2667933.58643  -1877217.22545  23972391.3584   23972397.6294
  -2848262.62847  -2075118.72446  21907208.5474   21907212.9784
 -10046600.29845  -7209555.32745  23426838.5054   23426840.8384
 04  3  1  3 41 29.9990000  0  8G 5G 9G18G29G 7G30G26G22
 -20090990.31048 -15429020.46747  20797192.2854   20797196.5404
 -27434773.56746 -21165884.59447  19917638.6564   19917643.1224
   1982547.96846   1538261.74546  22619949.4564   22619952.1174
    -53785.07446     89093.89445  22790827.1624   22790830.3984
 -10166596.46046  -7814181.25046  22723158.9374   22723164.3304
  -2777692.96045  -1962744.00145  23951505.5214   23951511.9214
  -2762777.11147  -2008506.64346  21923476.0084   21923480.4984
 -10062117.06045  -7221646.37845  23423885.7454   23423887.9724
 04  3  1  3 41 59.9990000  0  8G 5G 9G18G29G 7G30G26G22
 -20155418.74348 -15479224.43347  20784932.2244   20784936.5384
 -27447417.36446 -21175736.90347  19915232.5414   19915236.9604
   2028871.44946   1574357.94646  22628765.0174   22628767.7954
     39268.82046    161603.41445  22808534.3624   22808540.3174
 -10132769.95646  -7787822.94146  22729596.1364   22729602.0444
  -2887313.02745  -2048162.21645  23930645.8454   23930650.7214
  -2676989.77547  -1941659.38946  21939800.8664   21939805.1564
 -10077085.83846  -7233310.35445  23421037.8034   23421038.3654
 04  3  1  3 42 29.9990000  0  8G 5G 9G18G29G 7G30G26G22
 -20219450.80848 -15529119.53847  20772747.1484   20772751.8024
 -27459714.91247 -21185319.39347  19912892.3264   19912896.3124
   2075652.46246   1610810.64546  22637667.0004   22637671.0324
    132564.15946    234301.12645  22826288.1504   22826292.5224
 -10098467.00246  -7761093.38346  22736123.8954   22736129.4284
  -2996798.56545  -2133475.59245  23909812.3414   23909819.0464
  -2590908.72047  -1874583.24846  21956181.4504   21956186.5504
 -10091512.69745  -7244552.06845  23418292.5534   23418296.5394
 04  3  1  3 42 59.9990000  0  8G 5G 9G18G29G 7G30G26G22
 -20283082.04448 -15578702.30047  20760638.1804   20760642.8814
 -27471662.05947 -21194628.87747  19910618.8904   19910622.7824
   2122892.12546   1647620.74946  22646656.0974   22646659.9074
    226102.72645    307188.32545  22844087.7494   22844093.0594
 -10063684.88046  -7733990.42646  22742742.5534   22742747.4064
  -3106144.35445  -2218680.10045  23889005.3194   23889007.0304
  -2504531.76647  -1807276.53946  21972618.7284   21972623.2884
 -10105393.91245  -7255368.63445  23415650.5134   23415652.9164
 04  3  1  3 43 29.9990000  0  8G 5G 9G18G29G 7G30G26G22
 -20346311.58748 -15627972.06247  20748605.8114   20748610.7694
 -27483257.68146 -21203664.40747  19908412.4214   19908417.0744
   2170588.75046   1684786.96846  22655732.3294   22655737.0304
    319883.52745    380264.23445  22861933.3754   22861937.9464
 -10028424.08146  -7706514.46946  22749452.5244   22749457.6004
  -3215348.35045  -2303774.08345  23868224.2074   23868225.5204
  -2417859.92347  -1739740.04646  21989111.7274   21989115.9354
 -10118728.85545  -7265759.49145  23413113.4074   23413115.1304
 04  3  1  3 43 59.9990000  0  8G 5G 9G18G29G 7G30G26G22
 -20409143.09048 -15676931.66247  20736649.6414   20736654.3414
 -27494505.55247 -21212428.98647  19906272.1214   19906275.9084
   2218735.71846   1722304.07346  22664894.7894   22664899.8294
    413900.48845    453524.24845  22879823.9124   22879828.2734
  -9992689.85946  -7678669.63046  22756252.4014   22756257.1144
  -3324413.24745  -2388759.70345  23847468.6094   23847474.1414
  -2330899.38147  -1671978.59146  22005659.4454   22005663.7234
 -10131521.69745  -7275727.93545  23410679.7164   23410680.6064
 04  3  1  3 44 29.9990000  0  8G 5G 9G18G29G 7G30G26G22
 -20471570.81548 -15725576.61747  20724770.3044   20724775.0864
 -27505400.43246 -21220918.50947  19904198.7464   19904202.9194
   2267335.36846   1760173.90946  22674142.9494   22674148.4474
    508156.54945    526970.43045  22897760.3314   22897765.0554
  -9956478.77446  -7650453.18346  22763142.6204   22763148.4114
  -3433332.87745  -2473632.14245  23826741.9744   23826746.8274
  -2243646.86747  -1603989.62846  22022262.9484   22022267.6254
 -10143767.80145  -7285270.40945  23408348.9454   23408351.8874
 04  3  1  3 44 59.9990000  0  8G 5G 9G18G29G 7G30G26G22
 -20533597.10748 -15773908.77247  20712966.9364   20712971.7184
 -27515944.94847 -21229135.02048  19902192.5944   19902196.6624
   2316382.36746   1798392.30746  22683476.6944   22683479.8834
    602646.71945    600599.13045  22915741.7844   22915746.3794
  -9919794.81246  -7621868.27046  22770123.6124   22770128.6764
  -3542108.92945  -2558392.73845  23806042.7864   23806048.3544
  -2156107.10147  -1535776.83546  22038921.3354   22038925.3564
 -10155470.20844  -7294389.11545  23406120.9354   23406115.7774
 04  3  1  3 45 29.9990000  0  8G 5G 9G18G29G 7G30G26G22
 -20595219.04848 -15821925.85347  20701240.6524   20701245.2714
 -27526136.48147 -21237076.46047  19900252.8114   19900256.7024
   2365876.14646   1836958.88146  22692894.6824   22692898.3164
    697371.39345    674410.57345  22933767.5394   22933773.3414
  -9882637.03446  -7592914.16646  22777194.9784   22777199.3154
  -3650737.72544  -2643038.52445  23785372.2594   23785380.1954
  -2068279.69047  -1467339.91546  22055634.5814   22055638.4034
 -10166626.92645  -7303082.60345  23403998.9314   23403998.7434
 04  3  1  3 45 59.9990000  0  8G 5G 9G18G29G 7G30G26G22
 -20656434.13548 -15869625.89647  20689591.7454   20689596.0704
 -27535972.94147 -21244741.24147  19898381.0764   19898384.8984
   2415816.12946   1875873.12746  22702398.1854   22702402.3934
    792330.47646    748404.64745  22951838.3744   22951843.1804
  -9845004.91446  -7563590.43246  22784355.7394   22784360.6744
  -3759216.30445  -2727567.21245  23764729.6074   23764734.0494
  -1980164.72847  -1398678.89246  22072402.2414   22072407.2354
 -10177236.41245  -7311349.76545  23401979.4934   23401984.3224
 04  3  1  3 46 29.9990000  0  8G 5G 9G18G29G 7G30G26G22
 -20717247.64148 -15917013.03247  20678019.3174   20678023.8894
 -27545459.48846 -21252133.34447  19896575.7064   19896580.2194
   2466194.07346   1915128.63746  22711984.9194   22711988.7524
    887516.32345    822575.42145  22969950.7534   22969955.2434
  -9806905.24246  -7533902.35546  22791605.7354   22791611.9364
  -3867548.65445  -2811982.00245  23744113.3034   23744119.0464
  -1891769.58747  -1329799.56746  22089223.2354   22089227.4204
 -10187304.27645  -7319194.97245  23400064.1604   23400056.2834
 04  3  1  3 46 59.9990000  0  8G 5G 9G18G29G 7G30G26G22
 -20777660.30348 -15964087.83147  20666522.9224   20666527.5644
 -27554597.24647 -21259253.66747  19894837.0544   19894840.8884
   2517005.91346   1954722.29346  22721653.1744   22721657.1474
    982925.56245    896920.28745  22988106.4964   22988111.7834
  -9768340.87846  -7503852.18246  22798944.1104   22798949.7254
  -3975735.10945  -2896283.10045  23723526.5454   23723529.9564
  -1803097.53547  -1260704.47646  22106096.9504   22106100.3974
 -10196832.61745  -7326619.56544  23398251.7424   23398242.2244
 04  3  1  3 47 29.9990000  0  8G 5G 9G18G29G 7G30G26G22
 -20837672.14148 -16010850.29747  20655103.2544   20655108.3764
 -27563386.20647 -21266102.22247  19893164.6094   19893168.6774
   2568248.92046   1994651.89346  22731404.9114   22731409.4714
   1078555.81745    971437.37045  23006304.2364   23006309.1834
  -9729313.39546  -7473441.16346  22806370.8874   22806375.4354
  -4083774.45945  -2980469.63245  23702966.5414   23702971.3944
  -1714150.59847  -1191395.18946  22123022.9524   22123026.4804
 -10205821.72044                  23396540.2344
 04  3  1  3 47 59.9990000  0  7G 5G 9G18G29G 7G30G26
 -20897278.58048 -16057296.86847  20643760.5434   20643765.3964
 -27571822.24047 -21272675.74547  19891559.2274   19891563.2714
   2619924.20746   2034918.34546  22741238.5514   22741242.5494
   1174409.21845   1046128.32145  23024544.6004   23024549.4644
  -9689820.15446  -7442667.23246  22813886.6064   22813891.6474
  -4191661.60945  -3064537.53645  23682437.0484   23682441.9944
  -1624926.92447  -1121870.25246  22140001.6734   22140006.1284
 04  3  1  3 48 29.9990000  0  7G 5G 9G18G29G 7G30G26
 -20956476.93248 -16103425.43947  20632495.6304   20632499.9904
 -27579902.60747 -21278972.13247  19890021.4454   19890025.5014
   2672031.60546   2075521.49246  22751153.7354   22751157.0884
   1270485.98544   1120993.29345  23042826.9914   23042829.5124
  -9649860.36146  -7411529.72446  22821490.2564   22821495.0044
  -4299392.92045  -3148484.00945  23661935.5924   23661941.9804
  -1535426.03447  -1052129.30346  22157033.0834   22157037.6314
 04  3  1  3 48 59.9990000  0  7G 5G 9G18G29G 7G30G26
 -21015263.66048 -16149233.26147  20621308.6994   20621313.1894
 -27587623.74847 -21284988.61347  19888552.4214   19888556.2314
   2724571.44446   2116461.58846  22761152.5474   22761156.3214
   1366787.16145   1196033.15445  23061153.9234   23061157.2644
  -9609432.17546  -7380027.23846  22829183.6954   22829190.1304
  -4406964.05945  -3232305.68145  23641465.9564   23641472.5094
  -1445646.61547   -982171.31446  22174117.4534   22174121.4504
 04  3  1  3 49 29.9990000  0  7G 5G 9G18G29G 7G30G26
 -21073646.62548 -16194726.44847  20610198.7104   20610203.1294
 -27594994.23747 -21290731.84547  19887149.6834   19887153.7744
   2777532.15146   2157729.65946  22771230.2944   22771233.1664
   1463302.17343   1271239.53945  23079518.3164   23079520.4964
  -9568545.86646  -7348167.77646  22836964.1094   22836968.8094
  -4514382.47645  -3316008.26345  23621025.1994   23621030.7434
  -1355599.38047   -912004.64746  22191253.0914   22191256.3144
 04  3  1  3 49 59.9990000  0  8G 5G 9G18G29G 7G30G26G22
 -21131620.08248 -16239900.55147  20599166.4874   20599171.0474
 -27602008.04947 -21296197.15247  19885815.0724   19885818.9634
   2830917.01146   2199328.23846  22781388.8834   22781392.2944
   1560034.36245   1346615.35445  23097927.2244   23097931.1164
  -9527197.07146  -7315947.92846  22844832.7954   22844838.0124
  -4621641.21845  -3399586.46545  23600613.7884   23600617.5624
  -1265280.61747   -841626.39046  22208440.1184   22208444.4674
      -806.30144                  23389539.8784
 04  3  1  3 50 29.9990000  0  8G 5G 9G18G29G 7G30G26G22
 -21189184.97948 -16284756.30747  20588212.3764   20588217.0424
 -27608666.63146 -21301385.66647  19884547.9104   19884552.1664
   2884721.41346   2241253.72746  22791626.7554   22791631.5144
   1656980.27545   1422157.51945  23116375.1824   23116378.1244
  -9485388.86146  -7283370.08346  22852788.4954   22852793.0324
  -4728740.67345  -3483040.60445  23580234.0274   23580239.1964
  -1174693.79347   -771039.25046  22225678.1924   22225683.0224
     -6537.41543                  23388448.7354
 04  3  1  3 50 59.9990000  0  8G 5G 9G18G29G 7G30G26G22
 -21246337.59548 -16329290.79847  20577336.4204   20577341.4724
 -27614965.75047 -21306294.05347  19883349.3684   19883353.3544
   2938946.76546   2283507.23646  22801945.9714   22801951.4804
   1754141.44544   1497867.56545  23134864.7614   23134869.3924
  -9443119.01346  -7250432.53546  22860832.0384   22860836.8444
  -4835675.69545  -3566366.54445  23559885.0984   23559889.2244
  -1083837.01647   -700241.77846  22242967.5624   22242972.0514
    -11723.89044                  23387462.1454
 04  3  1  3 51 29.9990000  0  8G 5G 9G18G29G 7G30G26G22
 -21303079.65348 -16373505.38447  20566538.6944   20566543.7584
 -27620907.47746 -21310923.97147  19882218.4884   19882222.4154
   2993587.59946   2326084.48146  22812344.2064   22812347.4884
   1851513.65045   1573741.95845  23153394.3414   23153399.1004
  -9400391.10046  -7217138.06646  22868963.0114   22868968.8134
  -4942447.48445  -3649565.32445  23539566.3404   23539571.4744
   -992714.55547   -629237.27446  22260307.7684   22260311.9294
    -16368.44344                  23386578.5134
 04  3  1  3 51 59.9990000  0  8G 5G 9G18G29G 7G30G26G22
 -21359409.62048 -16417398.84447  20555819.4984   20555824.3514
 -27626490.39047 -21315274.29447  19881156.2434   19881160.4404
   3048642.55346   2368984.43446  22822821.0734   22822824.6724
   1949096.11645   1649780.20945  23171962.9734   23171967.1934
  -9357205.67146  -7183487.07846  22877180.6894   22877186.4914
  -5049053.53145  -3732634.96245  23519280.1074   23519287.2704
   -901327.24247   -558026.38046  22277698.2594   22277702.0694
    -20470.51242      -503.83943  23385796.1664   23385786.5304
 04  3  1  3 52 29.9990000  0  7G 5G 9G18G29G 7G30G26
 -21415331.56448 -16460974.36647  20545178.0654   20545183.1414
 -27631719.04447 -21319348.57248  19880161.2074   19880165.4384
   3104103.90546   2412201.06345  22833374.6144   22833379.1044
   2046881.95344   1725976.97545  23190570.6004   23190575.5464
  -9313568.70846  -7149484.27746  22885484.8984   22885490.5254
  -5155497.42345  -3815578.24845  23499025.1544   23499030.8044
   -809681.63347   -486614.25346  22295137.8234   22295141.6924
 04  3  1  3 52 59.9990000  0  7G 5G 9G18G29G 7G30G26
 -21470842.71148 -16504229.79347  20534614.7024   20534619.0164
 -27636590.32847 -21323144.36347  19879234.1804   19879238.2124
   3159971.52846   2455734.23346  22844006.2794   22844010.2064
   2144871.42144   1802332.44645  23209217.9874   23209222.7934
  -9269479.46146  -7115128.98946  22893874.4394   22893879.1054
  -5261775.24345  -3898392.10245  23478801.1834   23478805.3924
   -717777.17946   -415000.40246  22312626.3884   22312631.2644
 04  3  1  3 53 29.9990000  0  7G 5G 9G18G29G 7G30G26
 -21525947.20648 -16547168.35347  20524128.6994   20524132.9894
 -27641108.56747 -21326665.08547  19878374.6204   19878378.0664
   3216238.17946   2499578.36746  22854713.3974   22854717.2194
   2243058.18845   1878841.56245  23227901.8104   23227906.3584
  -9224943.92146  -7080425.98346  22902349.8954   22902353.1544
  -5367890.55345  -3981079.33345  23458607.6634   23458612.8214
   -625620.59546   -343190.08946  22330163.1694   22330168.0344
 04  3  1  3 53 59.9990000  0  7G 5G 9G18G29G 7G30G26
 -21580644.58848 -16589789.68047  20513720.2134   20513724.4444
 -27645273.39747 -21329910.39447  19877581.8024   19877585.9634
   3272901.03146   2543731.26345  22865496.0984   22865500.4704
   2341440.35945   1955502.96445  23246623.3794   23246627.7054
  -9179963.35046  -7045376.16746  22910908.8924   22910913.3114
  -5473841.63045  -4063638.61545  23438446.6484   23438451.4774
   -533213.26746   -271184.37246  22347747.8134   22347752.4904
 04  3  1  3 54 29.9990000  0  7G 5G 9G18G29G 7G30G26
 -21634932.77548 -16632092.15747  20503389.7254   20503393.9214
 -27649082.69947 -21332878.68247  19876857.0304   19876860.5584
   3329959.44246   2588192.32646  22876353.9304   22876356.9434
   2440017.67945   2032316.44045  23265382.3174   23265386.0804
  -9134537.31746  -7009979.27746  22919552.7294   22919557.8874
  -5579625.46845  -4146067.54445  23418315.9514   23418321.3554
   -440555.42946   -198983.48346  22365380.0874   22365385.3394
 04  3  1  3 54 59.9990000  0  8G 5G 9G18G29G 7G30G26G22
 -21688810.62947 -16674074.89347  20493137.1464   20493141.5304
 -27652535.41047 -21335569.11047  19876199.8894   19876204.1684
   3387411.17746   2632959.90945  22887286.6644   22887290.4154
   2538788.80145   2109280.96845  23284177.4844   23284180.2974
  -9088666.93046  -6974236.11446  22928282.0344   22928287.0634
  -5685240.15545  -4228364.73545  23398218.3474   23398223.6344
   -347648.23046   -126588.26946  22383059.8004   22383064.5004
      -262.03843                  23383257.5014
 04  3  1  3 55 29.9990000  0  8G 5G 9G18G29G 7G30G26G22
 -21742276.06446 -16715736.25647  20482962.8724   20482967.3274
 -27655629.67047 -21337980.20848  19875611.2564   19875615.2894
   3445254.86546   2678032.91145  22898293.6904   22898296.9844
   2637753.25645   2186396.08945  23303010.0084   23303014.3104
  -9042351.84146  -6938146.45846  22937096.0234   22937101.0874
  -5790682.78846  -4310527.78845  23378153.7864   23378156.0724
   -254492.10546    -53999.10746  22400786.5914   22400790.9864
      -614.50745                  23383190.5074
 04  3  1  3 55 59.9990000  0  8G 5G 9G18G29G 7G30G26G22
 -21795329.79647 -16757076.79747  20472867.0034   20472871.8094
 -27658366.29047 -21340112.64747  19875090.3204   19875094.1764
   3503486.73746   2723408.35545  22909374.9514   22909378.3034
   2736908.06345   2263659.53945  23321878.6044   23321883.8674
  -8995594.89046  -6901712.46346  22945993.4704   22945997.6434
  -5895953.25246  -4392556.68645  23358121.8494   23358123.6904
   -161090.04146     18781.70446  22418560.7684   22418566.4534
      -432.83444                  23383223.4224
 04  3  1  3 56 29.9990000  0  9G 5G14G 9G18G29G 7G30G26G22
 -21847975.97447 -16798099.79847  20462848.6604   20462853.2554
    -11198.96042                  25005743.7004
 -27660749.24247 -21341969.49248  19874636.9424   19874641.3374
   3562099.74146   2769080.81746  22920528.7664   22920533.1974
   2836246.42945   2341066.06445  23340782.5394   23340787.4744
  -8948401.92646  -6864938.72446  22954973.7254   22954978.5314
  -6001054.63045  -4474453.85645  23338120.7194   23338125.5844
    -67448.38346     91749.21846  22436380.2064   22436384.7194
       277.82643       541.81044  23383358.8734   23383365.4604
 04  3  1  3 56 59.9990000  0  9G 5G14G 9G18G29G 7G30G26G22
 -21900212.01347 -16838803.18447  20452908.5624   20452913.1924
    -59707.41942                  24984434.0314
 -27662776.13347 -21343548.87747  19874251.2864   19874255.4594
   3621093.08646   2815049.63446  22931755.1444   22931759.3064
   2935768.81545   2418615.98945  23359720.4214   23359725.6024
  -8900772.49346  -6827824.90046  22964036.9414   22964041.1034
  -6105983.55445  -4556216.69745  23318152.9464   23318159.7914
     26433.20146    164903.69346  22454245.3694   22454250.4094
      1519.02241                  23383593.8894
 04  3  1  3 57 29.9990000  0  9G 5G14G 9G18G29G 7G30G26G22
 -21952031.40746 -16879181.91747  20443047.5474   20443052.2594
   -171594.83043                  24963144.3724
 -27664440.05647 -21344845.45947  19873934.7354   19873938.4404
   3680470.31046   2861317.58445  22943053.4004   22943057.2454
   3035479.39845   2496312.46245  23378694.6504   23378699.7964
  -8852701.48646  -6790366.96946  22973184.5584   22973188.7084
  -6210732.26645  -4637839.02545  23298220.9744   23298224.3384
    120559.03646    238248.47346  22472156.6764   22472161.5874
       333.28741                  23383934.0644
 04  3  1  3 57 59.9990000  0  8G 5G14G 9G18G29G 7G30G26
 -22003435.17447 -16919236.78747  20433265.8844   20433270.3274
   -283391.13743    -84206.65545  24941869.6854   24941870.2484
 -27665742.33847 -21345860.20447  19873686.8174   19873691.1664
   3740227.39346   2907881.57345  22954425.0034   22954429.7984
   3135374.68544   2574152.95945  23397703.8084   23397710.2794
  -8804192.18546  -6752567.50646  22982416.0884   22982420.1324
  -6315301.10046  -4719321.21945  23278322.0124   23278325.6224
    214925.70246    311780.93646  22490114.3494   22490118.8744
 04  3  1  3 58 29.9990000  0  8G 5G14G 9G18G29G 7G30G26
 -22054425.40946 -16958969.42147  20423562.8084   20423566.5364
   -395096.39443   -171249.75945  24920613.0074   24920616.5234
 -27666685.15447 -21346594.87647  19873507.4244   19873511.3164
   3800358.68046   2954737.09345  22965867.7874   22965872.4064
   3235450.03845   2652133.86345  23416748.3324   23416751.9784
  -8755248.70146  -6714429.72446  22991729.3424   22991733.2814
  -6419691.36746  -4800664.28745  23258456.9634   23258460.9254
    309529.03546    385497.79146  22508116.6104   22508120.7364
 04  3  1  3 58 59.9990000  0  8G 5G14G 9G18G29G 7G30G26
 -22105004.94146 -16998382.02747  20413937.8634   20413941.7314
   -506711.35742   -258222.56745  24899372.5154   24899374.8364
 -27667271.29846 -21347051.59447  19873395.6584   19873400.1594
   3860858.44746   3001879.72445  22977380.7064   22977384.2004
   3335700.56445   2730251.04945  23435824.8464   23435828.6444
  -8705875.61146  -6675957.18346  23001124.9984   23001130.1444
  -6523904.70646  -4881869.44945  23238626.2514   23238628.8304
    404363.66346    459394.89546  22526163.0114   22526167.2314
 04  3  1  3 59 29.9990000  0  9G 5G14G 9G18G29G 7G30G26G22
 -22155171.28347 -17037472.66347  20404391.3594   20404395.7314
   -618231.26943   -345121.15745  24878151.7294   24878156.8164
 -27667497.76547 -21347228.05947  19873352.6414   19873357.0374
   3921726.30246   3049309.17445  22988963.4144   22988965.6414
   3436126.59443   2808505.04445  23454934.6404   23454937.9584
  -8656072.07646  -6637149.23046  23010602.3404   23010607.1224
  -6627937.41246  -4962933.86345  23218828.9914   23218833.4224
    499430.30146    533472.79146  22544253.7974   22544257.7704
       686.43642                  23386298.0684
 04  3  1  3 59 59.9990000  0  9G 5G14G 9G18G29G 7G30G26G22
 -22204926.72747 -17076243.13247  20394923.2814   20394928.0054
   -729656.46343   -431946.06645  24856948.1844   24856952.5214
 -27667367.36147 -21347126.44947  19873377.4254   19873381.1294
   3982956.02846   3097020.65945  23000615.0054   23000617.9014
   3536723.16842   2886891.96345  23474077.7284   23474084.2694
  -8605842.67946  -6598009.42546  23020160.0274   23020165.6774
  -6731791.21545  -5043858.97345  23199065.9184   23199069.1074
    594724.04646    607727.64446  22562387.3034   22562390.8314
      5108.17942                  23387137.5324
 04  3  1  4  0 29.9990000  0  9G 5G14G 9G18G29G 7G30G26G22
 -22254272.55448 -17114694.41847  20385533.1054   20385537.5364
   -840986.31743   -518696.68045  24835764.1334   24835764.6374
 -27666881.07747 -21346747.51847  19873470.2084   19873474.2404
   4044543.79246   3145011.14045  23012334.4574   23012339.9554
     83977.48544   2965408.83945  23493252.8954   23493258.9794
  -8555190.43946  -6558540.17646  23029799.3414   23029806.1524
  -6835466.30345  -5124644.74945  23179337.2454   23179341.1374
    690241.51946    682156.83746  22580563.9634   22580567.3864
     10052.19142                  23388079.6934
 04  3  1  4  0 59.9990000  0  9G 5G14G 9G18G29G 7G30G26G22
 -22303206.02848 -17152824.39247  20376221.1534   20376225.7484
   -952215.63242   -605368.81445  24814595.9814   24814593.7184
 -27666036.27446 -21346089.22947  19873630.7564   19873635.0584
   4106488.82046   3193280.00246  23024122.6444   23024126.7474
    184908.29443   3044056.16145  23512459.8624   23512462.2424
  -8504114.57146  -6518740.81046  23039518.9764   23039525.6814
  -6938958.91645  -5205288.33445  23159643.0434   23159647.8264
    785983.31446    756760.82946  22598782.8294   22598786.7794
     15520.49043                  23389119.9724
 04  3  1  4  1 29.9990000  0  9G 5G14G 9G18G29G 7G30G26G22
 -22351728.80047 -17190634.34147  20366987.6954   20366992.1964
  -1063344.01542   -691962.46945  24793449.4374   24793455.3344
 -27664834.68947 -21345152.92747  19873859.3364   19873863.1464
   4168786.44946   3241823.57346  23035978.0564   23035981.5024
    286002.24043   3122830.72345  23531698.2154   23531700.9464
  -8452618.80746  -6478614.22046  23049317.9324   23049323.3834
  -7042269.78746  -5285790.25545  23139984.4254   23139988.9614
    881945.37047    831536.46746  22617043.5224   22617047.4724
     21509.86641                  23390260.0234
 04  3  1  4  1 59.9990000  0  8G 5G14G 9G18G29G 7G30G26
 -22399840.37347 -17228123.86347  20357832.2414   20357836.9184
  -1174368.73144   -778475.27845  24772322.7764   24772325.9304
 -27663275.39447 -21343937.89547  19874156.3684   19874160.3304
   4231434.08246   3290639.86245  23047898.7854   23047901.5174
    387257.92343   3201731.22445  23550964.8624   23550970.0674
  -8400704.31946  -6438161.37846  23059197.3304   23059201.8084
  -7145397.49645  -5366149.48745  23120359.6004   23120364.0784
    978126.10746    906482.49446  22635346.1714   22635350.3334
 04  3  1  4  2 29.9990000  0  8G 5G14G 9G18G29G 7G30G26
 -22447540.64948 -17265292.89347  20348755.3524   20348760.2174
  -1285287.34344   -864905.33745  24751215.8394   24751220.0124
 -27661358.10746 -21342443.89447  19874520.9844   19874525.4734
   4294428.85946   3339726.68646  23059886.6354   23059890.8444
    488673.24944   3280756.13745  23570264.8314   23570268.6644
  -8348372.78646  -6397383.56346  23069155.1864   23069160.8724
  -7248340.57246  -5446364.85445  23100770.0964   23100773.8714
   1074523.66946    981597.45246  22653690.0444   22653694.5454
 04  3  1  4  2 59.9990000  0  8G 5G14G 9G18G29G 7G30G26
 -22494828.92148 -17302140.89047  20339756.6914   20339761.4614
  -1396096.67944   -951250.33745  24730129.1324   24730135.5794
 -27659082.05947 -21340670.37047  19874954.2914   19874958.1244
   4357768.35246   3389082.10546  23071939.8254   23071943.6594
    590246.50943   3359904.04145  23589592.3824   23589595.3134
  -8295625.48346  -6356281.79446  23079193.3684   23079197.9634
  -7351097.48246  -5526435.16945  23081215.6444   23081220.8144
   1171136.39847   1056880.08146  22672075.0744   22672078.9424
 04  3  1  4  3 29.9990000  0  8G 5G14G 9G18G29G 7G30G26
 -22541701.18848 -17338664.72547  20330837.0384   20330842.0084
  -1506790.89545  -1037505.61645  24709064.3594   24709068.1574
 -27656443.56146 -21338614.37347  19875456.0054   19875460.6704
   4421453.31246   3438706.71245  23084058.2574   23084063.1224
    691979.20741   3439176.30745  23608950.5544   23608957.6104
  -8242460.48446  -6314854.52346  23089309.8494   23089315.5224
  -7453663.34246  -5606356.63345  23061698.9264   23061703.6744
   1267966.23047   1132331.87946  22690501.6824   22690505.4104
 04  3  1  4  3 59.9990000  0  8G 5G14G 9G18G29G 7G30G26
 -22588159.74948 -17374866.18447  20321996.1164   20322000.9114
  -1617369.88644  -1123671.00145  24688021.9204   24688025.6484
 -27653444.62447 -21336277.54947  19876026.9164   19876030.8904
   4485478.23646   3488596.29645  23096241.3424   23096246.8754
    793866.89442   3518569.28845  23628340.8194   23628347.1254
  -8188881.97946  -6273105.04046  23099505.6794   23099511.0124
  -7556039.46246  -5686130.20745  23042217.1884   23042220.8224
   1365008.48446   1207949.21046  22708967.6974   22708971.8354
 04  3  1  4  4 29.9990000  0  8G 5G14G 9G18G29G 7G30G26
 -22634204.26148 -17410745.01747  20313234.1064   20313238.7724
  -1727830.78744  -1209744.51845  24667001.5504   24667008.5254
 -27650084.68647 -21333659.39947  19876666.1314   19876670.4804
   4549840.47546   3538748.66546  23108490.5564   23108494.1204
    895907.87342   3598081.77945  23647756.8774   23647760.0074
  -8134891.37546  -6231034.42546  23109779.7444   23109783.3894
  -7658224.33646  -5765754.80245  23022772.1134   23022776.8024
   1462261.49846   1283730.74246  22727474.2834   22727478.8194
 04  3  1  4  4 59.9990000  0  8G 5G14G 9G18G29G 7G30G26
 -22679840.94647 -17446306.05547  20304549.7784   20304554.6554
  -1838178.03644  -1295729.42145  24646003.3314   24646007.7734
 -27646369.94747 -21330764.81347  19877373.3774   19877377.2344
   4614530.38646   3589156.36346  23120799.7984   23120803.7604
    998093.19842   3677706.60345  23667202.5874   23667206.5614
  -8080497.11046  -6188649.26546  23120130.4514   23120134.5184
  -7760223.34345  -5845234.51245  23003361.3654   23003365.7844
   1559716.76946   1359669.90646  22746019.4524   22746023.9654
 04  3  1  4  5 29.9990000  0  8G 5G14G 9G18G29G 7G30G26
 -22725066.38046 -17481546.64147  20295943.6714   20295948.1724
  -1948405.70343  -1381621.14445  24625027.4904   24625034.2424
 -27642297.00447 -21327591.08647  19878148.2914   19878152.0784
   4679548.57545   3639819.92045  23133171.7954   23133175.3474
   1100424.08842   3757444.94145  23686675.5364   23686684.8674
  -8025697.43646  -6145948.24346  23130558.6024   23130563.4914
  -7862031.95345  -5924565.89145  22983988.0654   22983992.0394
   1657375.36946   1435767.50846  22764603.5344   22764607.9654
 04  3  1  4  5 59.9990000  0  8G 5G14G 9G18G29G 7G30G26
 -22769879.13846 -17516465.66447  20287416.0084   20287420.4274
  -2058509.84644  -1467416.64645  24604075.7834   24604079.3114
 -27637864.12446 -21324136.89647  19878991.8094   19878995.7834
   4744893.39245   3690737.91945  23145606.7014   23145609.8544
     17085.99942                  23706178.0354
  -7970492.90246  -6102931.73146  23141064.1954   23141069.8214
  -7963647.54646  -6003746.88045  22964652.2554   22964654.8224
   1755237.06046   1512023.37246  22783225.3354   22783230.0004
 04  3  1  4  6 29.9990000  0  8G 5G14G 9G18G29G 7G30G26
 -22814272.83546 -17551058.14347  20278968.3164   20278972.3494
  -2168481.53343  -1553108.89345  24583147.8414   24583152.2724
 -27633064.73347 -21320397.10347  19879905.1844   19879909.2634
   4810568.43246   3741913.23445  23158104.7794   23158109.3864
    119711.17341                  23725705.1154
  -7914878.81746  -6059596.03546  23151646.4404   23151651.7034
  -8065062.72546  -6082771.63646  22945353.2014   22945355.8974
   1853306.06046   1588440.75646  22801888.0054   22801891.4164
 04  3  1  4  6 59.9990000  0  8G 5G14G 9G18G29G 7G30G26
 -22858261.20546 -17585334.78847  20270597.5024   20270601.7224
  -2278332.29243  -1638706.88045  24562244.4784   24562250.4684
 -27627912.47947 -21316382.37847  19880885.5534   19880889.3284
   4876556.17046   3793332.22446  23170662.1494   23170666.3104
    222469.15841                  23745260.5284
  -7858871.05045  -6015953.64246  23162304.7524   23162310.7774
  -8166290.17246  -6161650.18945  22926089.4644   22926093.6374
   1951566.15846   1665007.06546  22820586.2244   22820589.3774
 04  3  1  4  7 29.9990000  0  8G 5G14G 9G18G29G 7G30G26
 -22901834.97246 -17619288.36647  20262305.7024   20262309.8404
  -2388050.65944  -1724201.72745  24541365.5484   24541369.3574
 -27622398.16047 -21312085.49147  19881934.9374   19881938.7934
   4942862.95346   3844999.83545  23183279.5374   23183284.4134
    325367.35742     66821.45244  23764841.3694   23764845.9294
  -7802462.26046  -5971998.75446  23173038.6494   23173044.3934
  -8267319.68546  -6240374.48045  22906864.6374   22906869.5614
   2050024.61046   1741727.94046  22839322.0704   22839326.5484
 04  3  1  4  7 59.9990000  0  8G 5G14G 9G18G29G 7G30G26
 -22944999.27646 -17652922.88347  20254091.9664   20254096.7374
  -2497639.39744  -1809595.58245  24520512.2264   24520518.1934
 -27616526.63047 -21307510.28247  19883052.2274   19883055.9664
   5009480.58846   3896909.69845  23195956.0384   23195960.3874
    428398.37543    147105.35945  23784450.4594   23784457.4104
  -7745659.48946  -5927736.84546  23183847.8474   23183853.7554
  -8368155.40246  -6318947.73445  22887676.7904   22887681.2104
   2148674.18246   1818597.70946  22858094.7604   22858099.1444
 04  3  1  4  8 29.9990000  0  8G 5G14G 9G18G29G 7G30G26
 -22987747.34947 -17686233.05947  20245957.1414   20245961.9484
  -2607089.06745  -1894881.08045  24499685.6954   24499689.3054
 -27610290.75347 -21302651.15047  19884238.9314   19884243.1044
   5076412.90246   3949064.72845  23208692.8714   23208697.2314
    531566.68841    227496.30545  23804078.9854   23804082.3034
  -7688457.78146  -5883164.07546  23194733.1374   23194737.8964
  -8468789.36746  -6397363.79445  22868526.2354   22868530.6074
   2247519.64946   1895620.12946  22876904.2834   22876909.4054
 04  3  1  4  8 59.9990000  0  8G 5G14G 9G18G29G 7G30G26
 -23030082.81748 -17719221.72447  20237900.7514   20237905.4994
  -2716400.93344  -1980059.09845  24478883.2684   24478889.5634
 -27603693.98447 -21297510.81347  19885494.2814   19885498.2324
   5143652.94746   4001459.53445  23221488.5394   23221492.3724
    634866.80442                  23823739.9254
  -7630862.70946  -5838284.81346  23205692.9104   23205698.1624
  -8569223.97145  -6475624.52745  22849413.7364   22849420.0074
   2346555.31946   1972790.77046  22895750.2824   22895755.2404
 04  3  1  4  9 29.9990000  0  8G 5G14G 9G18G29G 7G30G26
 -23071993.81746 -17751879.62347  20229925.5274   20229930.1114
  -2825560.63944  -2065118.62245  24458111.2804   24458116.5904
 -27596724.36046 -21292079.92947  19886820.3784   19886824.7974
   5211209.42546   4054100.91445  23234344.4334   23234349.1684
    738307.73041                  23843421.6664
  -7572864.38546  -5793091.33946  23216730.3574   23216734.5544
  -8669446.56946  -6553720.04346  22830342.7264   22830346.3834
   2445790.78846   2050117.10146  22914634.1744   22914638.7574
 04  3  1  4  9 59.9990000  0  8G 5G14G 9G18G29G 7G30G26
 -23113495.70646 -17784218.75947  20222028.0894   20222032.7074
  -2934580.81244  -2150069.46845  24437364.9564   24437366.9024
 -27589396.85647 -21286370.19447  19888214.8374   19888218.7414
   5279064.45745   4106974.95045  23247256.1424   23247260.6674
    841872.61242                  23863128.7144
  -7514479.86646  -5747596.87746  23227840.2024   23227844.4464
  -8769470.99045  -6631661.12445  22811307.7294   22811312.7574
   2545208.76646   2127585.64046  22933552.4594   22933555.9414
 04  3  1  4 10 29.9990000  0  8G 5G14G 9G18G29G 7G30G26
 -23154585.96346 -17816237.13247  20214208.8824   20214213.4304
  -3043456.68144  -2234907.87445  24416646.5084   24416652.5804
 -27581708.93747 -21280379.60247  19889677.7604   19889681.4994
   5347217.51446   4160081.25745  23260225.5564   23260230.1044
    945561.66942     75410.60544  23882860.0344   23882863.8324
  -7455708.38946  -5701800.92546  23239024.5834   23239028.8624
  -8869293.73545  -6709445.08445  22792312.4274   22792317.2104
   2644809.78346   2205196.81946  22952506.0434   22952509.1264
 04  3  1  4 10 59.9990000  0  8G 5G14G 9G18G29G 7G30G26
 -23195269.31746 -17847938.43247  20206467.2004   20206471.8304
  -3152190.31945  -2319635.39745  24395956.7324   24395955.9004
 -27573665.07547 -21274111.66247  19891208.5244   19891212.3924
   5415660.43846   4213413.38445  23273249.8364   23273253.8224
   1049367.75942    156298.66945  23902614.6804   23902611.8554
  -7396556.70846  -5655708.69646  23250280.3874   23250285.2404
  -8968918.64446  -6787074.87545  22773354.2744   22773358.7994
   2744587.15546   2282945.38246  22971493.0284   22971496.2524
 04  3  1  4 11 29.9990000  0  8G 5G14G 9G18G29G 7G30G26
 -23235543.21646 -17879320.68547  20198803.0914   20198807.8734
  -3260776.89045  -2404248.25945  24375293.0294   24375293.2054
 -27565262.55147 -21267564.23547  19892807.3804   19892811.1084
   5484392.73746   4266971.00745  23286329.4374   23286333.5404
   1153291.45942    237278.02944  23922388.8884   23922390.7284
  -7337024.35946  -5609319.84446  23261609.0584   23261612.5284
  -9068341.99746  -6864547.58446  22754435.5184   22754438.1324
   2844540.92545   2360831.43246  22990513.6264   22990518.6434
 04  3  1  4 11 59.9990000  0  8G 5G14G 9G18G29G 7G30G26
 -23275398.94446 -17910377.09147  20191218.9294   20191223.5364
  -3369204.92145  -2488737.69045  24354659.3524   24354658.6614
 -27556492.42047 -21260730.36847  19894476.3464   19894480.1094
   5553420.04546   4320758.50745  23299464.9784   23299468.4954
   1257339.31141                  23942189.3004
  -7277104.41546  -5562628.95345  23273010.8654   23273014.3824
  -9167554.00946  -6941855.56245  22735555.6374   22735558.7434
   2944677.99346   2438860.31846  23009569.0814   23009573.7934
 04  3  1  4 12 29.9990000  0  8G 5G14G 9G18G29G 7G30G26
 -23314837.22646 -17941108.21847  20183713.9204   20183718.2114
  -3477472.75145  -2573102.25945  24334056.5174   24334059.5894
 -27547355.19147 -21253610.44947  19896215.1464   19896219.1084
   5622738.18945   4374772.60045  23312656.0254   23312660.2684
   1361508.40742                  23962013.8274
  -7216799.53946  -5515638.15345  23284486.9234   23284492.0574
  -9266554.06245  -7018998.47345  22716716.5394   22716721.4394
   3044995.57045   2517029.81045  23028658.8764   23028662.6974
 04  3  1  4 12 59.9990000  0  8G 5G14G 9G18G29G 7G30G26
 -23353863.58546 -17971518.35647  20176287.3554   20176291.8454
  -3585583.11745  -2657344.08845  24313482.7884   24313484.8044
 -27537856.13547 -21246208.57747  19898022.7694   19898026.4504
   5692339.36545   4429007.26345  23325899.6544   23325904.0154
   1465791.12842                  23981855.9954
  -7156116.95046  -5468352.98845  23296034.2844   23296039.9814
  -9365346.73846  -7095979.75346  22697917.3494   22697921.9094
   3145486.07746   2595334.12945  23047781.4144   23047785.3654
 04  3  1  4 13 29.9990000  0  8G 5G14G 9G18G29G 7G30G26
 -23392481.35646 -18001610.11647  20168938.7444   20168943.0224
  -3693536.86544  -2741463.88645  24292940.0244   24292944.6894
 -27527998.45447 -21238527.28047  19899898.4834   19899902.3864
   5762216.72745   4483457.18445  23339197.3764   23339202.9094
   1570181.91642                  24001721.9804
  -7095062.34145  -5420777.98045  23307652.0054   23307657.3974
  -9463934.25746  -7172801.19746  22679156.5944   22679162.0804
   3246144.18346   2673768.95245  23066936.2064   23066939.7464
 04  3  1  4 13 59.9990000  0  8G 5G14G 9G18G29G 7G30G26
 -23430683.79246 -18031378.23147  20161669.0864   20161673.6584
  -3801324.69245  -2825454.44845  24272430.4384   24272434.4594
 -27517775.22347 -21230561.10947  19901843.8224   19901847.8784
   5832373.79246   4538124.99445  23352547.7184   23352551.8094
   1674685.37441                  24021608.2824
  -7033630.56746  -5372909.07546  23319342.5804   23319347.6794
  -9562308.91846  -7249456.74846  22660436.5214   22660441.2104
   3346974.44246   2752337.97145  23086123.7774   23086126.7894
 04  3  1  4 14 29.9990000  0  7G 5G14G 9G18G 7G30G26
 -23468470.13947 -18060822.13047  20154478.6104   20154483.4284
  -3908942.92445  -2909312.80245  24251950.0834   24251953.2254
 -27507185.19847 -21222309.16347  19903859.2944   19903863.2794
   5902808.61245   4593009.23245  23365950.6734   23365954.9404
  -6971822.58846  -5324747.01046  23331104.0744   23331110.2634
  -9660468.45646  -7325944.69546  22641757.0774   22641762.1764
   3447975.90545   2831040.42845  23105343.9094   23105349.2894
 04  3  1  4 14 59.9990000  0  7G 5G14G 9G18G 7G30G26
 -23505844.42346 -18089944.92947  20147366.5334   20147371.2224
  -4016393.46045  -2993040.50345  24231502.4444   24231507.0394
 -27496232.55646 -21213774.62347  19905943.4294   19905947.6844
   5973514.09545   4648104.40645  23379406.0704   23379409.7624
  -6909644.63846  -5276296.69846  23342936.4994   23342942.1374
  -9758416.04546  -7402267.47146  22623118.5194   22623121.4154
   3549142.23646   2909871.32945  23124595.1114   23124598.3824
 04  3  1  4 15 29.9990000  0  7G 5G14G 9G18G 7G30G26
 -23542805.68146 -18118745.90947  20140333.0214   20140337.6864
  -4123672.55345  -3076634.60345  24211089.2464   24211092.6344
 -27484916.00847 -21204956.53747  19908096.8544   19908100.6644
   6044487.98345   4703408.74045  23392911.8254   23392917.2174
  -6847097.84046  -5227558.88246  23354838.7974   23354843.4284
  -9856149.67746  -7478423.48045  22604519.6384   22604523.4594
   3650472.40745   2988829.90345  23143876.7604   23143880.6634
 04  3  1  4 15 59.9990000  0  7G 5G14G 9G18G 7G30G26
 -23579354.37546 -18147225.39747  20133377.9294   20133382.7944
  -4230777.59345  -3160093.12145  24190707.6394   24190710.4644
 -27473235.21646 -21195854.61847  19910319.5184   19910324.3484
   6115727.15446   4758919.79246  23406469.0404   23406472.8964
  -6784183.78146  -5178534.92945  23366811.2114   23366817.5534
  -9953668.09746  -7554411.86546  22585962.7304   22585966.8914
   3751964.38545   3067914.53545  23163190.1704   23163195.7974
 04  3  1  4 16 29.9990000  0  8G 5G14G 9G18G 7G30G26G22
 -23615494.90546 -18175386.84047  20126500.6334   20126505.2294
  -4337710.25545  -3243417.24445  24170359.4654   24170362.3374
 -27461194.56047 -21186472.29647  19912610.9744   19912614.4094
   6187224.74746   4814632.13745  23420074.5714   23420076.8694
  -6720909.02845  -5129229.90745  23378851.8244   23378858.3304
 -10050974.72146  -7630235.19646  22567446.1644   22567450.9944
   3853611.61145   3147120.19545  23182533.3184   23182539.7654
      3549.11344                  23469594.3354
 04  3  1  4 16 59.9990000  0  8G 5G14G 9G18G 7G30G26G22
 -23651226.03746 -18203229.26547  20119701.1434   20119706.1954
  -4444466.49444  -3326603.92945  24150043.6194   24150049.1524
 -27448792.16346 -21176808.08447  19914970.8824   19914975.5014
   6258978.04745   4870543.80845  23433727.0514   23433731.8924
  -6657274.15046  -5079644.27545  23390960.7044   23390965.9084
 -10148067.25146  -7705891.70746  22548969.8494   22548973.7534
   3955413.41045   3226446.25845  23201905.7654   23201910.9114
     25133.47044                  23473702.5784
 04  3  1  4 17 29.9990000  0  8G 5G14G 9G18G 7G30G26G22
 -23686547.93946 -18230752.81747  20112979.6924   20112984.1464
  -4551044.25145  -3409651.60245  24129763.3254   24129769.0224
 -27436028.15447 -21166862.11147  19917400.0374   19917403.4484
   6330984.07745   4926652.39545  23447429.6804   23447433.7364
  -6593281.46446  -5029779.83345  23403138.6394   23403143.3284
 -10244944.81246  -7781380.71046  22530535.4034   22530541.0774
   4057367.32245   3305890.84345  23221305.9944   23221308.7024
     47195.31844       577.99245  23477900.2694   23477907.0914
 04  3  1  4 17 59.9990000  0  9G 5G14G 9G18G29G 7G30G26G22
 -23721454.78746 -18257952.94747  20106337.0504   20106340.9774
  -4657435.32445  -3492553.73345  24109518.1854   24109521.5724
 -27422896.84446 -21156629.91747  19919898.5484   19919903.0614
   6403245.36445   4982959.85345  23461181.1914   23461184.8954
                                  24181402.7694
  -6528927.28046  -4979633.71545  23415384.4544   23415388.8034
 -10341600.73546  -7856697.01346  22512141.7124   22512146.8934
   4159477.21145   3385456.98345  23240737.7674   23240740.4864
     69738.67545     18144.24245  23482190.2514   23482192.9364
 04  3  1  4 18 29.9990000  0  9G 5G14G 9G18G29G 7G30G26G22
 -23755953.55146 -18284835.09447  20099772.3494   20099776.6044
  -4763643.26545  -3575313.10045  24089307.8324   24089310.0484
 -27409404.52547 -21146116.43447  19922466.2054   19922470.0854
   6475752.58445   5039458.95945  23474979.1854   23474983.5584
    101874.64544                  24201461.4344
  -6464219.88645  -4929212.37645  23427697.9454   23427703.4074
 -10438040.26346  -7931844.69346  22493789.5974   22493793.9344
   4261734.42045   3465137.86545  23260196.3664   23260198.8514
     92755.94544     36079.80345  23486569.6804   23486563.7604
 04  3  1  4 18 59.9990000  0  9G 5G14G 9G18G29G 7G30G26G22
 -23790039.62446 -18311395.66047  20093285.9264   20093290.1344
  -4869660.61745  -3657923.99245  24069132.1874   24069136.1734
 -27395546.09146 -21135317.64647  19925103.3394   19925107.5594
   6548507.21946   5096150.90445  23488824.1404   23488827.2934
    207354.35943                  24221532.4444
  -6399156.57746  -4878513.71145  23440079.1174   23440083.2554
 -10534257.65746  -8006819.26946  22475481.0344   22475483.4844
   4364141.63945   3544935.64145  23279684.2954   23279687.2264
    116250.11744     54386.87145  23491040.5684   23491042.6904
 04  3  1  4 19 29.9990000  0  9G 5G14G 9G18G29G 7G30G26G22
 -23823711.31946 -18337633.33647  20086878.4124   20086882.5504
  -4975482.94945  -3740382.98145  24048995.2784   24049001.3734
 -27381319.52747 -21124232.02147  19927810.6904   19927813.8324
   6621508.00346   5153034.62945  23502715.4654   23502720.7984
    312923.37142                  24241623.0164
  -6333737.47846  -4827537.81845  23452528.5794   23452531.6504
 -10630249.81247  -8081618.28846  22457214.4994   22457216.4804
   4466698.76745   3624850.28245  23299199.8184   23299205.8554
    140221.39844     73065.83345  23495601.8034   23495605.7424
 04  3  1  4 19 59.9990000  0  9G 5G14G 9G18G29G 7G30G26G22
 -23856970.07946 -18363549.24847  20080549.5454   20080553.6714
  -5081109.36245  -3822689.35845  24028894.8494   24028900.4284
 -27366726.50846 -21112860.83247  19930587.5804   19930591.7064
   6694750.21645   5210106.43745  23516653.0074   23516657.8134
    418577.90141                  24261725.9964
  -6267966.37446  -4776287.55245  23465043.8074   23465047.3124
 -10726017.63146  -8156242.52446  22438990.1564   22438992.8994
   4569401.88545   3704878.70145  23318743.5994   23318751.0904
    164666.35943     92113.90545  23500253.0994   23500259.2304
