     2.10           Observation         G (GPS)             RINEX VERSION / TYPE
teqc  2001May8                          20151210 014240 UTC PGM / RUN BY / DATE
BELL                                                        MARKER NAME
ICC                 ICC                                     OBSERVER / AGENCY
18091               TRIMBLE 4000SSI     7.29 / 3.07         REC # / TYPE / VERS
0220080346          TRM29659.00     NONE                    ANT # / TYPE
  4775849.6200   116814.1000  4213018.7100                  APPROX POSITION XYZ
        0.0540        0.0000        0.0000                  ANTENNA: DELTA H/E/N
     1     1                                                WAVELENGTH FACT L1/2
     5    L1    L2    C1    P2    P1                        # / TYPES OF OBSERV
    30.000                                                  INTERVAL
  2004     3     1     0     0    0.0000000     GPS         TIME OF FIRST OBS
13431M001                                                   MARKER NUMBER
MSWinNT 4.0|PentPro|wcl386 10.6|MSWin95/98/NT|486/DX+       COMMENT
teqc  2001May8      ICC                 20040302 02:17:33UTCCOMMENT
BIT 2 OF LLI FLAGS DATA COLLECTED UNDER A/S CONDITION       COMMENT
CC2nonCC ESOC Version 6.5, 21 Mar 2012                      COMMENT
CC2nonCC executed 20151123 090133.845                       COMMENT
CC C1, P2 converted to non-CC type                          COMMENT
average P1-C1 biases applied by CC2nonCC by PRN (ps):       COMMENT
49          83  1603  -814   652  -551  -447   516 -1531    COMMENT
775        1649   460  -880  -283  -808   141 -5558  -931   COMMENT
-171   683         375   779  1373    84  -124   942  2124  COMMENT
-193                                                        COMMENT
SNR is mapped to RINEX snr flag value [1-9]                 COMMENT
L1: 3 -> 1; 8 -> 5; 40 -> 9                                 COMMENT
L2: 1 -> 1; 5 -> 5; 60 -> 9                                 COMMENT
teqc windowed: start @ 2004 Mar  1 00:00: 0.000             COMMENT
teqc windowed: delta = 86400.000 sec                        COMMENT
Forced Modulo Decimation to 30 seconds                      COMMENT
                                                            END OF HEADER
 04  3  1  0  0  0.0000000  0  9G08G10G17G21G24G26G27G28G29
 -22496298.37646 -17307634.36547  20949408.8004   20949413.2664          0.0004 
 -23887266.03746 -10338331.60147  20743621.7414   20743626.6994          0.0004 
   4713181.59645   3703567.78945  23017239.3414   23017246.0224          0.0004 
  -2064195.02043   -368079.53145  25005941.0814   25005943.8124          0.0004 
  -5607984.57542  -3879785.91944  25012269.3564   25012279.8944          0.0004 
  -2335736.28847  -1675746.95046  22004739.0804   22004743.4054          0.0004 
  -5389729.83046  -4013022.32246  23564758.8414   23564763.2494          0.0004 
 -13085456.78547 -10007244.19746  22129196.4454   22129200.1254          0.0004 
  -6096605.03848  -4619595.15447  21640915.3054   21640919.1744          0.0004 
 04  3  1  0  0 30.0000000  0  9G08G10G17G21G24G26G27G28G29
 -22451217.66146 -17272506.53747  20957987.1784   20957991.1284          0.0004 
 -23868300.11146 -10323552.98047  20747230.9184   20747235.3964          0.0004 
   4783757.15645   3758561.74345  23030669.3594   23030676.4744          0.0004 
  -2115162.71445   -407794.62345  24996242.9394   24996244.6164          0.0004 
  -5518542.49843  -3810090.88044  25029288.9804   25029288.9684          0.0004 
  -2409766.74047  -1733433.00546  21990651.4974   21990656.2924          0.0004 
  -5314346.09746  -3954281.79846  23579104.0474   23579108.1854          0.0004 
 -13147728.65948 -10055767.70946  22117346.3034   22117349.7254          0.0004 
  -6151437.92748  -4662322.06847  21630481.1384   21630484.8894          0.0004 
 04  3  1  0  1  0.0000000  0  9G08G10G17G21G24G26G27G28G29
 -22405767.13347 -17237090.53647  20966636.1254   20966640.6034          0.0004 
 -23848778.92446 -10308341.66647  20750945.4614   20750950.4434          0.0004 
   4854686.91646   3813831.65046  23044168.2394   23044173.6664          0.0004 
  -2165617.56345   -447110.09345  24986641.9414   24986645.9394          0.0004 
  -5429138.46343  -3740425.46944  25046303.2304   25046311.3424          0.0004 
  -2483605.64947  -1790969.77746  21976600.4284   21976604.7184          0.0004 
  -5238880.74446  -3895477.63546  23593464.3564   23593470.3004          0.0004 
 -13209548.89147 -10103939.30146  22105582.2834   22105586.3034          0.0004 
  -6206094.41448  -4704911.55047  21620080.3164   21620084.0084          0.0004 
 04  3  1  0  1 30.0000000  0  9G08G10G17G21G24G26G27G28G29
 -22359946.87747 -17201386.44147  20975355.3774   20975360.1844          0.0004 
 -23828701.03946 -10292696.56847  20754766.3164   20754771.0174          0.0004 
   4925969.49146   3869376.47346  23057732.5834   23057737.7174          0.0004 
  -2215556.46443   -486023.55245  24977137.6244   24977142.9344          0.0004 
  -5339773.89543  -3670790.64344  25063308.1734   25063320.4574          0.0004 
  -2557250.20547  -1848355.14446  21962586.4694   21962590.1034          0.0004 
  -5163333.31645  -3836609.53946  23607840.4644   23607845.5404          0.0004 
 -13270913.65647 -10151756.02346  22093904.9114   22093908.6154          0.0004 
  -6260571.89748  -4747361.55947  21609713.6474   21609716.8014          0.0004 
 04  3  1  0  2  0.0000000  0  9G08G10G17G21G24G26G27G28G29
 -22313751.92746 -17165390.38447  20984146.0404   20984150.4594          0.0004 
 -23808059.79147 -10276612.49847  20758694.0074   20758699.2004          0.0004 
   4997608.39845   3925199.00745  23071364.1944   23071370.7824          0.0004 
  -2264971.43844   -524528.79445  24967735.1394   24967738.4694          0.0004 
  -5250444.16142  -3601183.19244  25080305.1864   25080308.6334          0.0004 
  -2630692.67147  -1905583.03846  21948610.6964   21948614.8804          0.0004 
  -5087697.91646  -3777672.87746  23622233.9354   23622238.7414          0.0004 
 -13331814.14748 -10199210.91346  22082315.8484   22082318.7204          0.0004 
  -6314862.85748  -4789666.20547  21599382.3134   21599385.8064          0.0004 
 04  3  1  0  2 30.0000000  0  9G08G10G17G21G24G26G27G28G29
 -22267180.10746 -17129100.64747  20993008.3934   20993012.9654          0.0004 
 -23786851.70746 -10260086.71747  20762729.9244   20762735.0234          0.0004 
   5069604.22646   3981299.62945  23085065.0324   23085071.0804          0.0004 
  -2313857.66345   -562621.89545  24958433.5174   24958435.6854          0.0004 
  -5161148.10843  -3531601.83744  25097301.3574   25097301.9554          0.0004 
  -2703928.41847  -1962649.83446  21934674.2994   21934678.8244          0.0004 
  -5011972.20746  -3718665.85546  23636644.4374   23636649.9584          0.0004 
 -13392244.38447 -10246299.40246  22070816.3024   22070820.2764          0.0004 
  -6368962.50447  -4831821.74647  21589087.1254   21589091.4854          0.0004 
 04  3  1  0  3  0.0000000  0  9G08G10G17G21G24G26G27G28G29
 -22220250.00147 -17092531.74347  21001938.8684   21001943.8854          0.0004 
 -23765093.70546 -10243132.45047  20766870.3904   20766874.7274          0.0004 
   5141937.49646   4037663.17845  23098829.2544   23098835.6434          0.0004 
  -2362229.45644   -600314.37545  24949226.5034   24949230.8634          0.0004 
  -5071905.06743  -3462061.83444  25114282.0864   25114298.0754          0.0004 
  -2776972.76147  -2019567.50146  21920774.8214   21920779.2994          0.0004 
  -4936173.75646  -3659602.14046  23651067.9674   23651072.6324          0.0004 
 -13452218.59547 -10293032.54946  22059403.7324   22059408.1284          0.0004 
  -6422886.23747  -4873840.23247  21578825.8104   21578830.0184          0.0004 
 04  3  1  0  3 30.0000000  0  8G08G10G17G21G26G27G28G29
 -22172954.63746 -17055678.21347  21010938.9344   21010943.9754          0.0004 
 -23742777.41747 -10225743.15447  20771117.0424   20771122.2594          0.0004 
   5214613.44946   4094293.77945  23112658.7804   23112664.0434          0.0004 
  -2410077.63244   -637598.72645  24940122.1344   24940132.1094          0.0004 
  -2849816.45347  -2076328.82046  21906912.9784   21906916.6244          0.0004 
  -4860295.28146  -3600476.07446  23665507.2904   23665511.0524          0.0004 
 -13511726.56847 -10339402.39646  22048079.8114   22048084.6174          0.0004 
  -6476624.88047  -4915714.49647  21568599.7424   21568604.2794          0.0004 
 04  3  1  0  4  0.0000000  0  8G08G10G17G21G26G27G28G29
 -22125299.89046 -17018544.65647  21020007.3644   21020011.6314          0.0004 
 -23719907.06446 -10207922.08847  20775469.0474   20775474.6034          0.0004 
   5287624.62745   4151185.58945  23126552.2974   23126559.3894          0.0004 
  -2457404.55245   -674476.77345  24931116.8564   24931119.4824          0.0004 
  -2922462.49547  -2132936.12146  21893088.5974   21893093.1804          0.0004 
  -4784341.89045  -3541291.63445  23679960.6954   23679966.8614          0.0004 
 -13570769.95647 -10385410.22446  22036843.9684   22036847.7664          0.0004 
  -6530181.48348  -4957446.91047  21558408.3734   21558412.7574          0.0004 
 04  3  1  0  4 30.0000000  0  8G08G10G17G21G26G27G28G29
 -22077286.84246 -16981131.87347  21029143.6514   21029148.4344          0.0004 
 -23696482.52846 -10189669.21947  20779926.6624   20779931.3394          0.0004 
   5360968.99645   4208337.03145  23140509.7894   23140515.1934          0.0004 
  -2504208.25144   -710947.14645  24922209.8924   24922212.2844          0.0004 
  -2994909.14747  -2189388.05046  21879302.5324   21879306.6944          0.0004 
  -4708313.87746  -3482049.06646  23694428.4174   23694431.7234          0.0004 
 -13629346.17948 -10431054.01646  22025697.3264   22025700.3044          0.0004 
  -6583554.41448  -4999036.21947  21548251.9894   21548256.0224          0.0004 
 04  3  1  0  5  0.0000000  0  8G08G10G17G21G26G27G28G29
 -22028911.76046 -16943437.02747  21038349.2664   21038353.3344          0.0004 
 -23672498.67347 -10170980.52647  20784490.5834   20784495.1084          0.0004 
   5434648.32746   4265749.44945  23154531.5394   23154537.0834          0.0004 
  -2550482.32242   -747004.88745  24913403.7484   24913408.0504          0.0004 
  -3067150.09548  -2245679.70646  21865555.8774   21865560.0624          0.0004 
  -4632207.18245  -3422745.11145  23708911.1184   23708916.8514          0.0004 
 -13687447.67747 -10476327.89346  22014640.9874   22014645.3604          0.0004 
  -6636737.26548  -5040477.40347  21538131.6764   21538135.5564          0.0004 
 04  3  1  0  5 30.0000000  0  8G08G10G17G21G26G27G28G29
 -21980181.66146 -16905465.51547  21047622.4134   21047626.7624          0.0004 
 -23647960.77548 -10151860.08747  20789159.8144   20789165.4994          0.0004 
   5508654.40846   4323416.50545  23168613.4404   23168619.9694          0.0004 
  -2596230.44844   -782652.85345  24904699.4554   24904701.9754          0.0004 
  -3139189.34848  -2301814.18146  21851847.1714   21851850.7114          0.0004 
  -4556027.90246  -3363384.65445  23723407.0854   23723410.7664          0.0004 
 -13745077.62648 -10521234.34446  22003674.4994   22003678.4254          0.0004 
  -6689734.23248  -5081773.74447  21528046.4164   21528050.6714          0.0004 
 04  3  1  0  6  0.0000000  0  8G08G10G17G21G26G27G28G29
 -21931095.62746 -16867216.67547  21056963.1334   21056967.3534          0.0004 
 -23622866.87946 -10132306.41847  20793935.5044   20793940.4504          0.0004 
   5582986.74546   4381337.85745  23182758.4824   23182763.3004          0.0004 
  -2641448.80843   -817887.89245  24896093.0614   24896096.7774          0.0004 
  -3211023.22148  -2357788.64646  21838177.4314   21838181.3824          0.0004 
  -4479774.41646  -3303966.40445  23737918.1644   23737923.6154          0.0004 
 -13802231.34948 -10565769.70546  21992798.6694   21992801.9984          0.0004 
  -6742541.72347  -5122922.43547  21517997.3434   21518001.9264          0.0004 
 04  3  1  0  6 30.0000000  0  8G08G10G17G21G26G27G28G29
 -21881657.37547 -16828693.36147  21066371.0194   21066375.8364          0.0004 
 -23597219.17346 -10112321.20547  20798816.0514   20798820.5644          0.0004 
   5657640.27946   4439509.32245  23196964.2534   23196968.0044          0.0004 
  -2686137.96343   -852710.60645  24887588.9014   24887590.5894          0.0004 
  -3282652.73848  -2413603.85147  21824546.9864   21824550.7724          0.0004 
  -4403449.92045  -3244492.76945  23752441.9004   23752447.0694          0.0004 
 -13858908.86647 -10609934.00646  21982013.0424   21982016.8164          0.0004 
  -6795160.74447  -5163924.25247  21507984.1384   21507988.6514          0.0004 
 04  3  1  0  7  0.0000000  0  8G08G10G17G21G26G27G28G29
 -21831871.66446 -16789899.30847  21075844.7994   21075848.8084          0.0004 
 -23571021.20446 -10091907.20847  20803801.1534   20803806.1114          0.0004 
   5732608.44245   4497926.11645  23211230.6794   23211236.4004          0.0004 
  -2730300.05742   -887122.67045  24879186.1324   24879193.4474          0.0004 
  -3354080.03348  -2469261.46446  21810954.5164   21810958.4434          0.0004 
  -4327058.43446  -3184966.93846  23766979.0454   23766983.8744          0.0004 
 -13915111.24948 -10653728.05546  21971318.2194   21971321.5134          0.0004 
  -6847593.48048  -5204780.92747  21498006.7294   21498011.0544          0.0004 
 04  3  1  0  7 30.0000000  0  8G08G10G17G21G26G27G28G29
 -21781745.11946 -16750839.66147  21085383.5744   21085387.8304          0.0004 
 -23544277.81747 -10071068.22047  20808890.3364   20808895.2604          0.0004 
   5807883.81245   4556582.23245  23225555.1374   23225560.9394          0.0004 
  -2773938.44444   -921126.65745  24870882.6384   24870883.1784          0.0004 
  -3425308.53948  -2524764.18346  21797400.4164   21797403.8384          0.0004 
  -4250605.77746  -3125393.47746  23781527.4524   23781532.1764          0.0004 
 -13970840.94947 -10697153.76846  21960713.0514   21960716.3574          0.0004 
  -6899843.39648  -5245495.14147  21488064.0374   21488067.8594          0.0004 
 04  3  1  0  8  0.0000000  0  9G08G10G17G21G24G26G27G28G29
 -21731274.48148 -16711511.90947  21094988.0174   21094992.3434          0.0004 
 -23516984.68147 -10049800.85447  20814084.0204   20814089.1084          0.0004 
   5883467.67345   4615478.68645  23239937.8484   23239943.6274          0.0004 
  -2817046.69645   -954717.49445  24862679.4544   24862684.2244          0.0004 
  -4182618.69643     36820.55244  25283507.5514   25283506.2854          0.0004 
  -3496332.43347  -2580107.47346  21783884.9444   21783889.0934          0.0004 
  -4174088.03346  -3065769.28045  23796088.4524   23796092.3564          0.0004 
 -14026091.17448 -10740205.89146  21950199.1584   21950202.5694          0.0004 
  -6951904.59948  -5286062.32947  21478157.0994   21478160.7454          0.0004 
 04  3  1  0  8 30.0000000  0  8G08G10G17G21G26G27G28G29
 -21680455.29446 -16671912.54247  21104658.6424   21104662.6284          0.0004 
 -23489136.09046 -10028100.66747  20819383.5374   20819388.2144          0.0004 
   5959363.14646   4674617.98545  23254380.3934   23254387.1094          0.0004 
  -2859617.83844   -987889.85545  24854578.0544   24854582.2514          0.0004 
  -3567144.37347  -2635285.60046  21770409.8034   21770413.6714          0.0004 
  -4097499.98146  -3006090.28245  23810662.5034   23810666.4654          0.0004 
 -14080853.72848 -10782878.00646  21939778.1054   21939781.6334          0.0004 
  -7003769.92948  -5326476.87047  21468287.3844   21468291.0884          0.0004 
 04  3  1  0  9  0.0000000  0  8G08G10G17G21G26G27G28G29
 -21629294.66547 -16632047.12747  21114394.0834   21114398.9484          0.0004 
 -23460738.10746 -10005972.37647  20824787.4074   20824792.0134          0.0004 
   6035561.82245   4733993.55445  23268880.8144   23268888.0584          0.0004 
  -2901656.10543  -1020646.85643  24846578.0954   24846581.8234          0.0004 
  -3637748.77747  -2690302.00746  21756974.1754   21756978.4064          0.0004 
  -4020848.21146  -2946361.64845  23825248.7624   23825253.5564          0.0004 
 -14135132.35747 -10825173.03946  21929449.6394   21929453.2734          0.0004 
  -7055443.79748  -5366742.20047  21458454.3324   21458457.9304          0.0004 
 04  3  1  0  9 30.0000000  0  8G08G10G17G21G26G27G28G29
 -21577790.80246 -16591914.24947  21124195.0524   21124199.3194          0.0004 
 -23431787.53746  -9983413.50347  20830296.4814   20830301.3114          0.0004 
   6112063.95946   4793605.64545  23283439.2524   23283445.7464          0.0004 
  -2943156.62443  -1052985.03645  24838680.4154   24838684.3064          0.0004 
  -3708140.92047  -2745153.03446  21743578.9424   21743583.3964          0.0004 
  -3944129.87846  -2886581.14745  23839848.1044   23839853.1794          0.0004 
 -14188921.29948 -10867086.49846  21919213.8864   21919217.0394          0.0004 
  -7106921.43648  -5406854.63647  21448658.3584   21448662.5664          0.0004 
 04  3  1  0 10  0.0000000  0  8G08G10G17G21G26G27G28G29
 -21525951.41048 -16551519.92947  21134059.7494   21134065.0594          0.0004 
 -23402290.81546  -9960429.05947  20835909.5354   20835913.9894          0.0004 
   6188860.47346   4853447.05945  23298052.7114   23298058.3854          0.0004 
  -2984124.40344  -1084907.95945  24830884.9744   24830889.8624          0.0004 
  -3778325.61047  -2799842.37446  21730223.1964   21730226.7364          0.0004 
  -3867352.23146  -2826754.42845  23854458.2724   23854463.5124          0.0004 
 -14242224.63548 -10908621.53146  21909070.3574   21909073.5694          0.0004 
  -7158207.88648  -5446818.09247  21438898.8524   21438902.7674          0.0004 
 04  3  1  0 10 30.0000000  0  8G08G10G17G21G26G27G28G29
 -21473775.33747 -16510863.25147  21143988.5374   21143993.1204          0.0004 
 -23372245.47746  -9937017.11947  20841626.9384   20841631.4404          0.0004 
   6265950.81845   4913517.43145  23312722.5894   23312728.3924          0.0004 
  -3024555.45144  -1116412.68845  24823191.6684   24823196.7674          0.0004 
  -3848298.96347  -2854367.07146  21716907.9284   21716911.6794          0.0004 
  -3790513.09846  -2766879.76445  23869080.1814   23869084.7174          0.0004 
 -14295037.52547 -10949774.43546  21899020.3374   21899024.0184          0.0004 
  -7209299.15948  -5486629.47847  21429176.7024   21429180.2194          0.0004 
 04  3  1  0 11  0.0000000  0  8G08G10G17G21G26G27G28G29
 -21421261.49748 -16469943.36547  21153981.3484   21153986.6944          0.0004 
 -23341649.42546  -9913176.05047  20847449.3804   20847454.4214          0.0004 
   6343334.61545   4973816.39945  23327447.1144   23327453.3394          0.0004 
  -3064445.99344  -1147496.13445  24815599.5314   24815606.3534          0.0004 
  -3918057.26247  -2908724.14046  21703633.3224   21703637.0854          0.0004 
  -3713610.89345  -2706956.04145  23883713.8894   23883718.9774          0.0004 
 -14347355.52148 -10990541.70746  21889064.7244   21889068.1704          0.0004 
  -7260191.59448  -5526285.92647  21419491.8174   21419495.8024          0.0004 
 04  3  1  0 11 30.0000000  0  8G08G10G17G21G26G27G28G29
 -21368415.41248 -16428764.61847  21164037.7194   21164042.4084          0.0004 
 -23310506.82346  -9888909.11247  20853375.5904   20853380.4084          0.0004 
   6421004.93845   5034338.76345  23342227.5224   23342236.2194          0.0004 
  -3103798.27745  -1178160.30245  24808112.5014   24808111.7164          0.0004 
  -3987602.83347  -2962915.52146  21690399.3414   21690404.3814          0.0004 
  -3636650.23945  -2646986.71145  23898358.6534   23898365.5934          0.0004 
 -14399180.15148 -11030924.52146  21879202.8694   21879206.4554          0.0004 
  -7310887.69748  -5565789.36547  21409844.5034   21409849.1924          0.0004 
 04  3  1  0 12  0.0000000  0  8G08G10G17G21G26G27G28G29
 -21315239.07748 -16387328.49647  21174156.6794   21174162.0004          0.0004 
 -23278818.48446  -9864216.90747  20859405.5694   20859410.4804          0.0004 
   6498958.28945   5095081.63745  23357062.3914   23357069.2724          0.0004 
  -3142611.99944  -1208404.74745  24800725.9384   24800730.2754          0.0004 
  -4056935.17247  -3016940.70546  21677205.3634   21677209.6304          0.0004 
  -3559632.37045  -2586972.81745  23913014.3954   23913020.1274          0.0004 
 -14450510.07947 -11070921.86846  21869435.1484   21869439.3564          0.0004 
  -7361386.70448  -5605139.22447  21400235.1304   21400239.0334          0.0004 
 04  3  1  0 12 30.0000000  0  8G08G10G17G21G26G27G28G29
 -21261732.72248 -16345635.26147  21184338.7704   21184343.4714          0.0004 
 -23246583.51846  -9839098.76847  20865539.9144   20865544.8254          0.0004 
   6577193.17745   5156043.82245  23371949.9904   23371955.2774          0.0004 
  -3180884.40344  -1238227.47845  24793443.3634   24793446.7864          0.0004 
  -4126051.25747  -3070797.39346  21664053.4824   21664057.4444          0.0004 
  -3482556.75445  -2526913.93945  23927681.6034   23927687.7344          0.0004 
 -14501341.65048 -11110530.86246  21859762.1004   21859765.3234          0.0004 
  -7411685.86348  -5644333.36947  21390663.4814   21390667.2914          0.0004 
 04  3  1  0 13  0.0000000  0  8G08G10G17G21G26G27G28G29
 -21207902.97748 -16303689.98547  21194582.0734   21194587.0084          0.0004 
 -23213807.71747  -9813559.18947  20871776.6184   20871782.0574          0.0004 
   6655701.24645   5217218.92645  23386889.4974   23386895.7804          0.0004 
  -3218619.65744  -1267631.62745  24786261.5404   24786265.2094          0.0004 
  -4194955.18147  -3124488.76146  21650941.1584   21650946.1054          0.0004 
  -3405429.18645  -2466814.54245  23942359.0254   23942364.8864          0.0004 
 -14551678.40148 -11149754.29446  21850183.1414   21850186.0364          0.0004 
  -7461789.17148  -5683374.90047  21381129.1624   21381133.2414          0.0004 
 04  3  1  0 13 30.0000000  0  8G08G10G17G21G26G27G28G29
 -21153746.28748 -16261489.99547  21204887.7834   21204892.0734          0.0004 
 -23180486.35547  -9787594.50547  20878117.4684   20878122.4854          0.0004 
   6734484.70645   5278608.65245  23401881.6194   23401887.2464          0.0004 
  -3255811.29744  -1296612.20345  24779184.2614   24779194.2134          0.0004 
  -4263640.48547  -3178009.74446  21637870.9474   21637874.9684          0.0004 
  -3328245.56146  -2406671.45445  23957046.6454   23957049.1304          0.0004 
 -14601512.98347 -11188586.42446  21840700.0574   21840704.0664          0.0004 
  -7511690.17348  -5722258.80747  21371633.4384   21371637.3064          0.0004 
 04  3  1  0 14  0.0000000  0  8G08G10G17G21G26G27G28G29
 -21099265.19448 -16219037.18547  21215255.0104   21215259.3834          0.0004 
 -23146620.67646  -9761205.68447  20884562.0964   20884566.9964          0.0004 
   6813539.67745   5340209.89745  23416925.0544   23416930.6344          0.0004 
  -3292459.07945  -1325168.85145  24772210.5824   24772208.6014          0.0004 
  -4332106.69147  -3231360.02546  21624842.1684   21624847.3264          0.0004 
  -3251007.24445  -2346485.76345  23971745.1044   23971750.1924          0.0004 
 -14650844.37047 -11227026.46346  21831312.4194   21831316.7924          0.0004 
  -7561388.52748  -5760984.79147  21362176.0964   21362180.5394          0.0004 
 04  3  1  0 14 30.0000000  0  8G08G10G17G21G26G27G28G29
 -21044458.56448 -16176330.73447  21225684.6524   21225688.4974          0.0004 
 -23112208.78946  -9734391.23647  20891110.5194   20891115.5014          0.0004 
   6892865.22145   5402021.94145  23432020.6564   23432025.4744          0.0004 
  -3328559.67645  -1353299.02845  24765340.6864   24765345.4454          0.0004 
  -4400350.21747  -3284536.77846  21611856.0584   21611860.0554          0.0004 
  -3173712.82245  -2286256.36345  23986453.4884   23986459.8654          0.0004 
 -14699668.29248 -11265071.06246  21822021.7544   21822025.9744          0.0004 
  -7610880.66848  -5799550.07547  21352757.8594   21352762.4424          0.0004 
 04  3  1  0 15  0.0000000  0  8G08G10G17G21G26G27G28G29
 -20989332.92547 -16133375.69647  21236174.6274   21236178.2724          0.0004 
 -23077255.86446  -9707155.19547  20897761.7324   20897766.4334          0.0004 
   6972453.76145   5464038.99245  23447165.6934   23447172.2574          0.0004 
  -3364116.58945  -1381005.86945  24758575.8654   24758579.1364          0.0004 
  -4468374.23747  -3337542.50646  21598911.2404   21598915.3554          0.0004 
  -3096367.23545  -2225987.11945  24001172.1614   24001178.1864          0.0004 
 -14747987.22148 -11302722.16546  21812827.0824   21812830.3644          0.0004 
  -7660169.88948  -5837957.25347  21343378.5404   21343382.9004          0.0004 
 04  3  1  0 15 30.0000000  0  8G08G10G17G21G26G27G28G29
 -20933886.84048 -16090170.96347  21246725.7384   21246730.1934          0.0004 
 -23041759.75348  -9679495.90947  20904516.3334   20904521.3264          0.0004 
   7052305.13845   5526260.86945  23462360.0614   23462367.7514          0.0004 
  -3399126.07745  -1408285.97145  24751912.7004   24751913.5444          0.0004 
  -4536174.73547  -3390374.05546  21586009.4984   21586012.9684          0.0004 
  -3018968.90245  -2165676.77045  24015900.2434   24015905.8934          0.0004 
 -14795796.65848 -11339976.26846  21803729.2324   21803732.5614          0.0004 
  -7709252.02648  -5876203.07147  21334038.7104   21334042.6724          0.0004 
 04  3  1  0 16  0.0000000  0  8G08G10G17G21G26G27G28G29
 -20878126.56246 -16046721.40347  21257336.8144   21257341.0694          0.0004 
 -23005725.52448  -9651417.29547  20911373.5644   20911379.0034          0.0004 
   7132411.69545   5588681.56545  23477604.1854   23477608.7914          0.0004 
  -3433591.59344  -1435142.16745  24745353.6194   24745356.1504          0.0004 
  -4603754.93847  -3443033.94946  21573149.4444   21573153.3714          0.0004 
  -2941523.00045  -2105329.33345  24030638.0304   24030642.8364          0.0004 
 -14843099.20848 -11376835.38646  21794727.9884   21794730.9304          0.0004 
  -7758130.50748  -5914290.18947  21324737.3754   21324741.4314          0.0004 
 04  3  1  0 16 30.0000000  0  8G08G10G17G21G26G27G28G29
 -20822057.96747 -16003031.58147  21268006.1604   21268010.3804          0.0004 
 -22969158.17448  -9622923.27047  20918331.9324   20918337.2424          0.0004 
   7212766.00245   5651295.26945  23492895.6344   23492902.4804          0.0004 
  -3467516.46743  -1461577.29845  24738898.2194   24738900.7164          0.0004 
  -4671117.90948  -3495524.54846  21560330.5434   21560334.8574          0.0004 
  -2864034.49745  -2044948.72645  24045383.9164   24045388.5584          0.0004 
 -14889897.38748 -11413301.49947  21785822.4794   21785826.1714          0.0004 
  -7806808.28848  -5952220.91347  21315474.0634   21315478.0374          0.0004 
 04  3  1  0 17  0.0000000  0  8G08G10G17G21G26G27G28G29
 -20765676.72348 -15959098.16247  21278735.2384   21278739.4464          0.0004 
 -22932052.53048  -9594009.77947  20925392.7324   20925398.0184          0.0004 
   7293370.54745   5714103.96745  23508232.4804   23508237.5564          0.0004 
  -3500894.21245  -1487585.86745  24732547.2074   24732550.8404          0.0004 
  -4738256.40848  -3547840.25846  21547554.4804   21547558.9004          0.0004 
  -2786498.53246  -1984531.12245  24060138.5334   24060142.2484          0.0004 
 -14936183.89048 -11449368.89646  21777014.2954   21777017.7764          0.0004 
  -7855278.30348  -5989989.75247  21306250.5944   21306254.8964          0.0004 
 04  3  1  0 17 30.0000000  0  8G08G10G17G21G26G27G28G29
 -20708982.97248 -15914921.20647  21289523.5674   21289528.9714          0.0004 
 -22894407.78847  -9564676.23547  20932556.6364   20932561.5714          0.0004 
   7374223.74844   5777106.49145  23523619.4004   23523627.2064          0.0004 
  -3533721.90545  -1513165.93845  24726301.7904   24726304.8144          0.0004 
  -4805167.77948  -3599978.98147  21534821.9654   21534825.5404          0.0004 
  -2708914.26445  -1924075.81145  24074901.7774   24074906.2434          0.0004 
 -14981955.04748 -11485034.70946  21768304.3154   21768307.5514          0.0004 
  -7903537.81348  -6027594.56947  21297067.3134   21297071.3454          0.0004 
 04  3  1  0 18  0.0000000  0  8G08G10G17G21G26G27G28G29
 -20651977.25648 -15870501.16647  21300371.3394   21300376.2864          0.0004 
 -22856223.71747  -9534922.43447  20939822.8074   20939827.9764          0.0004 
   7455323.84745   5840301.31245  23539052.9124   23539057.2264          0.0004 
  -3565998.06645  -1538316.14645  24720158.0454   24720158.8544          0.0004 
  -4871849.63248  -3651938.85046  21522132.2794   21522137.2024          0.0004 
  -2631281.31645  -1863582.58645  24089674.9364   24089680.4114          0.0004 
 -15027208.17948 -11520296.87246  21759692.9024   21759696.7704          0.0004 
  -7951584.51548  -6065033.55947  21287924.2084   21287928.5454          0.0004 
 04  3  1  0 18 30.0000000  0  8G08G10G17G21G26G27G28G29
 -20594663.42548 -15825841.05347  21311277.9484   21311282.1804          0.0004 
 -22817503.04346  -9504750.48547  20947191.0154   20947195.8094          0.0004 
   7536665.38145   5903684.32645  23554530.8104   23554537.2924          0.0004 
  -3597723.62445  -1563037.29945  24714121.0084   24714123.5174          0.0004 
  -4938303.04748  -3703720.73046  21509486.7474   21509490.9904          0.0004 
  -2553602.58145  -1803053.73645  24104456.9294   24104462.8134          0.0004 
 -15071943.59648 -11555155.64246  21751179.8184   21751183.6054          0.0004 
  -7999419.29548  -6102307.39947  21278821.4924   21278825.9354          0.0004 
 04  3  1  0 19  0.0000000  0  8G08G10G17G21G26G27G28G29
 -20537044.46548 -15780943.14247  21322242.3464   21322247.2584          0.0004 
 -22778247.75747  -9474161.96447  20954661.2004   20954666.0534          0.0004 
   7618243.98145   5967252.04845  23570055.1924   23570060.9714          0.0004 
  -3628899.12945  -1587329.95545  24708188.1244   24708190.9844          0.0004 
  -5004527.93448  -3755324.53446  21496884.6364   21496888.4114          0.0004 
  -2475880.25145  -1742490.93945  24119246.1564   24119252.5914          0.0004 
 -15116160.91648 -11589610.66846  21742765.9344   21742769.1584          0.0004 
  -8047042.20448  -6139416.15147  21269759.2974   21269762.9194          0.0004 
 04  3  1  0 19 30.0000000  0  8G08G10G17G21G26G27G28G29
 -20479125.68248 -15735811.64447  21333263.9454   21333268.5054          0.0004 
 -22738462.60747  -9443160.57747  20962232.0954   20962236.5494          0.0004 
   7700052.60945   6030999.02345  23585623.5154   23585629.1194          0.0004 
  -3659528.07345  -1611196.78845  24702360.0484   24702364.1514          0.0004 
  -5070526.87947  -3806752.26046  21484325.0834   21484329.3504          0.0004 
  -2398118.80145  -1681897.63645  24134043.2914   24134048.2614          0.0004 
 -15159862.36948 -11623663.73847  21734449.6924   21734453.2204          0.0004 
  -8094455.85548  -6176361.85747  21260736.7824   21260740.5334          0.0004 
 04  3  1  0 20  0.0000000  0  8G08G10G17G21G26G27G28G29
 -20420905.70248 -15690445.42547  21344342.7674   21344348.1134          0.0004 
 -22698145.42448  -9411744.60047  20969904.0844   20969909.0434          0.0004 
   7782090.94245   6094924.96145  23601233.8744   23601240.3214          0.0004 
  -3689606.34145  -1634634.41645  24696636.6394   24696638.6554          0.0004 
  -5136295.45748  -3858000.50446  21471810.2494   21471814.4804          0.0004 
  -2320316.11245  -1621272.19245  24148849.5114   24148853.8254          0.0004 
 -15203043.27548 -11657311.19946  21726232.8034   21726236.9644          0.0004 
  -8141655.94748  -6213141.13747  21251755.0594   21251758.8924          0.0004 
 04  3  1  0 20 30.0000000  0  8G08G10G17G21G26G27G28G29
 -20362387.32048 -15644846.69747  21355478.5834   21355484.0924          0.0004 
 -22657298.20646  -9379915.60247  20977677.2684   20977681.6644          0.0004 
   7864354.96145   6159026.79645  23616889.3464   23616894.1994          0.0004 
  -3719134.26845  -1657643.14045  24691017.9104   24691019.9974          0.0004 
  -5201833.57348  -3909069.15146  21459338.3334   21459342.3654          0.0004 
  -2242473.97045  -1560616.02545  24163662.1534   24163668.8124          0.0004 
 -15245703.30548 -11690552.77846  21718114.5584   21718118.2034          0.0004 
  -8188642.35048  -6249753.92247  21242813.7274   21242817.5374          0.0004 
 04  3  1  0 21  0.0000000  0  8G08G10G17G21G26G27G28G29
 -20303573.21548 -15599017.52847  21366670.4664   21366675.7524          0.0004 
 -22615922.99046  -9347675.19247  20985550.7364   20985555.2024          0.0004 
   7946840.36245   6223301.10445  23632584.9684   23632591.6144          0.0004 
  -3748112.35945  -1680223.36245  24685503.4654   24685508.8584          0.0004 
  -5267141.17047  -3959958.16846  21446910.8114   21446914.6554          0.0004 
  -2164594.37945  -1499930.63945  24178482.1434   24178487.2774          0.0004 
 -15287841.79648 -11723387.95646  21710095.8974   21710099.3084          0.0004 
  -8235414.97247  -6286200.12547  21233913.4374   21233916.8484          0.0004 
 04  3  1  0 21 30.0000000  0  8G08G10G17G21G26G27G28G29
 -20244459.60648 -15552954.98947  21377919.4324   21377924.0274          0.0004 
 -22574015.13847  -9315019.72847  20993525.3714   20993530.5064          0.0004 
   8029549.21745   6287749.60345  23648323.5434   23648329.6384          0.0004 
  -3776534.36844  -1702370.39045  24680093.8704   24680096.7894          0.0004 
  -5332211.53447  -4010662.34246  21434528.3744   21434532.5944          0.0004 
  -2086672.56245  -1439212.38145  24193310.7784   24193313.9314          0.0004 
 -15329451.70648 -11755811.25047  21702177.9604   21702181.7344          0.0004 
  -8281967.13348  -6322474.54647  21225054.4854   21225058.4354          0.0004 
 04  3  1  0 22  0.0000000  0  8G08G10G17G21G26G27G28G29
 -20185054.05548 -15506664.96547  21389224.1864   21389228.8634          0.0004 
 -22531581.33147  -9281954.44047  21001600.5514   21001605.3574          0.0004 
   8112472.72745   6352365.28445  23664104.3414   23664108.3854          0.0004 
  -3804405.79244  -1724088.42345  24674789.8704   24674796.6814          0.0004 
  -5397049.02948  -4061185.07846  21422190.2804   21422194.1494          0.0004 
  -2008714.98744  -1378466.28645  24208145.1664   24208151.9414          0.0004 
 -15370537.51548 -11787826.15347  21694359.5174   21694363.3974          0.0004 
  -8328303.32048  -6358580.64547  21216236.9454   21216241.4464          0.0004 
 04  3  1  0 22 30.0000000  0  8G08G10G17G21G26G27G28G29
 -20125355.37048 -15460146.50247  21400584.2894   21400588.7434          0.0004 
 -22488619.69548  -9248477.84347  21009775.4784   21009780.5314          0.0004 
   8195610.39345   6417147.85745  23679923.6884   23679929.8784          0.0004 
  -3831723.06745  -1745374.68845  24669593.3824   24669596.8164          0.0004 
  -5461649.88447  -4111523.39246  21409897.3044   21409900.9854          0.0004 
  -1930719.86945  -1317690.82645  24222986.6434   24222991.9774          0.0004 
 -15411094.72448 -11819429.16647  21686641.7844   21686645.8984          0.0004 
  -8374419.76648  -6394515.53747  21207461.3244   21207465.5094          0.0004 
 04  3  1  0 23  0.0000000  0  8G08G10G17G21G26G27G28G29
 -20065372.35548 -15413406.49447  21411998.5924   21412003.0944          0.0004 
 -22445138.63047  -9214596.50747  21018049.8674   21018054.6964          0.0004 
   8278951.63845   6482089.09445  23695783.8324   23695791.7214          0.0004 
  -3858493.06045  -1766234.37545  24664498.8134   24664501.1574          0.0004 
  -5526020.09547  -4161681.99446  21397647.6824   21397652.0904          0.0004 
  -1852694.99844  -1256892.27345  24237834.5624   24237840.5174          0.0004 
 -15451129.15448 -11850624.81647  21679023.4554   21679027.1944          0.0004 
  -8420322.23048  -6430283.69547  21198726.4924   21198730.0794          0.0004 
 04  3  1  0 23 30.0000000  0  8G08G10G17G21G26G27G28G29
 -20005097.84448 -15366439.35747  21423468.6234   21423472.9964          0.0004 
 -22401130.16348  -9180304.22047  21026424.2694   21026428.8174          0.0004 
   8362502.41245   6547193.57545  23711683.4884   23711689.3964          0.0004 
  -3884706.10044  -1786660.12245  24659509.5414   24659513.7844          0.0004 
  -5590149.38947  -4211652.83346  21385444.3204   21385448.7984          0.0004 
  -1774632.21745  -1196064.08445  24252689.6084   24252695.6344          0.0004 
 -15490630.50648 -11881405.07547  21671506.5274   21671510.6184          0.0004 
  -8466000.75248  -6465877.35047  21190034.1574   21190037.7914          0.0004 
 04  3  1  0 24  0.0000000  0  8G08G10G17G21G26G27G28G29
 -19944541.13048 -15319252.32247  21434992.1064   21434996.2094          0.0004 
 -22356602.64948  -9145607.47447  21034897.6394   21034903.0674          0.0004 
   8446251.77645   6612452.80545  23727621.0464   23727625.1964          0.0004 
  -3910369.11044  -1806657.30445  24654626.0214   24654627.5104          0.0004 
  -5654043.97847  -4261440.80847  21373285.6934   21373289.8664          0.0004 
  -1696539.79645  -1135212.92645  24267550.2884   24267554.3324          0.0004 
 -15529604.70448 -11911774.57047  21664089.9994   21664094.0434          0.0004 
  -8511461.37348  -6501301.20847  21181383.3904   21181387.4224          0.0004 
 04  3  1  0 24 30.0000000  0  8G08G10G17G21G26G27G28G29
 -19883703.50348 -15271846.36146  21446568.9724   21446574.7164          0.0004 
 -22311557.02348  -9110506.98947  21043469.4664   21043475.0934          0.0004 
   8530196.73545   6677864.46145  23743594.4114   23743602.8744          0.0004 
  -3935481.34444  -1826225.30345  24649847.9804   24649855.9044          0.0004 
  -5717702.36848  -4311044.74647  21361171.8594   21361176.1024          0.0004 
  -1618418.40345  -1074339.16945  24282416.2854   24282422.9434          0.0004 
 -15568050.15948 -11941732.05647  21656773.9264   21656777.6894          0.0004 
  -8556702.74348  -6536554.21947  21172774.1324   21172778.3994          0.0004 
 04  3  1  0 25  0.0000000  0  8G08G10G17G21G26G27G28G29
 -19822589.82448 -15224225.34046  21458198.6704   21458203.4064          0.0004 
 -22265997.52148  -9075006.08747  21052139.2284   21052144.2924          0.0004 
   8614331.22045   6743423.78945  23759603.9944   23759613.8764          0.0004 
  -3960045.88545  -1845366.46345  24645174.1324   24645177.4024          0.0004 
  -5781126.65548  -4360466.25547  21349102.5714   21349106.7214          0.0004 
  -1540271.89845  -1013445.77445  24297287.5584   24297292.7284          0.0004 
 -15605968.81648 -11971279.05546  21649558.2934   21649562.0564          0.0004 
  -8601726.89848  -6571637.97747  21164205.9164   21164210.3824          0.0004 
 04  3  1  0 25 30.0000000  0  8G08G10G17G21G26G27G28G29
 -19761191.85348 -15176382.75147  21469882.2724   21469887.2544          0.0004 
 -22219915.51747  -9039098.04247  21060908.2364   21060913.0544          0.0004 
   8698661.57945   6809135.73045  23775652.8584   23775657.7934          0.0004 
  -3984052.18145  -1864072.66345  24640605.0314   24640610.4824          0.0004 
  -5844305.61448  -4409696.61347  21337080.2384   21337084.1654          0.0004 
  -1462091.13745   -952525.74945  24312164.2784   24312169.4484          0.0004 
 -15643349.50948 -12000406.84947  21642444.9294   21642448.6574          0.0004 
  -8646522.71848  -6606543.80447  21155681.8534   21155686.3314          0.0004 
 04  3  1  0 26  0.0000000  0  8G08G10G17G21G26G27G28G29
 -19699517.88748 -15128325.12847  21481618.3074   21481622.9264          0.0004 
 -22173318.42148  -9002788.63047  21069775.4924   21069780.1694          0.0004 
   8783178.19945   6874992.81445  23791734.8304   23791739.7424          0.0004 
  -4007506.17344  -1882348.56945  24636141.2694   24636147.9744          0.0004 
  -5907244.50848  -4458739.91647  21325103.6144   21325107.2134          0.0004 
  -1383883.25845   -891584.53445  24327046.7134   24327051.3314          0.0004 
 -15680197.11648 -12029119.26347  21635433.0804   21635437.1944          0.0004 
  -8691095.36148  -6641275.72847  21147199.9574   21147204.1664          0.0004 
 04  3  1  0 26 30.0000000  0  8G08G10G17G21G26G27G28G29
 -19637567.25248 -15080051.91847  21493407.1384   21493411.2644          0.0004 
 -22126205.21947  -8966077.05847  21078740.9344   21078745.4824          0.0004 
   8867880.03145   6940994.20245  23807853.4974   23807859.4754          0.0004 
  -4030405.67544  -1900192.34545  24631784.8614   24631791.0034          0.0004 
  -5969939.91948  -4507593.47547  21313172.6524   21313176.4854          0.0004 
  -1305646.91145   -830621.17545  24341934.8934   24341939.6994          0.0004 
 -15716508.18348 -12057413.58947  21628523.4054   21628527.2624          0.0004 
  -8735441.44448  -6675831.11247  21138761.1494   21138765.0524          0.0004 
 04  3  1  0 27  0.0000000  0  9G08G09G10G17G21G26G27G28G29
 -19575349.80548 -15031570.79747  21505246.8304   21505251.6834          0.0004 
   -372280.03843    -78233.28145  25067465.0194   25067467.7744          0.0004 
 -22078585.16048  -8928970.53247  21087802.7324   21087807.7024          0.0004 
   8952755.77745   7007131.17445  23824005.5414   23824011.0974          0.0004 
  -4052758.11244  -1917609.81645  24627531.1374   24627538.2764          0.0004 
  -6032398.74148  -4556262.66547  21301287.4484   21301291.0474          0.0004 
  -1227390.90945   -769642.47145  24356826.3434   24356831.1494          0.0004 
 -15752289.49348 -12085295.12147  21621714.6264   21621718.1314          0.0004 
  -8779567.78648  -6710215.27647  21130364.0564   21130367.6554          0.0004 
 04  3  1  0 27 30.0000000  0  9G08G09G10G17G21G26G27G28G29
 -19512861.40848 -14982878.56047  21517138.0404   21517141.5454          0.0004 
   -483734.57542   -165081.08845  25046254.4034   25046264.2264          0.0004 
 -22030453.55648  -8891465.39147  21096961.8074   21096966.8014          0.0004 
   9037807.81445   7073405.41945  23840190.2294   23840195.7504          0.0004 
  -4074557.45645  -1934596.21645  24623382.9244   24623384.9404          0.0004 
  -6094613.89348  -4604742.00947  21289448.5364   21289451.7954          0.0004 
  -1149110.23045   -708644.54445  24371723.4014   24371726.5894          0.0004 
 -15787534.24548 -12112758.55547  21615007.2574   21615010.9144          0.0004 
  -8823467.32048  -6744422.69947  21122010.3934   21122014.5314          0.0004 
 04  3  1  0 28  0.0000000  0  9G08G09G10G17G21G26G27G28G29
 -19450106.12848 -14933978.33846  21529079.9384   21529084.2994          0.0004 
   -595081.39443   -251844.76345  25025066.8534   25025076.2894          0.0004 
 -21981814.24548  -8853564.64547  21106217.5574   21106222.5974          0.0004 
   9123030.71945   7139812.93145  23856407.2824   23856414.6084          0.0004 
  -4095805.88344  -1951153.46745  24619338.5264   24619340.2734          0.0004 
  -6156586.47448  -4653032.31747  21277655.2214   21277659.5704          0.0004 
  -1070808.05245   -647629.91945  24386623.2074   24386630.5104          0.0004 
 -15822243.49948 -12139804.71547  21608402.4324   21608405.7844          0.0004 
  -8867141.44347  -6778454.49447  21113699.7384   21113703.4894          0.0004 
 04  3  1  0 28 30.0000000  0  9G08G09G10G17G21G26G27G28G29
 -19387083.27648 -14884869.63746  21541072.9384   21541077.3224          0.0004 
   -706317.05343   -338521.93045  25003900.1264   25003906.8074          0.0004 
 -21932666.07448  -8815267.38447  21115570.2054   21115575.2574          0.0004 
   9208423.48045   7206352.64645  23872656.8464   23872662.0044          0.0004 
  -4116501.02445  -1967279.62845  24615401.0234   24615405.7594          0.0004 
  -6218313.22048  -4701131.06547  21265908.7634   21265913.0884          0.0004 
   -992482.83644   -586597.30845  24401527.8694   24401534.0824          0.0004 
 -15856413.73848 -12166430.87047  21601900.2724   21601904.0814          0.0004 
  -8910586.73048  -6812307.96947  21105432.2034   21105436.4934          0.0004 
 04  3  1  0 29  0.0000000  0  9G08G09G10G17G21G26G27G28G29
 -19323793.19048 -14835552.68746  21553116.4904   21553121.0734          0.0004 
   -817438.85643   -425110.43145  24982754.2984   24982761.1084          0.0004 
 -21883008.85548  -8776573.46447  21125019.4224   21125024.8024          0.0004 
   9293984.22545   7273023.35545  23888938.7114   23888943.2474          0.0004 
  -4136640.87345  -1982973.03845  24611569.0464   24611571.9414          0.0004 
  -6279791.05148  -4749035.86447  21254210.0634   21254214.0134          0.0004 
   -914133.72045   -525546.07445  24416437.2044   24416443.5114          0.0004 
 -15890042.42848 -12192635.03947  21595500.7134   21595504.6044          0.0004 
  -8953800.25048  -6845980.82947  21097208.7494   21097213.3094          0.0004 
 04  3  1  0 29 30.0000000  0  9G08G09G10G17G21G26G27G28G29
 -19260235.95748 -14786027.57746  21565210.8044   21565215.6464          0.0004 
   -928444.08243   -511607.93745  24961629.6984   24961630.9054          0.0004 
 -21832842.19248  -8737482.56747  21134565.8234   21134571.0984          0.0004 
   9379711.21344   7339823.61445  23905250.5514   23905258.1594          0.0004 
  -4156223.90445  -1998232.55545  24607841.9124   24607844.0694          0.0004 
  -6341017.51748  -4796744.82047  21242559.0264   21242562.2264          0.0004 
   -835759.98545   -464475.69545  24431351.3394   24431355.9584          0.0004 
 -15923126.65248 -12218414.93747  21589205.1284   21589209.1374          0.0004 
  -8996779.34448  -6879471.02947  21089030.5104   21089034.4254          0.0004 
 04  3  1  0 30  0.0000000  0  9G08G09G10G17G21G26G27G28G29
 -19196416.96947 -14736298.50246  21577355.2294   21577360.2814          0.0004 
  -1039334.81944   -598016.31445  24940529.1654   24940527.5244          0.0004 
 -21782171.19548  -8697998.69447  21144208.3724   21144213.3544          0.0004 
   9465597.69445   7406748.12145  23921595.0424   23921601.2204          0.0004 
  -4175253.54144  -2013060.76345  24604220.3164   24604224.8054          0.0004 
  -6401994.92548  -4844259.68847  21230955.2844   21230958.4604          0.0004 
   -757365.98245   -403389.43345  24446270.4204   24446276.7264          0.0004 
 -15955668.97648 -12243772.58947  21583012.7114   21583016.7204          0.0004 
  -9039526.43447  -6912780.43447  21080895.9264   21080899.7364          0.0004 
 04  3  1  0 30 30.0000000  0  9G08G09G10G17G21G26G27G28G29
 -19132339.05447 -14686367.67246  21589548.8524   21589554.1164          0.0004 
  -1150111.22545   -684335.56345  24919448.9884   24919450.5354          0.0004 
 -21730998.54448  -8658123.91747  21153946.1784   21153951.5704          0.0004 
   9551639.03545   7473793.28845  23937969.0884   23937972.6404          0.0004 
  -4193730.98344  -2027458.91345  24600705.0754   24600711.5334          0.0004 
  -6462723.20748  -4891580.41047  21219399.1714   21219402.9104          0.0004 
   -678953.73345   -342289.04145  24461190.3724   24461195.5414          0.0004 
 -15987669.84848 -12268708.32547  21576923.1204   21576926.7664          0.0004 
  -9082041.52747  -6945909.09347  21072805.6154   21072809.4134          0.0004 
 04  3  1  0 31  0.0000000  0  9G08G09G10G17G21G26G27G28G29
 -19067998.99748 -14636232.57146  21601792.3604   21601796.6854          0.0004 
  -1260766.89245   -770560.81345  24898392.0494   24898396.8204          0.0004 
 -21679320.51648  -8617855.31347  21163780.1174   21163785.2634          0.0004 
   9637837.10145   7540960.60545  23954371.2244   23954376.9684          0.0004 
  -4211651.01845  -2041422.51845  24597295.2554   24597297.8814          0.0004 
  -6523196.30347  -4938702.29146  21207891.3554   21207895.4814          0.0004 
   -600518.95045   -281171.04945  24476116.0104   24476120.5814          0.0004 
 -16019122.88948 -12293217.17147  21570937.8224   21570941.1514          0.0004 
  -9124318.36548  -6978852.08647  21064760.5174   21064764.7254          0.0004 
 04  3  1  0 31 30.0000000  0  9G08G09G10G17G21G26G27G28G29
 -19003400.99447 -14585896.47246  21614085.0054   21614090.1044          0.0004 
  -1371303.31944   -856693.04745  24877356.9874   24877359.0624          0.0004 
 -21627141.15047  -8577196.09247  21173709.6774   21173714.4834          0.0004 
   9724185.89345   7608245.38845  23970802.8744   23970811.1854          0.0004 
  -4229016.15645  -2054953.82545  24593990.7304   24593991.3874          0.0004 
  -6583415.41748  -4985626.26646  21196432.0944   21196435.4114          0.0004 
   -522064.91944   -220038.02845  24491045.4344   24491048.7514          0.0004 
 -16050029.82048 -12317300.48647  21565056.3484   21565059.8304          0.0004 
  -9166358.22748  -7011610.39847  21056760.2744   21056764.6344          0.0004 
 04  3  1  0 32  0.0000000  0  9G08G09G10G17G21G26G27G28G29
 -18938550.75548 -14535363.82646  21626425.6814   21626430.1474          0.0004 
  -1481723.10443   -942734.41445  24856343.6494   24856354.3164          0.0004 
 -21574465.38348  -8536150.05747  21183733.5324   21183738.7374          0.0004 
   9810678.36645   7675642.09445  23987262.2244   23987268.7654          0.0004 
  -4245830.73545  -2068056.03745  24590791.0904   24590791.5004          0.0004 
  -6643383.24548  -5032354.45347  21185020.6074   21185024.2994          0.0004 
   -443596.11243   -158893.46845  24505976.7444   24505982.6754          0.0004 
 -16080393.26348 -12340960.30347  21559278.2134   21559281.6714          0.0004 
  -9208163.81048  -7044186.16847  21048805.0404   21048808.9324          0.0004 
 04  3  1  0 32 30.0000000  0  9G08G09G10G17G21G26G27G28G29
 -18873445.08747 -14484632.14046  21638814.7524   21638819.8054          0.0004 
  -1592020.22144  -1028680.31945  24835355.6534   24835357.6704          0.0004 
 -21521290.03048  -8494714.73747  21193852.4304   21193857.5414          0.0004 
   9897315.97945   7743151.96245  24003748.3034   24003755.4184          0.0004 
  -4262088.85444  -2080724.74945  24587696.5954   24587702.2454          0.0004 
  -6703093.78948  -5078882.13647  21173658.0714   21173661.4124          0.0004 
   -365108.64444    -97734.39345  24520913.2654   24520919.1854          0.0004 
 -16110207.84748 -12364192.43247  21553604.7774   21553608.7514          0.0004 
  -9249729.22348  -7076574.81547  21040895.5174   21040899.2334          0.0004 
 04  3  1  0 33  0.0000000  0  9G08G09G10G17G21G26G27G28G29
 -18808088.57448 -14433704.99046  21651251.7284   21651256.1364          0.0004 
  -1702196.49444  -1114531.88845  24814390.3174   24814394.3494          0.0004 
 -21467619.51248  -8452893.56347  21204065.5224   21204071.0434          0.0004 
   9984092.71845   7810770.09345  24020261.7794   24020268.0514          0.0004 
  -4277794.05045  -2092962.51045  24584708.1884   24584713.2404          0.0004 
  -6762548.71548  -5125210.65047  21162344.2524   21162348.0734          0.0004 
   -286606.01844    -36563.66645  24535851.2544   24535856.1534          0.0004 
 -16139475.11648 -12386998.09547  21548035.4204   21548039.0424          0.0004 
  -9291056.03148  -7108777.52247  21033031.1984   21033035.5234          0.0004 
 04  3  1  0 33 30.0000000  0  9G08G09G10G17G21G26G27G28G29
 -18742486.28847 -14382586.34046  21663735.4154   21663740.4094          0.0004 
  -1812253.95645  -1200290.95245  24793447.8594   24793454.3994          0.0004 
 -21413458.38446  -8410690.09847  21214372.2464   21214377.2754          0.0004 
  10071001.78143   7878491.43345  24036799.1284   24036807.2404          0.0004 
  -4292949.79245  -2104772.17945  24581823.5544   24581830.9284          0.0004 
  -6821750.25348  -5171341.71147  21151078.7314   21151082.7874          0.0004 
   -208092.39545     24615.81645  24550792.4464   24550795.7994          0.0004 
 -16168197.77148 -12409379.37247  21542569.5944   21542573.1344          0.0004 
  -9332146.54248  -7140796.09647  21025211.8764   21025216.2724          0.0004 
 04  3  1  0 34  0.0000000  0  9G08G09G10G17G21G26G27G28G29
 -18676637.79548 -14331275.82446  21676265.9354   21676270.4594          0.0004 
  -1922189.42745  -1285954.88345  24772528.0744   24772533.3854          0.0004 
 -21358806.34547  -8368104.11147  21224772.1494   21224776.8384          0.0004 
  10158041.96245   7946314.94945  24053363.1744   24053364.6044          0.0004 
  -4307553.99645  -2116152.09845  24579045.4454   24579049.1264          0.0004 
  -6880694.98248  -5217272.66547  21139861.8424   21139866.1204          0.0004 
   -129566.58344     85804.75045  24565735.8344   24565741.7894          0.0004 
 -16196372.83148 -12431333.95147  21537208.0424   21537211.8874          0.0004 
  -9372997.40548  -7172627.93047  21017438.5644   21017442.6194          0.0004 
 04  3  1  0 34 30.0000000  0  9G08G09G10G17G21G26G27G28G29
 -18610538.16047 -14279769.63146  21688844.3704   21688849.3524          0.0004 
  -2031995.13345  -1371517.74945  24751631.2274   24751633.5014          0.0004 
 -21303658.16148  -8325131.49947  21235266.2774   21235271.3414          0.0004 
  10245216.71545   8014243.34045  24069952.9514   24069958.8944          0.0004 
  -4321600.11445  -2127097.13245  24576371.8944   24576375.8804          0.0004 
  -6939375.12548  -5262997.43747  21128695.2954   21128699.6324          0.0004 
    -51022.44245    147007.97545  24580681.5954   24580685.1004          0.0004 
 -16223992.45748 -12452855.73847  21531952.2574   21531956.1374          0.0004 
  -9413600.64947  -7204266.82347  21009711.9944   21009715.6514          0.0004 
 04  3  1  0 35  0.0000000  0  9G08G09G10G17G21G26G27G28G29
 -18544195.63648 -14228074.15346  21701468.9904   21701472.9644          0.0004 
  -2141676.29643  -1456983.62045  24730759.3514   24730766.4904          0.0004 
 -21248021.97748  -8281778.63347  21245853.6474   21245858.6064          0.0004 
  10332516.30345   8082268.94845  24086566.0714   24086568.9314          0.0004 
  -4335094.59145  -2137612.26945  24573804.2264   24573812.3614          0.0004 
  -6997795.94048  -5308520.13147  21117577.9754   21117582.6174          0.0004 
     27533.03944    208220.03645  24595630.2394   24595635.4324          0.0004 
 -16251062.42148 -12473949.21047  21526800.9534   21526804.5054          0.0004 
  -9453961.74748  -7235717.02947  21002031.2254   21002035.4214          0.0004 
 04  3  1  0 35 30.0000000  0  9G08G09G10G17G21G26G27G28G29
 -18477613.18447 -14176191.74246  21714139.4374   21714143.8564          0.0004 
  -2251232.93244  -1542352.39345  24709911.0244   24709919.7574          0.0004 
 -21191900.38448  -8238047.54447  21256533.3134   21256538.4004          0.0004 
  10419936.16645   8150388.29745  24103200.7244   24103206.3974          0.0004 
  -4348038.98245  -2147698.94245  24571340.4064   24571345.4234          0.0004 
  -7055957.40848  -5353840.75347  21106510.2864   21106514.9524          0.0004 
    106097.49043    269439.03345  24610580.3944   24610586.8764          0.0004 
 -16277583.36148 -12494614.86347  21521754.1144   21521757.0564          0.0004 
  -9494080.53348  -7266978.41347  20994396.9844   20994401.3214          0.0004 
 04  3  1  0 36  0.0000000  0  9G08G09G10G17G21G26G27G28G29
 -18410792.93447 -14124124.02546  21726854.7024   21726858.8874          0.0004 
  -2360664.42145  -1627623.68745  24689088.6264   24689093.3504          0.0004 
 -21135295.48948  -8193939.86347  21267305.0854   21267310.3364          0.0004 
  10507472.35945   8218598.40445  24119858.2344   24119865.2444          0.0004 
  -4360433.87745  -2157357.22745  24568982.2644   24568985.1944          0.0004 
  -7113859.03048  -5398958.89347  21095492.1624   21095496.6284          0.0004 
    184669.89743    330664.27945  24625532.6994   24625539.1934          0.0004 
 -16303554.83748 -12514852.36147  21516812.0254   21516815.0844          0.0004 
  -9533956.35246  -7298050.48647  20986809.1564   20986813.0714          0.0004 
 04  3  1  0 36 30.0000000  0  9G08G09G10G17G21G26G27G28G29
 -18343732.71947 -14071869.30746  21739615.7314   21739620.8664          0.0004 
  -2469965.94545  -1712793.63145  24668288.2684   24668292.4884          0.0004 
 -21078205.35548  -8149454.05047  21278168.8254   21278174.7574          0.0004 
  10595125.69145   8286899.52345  24136536.8484   24136542.0764          0.0004 
  -4372275.99445  -2166584.86445  24566728.8964   24566733.0344          0.0004 
  -7171495.48448  -5443870.40447  21084524.1594   21084528.3094          0.0004 
    263253.47944    391898.19345  24640486.7254   24640492.5044          0.0004 
 -16328972.18148 -12534658.07747  21511975.3204   21511978.7664          0.0004 
  -9573584.29248  -7328929.39847  20979268.0934   20979272.1144          0.0004 
 04  3  1  0 37  0.0000000  0  9G08G09G10G17G21G26G27G28G29
 -18276442.32347 -14019435.24346  21752420.7424   21752425.2554          0.0004 
  -2579143.84243  -1797867.30745  24647512.4564   24647520.9424          0.0004 
 -21020639.35748  -8104597.43247  21289123.3074   21289128.8164          0.0004 
  10682884.91545   8355283.33745  24153237.2844   24153244.4114          0.0004 
  -4383573.38545  -2175388.03545  24564579.1484   24564583.2394          0.0004 
  -7228873.45548  -5488580.50347  21073605.5144   21073610.2384          0.0004 
    341839.45545    453133.95045  24655441.6424   24655445.1354          0.0004 
 -16353842.60548 -12554037.63447  21507242.5004   21507246.4984          0.0004 
  -9612970.90348  -7359620.25747  20971772.9714   20971776.9444          0.0004 
 04  3  1  0 37 30.0000000  0  9G08G09G10G17G21G26G27G28G29
 -18208912.94547 -13966814.95446  21765271.2304   21765276.3534          0.0004 
  -2688186.95143  -1882835.99745  24626762.0014   24626768.5424          0.0004 
 -20962588.83848  -8059363.28147  21300169.8354   21300175.1804          0.0004 
  10770756.96744   8423755.12945  24169959.2584   24169964.8964          0.0004 
  -4394315.71444  -2183758.66345  24562535.3014   24562540.3424          0.0004 
  -7285981.64148  -5533080.38647  21062738.2614   21062742.4464          0.0004 
    420437.35145    514379.06145  24670398.6354   24670403.0664          0.0004 
 -16378155.21448 -12572982.51547  21502615.8534   21502619.5694          0.0004 
  -9652104.83446  -7390114.23347  20964326.0514   20964329.9074          0.0004 
 04  3  1  0 38  0.0000000  0  9G08G09G10G17G21G26G27G28G29
 -18141150.39447 -13914012.97646  21778165.9414   21778170.3144          0.0004 
  -2797098.08445  -1967701.70345  24606038.0434   24606040.7274          0.0004 
 -20904059.38148  -8013755.93347  21311307.6714   21311313.1104          0.0004 
  10858734.66845   8492309.10545  24186700.3824   24186706.7934          0.0004 
  -4404507.31945  -2191700.22345  24560596.1014   24560599.8994          0.0004 
  -7342822.69948  -5577372.12047  21051921.8004   21051925.7984          0.0004 
    499042.65545    575629.95945  24685357.8264   24685361.2134          0.0004 
 -16401913.32748 -12591495.31347  21498094.8984   21498098.6374          0.0004 
  -9690988.70348  -7420413.35547  20956926.6824   20956931.0894          0.0004 
 04  3  1  0 38 30.0000000  0  9G08G09G10G17G21G26G27G28G29
 -18073155.17647 -13861029.69646  21791104.9334   21791110.0564          0.0004 
  -2905875.11245  -2052462.96945  24585337.6794   24585341.0084          0.0004 
 -20845051.54148  -7967775.80147  21322536.6284   21322542.1494          0.0004 
  10946815.60743   8560943.50745  24203461.7244   24203469.6954          0.0004 
  -4414147.76445  -2199212.28245  24558760.9594   24558764.1364          0.0004 
  -7399394.48148  -5621454.01547  21041156.4704   21041161.3824          0.0004 
    577655.76145    636886.88645  24700315.6804   24700318.0594          0.0004 
 -16425115.02048 -12609574.54247  21493679.7304   21493683.4354          0.0004 
  -9729620.45448  -7450516.01347  20949575.0714   20949579.6194          0.0004 
 04  3  1  0 39  0.0000000  0  9G08G09G10G17G21G26G27G28G29
 -18004932.21747 -13807868.95746  21804087.5434   21804092.5024          0.0004 
  -3014519.89142  -2137121.27045  24564661.9824   24564664.2804          0.0004 
 -20785570.20847  -7921426.72747  21333855.5944   21333860.3884          0.0004 
  11034993.61944   8629653.66045  24220241.2404   24220247.9224          0.0004 
  -4423240.48745  -2206297.54445  24557030.7504   24557033.9514          0.0004 
  -7455698.91848  -5665327.59247  21030441.9234   21030446.1904          0.0004 
    656272.75344    698146.86845  24715275.6404   24715280.3994          0.0004 
 -16447762.71848 -12627222.09047  21489370.2204   21489373.4674          0.0004 
  -9768001.99648  -7480423.70547  20942271.4414   20942276.0014          0.0004 
 04  3  1  0 39 30.0000000  0  9G08G09G10G17G21G26G27G28G29
 -17936479.12447 -13754528.87346  21817113.8414   21817118.5424          0.0004 
  -3123027.55843  -2221672.68245  24544014.1534   24544020.6474          0.0004 
 -20725613.07648  -7874706.90447  21345264.9144   21345270.5884          0.0004 
  11123269.09544   8698439.79845  24237040.4504   24237050.0274          0.0004 
  -4431781.88045  -2212953.10745  24555405.0164   24555404.8754          0.0004 
  -7511730.76447  -5708988.77647  21019779.6704   21019783.4444          0.0004 
    734896.98343    759412.50845  24730237.5394   24730244.1034          0.0004 
 -16469852.06848 -12644434.56347  21485166.6424   21485169.9134          0.0004 
  -9806127.98446  -7510132.27447  20935016.3884   20935020.1634          0.0004 
 04  3  1  0 40  0.0000000  0  9G08G09G10G17G21G26G27G28G29
 -17867799.33447 -13701012.16646  21830183.1034   21830187.6404          0.0004 
  -3231398.87245  -2306117.78945  24523391.8994   24523398.2874          0.0004 
 -20665183.72448  -7827619.09947  21356764.1864   21356769.8834          0.0004 
  11211637.23445   8767298.06045  24253856.0194   24253860.2274          0.0004 
  -4439773.73844  -2219180.54145  24553883.8124   24553891.2444          0.0004 
  -7567490.54248  -5752437.94947  21009168.8244   21009173.4434          0.0004 
    813525.82643    820681.69045  24745200.6814   24745206.8824          0.0004 
 -16491384.20848 -12661212.84747  21481069.1264   21481072.7014          0.0004 
  -9843999.16548  -7539642.28347  20927809.5344   20927813.5664          0.0004 
 04  3  1  0 40 30.0000000  0  9G08G09G10G17G21G26G27G28G29
 -17798899.91647 -13647324.31346  21843294.2024   21843299.1134          0.0004 
  -3339637.85345  -2390459.85445  24502795.3644   24502803.0894          0.0004 
 -20604289.23848  -7780168.85947  21368351.7804   21368357.6994          0.0004 
  11300089.55645   8836221.88845  24270687.9534   24270693.5214          0.0004 
  -4447221.79644  -2224984.21445  24552466.9164   24552474.8524          0.0004 
  -7622982.39248  -5795678.32247  20998608.9624   20998613.9324          0.0004 
    892153.58545    881950.05045  24760163.0554   24760169.6664          0.0004 
 -16512363.64448 -12677560.45147  21477076.6174   21477080.5564          0.0004 
  -9881619.45848  -7568956.77647  20920650.6034   20920654.9524          0.0004 
 04  3  1  0 41  0.0000000  0  9G08G09G10G17G21G26G27G28G29
 -17729779.75347 -13593464.43646  21856447.4484   21856452.2544          0.0004 
  -3447740.49145  -2474695.65845  24482223.6584   24482229.2494          0.0004 
 -20542928.40848  -7732355.23847  21380028.4374   21380034.0284          0.0004 
  11388625.43745   8905210.90145  24287535.6304   24287543.5784          0.0004 
  -4454124.15745  -2230362.68945  24551153.6034   24551158.6794          0.0004 
  -7678202.13748  -5838706.68147  20988101.0424   20988105.0514          0.0004 
    970782.32545    943219.14945  24775125.9584   24775131.1624          0.0004 
 -16532787.25148 -12693474.93847  21473190.3304   21473194.2694          0.0004 
  -9918984.80247  -7598072.63847  20913540.5574   20913544.3204          0.0004 
 04  3  1  0 41 30.0000000  0  9G08G09G10G17G21G26G27G28G29
 -17660436.53047 -13539430.78646  21869642.8454   21869646.8784          0.0004 
  -3555701.93745  -2558821.39245  24461678.5224   24461682.7664          0.0004 
 -20481099.29348  -7684176.73747  21391794.5054   21391799.9214          0.0004 
  11477245.43945   8974265.49745  24304399.6924   24304407.0304          0.0004 
  -4460477.56545  -2235313.39945  24549945.1734   24549948.9244          0.0004 
  -7733144.98148  -5881519.28747  20977645.9004   20977649.7214          0.0004 
   1049414.84243   1004491.27345  24790089.6344   24790095.8124          0.0004 
 -16552650.66748 -12708952.91847  21469410.4934   21469414.4314          0.0004 
  -9956090.42548  -7626986.10547  20906479.3734   20906483.5584          0.0004 
 04  3  1  0 42  0.0000000  0  9G08G09G10G17G21G26G27G28G29
 -17590872.94847 -13485225.37346  21882880.2754   21882885.2454          0.0004 
  -3663521.50645  -2642836.65445  24441161.1914   24441167.7444          0.0004 
 -20418804.45548  -7635635.31647  21403648.6424   21403653.7414          0.0004 
  11565945.67143   9043382.50845  24321278.2344   24321283.6384          0.0004 
  -4466282.98345  -2239837.11545  24548839.9774   24548842.5324          0.0004 
  -7787810.27448  -5924115.61347  20967243.1394   20967247.2654          0.0004 
   1128050.14245   1065765.50545  24805052.2354   24805056.9474          0.0004 
 -16571953.78448 -12723994.29447  21465737.3874   21465741.4784          0.0004 
  -9992935.74748  -7655696.73947  20899467.9264   20899471.9824          0.0004 
 04  3  1  0 42 30.0000000  0  9G08G09G10G17G21G26G27G28G29
 -17521092.81147 -13430851.25646  21896159.1704   21896164.2934          0.0004 
  -3771200.92745  -2726742.68745  24420671.9724   24420678.9584          0.0004 
 -20356047.94148  -7586734.14347  21415590.8434   21415596.3294          0.0004 
  11654720.53342   9112557.63945  24338171.6084   24338179.6854          0.0004 
  -4471543.37745  -2243936.14945  24547839.9374   24547841.6254          0.0004 
  -7842199.26348  -5966496.63447  20956893.3814   20956897.3554          0.0004 
   1206685.13745   1127039.45845  24820016.1434   24820018.7694          0.0004 
 -16590698.74048 -12738600.74747  21462170.0064   21462174.2854          0.0004 
 -10029521.87046  -7684205.40747  20892506.1094   20892509.6024          0.0004 
 04  3  1  0 43  0.0000000  0  9G08G09G10G17G21G26G27G28G29
 -17451095.39147 -13376307.82046  21909479.0554   21909484.1664          0.0004 
  -3878736.68245  -2810536.79845  24400208.0754   24400213.3274          0.0004 
 -20292829.38348  -7537472.94047  21427621.1094   21427626.4554          0.0004 
  11743569.18244   9181790.35345  24355079.4044   24355084.4214          0.0004 
  -4476256.83645  -2247609.06945  24546941.6244   24546943.8984          0.0004 
  -7896308.25248  -6008659.48747  20946596.8744   20946601.2474          0.0004 
   1285321.54945   1188314.59945  24834979.8914   24834985.8574          0.0004 
 -16608882.71348 -12752770.06347  21458709.8324   21458713.8174          0.0004 
 -10065845.08447  -7712509.20347  20885593.7234   20885597.4624          0.0004 
 04  3  1  0 43 30.0000000  0  9G08G09G10G17G21G26G27G28G29
 -17380886.52547 -13321599.60846  21922839.2774   21922844.3994          0.0004 
  -3986131.48545  -2894221.08645  24379772.3354   24379778.8994          0.0004 
 -20229154.52448  -7487856.17647  21439738.0884   21439743.0354          0.0004 
  11832484.28144   9251074.93145  24371999.4334   24372006.8654          0.0004 
  -4480427.74845  -2250859.10245  24546147.6074   24546150.3034          0.0004 
  -7950140.06048  -6050606.35247  20936352.9644   20936357.0084          0.0004 
   1363954.64744   1249587.02445  24849943.8764   24849949.1744          0.0004 
 -16626509.34848 -12766505.08447  21455355.5344   21455359.4034          0.0004 
 -10101908.36447  -7740610.45047  20878731.1484   20878735.5084          0.0004 
 04  3  1  0 44  0.0000000  0  9G08G09G10G17G21G26G27G28G29
 -17310469.75747 -13266729.43346  21936239.2304   21936244.4354          0.0004 
  -4093386.47545  -2977796.36245  24359361.0014   24359366.2654          0.0004 
 -20165027.32148  -7437886.94447  21451940.9444   21451946.3244          0.0004 
  11921460.37944   9320406.88845  24388930.1214   24388940.2144          0.0004 
  -4484059.01844  -2253688.70645  24545457.0314   24545462.6344          0.0004 
  -8003695.71748  -6092338.01847  20926161.5254   20926165.4404          0.0004 
   1442581.92144   1310855.03245  24864906.5034   24864913.5364          0.0004 
 -16643580.49148 -12779807.25647  21452107.0764   21452110.8854          0.0004 
 -10137712.47548  -7768509.76247  20871917.9714   20871922.2034          0.0004 
 04  3  1  0 44 30.0000000  0  9G08G09G10G17G21G26G27G28G29
 -17239837.21647 -13211691.07746  21949680.0014   21949685.6744          0.0004 
  -4200490.87644  -3061254.36245  24338979.8834   24338987.5614          0.0004 
 -20100440.08848  -7387559.24047  21464231.3104   21464236.4914          0.0004 
  12010504.08045   9389791.56545  24405875.1674   24405880.5714          0.0004 
  -4487141.84145  -2256090.89945  24544870.2154   24544874.4934          0.0004 
  -8056964.26248  -6133845.95947  20916025.0594   20916029.4794          0.0004 
   1521212.13145   1372125.39445  24879869.0334   24879868.6224          0.0004 
 -16660085.84148 -12792668.56347  21448966.3964   21448970.3934          0.0004 
 -10173246.74547  -7796198.79747  20865155.8284   20865159.7674          0.0004 
 04  3  1  0 45  0.0000000  0  9G08G09G10G17G21G26G27G28G29
 -17168995.11747 -13156489.45746  21963160.9254   21963166.5284          0.0004 
  -4307448.16545  -3144597.63445  24318626.7154   24318633.4444          0.0004 
 -20035399.20748  -7336878.05547  21476608.3584   21476613.5744          0.0004 
  12099607.45844   9459222.65645  24422831.2654   24422839.8344          0.0004 
  -4489680.86245  -2258069.40345  24544386.9754   24544387.6544          0.0004 
  -8109949.08548  -6175132.83047  20905942.2994   20905946.6604          0.0004 
   1599840.14345   1433393.97245  24894831.5834   24894835.6154          0.0004 
 -16676029.50548 -12805092.19747  21445932.4564   21445936.2194          0.0004 
 -10208514.13148  -7823679.87847  20858444.8184   20858448.6164          0.0004 
 04  3  1  0 45 30.0000000  0  9G08G09G10G17G21G26G27G28G29
 -17097946.38647 -13101126.79746  21976680.9804   21976686.4664          0.0004 
  -4414258.93745  -3227826.79945  24298301.6524   24298309.0834          0.0004 
 -19969908.06648  -7285846.00247  21489070.7974   21489076.0844          0.0004 
  12188765.88644   9528696.81845  24439798.7434   24439806.9604          0.0004 
  -4491678.82945  -2259626.27645  24544007.2214   24544010.7144          0.0004 
  -8162650.44548  -6216198.82047  20895913.4404   20895918.3404          0.0004 
   1678463.84045   1494659.17045  24909793.2664   24909799.0564          0.0004 
 -16691412.90048 -12817079.24347  21443004.6804   21443008.5014          0.0004 
 -10243515.35448  -7850953.56047  20851784.1274   20851788.2304          0.0004 
 04  3  1  0 46  0.0000000  0  9G08G09G10G17G21G26G27G28G29
 -17026692.14347 -13045604.04546  21990240.1334   21990245.0214          0.0004 
  -4520921.37745  -3310940.32545  24278004.5144   24278008.8164          0.0004 
 -19903967.93448  -7234464.10347  21501618.9784   21501624.1014          0.0004 
  12277976.81944   9598211.70345  24456774.4234   24456776.5454          0.0004 
  -4493135.68345  -2260761.57645  24543730.5834   24543733.3154          0.0004 
  -8215066.30448  -6257042.33147  20885939.0814   20885943.6994          0.0004 
   1757083.50745   1555921.17845  24924754.5114   24924758.2504          0.0004 
 -16706234.88948 -12828628.83947  21440184.2374   21440187.6024          0.0004 
 -10278248.35046  -7878018.22247  20845175.1794   20845179.0714          0.0004 
 04  3  1  0 46 30.0000000  0  9G08G09G10G17G21G26G27G28G29
 -16955232.96847 -12989921.56046  22003838.5824   22003843.3064          0.0004 
  -4627433.08645  -3393936.41045  24257735.2104   24257741.1884          0.0004 
 -19837579.52148  -7182732.88347  21514252.1244   21514257.6344          0.0004 
  12367238.08443   9667766.04045  24473759.4544   24473761.8454          0.0004 
  -4494050.57345  -2261474.47045  24543556.8764   24543557.4504          0.0004 
  -8267194.32848  -6297661.57347  20876019.4484   20876023.2814          0.0004 
   1835699.44245   1617180.39045  24939714.0254   24939719.7574          0.0004 
 -16720494.14548 -12839739.93947  21437470.7304   21437474.4934          0.0004 
 -10312710.61648  -7904871.94147  20838616.8814   20838620.7974          0.0004 
 04  3  1  0 47  0.0000000  0  9G08G09G10G17G21G26G27G28G29
 -16883572.17647 -12934081.99646  22017475.1534   22017479.9954          0.0004 
  -4733794.80645  -3476815.62245  24237496.1494   24237502.6904          0.0004 
 -19770746.63048  -7130655.32147  21526970.0584   21526975.1454          0.0004 
  12456544.92743   9737355.88444  24490753.6824   24490757.5384          0.0004 
  -4494426.74945  -2261767.58945  24543485.7534   24543487.0654          0.0004 
  -8319035.13948  -6338057.00947  20866154.3124   20866157.8284          0.0004 
   1914309.20942   1678434.77845  24954673.1244   24954678.0124          0.0004 
 -16734192.14648 -12850413.68847  21434864.2224   21434868.1374          0.0004 
 -10346902.78848  -7931515.15747  20832110.1904   20832114.4924          0.0004 
 04  3  1  0 47 30.0000000  0  9G08G09G10G17G21G26G27G28G29
 -16811716.86447 -12878090.84246  22031148.7534   22031154.1454          0.0004 
  -4840011.32645  -3559581.67545  24217283.5324   24217288.1514          0.0004 
 -19703476.68048  -7078237.17647  21539771.1764   21539776.3344          0.0004 
  12545888.48843   9806974.13745  24507756.5034   24507767.0064          0.0004 
  -4494270.21545  -2261645.63745  24543514.3244   24543518.8134          0.0004 
  -8370593.01848  -6378231.97747  20856343.3144   20856347.3934          0.0004 
   1992906.88742   1739679.60545  24969628.9924   24969629.3084          0.0004 
 -16747334.02048 -12860654.10847  21432363.5584   21432367.2154          0.0004 
 -10380829.20446  -7957951.34547  20825654.3224   20825657.9214          0.0004 
 04  3  1  0 48  0.0000000  0  9G08G09G10G17G21G26G27G28G29
 -16739663.88647 -12821945.66746  22044859.7924   22044864.7394          0.0004 
  -4946076.50145  -3642229.82945  24197099.4514   24197105.9094          0.0004 
 -19635766.77348  -7025476.22647  21552655.7764   21552661.1334          0.0004 
  12635270.40642   9876622.40545  24524764.0214   24524772.5904          0.0004 
  -4493576.76545  -2261105.26145  24543646.5794   24543650.2724          0.0004 
  -8421861.93447  -6418181.78047  20846587.3204   20846591.3764          0.0004 
   2071496.64542   1800918.33545  24984584.9154   24984590.3074          0.0004 
 -16759914.83348 -12870457.33147  21429969.4564   21429973.4654          0.0004 
 -10414483.87848  -7984175.75447  20819249.8954   20819254.3614          0.0004 
 04  3  1  0 48 30.0000000  0  8G08G09G10G17G21G26G28G29
 -16667412.24647 -12765645.69746  22058609.0604   22058614.4644          0.0004 
  -5051987.14245  -3724757.53545  24176945.5704   24176952.6154          0.0004 
 -19567616.62548  -6972372.23347  21565624.4024   21565630.3914          0.0004 
  12724689.81741   9946299.90144  24541778.6864   24541782.9174          0.0004 
  -4492344.82045  -2260145.28145  24543880.7944   24543885.3194          0.0004 
  -8472838.33147  -6457903.64347  20836886.7574   20836891.1414          0.0004 
 -16771932.15048 -12879821.46647  21427682.5924   21427686.1204          0.0004 
 -10447863.09948  -8010185.53547  20812898.3014   20812902.2634          0.0004 
 04  3  1  0 49  0.0000000  0  8G08G09G10G17G21G26G28G29
 -16594959.42347 -12709188.96646  22072396.3264   22072399.9604          0.0004 
  -5157737.74645  -3807160.61745  24156821.9034   24156826.3694          0.0004 
 -19499023.86048  -6918923.34447  21578677.3544   21578682.6294          0.0004 
  12814147.91342  10016007.32945  24558803.3124   24558806.7934          0.0004 
  -4490571.13245  -2258763.27945  24544218.4134   24544224.0394          0.0004 
  -8523516.35348  -6497393.00147  20827242.9844   20827247.4034          0.0004 
 -16783381.30348 -12888742.87747  21425503.9304   21425507.4234          0.0004 
 -10480961.20646  -8035976.25647  20806599.9874   20806603.7384          0.0004 
 04  3  1  0 49 30.0000000  0  7G08G09G10G21G26G28G29
 -16522311.03247 -12652579.83646  22086220.7434   22086225.6314          0.0004 
  -5263331.41145  -3889441.36945  24136728.0984   24136731.7084          0.0004 
 -19429994.63248  -6865134.34147  21591813.3434   21591818.7474          0.0004 
  -4488260.58945  -2256962.90745  24544658.1444   24544663.6654          0.0004 
  -8573899.21348  -6536652.35847  20817655.5394   20817659.7124          0.0004 
 -16794266.35448 -12897224.73347  21423432.3064   21423436.2214          0.0004 
 -10513781.35046  -8061550.39647  20800354.3014   20800357.8424          0.0004 
 04  3  1  0 50  0.0000000  0  7G08G09G10G21G26G28G29
 -16449469.66347 -12595820.33346  22100082.0184   22100086.9644          0.0004 
  -5368767.86545  -3971599.57545  24116664.0114   24116671.6664          0.0004 
 -19360531.84448  -6811007.48247  21605031.2294   21605036.9624          0.0004 
  -4485414.84444  -2254745.44545  24545199.3294   24545200.0214          0.0004 
  -8623986.33148  -6575681.27747  20808124.1614   20808128.0414          0.0004 
 -16804587.85048 -12905267.44247  21421468.2114   21421471.3414          0.0004 
 -10546322.85847  -8086907.42047  20794161.9874   20794165.9724          0.0004 
 04  3  1  0 50 30.0000000  0  7G08G09G10G21G26G28G29
 -16376442.81647 -12538916.30946  22113978.8064   22113983.3434          0.0004 
  -5474052.03945  -4053639.21645  24096628.9144   24096634.2134          0.0004 
 -19290643.66148  -6756549.19346  21618330.5664   21618335.5014          0.0004 
  -4482041.13444  -2252116.57345  24545840.8764   24545844.4874          0.0004 
  -8673782.64547  -6614483.59647  20798648.4004   20798652.2564          0.0004 
 -16814352.07648 -12912875.91347  21419610.2054   21419613.3944          0.0004 
 -10578590.62946  -8112051.13447  20788021.8394   20788025.9544          0.0004 
 04  3  1  0 51  0.0000000  0  8G08G09G10G17G21G26G28G29
 -16303224.10947 -12481862.76846  22127911.5824   22127917.3494          0.0004 
  -5579175.22045  -4135553.36245  24076624.5954   24076629.2374          0.0004 
 -19220324.16848  -6701754.78946  21631712.0064   21631717.5394          0.0004 
    247721.39342     25587.89045  24626946.5974   24626951.5554          0.0004 
  -4478132.30144  -2249070.79445  24546584.9214   24546589.8334          0.0004 
  -8723279.06747  -6653052.24347  20789229.5594   20789233.5214          0.0004 
 -16823550.65848 -12920043.63847  21417859.8634   21417863.4624          0.0004 
 -10610575.73946  -8136974.60047  20781935.1694   20781938.7804          0.0004 
 04  3  1  0 51 30.0000000  0  8G08G09G10G17G21G26G28G29
 -16229809.54346 -12424656.64046  22141882.1174   22141887.7324          0.0004 
  -5684130.65545  -4217336.75945  24056652.5114   24056658.2674          0.0004 
 -19149569.69648  -6646621.44747  21645176.3544   21645181.6174          0.0004 
    337304.95443     95393.22445  24643995.8524   24643999.9084          0.0004 
  -4473683.47345  -2245604.18245  24547431.3384   24547433.8464          0.0004 
  -8772468.38948  -6691381.56447  20779868.9714   20779873.3784          0.0004 
 -16832177.96048 -12926766.19847  21416218.1154   21416221.7254          0.0004 
 -10642271.03548  -8161672.22647  20775903.6004   20775907.8084          0.0004 
 04  3  1  0 52  0.0000000  0  8G08G09G10G17G21G26G28G29
 -16156212.87047 -12367308.57646  22155887.1044   22155890.6914          0.0004 
  -5788929.63845  -4298998.30345  24036710.1104   24036715.1274          0.0004 
 -19078394.74848  -6591160.46846  21658720.5794   21658726.1004          0.0004 
    426898.65343    165206.56645  24661044.7474   24661051.1824          0.0004 
  -4468708.13045  -2241727.30545  24548378.9864   24548385.2114          0.0004 
  -8821361.89248  -6729480.38647  20770564.6204   20770569.0864          0.0004 
 -16840246.19948 -12933053.14447  21414682.9784   21414686.7294          0.0004 
 -10673687.54746  -8186152.62747  20769925.3434   20769928.9774          0.0004 
 04  3  1  0 52 30.0000000  0  8G08G09G10G17G21G26G28G29
 -16082435.82347 -12309819.97246  22169926.4404   22169931.2584          0.0004 
  -5893571.20045  -4380537.14945  24016797.5964   24016801.6284          0.0004 
 -19006801.54948  -6535373.56246  21672343.8944   21672349.6494          0.0004 
    516499.17544    235025.15045  24678094.9954   24678100.1774          0.0004 
  -4463207.44245  -2237441.14645  24549425.6634   24549428.3364          0.0004 
  -8869958.36348  -6767347.75847  20761317.2594   20761321.6434          0.0004 
 -16847755.57848 -12938904.60347  21413253.7754   21413257.3624          0.0004 
 -10704824.26947  -8210415.01447  20764000.1274   20764004.0194          0.0004 
 04  3  1  0 53  0.0000000  0  8G08G09G10G17G21G26G28G29
 -16008477.91147 -12252190.44346  22184000.2774   22184004.8844          0.0004 
  -5998052.24745  -4461950.94745  23996915.6034   23996920.8314          0.0004 
 -18934790.22548  -6479260.85846  21686047.2724   21686052.8284          0.0004 
    606105.51142    304848.32745  24695146.0414   24695153.4384          0.0004 
  -4457180.29245  -2232744.68345  24550573.2794   24550575.8934          0.0004 
  -8918254.37847  -6804981.01747  20752126.7034   20752130.9114          0.0004 
 -16854703.99148 -12944318.94647  21411931.4844   21411934.7434          0.0004 
 -10735677.79746  -8234456.70547  20758128.6974   20758132.6134          0.0004 
 04  3  1  0 53 30.0000000  0  8G08G09G10G17G21G26G28G29
 -15934333.75047 -12194415.77246  22198109.1734   22198113.5804          0.0004 
  -6102364.86745  -4543233.43345  23977065.4144   23977070.5134          0.0004 
 -18862355.86248  -6422818.51346  21699831.1584   21699836.7374          0.0004 
    695721.28741    374678.88345  24712198.1494   24712209.2504          0.0004 
  -4450620.94245  -2227633.53245  24551820.9944   24551826.5044          0.0004 
  -8966242.13547  -6842374.05847  20742995.0104   20742998.8554          0.0004 
 -16861084.56848 -12949290.80047  21410717.3244   21410720.4194          0.0004 
 -10766240.10246  -8258271.50047  20752312.9864   20752316.6554          0.0004 
 04  3  1  0 54  0.0000000  0  8G08G09G10G17G21G26G28G29
 -15860008.08147 -12136499.68146  22212253.0984   22212257.4824          0.0004 
  -6206511.18145  -4624386.36045  23957246.5114   23957250.4034          0.0004 
 -18789503.68648  -6366050.60046  21713694.5734   21713699.5914          0.0004 
     41817.15942    444511.63344  24729252.8614   24729261.0084          0.0004 
  -4443533.47745  -2222110.88045  24553169.7734   24553172.9144          0.0004 
  -9013923.29547  -6879528.21047  20733921.7544   20733925.8454          0.0004 
 -16866900.55048 -12953822.72347  21409610.4694   21409613.6584          0.0004 
 -10796513.26648  -8281860.99447  20746552.1934   20746556.4834          0.0004 
 04  3  1  0 54 30.0000000  0  7G08G09G10G21G26G28G29
 -15785505.69747 -12078445.89546  22226430.3754   22226434.6544          0.0004 
  -6310493.27645  -4705411.36345  23937458.8554   23937466.2404          0.0004 
 -18716239.19648  -6308961.38546  21727636.4274   21727642.0064          0.0004 
  -4435922.12646  -2216179.96545  24554618.0684   24554620.8814          0.0004 
  -9061300.04447  -6916445.14547  20724905.9654   20724909.9634          0.0004 
 -16872155.33448 -12957917.35147  21408610.7154   21408614.4074          0.0004 
 -10826499.01848  -8305226.50447  20740845.9004   20740850.6834          0.0004 
 04  3  1  0 55  0.0000000  0  7G08G09G10G21G26G28G29
 -15710826.05647 -12020253.96546  22240641.7024   22240646.8954          0.0004 
  -6414308.12045  -4786306.03445  23917704.0034   23917708.9854          0.0004 
 -18642562.48148  -6251550.97346  21741656.5534   21741661.3944          0.0004 
  -4427786.39745  -2209840.44045  24556166.5094   24556169.9674          0.0004 
  -9108368.81248  -6953122.09647  20715949.1084   20715953.4694          0.0004 
 -16876846.85348 -12961573.06947  21407717.9514   21407721.4794          0.0004 
 -10856193.93047  -8328365.38547  20735195.3284   20735199.4424          0.0004 
 04  3  1  0 55 30.0000000  0  7G08G09G10G21G26G28G29
 -15635971.63047 -11961925.85846  22254886.1474   22254890.0984          0.0004 
  -6517956.02945  -4867070.58645  23897980.4634   23897987.6954          0.0004 
 -18568476.74747  -6193821.82746  21755754.5584   21755760.1614          0.0004 
  -4419128.28745  -2203093.89845  24557813.5954   24557817.4524          0.0004 
  -9155129.52146  -6989559.00647  20707051.1614   20707054.9944          0.0004 
 -16880976.30648 -12964790.82447  21406932.0754   21406935.7214          0.0004 
 -10885598.17946  -8351277.79047  20729599.9274   20729603.6314          0.0004 
 04  3  1  0 56  0.0000000  0  7G08G09G10G21G26G28G29
 -15560946.36846 -11903464.64746  22269162.7914   22269167.2334          0.0004 
  -6621438.18545  -4947706.03845  23878289.1684   23878295.0764          0.0004 
 -18493986.62248  -6135777.57846  21769929.5404   21769934.3934          0.0004 
  -4409951.47546  -2195943.17745  24559560.0814   24559563.4344          0.0004 
  -9201583.40347  -7025756.84247  20698211.0154   20698214.6264          0.0004 
 -16884546.20948 -12967572.55947  21406252.6034   21406256.2024          0.0004 
 -10914712.73447  -8373964.46347  20724059.5334   20724063.4954          0.0004 
 04  3  1  0 56 30.0000000  0  7G08G09G10G21G26G28G29
 -15485750.00847 -11844870.06846  22283472.1444   22283475.7554          0.0004 
  -6724752.02045  -5028210.24245  23858627.6154   23858635.1764          0.0004 
 -18419092.45148  -6077418.50246  21784181.6094   21784186.4034          0.0004 
  -4400255.14945  -2188387.57945  24561405.0394   24561410.1734          0.0004 
  -9247727.35847  -7061713.16247  20689430.3104   20689434.6004          0.0004 
 -16887554.97048 -12969917.03947  21405680.1934   21405684.1784          0.0004 
 -10943534.52648  -8396422.98747  20718574.8964   20718579.4444          0.0004 
 04  3  1  0 57  0.0000000  0  7G08G09G10G21G26G28G29
 -15410384.35346 -11786143.55546  22297813.6484   22297817.6694          0.0004 
  -6827896.71445  -5108582.68145  23839000.8504   23839006.6874          0.0004 
 -18343796.65547  -6018746.49246  21798509.8324   21798515.1074          0.0004 
  -4390040.77045  -2180428.32845  24563349.4834   24563353.3054          0.0004 
  -9293560.33446  -7097427.16047  20680708.6474   20680712.1874          0.0004 
 -16890003.09748 -12971824.66047  21405214.2914   21405218.1594          0.0004 
 -10972062.62747  -8418652.67647  20713146.1224   20713150.0614          0.0004 
 04  3  1  0 57 30.0000000  0  7G08G09G10G21G26G28G29
 -15334845.59647 -11727282.26146  22312188.4674   22312191.8664          0.0004 
  -6930866.34745  -5188818.69745  23819405.5624   23819410.6964          0.0004 
 -18268096.23047  -5959759.13946  21812915.1154   21812920.4954          0.0004 
  -4379304.80545  -2172062.70245  24565391.4854   24565397.7684          0.0004 
  -9339076.14247  -7132894.02047  20672047.2564   20672050.9024          0.0004 
 -16891885.68048 -12973291.60947  21404856.0404   21404859.5804          0.0004 
 -11000290.69647  -8440648.57547  20707774.6524   20707779.0364          0.0004 
 04  3  1  0 58  0.0000000  0  7G08G09G10G21G26G28G29
 -15259140.54946 -11668291.31646  22326594.6324   22326599.1214          0.0004 
  -7033664.89345  -5268921.42445  23799844.3334   23799849.3154          0.0004 
 -18191998.95647  -5900462.57046  21827395.9534   21827401.8494          0.0004 
  -4368052.98345  -2163295.03245  24567532.4924   24567535.6924          0.0004 
  -9384278.56447  -7168116.68047  20663445.1944   20663448.9924          0.0004 
 -16893207.90348 -12974321.90147  21404604.5864   21404607.9034          0.0004 
 -11028222.58646  -8462413.69047  20702459.2784   20702462.9824          0.0004 
 04  3  1  0 58 30.0000000  0  7G08G09G10G21G26G28G29
 -15183280.32146 -11609179.45246  22341030.3644   22341035.2644          0.0004 
  -7136301.12345  -5348897.73145  23780312.8574   23780316.9484          0.0004 
 -18115516.40547  -5840865.79546  21841950.1464   21841955.9604          0.0004 
  -4356296.99145  -2154134.51545  24569770.4864   24569771.8704          0.0004 
  -9429175.91947  -7203101.62147  20654901.7174   20654905.9844          0.0004 
 -16893979.60948 -12974923.22347  21404457.5684   21404460.9214          0.0004 
 -11055866.62646  -8483954.50147  20697199.0154   20697203.2354          0.0004 
 04  3  1  0 59  0.0000000  0  7G08G09G10G21G26G28G29
 -15107253.39946 -11549937.71846  22355497.5254   22355502.8474          0.0004 
  -7238761.01745  -5428736.62945  23760815.9344   23760820.5764          0.0004 
 -18038637.92247  -5780960.51146  21856579.7174   21856585.8824          0.0004 
  -4344024.81445  -2144571.84345  24572105.3954   24572109.9314          0.0004 
  -9473754.12446  -7237837.89247  20646418.7934   20646422.5554          0.0004 
 -16894188.49548 -12975085.98147  21404417.8314   21404421.5474          0.0004 
 -11083208.90746  -8505260.16747  20691996.0104   20691999.7264          0.0004 
 04  3  1  0 59 30.0000000  0  7G08G09G10G21G26G28G29
 -15031059.70946 -11490565.99646  22369996.9764   22370002.5094          0.0004 
  -7341041.88845  -5508435.98545  23741352.1904   23741355.3784          0.0004 
 -17961364.31748  -5720747.31046  21871284.3904   21871289.3724          0.0004 
  -4331236.22345  -2134606.67645  24574539.4244   24574542.1094          0.0004 
  -9518010.27447  -7272323.18447  20637996.8814   20638001.0194          0.0004 
 -16893833.08048 -12974809.01647  21404485.3884   21404488.7404          0.0004 
 -11110246.19147  -8526328.17647  20686850.9404   20686854.8794          0.0004 
 04  3  1  1  0  0.0000000  0  7G08G09G10G21G26G28G29
 -14954712.93146 -11431075.03546  22384525.3354   22384531.1264          0.0004 
  -7443155.02245  -5588004.63245  23721919.8444   23721925.9054          0.0004 
 -17883710.18647  -5660237.62046  21886061.5564   21886066.6564          0.0004 
  -4317944.76444  -2124249.72045  24577067.7474   24577072.5894          0.0004 
  -9561955.41847  -7306566.15947  20629634.4504   20629638.6234          0.0004 
 -16892926.02148 -12974102.21947  21404658.1304   21404661.4824          0.0004 
 -11136989.89446  -8547167.43747  20681761.6814   20681765.4434          0.0004 
 04  3  1  1  0 30.0000000  0  7G08G09G10G21G26G28G29
 -14878206.66046 -11371459.76046  22399083.7944   22399088.9404          0.0004 
  -7545091.60946  -5667435.68145  23702523.2854   23702528.9004          0.0004 
 -17805669.88847  -5599427.00746  21900911.7464   21900916.9864          0.0004 
  -4304144.02343  -2113496.00645  24579694.3464   24579698.7304          0.0004 
  -9605580.23548  -7340559.51647  20621332.7594   20621337.2954          0.0004 
 -16891459.57848 -12972959.53547  21404936.7874   21404940.4334          0.0004 
 -11163430.58146  -8567770.56847  20676730.1484   20676734.4504          0.0004 
 04  3  1  1  1  0.0000000  0  7G08G09G10G21G26G28G29
 -14801539.70146 -11311719.29046  22413673.1724   22413678.4944          0.0004 
  -7646848.22645  -5746726.51845  23683158.7224   23683164.8174          0.0004 
 -17727243.12347  -5538315.25346  21915835.8924   21915841.6244          0.0004 
  -4289832.82643  -2102344.40445  24582418.1784   24582423.3124          0.0004 
  -9648881.14746  -7374300.48147  20613093.2634   20613097.1554          0.0004 
 -16889431.68248 -12971379.35147  21405323.0544   21405327.1104          0.0004 
 -11189564.54946  -8588134.69747  20671757.2174   20671760.9574          0.0004 
 04  3  1  1  1 30.0000000  0  8G08G09G10G18G21G26G28G29
 -14724722.13046 -11251861.47846  22428291.0304   22428295.7194          0.0004 
  -7748432.60345  -5825883.12145  23663828.2384   23663833.6544          0.0004 
 -17648440.55847  -5476910.66046  21930831.6584   21930837.3784          0.0004 
   -365430.64243    -81590.80945  25042736.6584   25042742.6594          0.0004 
  -4275021.05043  -2090802.77745  24585236.4094   24585243.5834          0.0004 
  -9691865.40446  -7407794.71347  20604913.6634   20604917.6254          0.0004 
 -16886851.29848 -12969368.65247  21405813.9064   21405818.2674          0.0004 
 -11215399.18346  -8608265.58347  20666840.8854   20666844.6834          0.0004 
 04  3  1  1  2  0.0000000  0  8G08G09G10G18G21G26G28G29
 -14647752.57346 -11191885.18246  22442937.7354   22442941.5794          0.0004 
  -7849840.73445  -5904902.41345  23644531.2974   23644537.0064          0.0004 
 -17569261.67348  -5415212.86046  21945899.1354   21945904.1994          0.0004 
   -473566.46244   -165852.49145  25022161.4664   25022163.9514          0.0004 
  -4259707.55843  -2078870.19044  24588151.9384   24588159.8974          0.0004 
  -9734528.79846  -7441038.90147  20596794.9394   20596799.0774          0.0004 
 -16883715.79848 -12966925.39547  21406410.6344   21406414.4444          0.0004 
 -11240930.37046  -8628160.01047  20661982.4594   20661986.4564          0.0004 
 04  3  1  1  2 30.0000000  0  7G08G09G10G18G26G28G29
 -14570631.23146 -11131790.64546  22457613.7344   22457618.1414          0.0004 
  -7951070.59445  -5983782.85045  23625268.1144   23625272.1344          0.0004 
 -17489708.06847  -5353223.03646  21961037.6544   21961043.4794          0.0004 
   -581509.42744   -249963.86545  25001620.7114   25001621.4624          0.0004 
  -9776869.12346  -7474031.36247  20588737.6974   20588741.3784          0.0004 
 -16880024.62848 -12964049.15747  21407113.2654   21407116.9464          0.0004 
 -11266155.66546  -8647816.09347  20657182.1524   20657186.0794          0.0004 
 04  3  1  1  3  0.0000000  0  7G08G09G10G18G26G28G29
 -14493361.68046 -11071580.62946  22472317.3384   22472321.8284          0.0004 
  -8052123.53045  -6062525.35845  23606037.8114   23606041.7144          0.0004 
 -17409783.72348  -5290944.34846  21976246.7904   21976251.5614          0.0004 
   -689258.86143   -333924.44945  24981115.9184   24981116.9854          0.0004 
  -9818887.19946  -7506772.71447  20580741.8944   20580746.0084          0.0004 
 -16875780.41648 -12960741.95847  21407920.7974   21407924.6424          0.0004 
 -11291076.15646  -8667234.65547  20652440.1614   20652444.1704          0.0004 
 04  3  1  1  3 30.0000000  0  7G08G09G10G18G26G28G29
 -14415948.94346 -11011259.02346  22487048.3964   22487052.8044          0.0004 
  -8153001.83745  -6141131.78545  23586841.0824   23586845.6774          0.0004 
 -17329494.79647  -5228381.54646  21991524.9984   21991531.2694          0.0004 
   -796815.77642   -417735.02245  24960646.5274   24960650.0444          0.0004 
  -9860585.42446  -7539264.84447  20572807.3164   20572811.1144          0.0004 
 -16870987.23548 -12957007.01447  21408832.7564   21408836.9994          0.0004 
 -11315693.98346  -8686417.36947  20647755.6044   20647759.2964          0.0004 
 04  3  1  1  4  0.0000000  0  7G08G09G10G18G26G28G29
 -14338390.73246 -10950824.06846  22501807.6864   22501813.1724          0.0004 
  -8253701.16946  -6219598.75345  23567678.8904   23567682.8874          0.0004 
 -17248839.84347  -5165533.54446  22006873.1704   22006878.6564          0.0004 
   -904173.67842   -501390.52645  24940218.7644   24940225.6574          0.0004 
  -9901958.72646  -7571503.79347  20564934.0194   20564938.3214          0.0004 
 -16865641.66048 -12952841.62547  21409849.8184   21409853.9324          0.0004 
 -11340004.17947  -8705360.38747  20643129.2654   20643133.2044          0.0004 
 04  3  1  1  4 30.0000000  0  7G08G09G10G18G26G28G29
 -14260689.30746 -10890277.50446  22516593.2014   22516597.9954          0.0004 
  -8354221.31845  -6297926.10145  23548549.7434   23548555.6744          0.0004 
 -17167822.02747  -5102402.77346  22022290.5314   22022295.4894          0.0004 
  -1011330.98943   -584889.69045  24919828.0404   24919831.5104          0.0004 
  -9943006.78747  -7603489.27747  20557122.8764   20557127.4834          0.0004 
 -16859745.23748 -12948247.00547  21410972.0864   21410975.4984          0.0004 
 -11364006.44346  -8724063.44247  20638561.8174   20638566.0844          0.0004 
 04  3  1  1  5  0.0000000  0  7G08G09G10G18G26G28G29
 -14182838.65046 -10829614.67346  22531408.1334   22531412.1774          0.0004 
  -8454554.04845  -6376107.43145  23529457.4084   23529463.7154          0.0004 
 -17086436.44047  -5038985.45846  22037777.7454   22037782.6214          0.0004 
  -1118277.68443   -668224.72045  24899476.2344   24899478.2974          0.0004 
  -9983721.02646  -7635214.65347  20549375.3134   20549379.1584          0.0004 
 -16853291.27648 -12943217.94147  21412200.2194   21412203.9704          0.0004 
 -11387692.36546  -8742520.00547  20634054.6054   20634058.8724          0.0004 
 04  3  1  1  5 30.0000000  0  7G08G09G10G18G26G28G29
 -14104841.02746 -10768837.31046  22546250.3544   22546255.8164          0.0004 
  -8554699.17045  -6454142.52745  23510400.7744   23510406.8234          0.0004 
 -17004686.23147  -4975283.98946  22053334.1094   22053338.9154          0.0004 
  -1225011.22742   -751393.76845  24879164.0934   24879167.4804          0.0004 
 -10024100.80646  -7666679.41547  20541691.3264   20541694.9604          0.0004 
 -16846280.93448 -12937755.32247  21413534.3594   21413537.4894          0.0004 
 -11411061.18846  -8760729.47847  20629607.7024   20629611.6994          0.0004 
 04  3  1  1  6  0.0000000  0  7G08G09G10G18G26G28G29
 -14026702.63146 -10707950.27346  22561119.7134   22561124.8004          0.0004 
  -8654660.72046  -6532034.58045  23491378.6574   23491384.0144          0.0004 
 -16922578.79747  -4911304.17546  22068958.8204   22068964.4354          0.0004 
  -1331534.09543   -834398.54345  24858894.0004   24858899.0874          0.0004 
 -10064149.99146  -7697886.56947  20534070.0544   20534074.0634          0.0004 
 -16838719.56048 -12931863.33847  21414973.2164   21414976.2874          0.0004 
 -11434116.68046  -8778694.79747  20625220.2684   20625224.0074          0.0004 
 04  3  1  1  6 30.0000000  0  7G08G09G10G18G26G28G29
 -13948420.42846 -10646951.16046  22576016.4724   22576021.5484          0.0004 
  -8754433.26446  -6609779.39646  23472392.7194   23472398.3934          0.0004 
 -16840111.93447  -4847044.30146  22084651.6024   22084656.5614          0.0004 
  -1437839.03943   -917233.63645  24838665.7604   24838672.3834          0.0004 
 -10103862.67746  -7728831.53047  20526513.1044   20526517.1484          0.0004 
 -16830603.55748 -12925539.17547  21416517.5444   21416520.8974          0.0004 
 -11456853.16646  -8796411.53747  20620893.9104   20620898.1304          0.0004 
 04  3  1  1  7  0.0000000  0  7G08G09G10G18G26G28G29
 -13870003.15946 -10585846.81046  22590938.5124   22590943.7174          0.0004 
  -8854023.50245  -6687382.15045  23453440.9614   23453446.5174          0.0004 
 -16757295.61647  -4782512.13146  22100410.8754   22100415.9864          0.0004 
  -1543930.81844   -999902.51845  24818477.3544   24818481.0474          0.0004 
 -10143245.35946  -7759519.32547  20519018.6974   20519022.6834          0.0004 
 -16821940.90348 -12918789.05347  21418166.2214   21418169.5274          0.0004 
 -11479277.03946  -8813884.67747  20616626.6634   20616630.6254          0.0004 
 04  3  1  1  7 30.0000000  0  7G08G09G10G18G26G28G29
 -13791447.29946 -10524634.45746  22605887.6084   22605891.9924          0.0004 
  -8953425.28845  -6764838.07045  23434525.5824   23434530.3414          0.0004 
 -16674127.29747  -4717705.66546  22116237.3484   22116241.7674          0.0004 
  -1649801.77544  -1082399.34945  24798330.1474   24798335.0234          0.0004 
 -10182291.60946  -7789944.96347  20511588.5214   20511592.5764          0.0004 
 -16812727.25548 -12911609.57447  21419919.1784   21419922.5424          0.0004 
 -11501381.84847  -8831109.20847  20612420.2394   20612424.4824          0.0004 
 04  3  1  1  8  0.0000000  0  7G08G09G10G18G26G28G29
 -13712754.25446 -10463315.19946  22620861.9914   22620867.1734          0.0004 
  -9052637.89445  -6842146.56845  23415646.1934   23415651.5974          0.0004 
 -16590609.49747  -4652626.86846  22132130.2904   22132136.3624          0.0004 
  -1755449.15545  -1164722.02845  24778227.0994   24778232.9014          0.0004 
 -10221000.28546  -7820107.56247  20504222.4644   20504226.7664          0.0004 
 -16802963.32748 -12904001.30847  21421777.0354   21421780.8684          0.0004 
 -11523166.50946  -8848084.26847  20608274.8124   20608278.7504          0.0004 
 04  3  1  1  8 30.0000000  0  7G08G09G10G18G26G28G29
 -13633921.60346 -10401887.17446  22635863.2764   22635867.5314          0.0004 
  -9151656.50246  -6919303.86045  23396803.3984   23396808.9544          0.0004 
 -16506740.95947  -4587274.78146  22148090.3304   22148095.8514          0.0004 
  -1860866.72045  -1246865.57645  24758167.1974   24758171.1484          0.0004 
 -10259366.45246  -7850003.28447  20496921.4724   20496926.0554          0.0004 
 -16792646.01948 -12895961.85147  21423740.5424   21423744.9614          0.0004 
 -11544626.17046  -8864806.08847  20604190.8474   20604195.0094          0.0004 
 04  3  1  1  9  0.0000000  0  7G08G09G10G18G26G28G29
 -13554953.41046 -10340353.52046  22650890.3964   22650895.0144          0.0004 
  -9250482.77545  -6996311.23045  23377997.4124   23378003.0974          0.0004 
 -16422526.54147  -4521653.16246  22164115.6374   22164121.0414          0.0004 
  -1966053.74245  -1328829.51345  24738149.9864   24738156.9964          0.0004 
 -10297391.30046  -7879633.02247  20489685.7054   20489689.5744          0.0004 
 -16781778.67048 -12887493.77947  21425808.7434   21425812.2714          0.0004 
 -11565761.98446  -8881275.54847  20600169.1044   20600173.0314          0.0004 
 04  3  1  1  9 30.0000000  0  7G08G09G10G18G26G28G29
 -13475856.10346 -10278719.28646  22665942.4154   22665947.5264          0.0004 
  -9349121.35246  -7073172.43745  23359227.2284   23359233.8984          0.0004 
 -16337974.25847  -4455768.27646  22180205.5824   22180211.0684          0.0004 
  -2071013.34545  -1410616.23445  24718177.6054   24718182.4464          0.0004 
 -10335079.12346  -7909000.14147  20482514.0354   20482518.2204          0.0004 
 -16770367.45848 -12878601.91947  21427980.0674   21427983.0564          0.0004 
 -11586578.19146  -8897495.97647  20596208.0244   20596211.5994          0.0004 
 04  3  1  1 10  0.0000000  0  8G08G09G10G18G21G26G28G29
 -13396632.70546 -10216986.77846  22681017.7984   22681022.8974          0.0004 
  -9447573.05645  -7149888.04545  23340492.1344   23340497.9724          0.0004 
 -16253087.89547  -4389623.07046  22196358.9324   22196364.0784          0.0004 
  -2175743.90645  -1492224.50745  24698248.6604   24698250.7704          0.0004 
     54004.98545     10262.20445  24647539.7214   24647546.5674          0.0004 
 -10372430.23146  -7938104.90547  20475406.5614   20475410.3354          0.0004 
 -16758414.65548 -12869288.05147  21430254.6484   21430258.2824          0.0004 
 -11607075.27247  -8913467.72347  20592307.4094   20592311.8294          0.0004 
 04  3  1  1 10 30.0000000  0  8G08G09G10G18G21G26G28G29
 -13317273.89646 -10155148.75646  22696119.0974   22696124.3494          0.0004 
  -9545826.19846  -7226448.92545  23321795.2794   23321802.0904          0.0004 
 -16167859.35147  -4323211.23246  22212577.4144   22212582.1504          0.0004 
  -2280232.28645  -1573643.98145  24678364.8184   24678367.6904          0.0004 
     77628.12445     28670.01745  24652034.5904   24652038.8334          0.0004 
 -10409432.83346  -7966938.10447  20468364.7644   20468369.0314          0.0004 
 -16745910.21048 -12859544.30547  21432634.2784   21432637.4904          0.0004 
 -11627241.22646  -8929181.45747  20588470.0874   20588473.7444          0.0004 
 04  3  1  1 11  0.0000000  0  8G08G09G10G18G21G26G28G29
 -13237790.75546 -10093213.86446  22711244.7644   22711249.3944          0.0004 
  -9643889.60746  -7302861.89046  23303134.3004   23303138.2974          0.0004 
 -16082300.93147  -4256542.35546  22228858.5544   22228864.3094          0.0004 
  -2384485.62345  -1654880.36245  24658524.4554   24658527.8424          0.0004 
    101720.66545     47443.34745  24656619.7864   24656625.6594          0.0004 
 -10446095.28846  -7995506.23247  20461388.0944   20461392.4674          0.0004 
 -16732864.90548 -12849379.13047  21435116.5444   21435119.5914          0.0004 
 -11647084.74946  -8944643.93747  20584693.8394   20584697.6134          0.0004 
 04  3  1  1 11 30.0000000  0  8G08G09G10G18G21G26G28G29
 -13158179.51046 -10031179.13946  22726394.0894   22726399.2584          0.0004 
  -9741757.29046  -7379122.36146  23284510.9384   23284514.7944          0.0004 
 -15996409.99847  -4189614.35446  22245202.8224   22245208.1214          0.0004 
  -2488496.16244  -1735927.53145  24638731.0544   24638736.2364          0.0004 
    126285.89645     66585.06045  24661295.4454   24661303.1474          0.0004 
 -10482411.34046  -8023804.45947  20454477.7054   20454481.7844          0.0004 
 -16719274.35148 -12838789.08047  21437702.8474   21437706.0004          0.0004 
 -11666599.35246  -8959850.12147  20580980.3824   20580984.5444          0.0004 
 04  3  1  1 12  0.0000000  0  8G08G09G10G18G21G26G28G29
 -13078439.61846  -9969044.15846  22741568.3154   22741572.0074          0.0004 
  -9839426.48346  -7455228.18645  23265924.8024   23265930.0064          0.0004 
 -15910187.19147  -4122427.77546  22261610.4104   22261615.2634          0.0004 
  -2592259.17445  -1816781.85245  24618987.4634   24618989.2334          0.0004 
    151323.75745     86095.07445  24666059.7704   24666063.1934          0.0004 
 -10518377.86346  -8051830.31847  20447633.4024   20447637.5634          0.0004 
 -16705137.36248 -12827773.24247  21440393.1224   21440395.7594          0.0004 
 -11685781.80346  -8974797.49547  20577329.9374   20577334.1814          0.0004 
 04  3  1  1 12 30.0000000  0  8G08G09G10G18G21G26G28G29
 -12998580.15646  -9906816.01146  22756764.8954   22756769.3264          0.0004 
  -9936904.19446  -7531184.85245  23247375.3484   23247380.0484          0.0004 
 -15823642.77247  -4054990.57646  22278079.5944   22278084.6944          0.0004 
  -2695779.49245  -1897447.04245  24599287.8104   24599286.7084          0.0004 
    176824.83545    105965.96544  24670913.0334   24670919.7264          0.0004 
 -10554001.47946  -8079588.95947  20440854.2584   20440858.7124          0.0004 
 -16690462.77348 -12816338.49447  21443185.4604   21443188.6134          0.0004 
 -11704639.02446  -8989491.42147  20573741.4574   20573745.4434          0.0004 
 04  3  1  1 13  0.0000000  0  7G08G09G10G18G26G28G29
 -12918598.90746  -9844492.97746  22771984.8354   22771991.2704          0.0004 
 -10034186.23545  -7606989.01045  23228863.2944   23228867.9604          0.0004 
 -15736775.94247  -3987302.14646  22294609.8664   22294615.3754          0.0004 
  -2799051.21944  -1977918.49245  24579635.1434   24579642.9614          0.0004 
 -10589277.52446  -8107076.78847  20434141.5934   20434145.4494          0.0004 
 -16675248.12348 -12804482.91847  21446080.8394   21446083.5944          0.0004 
 -11723166.35246  -9003928.30947  20570216.0824   20570219.9514          0.0004 
 04  3  1  1 13 30.0000000  0  7G08G09G10G18G26G28G29
 -12838495.97746  -9782075.11546  22787228.1864   22787233.9184          0.0004 
 -10131270.58645  -7682639.12845  23210388.3144   23210395.0424          0.0004 
 -15649587.67647  -3919363.23946  22311200.9984   22311205.5704          0.0004 
  -2902070.52644  -2058193.33945  24560032.3844   24560034.9284          0.0004 
 -10624203.75446  -8134292.03747  20427495.4464   20427499.4084          0.0004 
 -16659493.13648 -12792206.29747  21449078.6604   21449081.8024          0.0004 
 -11741361.48846  -9018106.34047  20566753.6834   20566757.5634          0.0004 
 04  3  1  1 14  0.0000000  0  8G07G08G09G10G18G26G28G29
   -157003.84042    -14501.93745  24627922.5124   24627928.7954          0.0004 
 -12758267.86946  -9719559.73846  22802495.3064   22802499.7724          0.0004 
 -10228151.26646  -7758130.52945  23191953.0634   23191958.3024          0.0004 
 -15562075.89047  -3851172.25646  22327854.0414   22327859.1634          0.0004 
  -3004829.03445  -2138264.88745  24540478.5814   24540481.3364          0.0004 
 -10658773.69046  -8161229.63847  20420916.9484   20420921.0514          0.0004 
 -16643193.43548 -12779505.22947  21452180.5694   21452183.6404          0.0004 
 -11759218.13046  -9032020.60247  20563355.6834   20563359.5984          0.0004 
 04  3  1  1 14 30.0000000  0  8G07G08G09G10G18G26G28G29
   -236724.13642    -76621.60145  24612752.6254   24612758.3804          0.0004 
 -12677921.25146  -9656951.98646  22817784.5014   22817788.9674          0.0004 
 -10324832.95945  -7833466.83345  23173554.9814   23173560.3034          0.0004 
 -15474248.75447  -3782735.51846  22344567.0204   22344572.7644          0.0004 
  -3107330.25745  -2218136.00745  24520973.2974   24520973.1214          0.0004 
 -10692991.91446  -8187893.17847  20414405.2484   20414409.4804          0.0004 
 -16626355.75348 -12766384.95347  21455384.6954   21455387.6614          0.0004 
 -11776740.54146  -9045674.43047  20560021.2514   20560025.0144          0.0004 
 04  3  1  1 15  0.0000000  0  8G07G08G09G10G18G26G28G29
   -316364.38943   -138678.86845  24597597.3554   24597604.2124          0.0004 
 -12597455.45746  -9594251.37546  22833096.6804   22833102.4244          0.0004 
 -10421312.99645  -7908646.07245  23155195.3064   23155201.1784          0.0004 
 -15386106.68647  -3714053.39346  22361340.1214   22361345.6654          0.0004 
  -3209569.73144  -2297803.18845  24501516.4004   24501519.7174          0.0004 
 -10726855.18846  -8214280.14547  20407961.3874   20407965.7714          0.0004 
 -16608979.24548 -12752844.80847  21458691.3014   21458694.7834          0.0004 
 -11793925.82146  -9059065.55647  20556750.9734   20556754.9824          0.0004 
 04  3  1  1 15 30.0000000  0  8G07G08G09G10G18G26G28G29
   -395921.13942   -200671.20645  24582459.4124   24582466.7504          0.0004 
 -12516871.10846  -9531458.38746  22848430.5644   22848435.8394          0.0004 
 -10517589.70446  -7983666.88146  23136874.4094   23136879.0864          0.0004 
 -15297651.70247  -3645127.43646  22378172.3334   22378178.4634          0.0004 
  -3311543.09843  -2377262.87145  24482111.4574   24482114.3294          0.0004 
 -10760361.82246  -8240389.20647  20401585.3484   20401589.1814          0.0004 
 -16591064.26648 -12738885.06847  21462100.4624   21462103.8264          0.0004 
 -11810772.07446  -9072192.50747  20553544.9624   20553549.2994          0.0004 
 04  3  1  1 16  0.0000000  0  8G07G08G09G10G18G26G28G29
   -475392.91544   -262597.27745  24567336.3444   24567342.7094          0.0004 
 -12436170.78646  -9468575.05346  22863787.9844   22863792.8144          0.0004 
 -10613663.64946  -8058529.64445  23118592.0314   23118596.0404          0.0004 
 -15208887.57247  -3575960.59346  22395063.2934   22395068.3694          0.0004 
  -3413249.16644  -2456514.32945  24462757.4724   24462762.3244          0.0004 
 -10793511.77646  -8266220.33847  20395277.0734   20395280.7894          0.0004 
 -16572612.69948 -12724507.22847  21465611.3844   21465614.9594          0.0004 
 -11827279.38446  -9085055.35047  20550404.1024   20550408.1584          0.0004 
 04  3  1  1 16 30.0000000  0  8G07G08G09G10G18G26G28G29
   -554777.74744   -324455.58045  24552229.1864   24552237.4264          0.0004 
 -12355356.60546  -9405602.97946  22879166.8994   22879173.2294          0.0004 
 -10709534.73646  -8133234.36946  23100348.6414   23100352.6274          0.0004 
 -15119817.52947  -3506555.38146  22412012.8894   22412018.8094          0.0004 
  -3514686.18745  -2535556.16045  24443454.2624   24443459.7364          0.0004 
 -10826304.56146  -8291773.15247  20389036.8344   20389040.7724          0.0004 
 -16553626.39148 -12709712.69947  21469224.3924   21469227.7334          0.0004 
 -11843447.39146  -9097653.80647  20547327.3664   20547330.9994          0.0004 
 04  3  1  1 17  0.0000000  0  8G07G08G09G10G18G26G28G29
   -634070.74444   -386242.29545  24537140.7404   24537146.1214          0.0004 
 -12274427.60046  -9342541.44446  22894567.0784   22894571.3684          0.0004 
 -10805200.13646  -8207778.82146  23082144.3954   23082148.5574          0.0004 
 -15030442.22947  -3436912.31046  22429020.0934   22429026.0954          0.0004 
  -3615849.16445  -2614384.45845  24424204.0264   24424207.8834          0.0004 
 -10858737.15546  -8317045.30447  20382865.0884   20382869.3194          0.0004 
 -16534104.55548 -12694500.87747  21472939.4764   21472943.0874          0.0004 
 -11859272.94446  -9109985.39247  20544315.7894   20544320.0334          0.0004 
 04  3  1  1 17 30.0000000  0  8G07G08G09G10G18G26G28G29
   -713271.54345   -447957.15445  24522069.4064   24522075.4194          0.0004 
 -12193387.79946  -9279393.53146  22909988.2634   22909992.9174          0.0004 
 -10900661.43646  -8282164.22246  23063978.4604   23063983.5474          0.0004 
 -14940766.91946  -3367035.47146  22446084.9074   22446090.9564          0.0004 
  -3716737.97945  -2692999.09645  24405006.5204   24405009.7324          0.0004 
 -10890810.62746  -8342037.62147  20376761.6434   20376766.0504          0.0004 
 -16514050.65748 -12678874.44547  21476755.6184   21476759.3694          0.0004 
 -11874757.28646  -9122051.12547  20541369.2544   20541372.8524          0.0004 
 04  3  1  1 18  0.0000000  0  8G07G08G09G10G18G26G28G29
   -792375.18545   -509596.35945  24507016.9724   24507022.2124          0.0004 
 -12112235.66746  -9216158.15646  22925430.9304   22925436.8614          0.0004 
 -10995915.54045  -8356388.23146  23045851.8774   23045857.5854          0.0004 
 -14850791.86046  -3296925.06346  22463206.5744   22463212.8574          0.0004 
  -3817347.03045  -2771395.75445  24385861.0184   24385864.6284          0.0004 
 -10922521.78446  -8366747.60847  20370727.2134   20370731.3624          0.0004 
 -16493463.16148 -12662832.23747  21480673.1594   21480676.4184          0.0004 
 -11889897.04946  -9133848.35047  20538488.2754   20538492.4364          0.0004 
 04  3  1  1 18 30.0000000  0  8G07G08G09G10G18G26G28G29
   -871384.15743   -571161.77345  24491981.5064   24491986.0074          0.0004 
 -12030978.20946  -9152840.64746  22940893.4784   22940898.7534          0.0004 
 -11090967.25546  -8430454.49946  23027764.4584   23027770.1794          0.0004 
 -14760524.91347  -3226587.18546  22480384.0474   22480389.3924          0.0004 
  -3917679.70945  -2849577.08745  24366768.7024   24366772.2774          0.0004 
 -10953874.78046  -8391178.51347  20364761.2044   20364765.1544          0.0004 
 -16472348.79148 -12646379.48647  21484691.0404   21484695.0254          0.0004 
 -11904696.58646  -9145380.44647  20535672.1434   20535676.0114          0.0004 
 04  3  1  1 19  0.0000000  0  8G07G08G09G10G18G26G28G29
   -950294.38644   -632650.20045  24476965.2804   24476970.9424          0.0004 
 -11949615.25446  -9089440.94846  22956376.4364   22956382.8364          0.0004 
 -11185814.22046  -8504361.16946  23009715.1644   23009721.6114          0.0004 
 -14669967.27747  -3156022.81346  22497616.8344   22497622.9774          0.0004 
  -4017731.89345  -2927539.79845  24347729.2804   24347735.8454          0.0004 
 -10984867.22046  -8415328.46747  20358863.5774   20358866.9884          0.0004 
 -16450707.69348 -12629516.28047  21488809.2844   21488813.6094          0.0004 
 -11919153.34046  -9156645.46347  20532920.9154   20532924.8534          0.0004 
 04  3  1  1 19 30.0000000  0  8G07G08G09G10G18G26G28G29
  -1029098.04444   -694055.63745  24461969.5244   24461978.0464          0.0004 
 -11868142.78946  -9025955.97446  22971880.2654   22971885.7754          0.0004 
 -11280450.61346  -8578103.81246  22991706.8074   22991711.5434          0.0004 
 -14579116.67046  -3085230.13346  22514904.7744   22514910.6824          0.0004 
  -4117495.73544  -3005277.86345  24328743.5864   24328746.6574          0.0004 
 -11015492.51746  -8439192.32447  20353035.2994   20353039.4254          0.0004 
 -16428536.03648 -12612239.65447  21493028.2624   21493032.0134          0.0004 
 -11933261.02146  -9167638.45647  20530236.3614   20530240.3354          0.0004 
 04  3  1  1 20  0.0000000  0  8G07G08G09G10G18G26G28G29
  -1107794.64345   -755377.60645  24446994.5184   24447000.6484          0.0004 
 -11786564.76246  -8962388.64246  22987403.3744   22987408.9304          0.0004 
 -11374878.05146  -8651683.56046  22973738.2644   22973743.1524          0.0004 
 -14487978.04246  -3014213.02846  22532248.2144   22532253.8994          0.0004 
  -4216971.12744  -3082791.12145  24309814.6384   24309820.9104          0.0004 
 -11045752.24346  -8462771.32947  20347277.3004   20347281.2864          0.0004 
 -16405837.09048 -12594552.16347  21497347.7054   21497351.5274          0.0004 
 -11947021.05046  -9178360.55947  20527618.0484   20527621.8344          0.0004 
 04  3  1  1 20 30.0000000  0  8G07G08G09G10G18G26G28G29
  -1186377.29444   -816610.84045  24432039.2214   24432044.3204          0.0004 
 -11704878.04746  -8898736.68046  23002948.3754   23002953.4864          0.0004 
 -11469091.36946  -8725096.49846  22955809.0364   22955815.1904          0.0004 
 -14396550.16346  -2942970.49446  22549646.0224   22549651.2504          0.0004 
  -4316150.88045  -3160073.99345  24290941.6244   24290944.9064          0.0004 
 -11075641.03946  -8486061.30747  20341589.7204   20341593.3904          0.0004 
 -16382607.75148 -12576451.37947  21501768.3254   21501772.1464          0.0004 
 -11960428.11846  -9188807.61647  20525066.4794   20525070.6994          0.0004 
 04  3  1  1 21  0.0000000  0  8G07G08G09G10G18G26G28G29
  -1264848.49942   -877757.23445  24417105.7954   24417112.8284          0.0004 
 -11623089.24846  -8835005.17746  23018512.2514   23018517.1514          0.0004 
 -11563095.26846  -8798346.28046  22937921.1194   22937927.2144          0.0004 
 -14304840.61547  -2871508.53846  22567098.1494   22567103.1664          0.0004 
  -4415037.72745  -3237128.72545  24272124.5214   24272129.7964          0.0004 
 -11105162.98946  -8509065.42147  20335971.7254   20335975.6404          0.0004 
 -16358854.73948 -12557942.53047  21506288.2804   21506292.0784          0.0004 
 -11973486.36946  -9198982.88747  20522581.6394   20522585.3084          0.0004 
 04  3  1  1 21 30.0000000  0  8G07G08G09G10G18G26G28G29
  -1343202.74042   -938812.43245  24402196.4494   24402201.5254          0.0004 
 -11541196.87346  -8771192.90746  23034095.7224   23034102.3104          0.0004 
 -11656886.33246  -8871430.21846  22920073.2274   22920078.3504          0.0004 
 -14212849.60746  -2799827.25646  22584603.4754   22584609.4534          0.0004 
  -4513626.13345  -3313950.84645  24253363.0374   24253365.3354          0.0004 
 -11134314.43546  -8531780.82347  20330424.3884   20330428.5034          0.0004 
 -16334576.76648 -12539024.60847  21510907.9264   21510911.9114          0.0004 
 -11986192.12046  -9208883.46847  20520163.8674   20520167.9944          0.0004 
 04  3  1  1 22  0.0000000  0  8G07G08G09G10G18G26G28G29
  -1421437.75743   -999774.81645  24387308.7154   24387317.4374          0.0004 
 -11459202.41246  -8707301.18846  23049699.1674   23049704.6414          0.0004 
 -11750464.38145  -8944348.15445  22902264.3984   22902269.7914          0.0004 
 -14120580.17746  -2727929.01346  22602161.8874   22602166.1894          0.0004 
  -4611913.93945  -3390538.76345  24234658.9794   24234660.9484          0.0004 
 -11163094.46846  -8554206.83747  20324947.9064   20324951.7034          0.0004 
 -16309775.21048 -12519698.72447  21515627.5404   21515631.1394          0.0004 
 -11998544.56946  -9218508.75147  20517813.4064   20517817.6614          0.0004 
 04  3  1  1 22 30.0000000  0  8G07G08G09G10G18G26G28G29
  -1499550.97544  -1060642.22145  24372444.5314   24372451.0964          0.0004 
 -11377107.38546  -8643331.02046  23065321.5214   23065326.5264          0.0004 
 -11843828.84746  -9017099.71346  22884499.4604   22884504.6534          0.0004 
 -14028035.17346  -2655816.05046  22619772.6384   22619777.3734          0.0004 
  -4709898.64645  -3466890.45445  24216012.9824   24216016.1594          0.0004 
 -11191502.35946  -8576342.85347  20319542.0054   20319545.7444          0.0004 
 -16284451.76648 -12499966.16047  21520446.7464   21520449.9114          0.0004 
 -12010543.14546  -9227858.29247  20515529.9644   20515534.2434          0.0004 
 04  3  1  1 23  0.0000000  0  8G07G08G09G10G18G26G28G29
  -1577542.83544  -1121415.11645  24357603.5644   24357608.2764          0.0004 
 -11294916.22345  -8579285.98446  23080961.3404   23080967.9164          0.0004 
 -11936982.33846  -9089686.78246  22866773.4364   22866777.7154          0.0004 
 -13935220.47346  -2583492.88546  22637434.4494   22637440.3224          0.0004 
  -4807580.61345  -3543006.23445  24197425.9114   24197426.8734          0.0004 
 -11219540.14146  -8598190.46147  20314206.6154   20314210.5654          0.0004 
 -16258610.83348 -12479830.36147  21525364.0294   21525366.8774          0.0004 
 -12022189.76146  -9236933.57547  20513313.8424   20513318.0974          0.0004 
 04  3  1  1 23 30.0000000  0  8G07G08G09G10G18G26G28G29
  -1655410.82743  -1182091.38245  24342785.6234   24342792.0354          0.0004 
 -11212630.31646  -8515167.13645  23096620.1764   23096624.5244          0.0004 
 -12029924.00246  -9162108.80946  22849086.6624   22849092.7454          0.0004 
 -13842138.84846  -2510961.75846  22655147.2794   22655151.8744          0.0004 
  -4904957.42246  -3618884.27445  24178895.4154   24178899.5884          0.0004 
 -11247206.94447  -8619749.01547  20308941.9044   20308945.1984          0.0004 
 -16232254.01348 -12459292.57947  21530379.3704   21530382.8864          0.0004 
 -12033483.67746  -9245734.03547  20511164.6314   20511168.4064          0.0004 
 04  3  1  1 24  0.0000000  0  8G07G08G09G10G18G26G28G29
  -1733155.60044  -1242671.73245  24327991.5624   24327997.8214          0.0004 
 -11130254.46946  -8450978.15446  23112295.9744   23112301.4024          0.0004 
 -12122656.58146  -9234367.93346  22831440.2904   22831444.6624          0.0004 
 -13748796.69846  -2438227.61546  22672909.5734   22672915.1184          0.0004 
  -5002030.10746  -3694525.33645  24160423.6554   24160424.7334          0.0004 
 -11274505.40946  -8641020.55847  20303746.9704   20303750.6394          0.0004 
 -16205386.18748 -12438356.60147  21535492.4434   21535495.5034          0.0004 
 -12044427.33146  -9254261.55547  20509082.1384   20509086.0654          0.0004 
 04  3  1  1 24 30.0000000  0  8G07G08G09G10G18G26G28G29
  -1810769.48544  -1303150.09145  24313221.6284   24313225.9184          0.0004 
 -11047784.75146  -8386716.05045  23127989.4134   23127994.3134          0.0004 
 -12215174.38346  -9306459.67346  22813834.8374   22813839.1154          0.0004 
 -13655191.63646  -2365288.62346  22690722.1274   22690727.6364          0.0004 
  -5098790.56345  -3769923.11245  24142010.6194   24142013.6204          0.0004 
 -11301429.19146  -8662000.12347  20298623.6024   20298627.6474          0.0004 
 -16178003.72848 -12417019.61447  21540703.0474   21540706.1664          0.0004 
 -12055014.72846  -9262511.47447  20507067.4884   20507071.3794          0.0004 
 04  3  1  1 25  0.0000000  0  8G07G08G09G10G18G26G28G29
  -1888243.53943  -1363519.39645  24298477.6164   24298479.9604          0.0004 
 -10965216.32446  -8322377.03245  23143701.3144   23143706.8124          0.0004 
 -12307470.66746  -9378378.77946  22796270.8624   22796276.5714          0.0004 
 -13561320.46846  -2292142.26946  22708585.1464   22708589.9054          0.0004 
  -5195230.09745  -3845070.81645  24123658.8664   24123660.0624          0.0004 
 -11327971.03546  -8682682.06447  20293572.8724   20293577.4084          0.0004 
 -16150101.84948 -12395277.88547  21546012.5114   21546015.6184          0.0004 
 -12065238.57146  -9270478.11347  20505122.0004   20505125.5764          0.0004 
 04  3  1  1 25 30.0000000  0  8G07G08G09G10G18G26G28G29
  -1965578.52944  -1423780.45845  24283761.8154   24283765.4494          0.0004 
 -10882553.62046  -8257964.58946  23159431.6574   23159437.7294          0.0004 
 -12399548.28246  -9450127.60846  22778749.2944   22778754.2994          0.0004 
 -13467189.19546  -2218793.24246  22726497.7134   22726503.1984          0.0004 
  -5291349.54045  -3919969.04145  24105366.6304   24105369.9714          0.0004 
 -11354133.48546  -8703068.39247  20288594.2704   20288598.4084          0.0004 
 -16121685.27548 -12373135.10547  21551420.1584   21551423.1364          0.0004 
 -12075101.29146  -9278163.35347  20503245.0904   20503248.9824          0.0004 
 04  3  1  1 26  0.0000000  0  8G07G08G09G10G18G26G28G29
  -2042773.51743  -1483932.38445  24269072.1764   24269077.5444          0.0004 
 -10799800.05046  -8193481.31446  23175179.7104   23175185.1844          0.0004 
 -12491408.30546  -9521706.82846  22761269.2174   22761273.2024          0.0004 
 -13372802.45146  -2145245.15246  22744458.8794   22744463.6624          0.0004 
  -5387148.42845  -3994617.55145  24087136.7914   24087141.9844          0.0004 
 -11379917.56946  -8723159.88747  20283687.5654   20283691.9144          0.0004 
 -16092757.42048 -12350593.91047  21556924.8764   21556928.4874          0.0004 
 -12084603.84946  -9285567.94847  20501436.8884   20501440.2994          0.0004 
 04  3  1  1 26 30.0000000  0  8G07G08G09G10G18G26G28G29
  -2119823.64442  -1543971.34245  24254409.5814   24254417.5644          0.0004 
 -10716954.45146  -8128926.30546  23190943.8934   23190949.0274          0.0004 
 -12583047.73546  -9593114.10446  22743830.5384   22743835.0514          0.0004 
 -13278160.77246  -2071498.41146  22762468.3564   22762473.9354          0.0004 
  -5482621.61745  -4069012.20545  24068969.5034   24068973.2664          0.0004 
 -11405319.72146  -8742953.76647  20278853.7644   20278857.7624          0.0004 
 -16063317.58748 -12327653.76647  21562526.9534   21562531.0444          0.0004 
 -12093743.01746  -9292689.39247  20499697.6464   20499701.4674          0.0004 
 04  3  1  1 27  0.0000000  0  8G07G08G09G10G18G26G28G29
  -2196732.77943  -1603900.54245  24239774.6544   24239778.7334          0.0004 
 -10634024.63546  -8064305.69045  23206725.2254   23206730.3244          0.0004 
 -12674472.80846  -9664354.39046  22726433.2004   22726438.2404          0.0004 
 -13183273.71446  -1997560.47046  22780524.9984   22780530.3444          0.0004 
  -5577773.41645  -4143156.43345  24050862.8074   24050867.2854          0.0004 
 -11430345.81547  -8762454.62647  20274091.6914   20274095.4664          0.0004 
 -16033373.81347 -12304320.95847  21568225.0644   21568229.6474          0.0004 
 -12102524.49946  -9299532.09647  20498026.5784   20498030.4474          0.0004 
 04  3  1  1 27 30.0000000  0  8G07G08G09G10G18G26G28G29
  -2273493.51744  -1663714.08145  24225168.8454   24225174.6944          0.0004 
 -10551006.99345  -7999616.63945  23222523.3164   23222528.4034          0.0004 
 -12765677.93846  -9735423.29946  22709077.7144   22709081.8164          0.0004 
 -13088139.41246  -1923429.82446  22798628.6224   22798634.6474          0.0004 
  -5672596.04645  -4217044.19345  24032818.8724   24032823.2804          0.0004 
 -11454989.97846  -8781657.85847  20269401.8094   20269406.0644          0.0004 
 -16002922.98048 -12280593.02647  21574019.7234   21574023.7444          0.0004 
 -12110942.64346  -9306091.70147  20496424.6454   20496428.4784          0.0004 
 04  3  1  1 28  0.0000000  0  8G07G08G09G10G18G26G28G29
  -2350100.80144  -1723408.08445  24210590.4664   24210595.5414          0.0004 
 -10467900.49946  -7934858.36245  23238337.8844   23238340.5224          0.0004 
 -12856660.18146  -9806318.54446  22691763.8034   22691769.1024          0.0004 
 -12992758.11546  -1849106.72946  22816779.3254   22816784.7294          0.0004 
  -5767084.74045  -4290671.73445  24014837.5094   24014839.5134          0.0004 
 -11479248.83346  -8800560.86047  20264785.6734   20264789.6474          0.0004 
 -15971964.27748 -12256469.35747  21579910.9844   21579915.1454          0.0004 
 -12118994.11446  -9312365.57247  20494892.6394   20494896.9524          0.0004 
 04  3  1  1 28 30.0000000  0  8G07G08G09G10G18G26G28G29
  -2426559.12944  -1782986.05945  24196040.5384   24196047.2904          0.0004 
 -10384713.61345  -7870037.39645  23254167.6624   23254172.8904          0.0004 
 -12947426.12046  -9877045.21146  22674491.0204   22674496.7414          0.0004 
 -12897139.72346  -1774598.88946  22834974.8394   22834979.5054          0.0004 
  -5861244.10645  -4364042.64945  23996919.9274   23996925.4714          0.0004 
 -11503128.62546  -8819168.50247  20260241.6164   20260245.5314          0.0004 
 -15940506.50648 -12231956.80247  21585897.1904   21585900.6364          0.0004 
 -12126685.15346  -9318358.60047  20493428.8724   20493433.0104          0.0004 
 04  3  1  1 29  0.0000000  0  8G07G08G09G10G18G26G28G29
  -2502857.29645  -1842439.08345  24181522.1524   24181527.8964          0.0004 
 -10301438.79446  -7805147.95445  23270014.1644   23270018.1494          0.0004 
 -13037966.54646  -9947596.14146  22657262.3204   22657267.4314          0.0004 
 -12801278.47246  -1699901.85346  22853216.8354   22853221.2314          0.0004 
  -5955063.05445  -4437148.39845  23979066.5634   23979072.4604          0.0004 
 -11526619.81146  -8837473.32647  20255771.1934   20255775.0614          0.0004 
 -15908542.55448 -12207049.83447  21591979.5674   21591982.9324          0.0004 
 -12134006.19646  -9324063.30847  20492035.7654   20492039.9974          0.0004 
 04  3  1  1 29 30.0000000  0  8G07G08G09G10G18G26G28G29
  -2578998.60145  -1901769.97845  24167032.6694   24167036.7834          0.0004 
 -10218083.35345  -7740195.72545  23285876.5814   23285880.9544          0.0004 
 -13128287.03946 -10017975.70846  22640074.7564   22640079.8784          0.0004 
 -12705183.54646  -1625022.66946  22871502.9744   22871508.8704          0.0004 
  -6048544.84145  -4509991.27345  23961278.1984   23961283.1454          0.0004 
 -11549727.56646  -8855479.35847  20251373.9464   20251378.4354          0.0004 
 -15876079.97148 -12181754.31847  21598157.0384   21598160.6144          0.0004 
 -12140962.53046  -9329483.83447  20490711.9654   20490716.1974          0.0004 
 04  3  1  1 30  0.0000000  0  8G07G08G09G10G18G26G28G29
  -2654976.50245  -1960973.47545  24152574.9044   24152580.0034          0.0004 
 -10134644.57246  -7675178.48145  23301754.4034   23301758.8694          0.0004 
 -13218382.81346 -10088180.23046  22622929.9534   22622935.4624          0.0004 
 -12608853.59746  -1549960.39346  22889833.6814   22889839.0144          0.0004 
  -6141682.95745  -4582566.44345  23943555.2674   23943557.1074          0.0004 
 -11572446.77846  -8873182.63447  20247050.6664   20247054.5584          0.0004 
 -15843116.65648 -12156068.60947  21604429.8734   21604433.4014          0.0004 
 -12147549.29946  -9334616.38247  20489458.6564   20489462.8644          0.0004 
 04  3  1  1 30 30.0000000  0  8G07G08G09G10G18G26G28G29
  -2730790.28245  -2020049.14945  24138147.8874   24138153.0334          0.0004 
 -10051125.52746  -7610098.74645  23317647.9714   23317651.4764          0.0004 
 -13308255.12546 -10158210.58146  22605828.1554   22605833.8874          0.0004 
 -12512293.44546  -1474718.75146  22908208.6774   22908213.4834          0.0004 
  -6234477.02746  -4654873.49545  23925896.4684   23925899.0124          0.0004 
 -11594778.68146  -8890584.12547  20242801.1004   20242805.0864          0.0004 
 -15809656.03848 -12129995.41147  21610797.3014   21610800.9934          0.0004 
 -12153767.25846  -9339461.55447  20488275.4204   20488279.3704          0.0004 
 04  3  1  1 31  0.0000000  0  8G07G08G09G10G18G26G28G29
  -2806435.18545  -2078993.22745  24123753.0954   24123761.3004          0.0004 
  -9967525.49446  -7544955.87245  23333556.1524   23333560.8994          0.0004 
 -13397901.53546 -10228064.84846  22588768.7164   22588773.3584          0.0004 
 -12415503.89846  -1399298.31446  22926626.9754   22926632.4614          0.0004 
  -6326922.59145  -4726909.00645  23908304.5914   23908306.5604          0.0004 
 -11616720.43546  -8907681.59547  20238625.4694   20238629.7594          0.0004 
 -15775697.98648 -12103534.58247  21617259.2464   21617263.0914          0.0004 
 -12159613.94446  -9344017.41547  20487162.9344   20487166.7084          0.0004 
 04  3  1  1 31 30.0000000  0  8G07G08G09G10G18G26G28G29
  -2881908.23645  -2137803.36745  24109391.0724   24109396.6644          0.0004 
  -9883845.14245  -7479750.43145  23349479.9804   23349484.2234          0.0004 
 -13487320.93446 -10297742.26646  22571752.2074   22571757.9044          0.0004 
 -12318487.41346  -1323701.07846  22945088.2624   22945094.0884          0.0004 
  -6419016.16945  -4798670.18945  23890779.0254   23890782.0614          0.0004 
 -11638270.47147  -8924473.82547  20234524.8604   20234528.5294          0.0004 
 -15741243.54748 -12076686.97347  21623815.7324   21623819.7414          0.0004 
 -12165087.71846  -9348282.70047  20486121.3274   20486125.1374          0.0004 
 04  3  1  1 32  0.0000000  0  8G07G08G09G10G18G26G28G29
  -2957207.99145  -2196478.49445  24095062.0284   24095068.4284          0.0004 
  -9800086.94546  -7414484.32545  23365419.0884   23365423.3324          0.0004 
 -13576514.09146 -10367243.43246  22554779.5154   22554785.0834          0.0004 
 -12221247.95846  -1247930.09246  22963592.3394   22963598.5994          0.0004 
  -6510756.65245  -4870156.26845  23873321.3934   23873324.4414          0.0004 
 -11659429.18347  -8940961.13547  20230498.4944   20230502.1284          0.0004 
 -15706295.78247 -12049454.94146  21630466.0004   21630469.5754          0.0004 
 -12170189.22146  -9352257.90347  20485150.6214   20485154.3014          0.0004 
 04  3  1  1 32 30.0000000  0  8G07G08G09G10G18G26G28G29
  -3032330.26545  -2255015.33845  24080767.0034   24080771.6924          0.0004 
  -9716250.55545  -7349157.26645  23381371.7264   23381376.9784          0.0004 
 -13665478.99546 -10436566.68946  22537850.1584   22537856.0424          0.0004 
 -12123786.87146  -1171986.42346  22982138.1464   22982143.9494          0.0004 
  -6602140.14145  -4941364.20745  23855931.9244   23855935.1474          0.0004 
 -11680194.11846  -8957141.60747  20226547.0054   20226550.9094          0.0004 
 -15670854.98948 -12021838.74746  21637210.1494   21637212.9984          0.0004 
 -12174915.79746  -9355940.95547  20484251.1314   20484255.1754          0.0004 
 04  3  1  1 33  0.0000000  0  8G07G08G09G10G18G26G28G29
  -3107277.54345  -2313415.81845  24066503.8984   24066509.2554          0.0004 
  -9632342.27945  -7283774.20445  23397339.3404   23397343.7474          0.0004 
 -13754219.81246 -10505715.34346  22520963.6694   22520969.1444          0.0004 
 -12026112.18146  -1095876.27446  23000725.5404   23000730.5114          0.0004 
  -6693169.02245  -5012295.80745  23838609.9214   23838614.4344          0.0004 
 -11700569.42946  -8973018.47947  20222669.6474   20222673.6454          0.0004 
 -15634927.74348 -11993843.48846  21644046.9014   21644050.0774          0.0004 
 -12179271.95246  -9359335.37147  20483422.2324   20483426.3004          0.0004 
 04  3  1  1 33 30.0000000  0  8G07G08G09G10G18G26G28G29
  -3182036.96045  -2371669.89845  24052277.6714   24052282.7124          0.0004 
  -9548352.98945  -7218328.02845  23413322.0864   23413327.6194          0.0004 
 -13842725.95646 -10574681.16746  22504121.4554   22504125.7934          0.0004 
 -11928216.68946  -1019594.10546  23019354.5714   23019359.7534          0.0004 
  -6783830.83445  -5082941.33945  23821357.3034   23821361.0314          0.0004 
 -11720544.22046  -8988583.25747  20218868.6824   20218872.9144          0.0004 
 -15598505.81448 -11965462.76046  21650977.9234   21650980.1854          0.0004 
 -12183246.53646  -9362432.45547  20482665.7344   20482670.1304          0.0004 
 04  3  1  1 34  0.0000000  0  8G07G08G09G10G18G26G28G29
  -3256610.50544  -2429779.12645  24038087.6874   24038092.4114          0.0004 
  -9464288.56246  -7152823.30345  23429319.4874   23429326.4274          0.0004 
 -13931001.50047 -10643467.27446  22487323.4114   22487326.9274          0.0004 
 -11830107.84646   -943145.64645  23038024.1184   23038029.9204          0.0004 
  -6874127.75945  -5153302.52645  23804174.3704   23804179.6684          0.0004 
 -11740122.08847  -9003838.72747  20215143.1964   20215147.0764          0.0004 
 -15561595.16448 -11936701.21946  21658001.7354   21658004.8534          0.0004 
 -12186843.51846  -9365235.29347  20481981.4084   20481985.2644          0.0004 
 04  3  1  1 34 30.0000000  0  8G07G08G09G10G18G26G28G29
  -3330993.64745  -2487739.97445  24023931.7884   24023940.0524          0.0004 
  -9380148.13145  -7087259.38845  23445330.7374   23445336.9144          0.0004 
 -14019044.07847 -10712071.84946  22470569.5514   22470573.1624          0.0004 
 -11731786.28246   -866531.44246  23056733.6154   23056739.1724          0.0004 
  -6964054.85945  -5223375.60445  23787061.3784   23787065.3164          0.0004 
 -11759300.19147  -9018782.70747  20211493.8674   20211497.2324          0.0004 
 -15524195.99448 -11907559.00346  21665118.4704   21665121.7644          0.0004 
 -12190059.75346  -9367741.46947  20481369.4264   20481373.1074          0.0004 
 04  3  1  1 35  0.0000000  0  8G07G08G09G10G18G26G28G29
  -3405187.04045  -2545552.99145  24009813.8174   24009820.8624          0.0004 
  -9295936.27546  -7021639.77945  23461355.3804   23461360.3504          0.0004 
 -14106856.49146 -10780497.09946  22453858.7564   22453863.1984          0.0004 
 -11633258.61746   -789756.69346  23075483.5084   23075487.7404          0.0004 
  -7053612.92846  -5293161.09345  23770019.3204   23770024.8524          0.0004 
 -11778081.00846  -9033417.11747  20207919.7874   20207923.7854          0.0004 
 -15486313.57748 -11878040.24046  21672327.4344   21672330.8574          0.0004 
 -12192898.07446  -9369953.14947  20480829.3344   20480833.0734          0.0004 
 04  3  1  1 35 30.0000000  0  8G07G08G09G10G18G26G28G29
  -3479196.43245  -2603222.66945  23995731.2344   23995737.2594          0.0004 
  -9211662.27245  -6955971.79445  23477392.0434   23477398.3374          0.0004 
 -14194446.29746 -10848748.93246  22437190.9174   22437196.3334          0.0004 
 -11534535.92246   -712829.92546  23094269.9384   23094275.8814          0.0004 
  -7142807.94646  -5362663.74145  23753047.0574   23753049.9764          0.0004 
 -11796472.04546  -9047747.79747  20204420.1634   20204423.8564          0.0004 
 -15447957.81547 -11848152.62446  21679626.0254   21679629.7534          0.0004 
 -12195365.82546  -9371876.07347  20480359.6844   20480363.2944          0.0004 
 04  3  1  1 36  0.0000000  0  8G07G08G09G10G18G26G28G29
  -3553009.27545  -2660739.15945  23981684.7364   23981689.0854          0.0004 
  -9127317.67746  -6890248.71245  23493443.2014   23493449.0744          0.0004 
 -14281803.22546 -10916819.23746  22420567.8934   22420572.9924          0.0004 
 -11435611.23946   -635745.76746  23113094.2404   23113099.9374          0.0004 
  -7231627.66046  -5431873.93945  23736144.4884   23736146.1764          0.0004 
 -11814462.50847  -9061766.34447  20200996.6494   20201000.4594          0.0004 
 -15409120.51447 -11817889.78646  21687016.3924   21687020.4484          0.0004 
 -12197452.49546  -9373502.06047  20479962.5374   20479966.2414          0.0004 
 04  3  1  1 36 30.0000000  0  8G07G08G09G10G18G26G28G29
  -3626620.96445  -2718098.89445  23967676.5824   23967681.7644          0.0004 
  -9042901.20545  -6824469.64145  23509507.1184   23509513.0154          0.0004 
 -14368924.63247 -10984706.02546  22403989.2934   22403993.5954          0.0004 
 -11336485.08946   -558504.64046  23131957.5314   23131962.2664          0.0004 
  -7320067.71445  -5500788.27445  23719314.9734   23719317.7514          0.0004 
 -11832049.53946  -9075470.52547  20197649.8114   20197654.0084          0.0004 
 -15369801.54648 -11787251.63646  21694498.7494   21694501.6324          0.0004 
 -12199155.13146  -9374828.79947  20479638.5254   20479642.5694          0.0004 
 04  3  1  1 37  0.0000000  0  8G07G08G09G10G18G26G28G29
  -3700029.71045  -2775300.52545  23953707.3264   23953712.2384          0.0004 
  -8958415.25845  -6758636.47245  23525583.8884   23525589.3744          0.0004 
 -14455810.70746 -11052409.46346  22387454.8924   22387459.2654          0.0004 
 -11237161.61346   -481109.73446  23150858.4304   23150864.3374          0.0004 
  -7408126.14545  -5569405.24045  23702558.2404   23702562.8824          0.0004 
 -11849233.17847  -9088860.37547  20194380.0994   20194383.5574          0.0004 
 -15330003.93848 -11756240.51746  21702071.8064   21702074.3034          0.0004 
 -12200473.91246  -9375856.42547  20479387.6504   20479391.5184          0.0004 
 04  3  1  1 37 30.0000000  0  8G07G08G09G10G18G26G28G29
  -3773243.52945  -2832350.26245  23939775.3614   23939780.3194          0.0004 
  -8873871.01046  -6692757.82145  23541672.1554   23541677.0204          0.0004 
 -14542471.38047 -11119937.25446  22370964.5214   22370968.5544          0.0004 
 -11137654.26546   -403571.53646  23169793.8804   23169799.9054          0.0004 
  -7495811.04146  -5637731.13645  23685872.5864   23685875.9264          0.0004 
 -11866023.05647  -9101943.39847  20191185.1134   20191188.3484          0.0004 
 -15289739.70048 -11724865.79046  21709734.1474   21709736.8904          0.0004 
 -12201418.47146  -9376592.44747  20479208.0454   20479212.0074          0.0004 
 04  3  1  1 38  0.0000000  0  8G07G08G09G10G18G26G28G29
  -3846248.62645  -2889237.32745  23925883.9574   23925888.1074          0.0004 
  -8789258.89645  -6626826.34545  23557773.1804   23557778.7014          0.0004 
 -14628895.13147 -11187280.38646  22354518.6934   22354522.7844          0.0004 
 -11037954.67446   -325883.56346  23188766.0024   23188771.2424          0.0004 
  -7583109.13946  -5705755.60545  23669260.2644   23669263.4184          0.0004 
 -11882407.39046  -9114710.41347  20188067.0864   20188071.3414          0.0004 
 -15248999.90348 -11693120.48646  21717486.5514   21717489.4464          0.0004 
 -12201976.93146  -9377027.61647  20479101.7514   20479105.3734          0.0004 
 04  3  1  1 38 30.0000000  0  8G07G08G09G10G18G26G28G29
  -3919045.23445  -2945961.91145  23912030.1674   23912033.3444          0.0004 
  -8704582.69745  -6560844.92645  23573886.1524   23573892.8804          0.0004 
 -14715084.44746 -11254440.83346  22338116.9774   22338121.4904          0.0004 
 -10938068.51346   -248050.18846  23207773.8644   23207780.3464          0.0004 
  -7670020.75346  -5773478.91345  23652721.5104   23652723.5034          0.0004 
 -11898388.02146  -9127162.85047  20185026.0684   20185030.1354          0.0004 
 -15207789.08948 -11661008.16946  21725328.5504   21725331.9974          0.0004 
 -12202151.60746  -9377163.73747  20479068.2884   20479072.3914          0.0004 
 04  3  1  1 39  0.0000000  0  8G07G08G09G10G18G26G28G29
  -3991631.19345  -3002522.33845  23898216.8454   23898223.7504          0.0004 
  -8619843.85945  -6494814.69545  23590011.4894   23590015.8504          0.0004 
 -14801038.99946 -11321418.37746  22321760.1994   22321765.3574          0.0004 
 -10837998.97446   -170073.95846  23226816.4714   23226820.7264          0.0004 
  -7756543.43945  -5840899.18545  23636256.2264   23636261.0564          0.0004 
 -11913964.58147  -9139300.43047  20182061.9934   20182065.9664          0.0004 
 -15166109.30447 -11628530.40246  21733259.9164   21733263.8784          0.0004 
 -12201941.88846  -9377000.30947  20479108.0784   20479112.3574          0.0004 
 04  3  1  1 39 30.0000000  0  8G07G08G09G10G18G26G28G29
  -4064001.07845  -3058914.46045  23884445.4204   23884450.8714          0.0004 
  -8535040.71746  -6428734.43145  23606148.9174   23606153.3594          0.0004 
 -14886755.61446 -11388210.51546  22305448.9184   22305453.8774          0.0004 
 -10737746.41646    -91955.08646  23245894.0324   23245899.0144          0.0004 
  -7842672.23645  -5908012.55845  23619866.5554   23619869.9544          0.0004 
 -11929133.62646  -9151120.47847  20179175.4414   20179179.3684          0.0004 
 -15123960.05348 -11595686.83846  21741280.7294   21741284.7854          0.0004 
 -12201344.37746  -9376534.73547  20479221.9874   20479225.7624          0.0004 
 04  3  1  1 40  0.0000000  0  8G07G08G09G10G18G26G28G29
  -4136157.94045  -3115140.58845  23870715.0014   23870720.7684          0.0004 
  -8450180.12445  -6362609.27845  23622297.8184   23622303.1754          0.0004 
 -14972239.31046 -11454821.15946  22289181.6484   22289186.5364          0.0004 
 -10637319.13446    -13700.06246  23265004.5444   23265010.2304          0.0004 
  -7928410.08845  -5974821.24745  23603550.7294   23603553.9064          0.0004 
 -11943899.79546  -9162626.57847  20176365.6484   20176370.0564          0.0004 
 -15081348.71348 -11562483.19446  21749389.4454   21749392.0014          0.0004 
 -12200363.79146  -9375770.63147  20479408.4234   20479412.8074          0.0004 
 04  3  1  1 40 30.0000000  0  8G07G08G09G10G18G26G28G29
  -4208095.65545  -3171195.93245  23857026.2884   23857031.0714          0.0004 
  -8365259.31946  -6296437.22745  23638457.6954   23638461.7274          0.0004 
 -15057486.07046 -11521247.17846  22272960.1384   22272964.6044          0.0004 
 -10536716.47246     64691.62146  23284148.0994   23284153.1394          0.0004 
  -8013751.54345  -6041321.23045  23587310.6294   23587311.7314          0.0004 
 -11958258.88047  -9173815.48047  20173633.1244   20173637.4034          0.0004 
 -15038273.84848 -11528918.36246  21757586.4484   21757589.6604          0.0004 
 -12198995.93846  -9374704.78447  20479668.9614   20479672.6304          0.0004 
 04  3  1  1 41  0.0000000  0  7G07G08G09G10G26G28G29
  -4279810.16345  -3227077.38245  23843379.4694   23843384.3334          0.0004 
  -8280278.14845  -6230218.16345  23654628.4274   23654633.9604          0.0004 
 -15142493.82046 -11587486.97446  22256783.6774   22256788.1904          0.0004 
 -10435939.91246    143218.74746  23303325.3974   23303329.9464          0.0004 
 -11972208.50047  -9184685.32047  20170978.5204   20170982.2834          0.0004 
 -14994736.05348 -11494992.81546  21765871.1364   21765874.0314          0.0004 
 -12197238.94546  -9373335.70247  20480003.3384   20480007.3364          0.0004 
 04  3  1  1 41 30.0000000  0  7G07G08G09G10G26G28G29
  -4351302.11545  -3282785.34145  23829774.1844   23829779.8574          0.0004 
  -8195240.84745  -6163955.30745  23670810.7774   23670816.5914          0.0004 
 -15227265.07246 -11653542.48946  22240652.3554   22240656.9274          0.0004 
 -10334995.65346    221876.61446  23322534.7564   23322540.1244          0.0004 
 -11985751.17347  -9195238.05647  20168401.5614   20168405.1244          0.0004 
 -14950740.32848 -11460710.42746  21774243.2994   21774245.9484          0.0004 
 -12195094.89146  -9371665.01847  20480411.2804   20480415.0204          0.0004 
 04  3  1  1 42  0.0000000  0  8G07G08G09G10G18G26G28G29
  -4422568.08945  -3338317.24045  23816211.7284   23816218.4914          0.0004 
  -8110147.64245  -6097649.02245  23687003.4504   23687007.9044          0.0004 
 -15311798.51346 -11719412.71246  22224565.5974   22224569.8874          0.0004 
 -10233885.69646    300663.57846  23341775.4054   23341780.3644          0.0004 
  -8267370.97746    -56800.53845  23539048.8384   23539050.5154          0.0004 
 -11998885.15947  -9205472.33247  20165902.2584   20165906.1734          0.0004 
 -14906287.61948 -11426071.96346  21782702.6374   21782705.8614          0.0004 
 -12192562.40146  -9369691.65247  20480893.2254   20480897.0004          0.0004 
 04  3  1  1 42 30.0000000  0  8G07G08G09G10G18G26G28G29
  -4493599.46045  -3393666.34045  23802695.5674   23802701.9204          0.0004 
  -8024993.48545  -6031295.10445  23703208.4644   23703214.4784          0.0004 
 -15396087.94446 -11785092.78246  22208525.9634   22208531.3784          0.0004 
 -10132606.83246    379582.16346  23361048.2174   23361054.4304          0.0004 
  -8351097.05946   -122041.61245  23523116.0534   23523117.8824          0.0004 
 -12011603.69947  -9215382.88647  20163481.8404   20163485.7094          0.0004 
 -14861374.13848 -11391074.43646  21791249.3394   21791252.6214          0.0004 
 -12189634.64946  -9367410.29247  20481450.1934   20481454.1784          0.0004 
 04  3  1  1 43  0.0000000  0  8G07G08G09G10G18G26G28G29
  -4564397.63345  -3448833.71945  23789223.1434   23789227.7974          0.0004 
  -7939783.23746  -5964897.55845  23719423.4154   23719428.7724          0.0004 
 -15480136.55447 -11850585.19846  22192532.2574   22192537.1454          0.0004 
 -10031166.00546    458626.96746  23380351.5884   23380356.3354          0.0004 
  -8434412.92646   -186963.04345  23507262.1384   23507264.5304          0.0004 
 -12023910.04347  -9224972.24647  20161140.1814   20161144.0504          0.0004 
 -14816005.72147 -11355722.42646  21799882.7964   21799886.9344          0.0004 
 -12186315.00346  -9364823.55147  20482082.0434   20482086.0054          0.0004 
 04  3  1  1 43 30.0000000  0  8G07G08G09G10G18G26G28G29
  -4634955.41945  -3503813.81845  23775796.7484   23775800.5694          0.0004 
  -7854513.47845  -5898453.65045  23735649.9224   23735657.2134          0.0004 
 -15563939.25447 -11915885.98046  22176585.0744   22176589.1774          0.0004 
  -9929561.25146    537799.45546  23399686.9164   23399691.6874          0.0004 
  -8517312.03645   -251559.77745  23491486.1114   23491490.2494          0.0004 
 -12035798.79147  -9234236.21047  20158877.8074   20158881.5944          0.0004 
 -14770179.69948 -11320013.82446  21808603.1814   21808606.3934          0.0004 
 -12182598.05346  -9361927.24147  20482789.0624   20482792.8254          0.0004 
 04  3  1  1 44  0.0000000  0  8G07G08G09G10G18G26G28G29
  -4705273.44445  -3558607.09845  23762415.8444   23762421.0024          0.0004 
  -7769188.46445  -5831966.58945  23751885.9094   23751890.4574          0.0004 
 -15647498.63947 -11980997.16446  22160684.1344   22160688.4594          0.0004 
  -9827798.97746    617094.73546  23419051.3994   23419056.8144          0.0004 
  -8599795.08545   -315832.27545  23475790.5784   23475794.3994          0.0004 
 -12047272.34646  -9243176.64347  20156694.4094   20156698.2074          0.0004 
 -14723901.39748 -11283952.80546  21817409.4364   21817412.9174          0.0004 
 -12178486.51946  -9358723.44647  20483571.6294   20483575.9194          0.0004 
 04  3  1  1 44 30.0000000  0  8G07G08G09G10G18G26G28G29
  -4775352.42645  -3613214.14045  23749080.6514   23749086.1134          0.0004 
  -7683812.44445  -5765439.88945  23768132.5674   23768138.6624          0.0004 
 -15730817.48747 -12045920.92246  22144829.3914   22144833.9744          0.0004 
  -9725885.30146    696507.97545  23438444.5004   23438448.6734          0.0004 
  -8681862.87746   -379781.22145  23460173.7944   23460177.2754          0.0004 
 -12058333.47747  -9251795.71247  20154589.5374   20154593.2064          0.0004 
 -14677176.10447 -11247543.49746  21826301.0624   21826304.7904          0.0004 
 -12173982.84546  -9355214.10947  20484428.6854   20484432.2834          0.0004 
 04  3  1  1 45  0.0000000  0  8G07G08G09G10G18G26G28G29
  -4845183.58745  -3667628.03645  23735791.7004   23735797.4324          0.0004 
  -7598380.21845  -5698869.27945  23784389.1844   23784392.1734          0.0004 
 -15813889.16747 -12110652.07746  22129021.2694   22129026.0874          0.0004 
  -9623816.76646    776041.88645  23457867.7674   23457872.4204          0.0004 
  -8763506.51445   -443399.64345  23444636.9624   23444642.0614          0.0004 
 -12068974.97046  -9260087.78147  20152564.4204   20152568.7344          0.0004 
 -14629999.58548 -11210782.57646  21835278.5444   21835281.0764          0.0004 
 -12169080.31246  -9351393.96247  20485361.4604   20485365.5514          0.0004 
 04  3  1  1 45 30.0000000  0  8G07G08G09G10G18G26G28G29
  -4914766.90845  -3721848.78245  23722550.2454   23722556.4934          0.0004 
  -7512895.11144  -5632257.52945  23800656.6504   23800663.6604          0.0004 
 -15896715.74247 -12175192.27546  22113259.8594   22113264.6534          0.0004 
  -9521598.76345    855692.25745  23477319.0764   23477323.3784          0.0004 
  -8844726.40446   -506687.89345  23429182.0874   23429185.2994          0.0004 
 -12079198.67946  -9268054.31047  20150618.8834   20150623.2794          0.0004 
 -14582376.40547 -11173673.59646  21844340.8954   21844344.6584          0.0004 
 -12163780.55246  -9347264.26847  20486370.0454   20486374.3474          0.0004 
 04  3  1  1 46  0.0000000  0  8G07G08G09G10G18G26G28G29
  -4984094.40945  -3775870.18145  23709358.0264   23709364.6264          0.0004 
  -7427352.82445  -5565601.29545  23816936.2184   23816941.9384          0.0004 
 -15979291.13947 -12239536.73246  22097546.4544   22097551.1084          0.0004 
  -9419228.77046    935461.08745  23496799.3074   23496805.1214          0.0004 
  -8925514.63846   -569639.73746  23413808.5744   23413812.3724          0.0004 
 -12088998.39447  -9275690.46647  20148754.2524   20148758.2024          0.0004 
 -14534303.22148 -11136213.97546  21853488.9984   21853492.7144          0.0004 
 -12158077.51746  -9342820.36647  20487455.2984   20487459.3304          0.0004 
 04  3  1  1 46 30.0000000  0  8G07G08G09G10G18G26G28G29
  -5053174.55345  -3829698.80345  23696212.2444   23696219.0554          0.0004 
  -7341765.59445  -5498909.93145  23833223.4334   23833229.9034          0.0004 
 -16061625.75947 -12303693.55746  22081878.4974   22081882.7874          0.0004 
  -9316720.67546   1015337.51745  23516306.2164   23516311.3044          0.0004 
  -9005879.81846   -632261.93546  23398515.5724   23398519.4644          0.0004 
 -12098384.42747  -9283004.26247  20146968.2554   20146972.1004          0.0004 
 -14485792.88348 -11098413.70446  21862720.0354   21862722.6734          0.0004 
 -12151981.58348  -9338070.29147  20488615.3734   20488619.9454          0.0004 
 04  3  1  1 47  0.0000000  0  8G07G08G09G10G18G26G28G29
  -5122000.70245  -3883329.57645  23683115.2364   23683121.0154          0.0004 
  -7256129.99746  -5432180.96345  23849518.6214   23849523.9434          0.0004 
 -16143715.29147 -12367659.42546  22066257.2394   22066261.4594          0.0004 
  -9214073.42246   1095322.35545  23535839.6784   23535844.3664          0.0004 
  -9085816.05846   -694549.90845  23383304.0634   23383307.5324          0.0004 
 -12107352.18747  -9289992.12947  20145261.6894   20145265.6984          0.0004 
 -14436843.59647 -11060271.40546  21872034.6974   21872038.0144          0.0004 
 -12145488.30646  -9333010.59647  20489851.0984   20489855.0364          0.0004 
 04  3  1  1 47 30.0000000  0  8G07G08G09G10G18G26G28G29
  -5190563.99346  -3936755.52745  23670067.9914   23670073.1614          0.0004 
  -7170440.67346  -5365410.11745  23865825.7024   23865830.9664          0.0004 
 -16225552.85547 -12431428.93846  22050684.0104   22050689.6024          0.0004 
  -9111283.50345   1175418.36345  23555400.0074   23555404.8254          0.0004 
  -9165313.86246   -756496.25846  23368176.5914   23368179.3584          0.0004 
 -12115894.44047  -9296648.42847  20143636.1604   20143640.1464          0.0004 
 -14387451.18247 -11021783.80846  21881433.7034   21881437.8294          0.0004 
 -12138590.45346  -9327635.65447  20491163.6604   20491168.0214          0.0004 
 04  3  1  1 48  0.0000000  0  8G07G08G09G10G18G26G28G29
  -5258865.88846  -3989977.73745  23657070.5144   23657075.9304          0.0004 
  -7084702.64345  -5298601.30145  23882140.2564   23882145.5194          0.0004 
 -16307141.90947 -12495004.80146  22035158.3924   22035163.5494          0.0004 
  -9008357.48445   1255620.44945  23574986.1974   23574992.0114          0.0004 
  -9244375.46846   -818102.71246  23353131.4434   23353134.9244          0.0004 
 -12124014.55947  -9302975.79947  20142090.7994   20142094.5734          0.0004 
 -14337621.45747 -10982955.44746  21890915.9734   21890919.5134          0.0004 
 -12131291.36446  -9321948.05847  20492552.6744   20492556.3674          0.0004 
 04  3  1  1 48 30.0000000  0  8G07G08G09G10G18G26G28G29
  -5326910.80346  -4042999.80745  23644122.4134   23644125.6014          0.0004 
  -6998923.85846  -5231760.64645  23898463.3564   23898467.3884          0.0004 
 -16388489.05247 -12558392.16846  22019678.7054   22019683.2184          0.0004 
  -8905305.38646   1335920.75445  23594596.6024   23594601.6664          0.0004 
  -9323005.52646   -879372.86645  23338168.5634   23338171.7984          0.0004 
 -12131718.65747  -9308978.98947  20140624.8294   20140628.4984          0.0004 
 -14287363.59747 -10943793.47746  21900479.7964   21900482.2234          0.0004 
 -12123597.67846  -9315952.98547  20494016.4954   20494020.6214          0.0004 
 04  3  1  1 49  0.0000000  0  8G07G08G09G10G18G26G28G29
  -5394689.72945  -4095814.58045  23631224.4654   23631229.9984          0.0004 
  -6913098.66845  -5164883.87345  23914794.6954   23914799.1844          0.0004 
 -16469587.04147 -12621585.37346  22004245.9494   22004250.2744          0.0004 
  -8802123.61345   1416322.12345  23614231.4114   23614237.1084          0.0004 
  -9401195.04346   -940299.74045  23323289.4784   23323292.7604          0.0004 
 -12138999.62247  -9314652.47647  20139239.3634   20139243.2554          0.0004 
 -14236673.30548 -10904294.56946  21910126.0094   21910129.1864          0.0004 
 -12115501.91446  -9309644.60547  20495557.3884   20495561.0224          0.0004 
 04  3  1  1 49 30.0000000  0  8G07G08G09G10G18G26G28G29
  -5462202.61145  -4148421.99745  23618376.2974   23618381.5964          0.0004 
  -6827230.73045  -5097973.78145  23931135.4394   23931142.1214          0.0004 
 -16550437.80147 -12684585.91746  21988860.5704   21988865.0954          0.0004 
  -8698817.44445   1496820.45045  23633889.3604   23633893.1234          0.0004 
  -9478944.21246  -1000883.50845  23308494.1444   23308495.7744          0.0004 
 -12145859.26246  -9319997.64847  20137933.8144   20137938.3624          0.0004 
 -14185555.07147 -10864462.16946  21919853.3484   21919856.7594          0.0004 
 -12107006.07846  -9303024.47847  20497173.9494   20497177.8764          0.0004 
 04  3  1  1 50  0.0000000  0  8G07G08G09G10G18G26G28G29
  -5529449.14245  -4200821.89545  23605580.3744   23605586.2944          0.0004 
  -6741322.75246  -5031032.51345  23947483.2774   23947487.3214          0.0004 
 -16631043.13547 -12747395.24446  21973522.0534   21973526.9884          0.0004 
  -8595391.85845   1577411.75545  23653570.7454   23653575.2234          0.0004 
  -9556252.68346  -1061123.90246  23293783.4084   23293787.3584          0.0004 
 -12152299.16647  -9325015.76347  20136708.6714   20136712.5744          0.0004 
 -14134013.14647 -10824299.63446  21929661.3204   21929665.3294          0.0004 
 -12098111.76546  -9296093.85547  20498866.5614   20498870.2894          0.0004 
 04  3  1  1 50 30.0000000  0  8G07G08G09G10G18G26G28G29
  -5596424.09345  -4253010.09045  23592835.0384   23592841.4264          0.0004 
  -6655373.13745  -4964058.80845  23963838.9454   23963844.0564          0.0004 
 -16711399.69047 -12810010.73246  21958230.1474   21958234.2974          0.0004 
  -8491847.27045   1658095.88645  23673274.5394   23673280.2244          0.0004 
  -9633115.77046  -1121017.22646  23279156.1984   23279160.5004          0.0004 
 -12158315.77446  -9329704.02247  20135563.3934   20135567.5194          0.0004 
 -14082046.99247 -10783806.53146  21939550.2234   21939553.5884          0.0004 
 -12088815.81846  -9288850.27047  20500635.4074   20500639.7914          0.0004 
 04  3  1  1 51  0.0000000  0  8G07G08G09G10G18G26G28G29
  -5663122.93245  -4304983.16845  23580143.1334   23580148.1154          0.0004 
  -6569380.82545  -4897051.81945  23980201.4944   23980205.3394          0.0004 
 -16791505.02946 -12872430.48146  21942986.9744   21942991.3234          0.0004 
  -8388184.21145   1738872.29145  23693001.2634   23693007.9924          0.0004 
  -9709529.02946  -1180560.03946  23264615.6964   23264618.0294          0.0004 
 -12163906.64747  -9334060.54547  20134499.6804   20134503.4324          0.0004 
 -14029656.58947 -10742982.84046  21949519.6864   21949523.2844          0.0004 
 -12079115.55546  -9281291.62447  20502481.4884   20502484.9584          0.0004 
 04  3  1  1 51 30.0000000  0  8G07G08G09G10G18G26G28G29
  -5729538.62945  -4356735.64446  23567504.8354   23567511.2124          0.0004 
  -6483342.07345  -4830008.70345  23996574.4694   23996580.6244          0.0004 
 -16871354.26646 -12934650.64446  21927792.0234   21927797.0054          0.0004 
  -8284401.27745   1819742.10345  23712750.6284   23712756.9584          0.0004 
  -9785485.78146  -1239747.10446  23250161.1654   23250164.4834          0.0004 
 -12169066.57547  -9338081.28947  20133517.9464   20133521.6154          0.0004 
 -13976839.84347 -10701826.93846  21959570.5274   21959574.3614          0.0004 
 -12069005.98246  -9273414.04847  20504405.1454   20504409.2004          0.0004 
 04  3  1  1 52  0.0000000  0  8G07G08G09G10G18G26G28G29
  -5795669.37546  -4408266.07345  23554920.8444   23554926.4354          0.0004 
  -6397258.62045  -4762930.69845  24012956.2474   24012960.8314          0.0004 
 -16950947.60946 -12996671.43646  21912645.8314   21912650.9074          0.0004 
  -8180501.90145   1900702.64945  23732521.8844   23732524.0764          0.0004 
  -9860984.27346  -1298577.05946  23235794.9874   23235798.2924          0.0004 
 -12173795.47147  -9341766.13947  20132617.8744   20132621.9544          0.0004 
 -13923599.23048 -10660340.74446  21969701.9954   21969704.7734          0.0004 
 -12058487.12246  -9265217.53147  20506406.9074   20506411.2794          0.0004 
 04  3  1  1 52 30.0000000  0  8G07G08G09G10G18G26G28G29
  -5861517.00745  -4459575.90645  23542390.0234   23542395.0174          0.0004 
  -6311135.70245  -4695822.02545  24029344.7734   24029350.7044          0.0004 
 -17030288.81646 -13058495.73846  21897547.5944   21897552.2014          0.0004 
  -8076493.30645   1981748.25445  23752313.3084   23752315.7584          0.0004 
  -9936026.63646  -1357051.62446  23221514.4944   23221517.6124          0.0004 
 -12178097.11247  -9345118.07147  20131799.5164   20131803.3614          0.0004 
 -13869941.40348 -10618529.45846  21979912.7214   21979915.1594          0.0004 
 -12047562.94946  -9256705.20347  20508485.5264   20508489.3594          0.0004 
 04  3  1  1 53  0.0000000  0  8G07G08G09G10G18G26G28G29
  -5927083.21445  -4510666.45945  23529912.6144   23529918.1474          0.0004 
  -6224978.08844  -4628686.31145  24045739.5254   24045747.0284          0.0004 
 -17109381.54846 -13120126.44946  21882496.7384   21882501.0764          0.0004 
  -7972382.41845   2062873.65145  23772126.3714   23772129.7004          0.0004 
 -10010614.88846  -1415172.29146  23207321.2904   23207324.5484          0.0004 
 -12181975.04547  -9348139.85247  20131061.4544   20131065.2874          0.0004 
 -13815872.91447 -10576398.16246  21990201.4244   21990204.2964          0.0004 
 -12036236.99546  -9247879.78647  20510640.7524   20510645.1834          0.0004 
 04  3  1  1 53 30.0000000  0  8G07G08G09G10G18G26G28G29
  -5992362.62946  -4561533.57745  23517491.0854   23517497.3574          0.0004 
  -6138783.79445  -4561521.81145  24062142.0634   24062146.5184          0.0004 
 -17188222.37747 -13181560.83546  21867494.0994   21867499.2334          0.0004 
  -7868169.07744   2144078.83245  23791956.4954   23791961.1374          0.0004 
 -10084743.73946  -1472935.02445  23193214.3354   23193218.4724          0.0004 
 -12185425.55447  -9350828.55647  20130404.6324   20130408.6884          0.0004 
 -13761392.40247 -10533945.81446  22000568.7394   22000572.3624          0.0004 
 -12024505.51246  -9238738.37847  20512873.3164   20512877.2434          0.0004 
 04  3  1  1 54  0.0000000  0  8G07G08G09G10G18G26G28G29
  -6057353.52545  -4612175.81345  23505122.7924   23505129.0874          0.0004 
  -6052554.71545  -4494330.37345  24078550.6544   24078556.0934          0.0004 
 -17266811.56847 -13242799.12746  21852539.4154   21852544.3974          0.0004 
  -7763856.92344   2225361.04845  23811806.5874   23811810.4444          0.0004 
 -10158411.79646  -1530338.70445  23179195.7364   23179199.5234          0.0004 
 -12188448.95347  -9353184.46047  20129829.4704   20129833.6084          0.0004 
 -13706503.24747 -10491175.04546  22011013.8644   22011017.8964          0.0004 
 -12012368.99547  -9229281.35947  20515182.6954   20515187.1734          0.0004 
 04  3  1  1 54 30.0000000  0  8G07G08G09G10G18G26G28G29
  -6122052.16945  -4662590.33545  23492811.7554   23492817.8274          0.0004 
  -5966290.42845  -4427111.41445  24094966.6984   24094973.8724          0.0004 
 -17345147.42347 -13303840.00046  21837632.2744   21837636.6464          0.0004 
  -7659447.40745   2306719.11345  23831675.1834   23831680.6574          0.0004 
 -10231615.83046  -1587380.84745  23165265.5244   23165268.7364          0.0004 
 -12191043.39247  -9355206.10747  20129335.7644   20129339.7964          0.0004 
 -13651206.48347 -10448086.65646  22021536.5604   22021540.0184          0.0004 
 -11999825.66546  -9219507.34847  20517569.8054   20517573.5214          0.0004 
 04  3  1  1 55  0.0000000  0  8G07G08G09G10G18G26G28G29
  -6186454.13946  -4712773.70145  23480556.4974   23480562.1714          0.0004 
  -5879989.61045  -4359864.06645  24111390.0214   24111394.2524          0.0004 
 -17423227.46047 -13364681.56146  21822774.3434   21822777.4264          0.0004 
  -7554941.66344   2388152.15545  23851561.2794   23851568.2314          0.0004 
 -10304351.47446  -1644057.92046  23151424.9614   23151428.0214          0.0004 
 -12193206.34547  -9356891.52747  20128924.4014   20128928.0234          0.0004 
 -13595502.20547 -10404680.73346  22032136.7554   22032139.7564          0.0004 
 -11986873.10246  -9209414.45147  20520034.6824   20520038.7964          0.0004 
 04  3  1  1 55 30.0000000  0  8G07G08G09G10G18G26G28G29
  -6250555.33746  -4762722.67645  23468358.6164   23468363.9374          0.0004 
  -5793651.47645  -4292587.62245  24127818.9444   24127824.1954          0.0004 
 -17501049.50947 -13425322.09546  21807964.9284   21807969.4764          0.0004 
  -7450340.80045   2469659.30845  23871466.9904   23871470.0964          0.0004 
 -10376614.90046  -1700367.08446  23137673.4574   23137676.4114          0.0004 
 -12194935.67947  -9358239.06447  20128595.1994   20128599.1384          0.0004 
 -13539390.97447 -10360957.68746  22042814.2594   22042817.0844          0.0004 
 -11973509.08546  -9199000.93447  20522577.8584   20522581.6444          0.0004 
 04  3  1  1 56  0.0000000  0  8G07G08G09G10G18G26G28G29
  -6314360.13146  -4812440.66145  23456216.1024   23456221.2484          0.0004 
  -5707283.79945  -4225288.13045  24144254.6494   24144259.4204          0.0004 
 -17578619.84746 -13485766.46146  21793203.6384   21793208.8194          0.0004 
  -7345654.58645   2551232.97145  23891387.3904   23891394.3064          0.0004 
 -10448410.80346  -1756311.90446  23124010.9534   23124013.4624          0.0004 
 -12196237.31847  -9359253.33647  20128347.4034   20128351.2834          0.0004 
 -13482881.65447 -10316924.45946  22053567.5004   22053571.0634          0.0004 
 -11959740.00746  -9188271.79447  20525197.7624   20525201.9004          0.0004 
 04  3  1  1 56 30.0000000  0  8G07G08G09G10G18G26G28G29
  -6377865.99646  -4861925.73145  23444131.0984   23444137.9564          0.0004 
  -5620887.33945  -4157966.25645  24160695.2264   24160698.9304          0.0004 
 -17655938.02246 -13546014.34546  21778490.7604   21778495.7654          0.0004 
  -7240885.51245   2632871.09145  23911324.4244   23911329.6054          0.0004 
 -10519737.02746  -1811890.80346  23110438.2084   23110441.0684          0.0004 
 -12197110.80746  -9359933.97947  20128180.9174   20128185.4074          0.0004 
 -13425976.35047 -10272582.65846  22064396.3674   22064399.7084          0.0004 
 -11945565.29446  -9177226.57447  20527895.1744   20527899.2294          0.0004 
 04  3  1  1 57  0.0000000  0  8G07G08G09G10G18G26G28G29
  -6441055.56346  -4911164.34746  23432107.2324   23432113.7974          0.0004 
  -5534447.80745  -4090610.77645  24177143.7504   24177151.7924          0.0004 
 -17732988.57647 -13606053.71446  21763828.7034   21763833.2054          0.0004 
  -7136021.50145   2714583.35845  23931280.0714   23931285.1584          0.0004 
 -10590576.16647  -1867090.11246  23096958.1294   23096960.9894          0.0004 
 -12197540.60346  -9360268.88447  20128099.1934   20128103.6354          0.0004 
 -13368662.52347 -10227922.53246  22075302.7504   22075306.3724          0.0004 
 -11930969.49746  -9165853.23847  20530672.7464   20530676.6844          0.0004 
 04  3  1  1 57 30.0000000  0  8G07G08G09G10G18G26G28G29
  -6503939.85646  -4960165.10645  23420140.8094   23420146.8224          0.0004 
  -5447979.52545  -4023232.91045  24193598.3324   24193605.3534          0.0004 
 -17809784.58647 -13665894.72546  21749214.8234   21749218.7154          0.0004 
  -7031078.86845   2796356.79745  23951250.0664   23951254.8614          0.0004 
 -10660939.77846  -1921918.86646  23083568.3294   23083572.1154          0.0004 
 -12197539.63247  -9360268.13647  20128099.4854   20128103.6464          0.0004 
 -13310955.52547 -10182956.04446  22086284.1264   22086287.4084          0.0004 
 -11915965.80346  -9154162.04847  20533527.6924   20533531.8304          0.0004 
 04  3  1  1 58  0.0000000  0  8G07G08G09G10G18G26G28G29
  -6566512.50346  -5008922.99146  23408233.4704   23408239.0614          0.0004 
  -5361479.43144  -3955830.23145  24210058.8194   24210064.8914          0.0004 
 -17886321.30246 -13725533.69546  21734650.3844   21734654.4404          0.0004 
  -6926056.54345   2878192.39245  23971235.0904   23971238.6064          0.0004 
 -10730821.30046  -1976371.98446  23070270.2034   23070274.1304          0.0004 
 -12197103.24146  -9359928.08747  20128182.3504   20128186.6404          0.0004 
 -13252853.83647 -10137682.01446  22097340.8354   22097343.9884          0.0004 
 -11900549.45346  -9142149.31347  20536461.3784   20536465.3404          0.0004 
 04  3  1  1 58 30.0000000  0  8G07G08G09G10G18G26G28G29
  -6628769.95346  -5057435.26346  23396385.9344   23396391.4084          0.0004 
  -5274946.99045  -3888402.35645  24226525.3124   24226528.5824          0.0004 
 -17962597.09046 -13784969.36746  21720135.3824   21720138.8644          0.0004 
  -6820955.94145   2960088.94045  23991234.9404   23991241.3414          0.0004 
 -10800217.73846  -2030447.12246  23057063.8694   23057066.7534          0.0004 
 -12196229.89646  -9359247.56947  20128348.7204   20128352.8114          0.0004 
 -13194358.45947 -10092101.17946  22108471.7354   22108475.8144          0.0004 
 -11884719.22246  -9129814.07747  20539473.8684   20539477.5374          0.0004 
 04  3  1  1 59  0.0000000  0  8G07G08G09G10G18G26G28G29
  -6690718.93446  -5105707.19845  23384597.3064   23384603.6354          0.0004 
  -5188392.28045  -3820957.23245  24242995.8084   24243002.0914          0.0004 
 -18038620.87746 -13844208.66346  21705668.5854   21705673.0394          0.0004 
  -6715789.40045   3042036.86745  24011247.3044   24011252.1104          0.0004 
 -10869136.44646  -2084150.08446  23043949.8094   23043951.9544          0.0004 
 -12194928.20047  -9358233.26747  20128596.6664   20128600.4524          0.0004 
 -13135480.93247 -10046222.59646  22119675.7514   22119680.3104          0.0004 
 -11868483.71846  -9117163.04447  20542563.2824   20542567.4904          0.0004 
 04  3  1  1 59 30.0000000  0  8G07G08G09G10G18G26G28G29
  -6752347.31746  -5153729.32345  23372869.9504   23372875.6834          0.0004 
  -5101806.34045  -3753487.68845  24259472.3564   24259475.4284          0.0004 
 -18114382.27247 -13903243.51246  21691251.3594   21691255.0394          0.0004 
  -6610549.81245   3124041.75345  24031273.4914   24031276.0224          0.0004 
 -10937565.61846  -2137471.49246  23030927.8374   23030932.8774          0.0004 
 -12193187.87947  -9356877.18147  20128927.7264   20128931.6884          0.0004 
 -13076213.65647 -10000040.30446  22130954.0624   22130957.3804          0.0004 
 -11851832.54146  -9104188.11347  20545732.0334   20545736.1124          0.0004 
 04  3  1  2  0  0.0000000  0  9G05G07G08G09G10G18G26G28G29
   -353988.37845    -49541.23445  24553020.7074   24553026.2754          0.0004 
  -6813655.19846  -5201501.70345  23361203.9024   23361211.2514          0.0004 
  -5015192.28745  -3685996.23445  24275955.7414   24275959.2104          0.0004 
 -18189882.98647 -13962075.23746  21676884.0174   21676887.8974          0.0004 
  -6505242.52245   3206099.37145  24051313.6504   24051317.1904          0.0004 
 -11005505.30746  -2190411.48546  23017999.8804   23018002.3414          0.0004 
 -12191010.90046  -9355180.83547  20129341.9544   20129346.2444          0.0004 
 -13016561.13847  -9953557.81346  22142305.3984   22142308.7154          0.0004 
 -11834767.89846  -9090890.99647  20548979.2604   20548983.2574          0.0004 
 04  3  1  2  0 30.0000000  0  9G05G07G08G09G10G18G26G28G29
   -473135.58545   -142383.23645  24530348.8134   24530354.6744          0.0004 
  -6874641.27446  -5249023.27745  23349598.8064   23349603.6944          0.0004 
  -4928552.23345  -3618484.49745  24292441.7704   24292447.7374          0.0004 
 -18265123.94047 -14020704.54546  21662566.0194   21662570.2274          0.0004 
  -6399871.20145   3288206.87945  24071364.6124   24071372.3484          0.0004 
 -11072954.58146  -2242969.37546  23005163.8884   23005166.0104          0.0004 
 -12188397.87447  -9353144.71547  20129839.4254   20129843.0944          0.0004 
 -12956526.85947  -9906777.85846  22153729.5544   22153732.2734          0.0004 
 -11817290.65447  -9077272.37047  20552305.1234   20552309.4604          0.0004 
 04  3  1  2  1  0.0000000  0  9G05G07G08G09G10G18G26G28G29
   -592191.65445   -235154.23345  24507692.6664   24507698.1404          0.0004 
  -6935303.03846  -5296292.20146  23338055.0344   23338061.4344          0.0004 
  -4841886.50045  -3550952.75145  24308933.6504   24308938.9374          0.0004 
 -18340104.57847 -14079131.02646  21648297.6894   21648302.0854          0.0004 
  -6294438.35645   3370362.29345  24091427.8764   24091434.6514          0.0004 
 -11139911.33246  -2295143.41646  22992422.4394   22992424.9124          0.0004 
 -12185348.13846  -9350768.30447  20130419.4084   20130423.4874          0.0004 
 -12896112.84647  -9859702.01246  22165226.0794   22165229.6084          0.0004 
 -11799400.04846  -9063331.64247  20555709.5704   20555713.4504          0.0004 
 04  3  1  2  1 30.0000000  0  9G05G07G08G09G10G18G26G28G29
   -711150.65345   -327849.48445  24485055.6124   24485057.9334          0.0004 
  -6995633.98446  -5343303.30746  23326574.1394   23326579.7774          0.0004 
  -4755191.92245  -3483398.56345  24325430.7764   24325435.8284          0.0004 
 -18414820.51847 -14137351.20946  21634079.9344   21634084.8344          0.0004 
  -6188942.96745   3452566.55145  24111503.2434   24111510.0074          0.0004 
 -11206369.27046  -2346928.86746  22979776.0224   22979780.8054          0.0004 
 -12181857.03347  -9348047.96547  20131084.0464   20131087.8094          0.0004 
 -12835317.35447  -9812328.90146  22176795.2534   22176798.9114          0.0004 
 -11781091.68646  -9049065.39947  20559193.5794   20559197.3894          0.0004 
 04  3  1  2  2  0.0000000  0  9G05G07G08G09G10G18G26G28G29
   -830014.07145   -420470.29645  24462436.5774   24462441.2784          0.0004 
  -7055635.28745  -5390057.54946  23315156.0184   23315161.6924          0.0004 
  -4668472.71543  -3415825.19545  24341932.7894   24341935.6024          0.0004 
 -18489274.62848 -14195367.37246  21619911.7974   21619915.9704          0.0004 
  -6083391.28345   3534814.57945  24131588.2144   24131593.2424          0.0004 
 -11272330.09446  -2398326.90646  22967224.0854   22967227.9774          0.0004 
 -12177927.70947  -9344986.16947  20131831.6094   20131835.6534          0.0004 
 -12774146.27647  -9764663.09946  22188435.4634   22188439.2844          0.0004 
 -11762368.80146  -9034476.14847  20562756.4184   20562760.1584          0.0004 
 04  3  1  2  2 30.0000000  0  9G05G07G08G09G10G18G26G28G29
   -948782.24745   -513016.92845  24439834.9574   24439838.4854          0.0004 
  -7115307.14445  -5436555.09846  23303801.2264   23303806.2904          0.0004 
  -4581732.08944  -3348235.03545  24358439.0234   24358446.7714          0.0004 
 -18563468.70748 -14253180.91446  21605793.0234   21605797.3494          0.0004 
  -5977788.44145   3617102.54745  24151684.3174   24151691.6434          0.0004 
 -11337794.56146  -2449338.17946  22954766.5414   22954770.2694          0.0004 
 -12173562.11346  -9341584.40547  20132662.4214   20132666.5824          0.0004 
 -12712604.08147  -9716708.16446  22200146.4874   22200149.3594          0.0004 
 -11743233.62246  -9019565.62547  20566397.8944   20566401.7984          0.0004 
 04  3  1  2  3  0.0000000  0  9G05G07G08G09G10G18G26G28G29
  -1067452.10244   -605487.00445  24417253.2904   24417258.7174          0.0004 
  -7174645.40746  -5482792.70846  23292509.9854   23292515.9634          0.0004 
  -4494969.00044  -3280627.52645  24374949.9314   24374953.7764          0.0004 
 -18637400.67248 -14310790.21547  21591724.2014   21591728.5264          0.0004 
  -5872135.62944   3699429.37345  24171789.0124   24171795.0844          0.0004 
 -11402758.52846  -2499959.44846  22942404.6194   22942408.3474          0.0004 
 -12168758.11247  -9337841.03347  20133576.7304   20133580.7274          0.0004 
 -12650691.26947  -9668464.42346  22211928.1774   22211931.9054          0.0004 
 -11723683.71546  -9004331.94647  20570117.9244   20570121.9684          0.0004 
 04  3  1  2  3 30.0000000  0  9G05G07G08G09G10G18G26G28G29
  -1186018.36745   -697876.26745  24394690.5514   24394695.9554          0.0004 
  -7233644.83246  -5528766.27246  23281282.3094   23281288.8274          0.0004 
  -4408181.21945  -3213000.70345  24391465.6974   24391471.6174          0.0004 
 -18711066.85347 -14368192.42847  21577706.0204   21577710.9554          0.0004 
  -5766432.61545   3781795.38745  24191903.9524   24191907.1404          0.0004 
 -11467216.66846  -2550186.54146  22930138.5544   22930142.3874          0.0004 
 -12163512.31447  -9333753.40947  20134574.8384   20134578.7544          0.0004 
 -12588407.29247  -9619931.45046  22223780.3644   22223785.1584          0.0004 
 -11703715.93046  -8988772.64147  20573917.7964   20573921.6304          0.0004 
 04  3  1  2  4  0.0000000  0  9G05G07G08G09G10G18G26G28G29
  -1304477.01345   -790181.68245  24372149.2244   24372154.2184          0.0004 
  -7292301.07346  -5574472.41245  23270119.9894   23270126.9284          0.0004 
  -4321367.68944  -3145353.86245  24407985.6304   24407990.5534          0.0004 
 -18784464.96848 -14425385.75947  21563738.7624   21563743.3464          0.0004 
  -5660679.93744   3864200.06345  24212028.6284   24212029.3554          0.0004 
 -11531165.21146  -2600016.58246  22917969.2964   22917973.7384          0.0004 
 -12157822.27146  -9329319.61347  20135657.5124   20135661.5324          0.0004 
 -12525752.53647  -9571109.55046  22235703.3474   22235707.4034          0.0004 
 -11683328.09446  -8972886.02247  20577797.3614   20577801.4874          0.0004 
 04  3  1  2  4 30.0000000  0  9G05G07G08G09G10G18G26G28G29
  -1422830.80245   -882405.35245  24349626.6374   24349631.8184          0.0004 
  -7350616.78246  -5619913.21045  23259022.8124   23259028.2634          0.0004 
  -4234533.79945  -3077691.12645  24424509.3274   24424514.8484          0.0004 
 -18857599.47248 -14482373.67647  21549821.7954   21549825.8864          0.0004 
  -5554885.38243   3946637.35445  24232159.9154   24232166.2694          0.0004 
 -11594607.38546  -2649452.02446  22905897.1534   22905900.2474          0.0004 
 -12151692.49347  -9324543.17447  20136824.0324   20136827.6894          0.0004 
 -12462734.02247  -9522004.23946  22247695.2704   22247698.1074          0.0004 
 -11662524.74446  -8956675.61547  20581756.0074   20581759.9934          0.0004 
 04  3  1  2  5  0.0000000  0  8G05G07G08G09G18G26G28G29
  -1541075.92645   -974544.45145  24327125.7544   24327130.8414          0.0004 
  -7408587.55246  -5665085.23446  23247991.9164   23247997.0154          0.0004 
  -4147678.15745  -3010011.38045  24441037.2534   24441042.1064          0.0004 
 -18930467.86648 -14539154.22647  21535955.3694   21535959.5654          0.0004 
 -11657539.32446  -2698489.89246  22893921.4514   22893924.3344          0.0004 
 -12145120.32846  -9319422.00447  20138074.5114   20138078.5794          0.0004 
 -12399352.09847  -9472615.71546  22259756.7474   22259759.5484          0.0004 
 -11641303.30247  -8940139.43847  20585794.2634   20585798.2954          0.0004 
 04  3  1  2  5 30.0000000  0  8G05G07G08G09G18G26G28G29
  -1659207.96344  -1066595.34445  24304644.4234   24304648.8544          0.0004 
  -7466208.56046  -5709984.70246  23237027.2984   23237032.5734          0.0004 
  -4060799.04044  -2942313.46745  24457569.8424   24457576.3834          0.0004 
 -19003067.13948 -14595725.07847  21522140.1154   21522144.5344          0.0004 
 -11719956.52346  -2747126.62546  22882044.0934   22882047.2224          0.0004 
 -12138103.04546  -9313953.99147  20139410.0124   20139414.2444          0.0004 
 -12335606.37747  -9422943.71146  22271886.9324   22271888.9604          0.0004 
 -11619661.16446  -8923275.43847  20589912.8974   20589917.3984          0.0004 
 04  3  1  2  6  0.0000000  0  8G05G07G08G09G18G26G28G29
  -1777226.55843  -1158557.86645  24282186.8054   24282192.7484          0.0004 
  -7523479.28846  -5754611.22146  23226128.7944   23226133.1434          0.0004 
  -3973898.97843  -2874599.12345  24474105.8574   24474109.5384          0.0004 
 -19075398.49748 -14652087.16947  21508376.0534   21508380.2734          0.0004 
 -11781858.40546  -2795361.90446  22870264.4494   22870267.3324          0.0004 
 -12130641.95447  -9308140.16547  20140829.7794   20140833.7184          0.0004 
 -12271500.88347  -9372991.39146  22284085.9464   22284088.7364          0.0004 
 -11597599.71846  -8906084.71747  20594111.0074   20594114.6764          0.0004 
 04  3  1  2  6 30.0000000  0  8G05G07G08G09G18G26G28G29
  -1895128.51345  -1250429.53245  24259751.7144   24259758.3494          0.0004 
  -7580396.14746  -5798962.04246  23215297.9294   23215302.3134          0.0004 
  -3886977.23144  -2806867.94645  24490647.2324   24490650.5974          0.0004 
 -19147460.11448 -14708239.04547  21494663.1974   21494667.5344          0.0004 
 -11843242.20346  -2843193.42946  22858583.1284   22858586.8214          0.0004 
 -12122735.40346  -9301979.21547  20142334.3964   20142339.1204          0.0004 
 -12207036.70947  -9322759.58646  22296353.0564   22296355.5994          0.0004 
 -11575117.50447  -8888566.12047  20598389.0654   20598393.3444          0.0004 
 04  3  1  2  7  0.0000000  0  8G05G07G08G09G18G26G28G29
  -2012919.56745  -1342214.78545  24237336.1464   24237342.0424          0.0004 
  -7636964.85546  -5843041.55546  23204533.2054   23204539.0894          0.0004 
  -3800042.57845  -2739126.67045  24507190.8984   24507192.0474          0.0004 
 -19219259.74348 -14764186.78247  21481000.1364   21481004.7314          0.0004 
 -11904113.75346  -2890625.82146  22846999.9834   22847003.4884          0.0004 
 -12114390.97747  -9295477.07647  20143922.4864   20143926.4834          0.0004 
 -12142224.16447  -9272256.28646  22308686.4904   22308689.6434          0.0004 
 -11552222.25446  -8870725.66747  20602746.0894   20602750.1574          0.0004 
 04  3  1  2  7 30.0000000  0  8G05G07G08G09G18G26G28G29
  -2130594.92345  -1433909.86945  24214943.7924   24214950.9894          0.0004 
  -7693179.92946  -5886845.53346  23193835.2514   23193840.3974          0.0004 
  -3713092.27045  -2671373.16245  24523736.7414   24523743.2124          0.0004 
 -19290793.54348 -14819927.37147  21467387.6344   21467392.4874          0.0004 
 -11964468.31346  -2937655.35346  22835514.5884   22835517.7644          0.0004 
 -12105605.01847  -9288630.88547  20145594.1574   20145598.0954          0.0004 
 -12077062.17547  -9221480.71046  22321086.3444   22321089.2164          0.0004 
 -11528910.26746  -8852560.49247  20607182.0114   20607185.8334          0.0004 
 04  3  1  2  8  0.0000000  0  8G05G07G08G09G18G26G28G29
  -2248143.98445  -1525506.49645  24192574.2314   24192579.5644          0.0004 
  -7749030.67346  -5930365.55646  23183207.5004   23183211.7444          0.0004 
  -3626118.70245  -2603601.60545  24540286.8854   24540290.5084          0.0004 
 -19362052.52748 -14875453.80147  21453827.4994   21453831.8134          0.0004 
 -12024295.57146  -2984273.97446  22824130.0304   22824134.1684          0.0004 
 -12096368.83146  -9281433.86047  20147351.7794   20147356.0934          0.0004 
 -12011544.56547  -9170428.03546  22333553.8134   22333556.9544          0.0004 
 -11505173.07347  -8834063.97647  20611698.9854   20611703.1004          0.0004 
 04  3  1  2  8 30.0000000  0  8G05G07G08G09G18G26G28G29
  -2365565.42345  -1617003.73945  24170230.4484   24170236.3324          0.0004 
  -7804515.70146  -5973600.62546  23172648.7084   23172653.5024          0.0004 
  -3539123.15145  -2535812.84845  24556842.1414   24556849.4444          0.0004 
 -19433036.98548 -14930766.35147  21440319.7954   21440323.9684          0.0004 
 -12083594.11046  -3030480.66846  22812845.6804   22812850.3584          0.0004 
 -12086682.70447  -9273886.24047  20149195.1324   20149199.0594          0.0004 
 -11945674.44747  -9119100.66446  22346088.6814   22346092.4684          0.0004 
 -11481011.02446  -8815236.40747  20616296.9814   20616300.9204          0.0004 
 04  3  1  2  9  0.0000000  0  8G05G07G08G09G18G26G28G29
  -2482868.26245  -1708408.48945  24147908.1384   24147913.1674          0.0004 
  -7859643.60145  -6016557.39546  23162158.5744   23162164.5644          0.0004 
  -3452117.47045  -2468016.29545  24573398.4154   24573402.8704          0.0004 
 -19503757.35347 -14985873.12046  21426861.7434   21426866.1504          0.0004 
 -12142373.38346  -3076282.71046  22801660.7124   22801663.8184          0.0004 
 -12076557.35247  -9265996.36347  20151121.8354   20151125.7274          0.0004 
 -11879465.03947  -9067508.91246  22358687.8694   22358690.9874          0.0004 
 -11456434.91046  -8796086.19847  20620973.8784   20620977.8754          0.0004 
 04  3  1  2  9 30.0000000  0  8G05G07G08G09G18G26G28G29
  -2600045.32345  -1799715.29645  24125609.8894   24125616.8524          0.0004 
  -7914407.01846  -6059230.16446  23151736.7744   23151743.1744          0.0004 
  -3365096.76645  -2400208.01245  24589957.3544   24589960.0154          0.0004 
 -19574207.94647 -15040769.68346  21413455.7144   21413459.6534          0.0004 
 -12200625.92946  -3121674.32946  22790575.5224   22790578.5114          0.0004 
 -12065987.11147  -9257759.81247  20153133.2734   20153137.0824          0.0004 
 -11812913.47147  -9015650.55946  22371351.9494   22371354.7974          0.0004 
 -11431439.38747  -8776609.17147  20625730.1894   20625734.7964          0.0004 
 04  3  1  2 10  0.0000000  0  8G05G07G08G09G18G26G28G29
  -2717095.52745  -1890923.24245  24103335.7124   24103345.6294          0.0004 
  -7968804.71246  -6101617.97246  23141386.1754   23141391.7434          0.0004 
  -3278062.75144  -2332389.27345  24606519.2784   24606527.1674          0.0004 
 -19644389.31147 -15095456.47146  21400100.3414   21400105.3114          0.0004 
 -12258351.34247  -3166655.16546  22779590.6984   22779594.2504          0.0004 
 -12054972.72147  -9249177.18447  20155229.4374   20155233.3644          0.0004 
 -11746022.96547  -8963528.08046  22384080.7934   22384084.4274          0.0004 
 -11406025.13246  -8756805.86747  20630566.4774   20630570.3924          0.0004 
 04  3  1  2 10 30.0000000  0  8G05G07G08G09G18G26G28G29
  -2834011.60845  -1982026.69445  24081088.1134   24081095.6624          0.0004 
  -8022828.53546  -6143714.45446  23131105.8064   23131111.7494          0.0004 
  -3191010.25045  -2264556.13745  24623084.8514   24623090.1614          0.0004 
 -19714295.24646 -15149928.60346  21386797.7804   21386802.8794          0.0004 
 -12315541.71746  -3211219.09246  22768707.5874   22768710.8924          0.0004 
 -12043507.92346  -9240243.57947  20157410.8704   20157415.2774          0.0004 
 -11678789.90947  -8911138.70646  22396874.9814   22396877.7704          0.0004 
 -11380186.11547  -8736671.57747  20635483.4424   20635488.0024          0.0004 
 04  3  1  2 11  0.0000000  0  8G05G07G08G09G18G26G28G29
  -2950795.69845  -2073027.19145  24058864.1524   24058869.3104          0.0004 
  -8076480.76446  -6185521.38246  23120896.1894   23120901.4644          0.0004 
  -3103944.13645  -2196712.54545  24639653.2884   24639658.2704          0.0004 
 -19783929.51247 -15204189.07746  21373546.6064   21373551.1784          0.0004 
 -12372199.98746  -3255368.38246  22757925.3794   22757928.3094          0.0004 
 -12031596.87446  -9230962.24747  20159677.5914   20159681.7874          0.0004 
 -11611220.93046  -8858487.56146  22409732.6694   22409736.1504          0.0004 
 -11353926.71746  -8716209.70847  20640480.4334   20640484.1734          0.0004 
 04  3  1  2 11 30.0000000  0  8G05G07G08G09G18G26G28G29
  -3067443.09045  -2163921.28645  24036667.6874   24036674.1814          0.0004 
  -8129756.73846  -6227035.14046  23110757.8244   23110762.7944          0.0004 
  -3016862.62145  -2128856.82345  24656224.0324   24656229.9054          0.0004 
 -19853289.15547 -15258235.52546  21360347.9534   21360352.3264          0.0004 
 -12428321.66046  -3299099.60446  22747246.2624   22747250.1074          0.0004 
 -12019236.82946  -9221331.05447  20162029.7064   20162034.0314          0.0004 
 -11543316.05146  -8805574.65446  22422654.7024   22422659.0164          0.0004 
 -11327243.93946  -8695417.94247  20645558.1494   20645562.0184          0.0004 
 04  3  1  2 12  0.0000000  0  8G05G07G08G09G18G26G28G29
  -3183954.03945  -2254708.96945  24014494.8274   24014503.5364          0.0004 
  -8182656.42246  -6268255.65946  23100691.3234   23100696.9504          0.0004 
  -2929768.47644  -2060991.27545  24672798.3634   24672803.5674          0.0004 
 -19922375.83047 -15312069.28846  21347201.6844   21347206.5374          0.0004 
 -12483907.25446  -3342413.05646  22736668.8404   22736672.6504          0.0004 
 -12006429.61647  -9211351.40647  20164466.7824   20164470.8024          0.0004 
 -11475079.53147  -8752403.33946  22435639.6604   22435642.9304          0.0004 
 -11300139.93547  -8674297.93547  20650715.6524   20650720.0484          0.0004 
 04  3  1  2 12 30.0000000  0  8G05G07G08G09G18G26G28G29
  -3300330.24545  -2345391.76545  23992349.8034   23992356.7904          0.0004 
  -8235181.12746  -6309183.97646  23090696.1014   23090702.7014          0.0004 
  -2842665.60945  -1993118.95945  24689373.2614   24689377.7154          0.0004 
 -19991192.62747 -15365692.75046  21334106.1904   21334110.1404          0.0004 
 -12538958.66246  -3385310.22146  22726192.9604   22726195.5164          0.0004 
 -11993178.39546  -9201025.78147  20166988.3004   20166992.2864          0.0004 
 -11406517.19747  -8698978.16346  22448686.8084   22448690.1144          0.0004 
 -11272618.10446  -8652852.36447  20655952.9894   20655956.8694          0.0004 
 04  3  1  2 13  0.0000000  0  8G05G07G08G09G18G26G28G29
  -3416572.42144  -2435970.07045  23970230.9674   23970238.1184          0.0004 
  -8287331.68346  -6349820.76946  23080772.5314   23080777.7004          0.0004 
  -2755558.02045  -1925242.83845  24705949.1254   24705954.5874          0.0004 
 -20059741.91447 -15419107.74746  21321061.4824   21321065.1514          0.0004 
 -12593476.72646  -3427791.83746  22715818.7724   22715822.2654          0.0004 
 -11979486.01446  -9190356.39947  20169593.8434   20169598.3214          0.0004 
 -11337634.37947  -8645303.23846  22461794.8154   22461798.2504          0.0004 
 -11244681.12547  -8631083.30347  20661269.1924   20661273.0374          0.0004 
 04  3  1  2 13 30.0000000  0  8G05G07G08G09G18G26G28G29
  -3532671.30145  -2526436.64445  23948136.4914   23948143.3144          0.0004 
  -8339098.45646  -6390158.50746  23070921.3384   23070926.6604          0.0004 
  -2668438.22645  -1857357.32945  24722527.7564   24722531.0734          0.0004 
 -20128015.72347 -15472308.13146  21308069.4444   21308072.8904          0.0004 
 -12647452.63046  -3469850.95846  22705546.8514   22705550.2514          0.0004 
 -11965344.54146  -9179337.07847  20172284.9024   20172289.3914          0.0004 
 -11268425.76047  -8591374.45446  22474964.9324   22474967.1134          0.0004 
 -11216321.47546  -8608984.88047  20666666.0294   20666670.5304          0.0004 
 04  3  1  2 14  0.0000000  0  8G05G07G08G09G18G26G28G29
  -3648622.53945  -2616788.25945  23926072.2864   23926078.6634          0.0004 
  -8390476.76146  -6430193.51346  23061144.0164   23061150.0884          0.0004 
  -2581304.67945  -1789461.03745  24739109.1334   24739113.9744          0.0004 
 -20196011.04547 -15525291.50346  21295130.5084   21295134.7984          0.0004 
 -12700881.89547  -3511484.15246  22695380.1894   22695382.5804          0.0004 
 -11950751.32347  -9167965.75347  20175062.0784   20175065.5594          0.0004 
 -11198891.22447  -8537191.70546  22488196.9234   22488199.5724          0.0004 
 -11187536.43246  -8586554.99247  20672143.4184   20672147.1344          0.0004 
 04  3  1  2 14 30.0000000  0  8G05G07G08G09G18G26G28G29
  -3764430.54045  -2707028.29545  23904035.6044   23904041.2424          0.0004 
  -8441471.07346  -6469929.34546  23051440.7094   23051447.4144          0.0004 
  -2494164.23145  -1721559.45245  24755691.6744   24755696.1634          0.0004 
 -20263734.08247 -15578062.69146  21282243.2314   21282247.0644          0.0004 
 -12753769.79147  -3552695.47846  22685315.5634   22685318.3064          0.0004 
 -11935712.66447  -9156247.32547  20177923.8644   20177927.9084          0.0004 
 -11129039.58246  -8482761.83946  22501488.9744   22501493.2764          0.0004 
 -11158332.53048  -8563798.71647  20677700.8024   20677705.1634          0.0004 
 04  3  1  2 15  0.0000000  0  8G05G07G08G09G18G26G28G29
  -3880082.20845  -2797146.39045  23882027.8164   23882034.3694          0.0004 
  -8492068.39446  -6509355.79846  23041812.1824   23041817.8214          0.0004 
  -2407006.68545  -1653644.42645  24772276.4154   24772280.9874          0.0004 
 -20331173.11847 -15630612.59246  21269410.2944   21269414.7364          0.0004 
 -12806103.37146  -3593474.91746  22675357.1524   22675360.2594          0.0004 
 -11920217.33247  -9144173.03447  20180872.5044   20180876.1504          0.0004 
 -11058862.11346  -8428078.10146  22514843.0724   22514846.7534          0.0004 
 -11128698.65746  -8540707.37847  20683340.1544   20683344.4564          0.0004 
 04  3  1  2 15 30.0000000  0  8G05G07G08G09G18G26G28G29
  -3995581.48845  -2887145.82445  23860047.9344   23860054.2764          0.0004 
  -8542272.12946  -6548475.60046  23032258.8334   23032263.7444          0.0004 
  -2319838.08044  -1585720.96745  24788864.7284   24788870.3204          0.0004 
 -20398333.60946 -15682945.40846  21256629.4044   21256634.2454          0.0004 
 -12857887.11146  -3633825.84646  22665502.9854   22665506.7244          0.0004 
 -11904270.78947  -9131747.17147  20183906.9954   20183910.6524          0.0004 
 -10988366.67246  -8373146.61446  22528257.9444   22528261.3554          0.0004 
 -11098640.33146  -8517285.31447  20689059.7754   20689063.4094          0.0004 
 04  3  1  2 16  0.0000000  0  8G05G07G08G09G18G26G28G29
  -4110923.10145  -2977022.38045  23838098.9704   23838104.4794          0.0004 
  -8592077.15646  -6587284.71146  23022780.9474   23022786.2934          0.0004 
  -2232656.14545  -1517786.95845  24805453.6104   24805458.8384          0.0004 
 -20465211.94446 -15735058.36246  21243902.9944   21243908.1524          0.0004 
 -12909116.19246  -3673744.64546  22655754.1134   22655758.1924          0.0004 
 -11887869.69547  -9118967.10147  20187027.9644   20187031.9614          0.0004 
 -10917552.56746  -8317966.79546  22541733.2604   22541737.2344          0.0004 
 -11068154.55246  -8493530.15747  20694861.0744   20694865.3294          0.0004 
 04  3  1  2 16 30.0000000  0  9G05G07G08G09G18G22G26G28G29
  -4226116.05945  -3066783.13645  23816178.8864   23816183.9614          0.0004 
  -8641492.18346  -6625789.88746  23013377.1714   23013382.8794          0.0004 
  -2145472.05644  -1449851.21845  24822045.0864   24822049.4934          0.0004 
 -20531818.39346 -15786959.44246  21231228.4114   21231232.3964          0.0004 
 -12959799.99746  -3713238.51346  22646109.3314   22646113.6224          0.0004 
   -275389.92142    -50456.33345  25286237.2134   25286240.4244          0.0004 
 -11871024.79047  -9105841.21447  20190233.5384   20190237.2654          0.0004 
 -10846432.99546  -8262548.94646  22555267.1984   22555271.3124          0.0004 
 -11037252.06347  -8469450.31947  20700741.5844   20700745.7464          0.0004 
 04  3  1  2 17  0.0000000  0  9G05G07G08G09G18G22G26G28G29
  -4341148.58146  -3156418.83245  23794289.2304   23794292.9224          0.0004 
  -8690505.44146  -6663982.05546  23004050.6864   23004056.9694          0.0004 
  -2058276.39545  -1381906.57545  24838637.5244   24838643.2094          0.0004 
 -20598142.55046 -15838640.57846  21218607.7884   21218611.4924          0.0004 
 -13009926.76746  -3752298.32546  22636570.6334   22636574.6534          0.0004 
   -367647.85041   -122345.68645  25268680.0844   25268680.5064          0.0004 
 -11853725.92546  -9092361.58047  20193525.2864   20193529.5414          0.0004 
 -10775000.30746  -8206887.10646  22568860.3344   22568864.6594          0.0004 
 -11005922.84047  -8445037.94947  20706703.1674   20706707.8794          0.0004 
 04  3  1  2 17 29.9990000  0  8G05G07G08G09G18G26G28G29
  -4456021.34945  -3245930.08345  23772429.3984   23772435.3414          0.0004 
  -8739119.62546  -6701863.22046  22994799.8144   22994805.3124          0.0004 
  -1971079.14744  -1313960.75245  24855231.6194   24855237.3044          0.0004 
 -20664188.30446 -15890104.74945  21206039.1524   21206043.5124          0.0004 
 -13059499.89347  -3790926.74346  22627137.2274   22627140.9084          0.0004 
 -11835980.20847  -9078533.75647  20196902.4294   20196906.0394          0.0004 
 -10703265.70346  -8150990.03446  22582511.1784   22582515.3044          0.0004 
 -10974174.37146  -8420298.90247  20712744.9104   20712748.9074          0.0004 
 04  3  1  2 17 59.9990000  0  8G05G07G08G09G18G26G28G29
  -4570745.68846  -3335325.65445  23750598.3484   23750602.5794          0.0004 
  -8787341.58846  -6739438.74946  22985623.4724   22985629.2274          0.0004 
  -1883880.60444  -1246013.77645  24871824.6124   24871828.1874          0.0004 
 -20729965.17846 -15941359.37345  21193521.9374   21193526.8724          0.0004 
 -13108527.00747  -3829129.68646  22617807.7864   22617810.2014          0.0004 
 -11817791.64347  -9064360.85847  20200363.5864   20200367.5254          0.0004 
 -10631232.44947  -8094860.21846  22596218.6504   22596221.7454          0.0004 
 -10942010.26447  -8395235.95847  20718865.4874   20718869.9644          0.0004 
 04  3  1  2 18 29.9990000  0  8G05G07G08G09G18G26G28G29
  -4685310.46446  -3424596.90745  23728797.5124   23728802.6704          0.0004 
  -8835162.46846  -6776701.78246  22976523.4644   22976529.4664          0.0004 
  -1796679.00644  -1178064.58445  24888418.2794   24888425.8634          0.0004 
 -20795465.28646 -15992398.42045  21181057.9154   21181061.6664          0.0004 
 -13156999.32847  -3866900.28746  22608583.3974   22608587.3474          0.0004 
 -11799155.56947  -9049839.24547  20203909.8614   20203913.5764          0.0004 
 -10558899.64546  -8038497.00446  22609982.8524   22609986.5914          0.0004 
 -10909426.21046  -8369845.79847  20725066.0244   20725070.2794          0.0004 
 04  3  1  2 18 59.9990000  0  8G05G07G08G09G18G26G28G29
  -4799708.60546  -3513738.30745  23707027.5674   23707032.3734          0.0004 
  -8882574.93646  -6813646.54546  22967501.3454   22967506.6204          0.0004 
  -1709469.73744  -1110109.23645  24905013.4844   24905019.0284          0.0004 
 -20860682.87745 -16043217.30645  21168647.5734   21168652.2384          0.0004 
 -13204910.55546  -3904233.70046  22599466.2074   22599470.1114          0.0004 
 -11780066.49547  -9034964.64747  20207542.2584   20207546.1034          0.0004 
 -10486264.48146  -7981898.20946  22623805.1424   22623808.6124          0.0004 
 -10876417.02146  -8344124.35147  20731347.6144   20731351.7524          0.0004 
 04  3  1  2 19 29.9990000  0  9G05G07G08G09G18G22G26G28G29
  -4913941.35145  -3602750.87445  23685289.6884   23685294.3544          0.0004 
  -8929580.44246  -6850274.18646  22958556.2764   22958562.3604          0.0004 
  -1622256.30745  -1042150.76145  24921609.8784   24921610.2884          0.0004 
 -20925620.80145 -16093818.24645  21156289.4234   21156292.8814          0.0004 
 -13252262.46847  -3941131.29546  22590455.5534   22590458.4024          0.0004 
   -824567.27143    -23553.91545  25181732.1054   25181736.2664          0.0004 
 -11760527.75146  -9019739.66447  20211260.3574   20211264.7884          0.0004 
 -10413332.68146  -7925068.23046  22637683.4994   22637687.8714          0.0004 
 -10842985.82746  -8318074.08047  20737709.2744   20737713.3194          0.0004 
 04  3  1  2 19 59.9990000  0  9G05G07G08G09G18G22G26G28G29
  -5028006.13545  -3691632.45445  23663583.8344   23663589.1094          0.0004 
  -8976176.20546  -6886582.57146  22949688.9884   22949694.8494          0.0004 
  -1535038.72543   -974189.06845  24938206.4724   24938211.8874          0.0004 
 -20990277.55246 -16144200.20345  21143986.3114   21143988.8424          0.0004 
 -13299052.86246  -3977591.32046  22581551.1164   22581555.3254          0.0004 
   -915053.74444    -94062.86545  25164514.3604   25164516.4824          0.0004 
 -11740538.56746  -9004163.69147  20215064.2384   20215068.2244          0.0004 
 -10340105.83446  -7868008.34246  22651617.8884   22651622.3894          0.0004 
 -10809132.19448  -8291694.63747  20744151.3524   20744155.9124          0.0004 
 04  3  1  2 20 29.9990000  0  8G05G07G09G18G22G26G28G29
  -5141899.70345  -3780380.70845  23641910.9454   23641915.6114          0.0004 
  -9022359.25746  -6922569.34846  22940900.9724   22940906.1184          0.0004 
 -21054651.86346 -16194362.02646  21131736.4304   21131741.1304          0.0004 
 -13345278.94046  -4013611.63746  22572755.2284   22572757.5494          0.0004 
  -1005233.34444   -164332.74645  25147353.3854   25147354.2764          0.0004 
 -11720097.47646  -8988235.57547  20218954.1414   20218958.2794          0.0004 
 -10266584.94746  -7810719.34146  22665608.8414   22665612.7214          0.0004 
 -10774854.83548  -8264985.01247  20750674.0894   20750678.8014          0.0004 
 04  3  1  2 20 59.9990000  0  8G05G07G09G18G22G26G28G29
  -5255619.11445  -3868993.22845  23620270.9964   23620277.3734          0.0004 
  -9068126.30646  -6958231.98646  22932191.9614   22932198.2094          0.0004 
 -21118741.97746 -16244302.37446  21119540.2974   21119544.7044          0.0004 
 -13390938.57246  -4049190.57546  22564066.1514   22564069.1984          0.0004 
  -1095102.53743   -234360.67545  25130250.0084   25130255.2244          0.0004 
 -11699203.50947  -8971954.55547  20222929.9074   20222934.2214          0.0004 
 -10192771.29346  -7753202.21446  22679654.9484   22679659.5554          0.0004 
 -10740152.86447  -8237944.53147  20757277.7194   20757281.8224          0.0004 
 04  3  1  2 21 29.9990000  0  8G05G07G09G18G22G26G28G29
  -5369168.34346  -3957473.16745  23598663.5664   23598668.1144          0.0004 
  -9113481.24846  -6993573.50546  22923561.0154   22923566.9344          0.0004 
 -21182553.31246 -16294025.52746  21107397.1584   21107401.3084          0.0004 
 -13436035.98546  -4084331.42946  22555484.6664   22555487.7614          0.0004 
  -1184664.52544   -304149.31045  25113208.1344   25113209.8924          0.0004 
 -11677862.25647  -8955325.02447  20226991.1654   20226994.7524          0.0004 
 -10118672.92546  -7695463.23346  22693755.5194   22693759.3414          0.0004 
 -10705031.93047  -8210577.57647  20763961.2224   20763965.7244          0.0004 
 04  3  1  2 21 59.9990000  0  8G05G07G09G18G22G26G28G29
  -5482546.39045  -4045819.62745  23577088.6564   23577094.9624          0.0004 
  -9158423.17846  -7028593.18746  22915009.0834   22915015.1554          0.0004 
 -21246086.31546 -16343531.72046  21095307.5184   21095312.0554          0.0004 
 -13480570.87646  -4119033.94046  22547009.8354   22547012.6024          0.0004 
  -1273918.12243   -373697.78345  25096223.5624   25096227.4894          0.0004 
 -11656074.63746  -8938347.66047  20231137.0944   20231141.6314          0.0004 
 -10044292.77247  -7637504.67346  22707909.9054   22707912.4614          0.0004 
 -10669493.07646  -8182884.97447  20770724.0954   20770727.8584          0.0004 
 04  3  1  2 22 29.9990000  0  8G05G07G09G18G22G26G28G29
  -5595752.49545  -4134032.22145  23555546.0584   23555552.7754          0.0004 
  -9202951.72346  -7063290.71946  22906535.2464   22906540.9434          0.0004 
 -21309341.87846 -16392821.75346  21083270.0654   21083273.7814          0.0004 
 -13524543.35846  -4153298.24746  22538641.9064   22538645.5634          0.0004 
  -1362862.34342   -443004.86944  25079298.2404   25079299.8464          0.0004 
 -11633841.99647  -8921023.53147  20235367.8074   20235371.6754          0.0004 
  -9969635.00646  -7579329.79546  22722116.4704   22722119.7754          0.0004 
 -10633537.87947  -8154867.94147  20777566.0114   20777570.2434          0.0004 
 04  3  1  2 22 59.9990000  0  8G05G07G09G18G22G26G28G29
  -5708773.54145  -4222100.53845  23534038.4634   23534044.6414          0.0004 
  -9247053.39546  -7097655.64946  22898143.2084   22898148.7414          0.0004 
 -21372307.93647 -16441886.23546  21071288.3044   21071291.3524          0.0004 
 -13567940.57647  -4187114.25646  22530383.8264   22530387.2374          0.0004 
  -1451483.27143   -512060.26245  25062434.3084   25062436.9344          0.0004 
 -11611152.90547  -8903343.73347  20239685.4614   20239689.0834          0.0004 
  -9894690.44746  -7520931.42546  22736377.8484   22736381.1424          0.0004 
 -10597155.13748  -8126517.75547  20784489.5344   20784493.8954          0.0004 
 04  3  1  2 23 29.9990000  0  8G05G07G09G18G22G26G28G29
  -5821619.71246  -4310032.61045  23512564.1494   23512570.0224          0.0004 
  -9290738.75446  -7131696.19846  22889830.0124   22889836.2014          0.0004 
 -21434996.50347 -16490734.43946  21059359.3124   21059364.2824          0.0004 
 -13610773.57947  -4220490.64246  22522233.0964   22522236.5654          0.0004 
  -1539790.61143   -580871.07645  25045629.1954   25045629.5234          0.0004 
 -11588019.54647  -8885317.74247  20244087.6334   20244091.4664          0.0004 
  -9819473.70746  -7462320.99046  22750691.1374   22750693.3064          0.0004 
 -10560357.13948  -8097843.99647  20791491.8954   20791496.1734          0.0004 
 04  3  1  2 23 59.9990000  0  8G05G07G09G18G22G26G28G29
  -5934281.57546  -4397821.06245  23491125.8084   23491131.1184          0.0004 
  -9333998.46346  -7165405.04046  22881597.8774   22881604.3594          0.0004 
 -21497399.74147 -16539360.29746  21047484.2624   21047488.6114          0.0004 
 -13653033.58447  -4253420.50246  22514191.6284   22514194.5824          0.0004 
  -1627774.81542   -649430.32445  25028887.1304   25028890.3784          0.0004 
 -11564434.66747  -8866939.92247  20248575.7014   20248579.5694          0.0004 
  -9743979.37946  -7403494.23846  22765057.1894   22765060.6824          0.0004 
 -10523136.56146  -8068840.95947  20798574.6604   20798579.1024          0.0004 
 04  3  1  2 24 29.9990000  0  8G05G07G09G18G22G26G28G29
  -6046760.68546  -4485467.11745  23469721.9874   23469726.2074          0.0004 
  -9376833.81146  -7198783.20946  22873446.7814   22873452.4894          0.0004 
 -21559520.20547 -16587765.85546  21035663.1604   21035667.4384          0.0004 
 -13694722.61047  -4285905.44946  22506258.3854   22506261.7144          0.0004 
  -1715436.24943   -717737.98245  25012205.9314   25012208.7454          0.0004 
 -11540401.34246  -8848212.66847  20253149.1624   20253153.0894          0.0004 
  -9668213.03546  -7344455.53646  22779475.0504   22779478.1574          0.0004 
 -10485496.83948  -8039511.31347  20805737.3774   20805742.0434          0.0004 
 04  3  1  2 24 59.9990000  0  8G05G07G09G18G22G26G28G29
  -6159051.13345  -4572966.13345  23448353.7654   23448357.6344          0.0004 
  -9419239.12446  -7231826.28746  22865376.7304   22865383.0604          0.0004 
 -21621353.64247 -16635947.74646  21023896.4014   21023900.9264          0.0004 
 -13735835.72747  -4317941.62746  22498434.8004   22498438.3404          0.0004 
  -1802768.88643   -785789.33645  24995587.4604   24995592.1254          0.0004 
 -11515915.66146  -8829132.92247  20257808.6354   20257812.9144          0.0004 
  -9592173.03146  -7285203.59746  22793945.0664   22793947.1764          0.0004 
 -10447434.02547  -8009851.98147  20812980.4334   20812984.7714          0.0004 
 04  3  1  2 25 29.9990000  0  8G05G07G09G18G22G26G28G29
  -6271151.77745  -4660317.28945  23427020.5084   23427027.8224          0.0004 
  -9461213.14446  -7264533.30346  22857389.8944   22857395.5914          0.0004 
 -21682900.41847 -16683906.26946  21012184.3834   21012188.7674          0.0004 
 -13776372.30447  -4349528.57146  22490720.6394   22490724.4144          0.0004 
  -1889770.87944   -853583.19445  24979030.8634   24979033.2664          0.0004 
 -11490978.29846  -8809701.21047  20262553.9584   20262558.1434          0.0004 
  -9515862.34946  -7225740.74146  22808466.8054   22808470.5214          0.0004 
 -10408949.07148  -7979863.72447  20820303.7944   20820307.8854          0.0004 
 04  3  1  2 25 59.9990000  0  8G05G07G09G18G22G26G28G29
  -6383055.62745  -4747515.12745  23405727.2874   23405733.6754          0.0004 
  -9502749.26546  -7296899.11946  22849485.6554   22849491.0474          0.0004 
 -21744155.12847 -16731637.19646  21000527.8784   21000532.1694          0.0004 
 -13816326.37847  -4380661.62046  22483117.8874   22483121.6384          0.0004 
  -1976435.04245   -921113.64545  24962541.0834   24962541.4354          0.0004 
 -11465584.56646  -8789913.89547  20267386.1984   20267390.4654          0.0004 
  -9439278.38246  -7166064.90446  22823039.7414   22823044.1374          0.0004 
 -10370037.36748  -7949542.90647  20827708.5744   20827713.0514          0.0004 
 04  3  1  2 26 29.9990000  0  8G05G07G09G18G22G26G28G29
  -6494767.66345  -4834563.42345  23384468.7634   23384473.9094          0.0004 
  -9543852.44446  -7328927.53846  22841664.4844   22841669.9704          0.0004 
 -21805123.71347 -16779145.15746  20988925.5874   20988930.4874          0.0004 
 -13855703.21947  -4411344.87746  22475624.2614   22475627.8364          0.0004 
  -2062765.79545   -988384.39545  24946113.0814   24946113.5144          0.0004 
 -11439741.00446  -8769776.05747  20272303.9494   20272308.4974          0.0004 
  -9362430.10446  -7106183.15446  22837663.6874   22837668.8914          0.0004 
 -10330705.64448  -7918894.83047  20835193.0374   20835197.4094          0.0004 
 04  3  1  2 26 59.9990000  0  8G05G07G09G18G22G26G28G29
  -6606285.26346  -4921460.24345  23363247.7374   23363251.8634          0.0004 
  -9584520.42746  -7360616.88646  22833925.1144   22833930.2714          0.0004 
 -21865805.34747 -16826429.55446  20977378.5204   20977383.5264          0.0004 
 -13894501.37847  -4441577.20046  22468241.6634   22468245.0154          0.0004 
  -2148759.84445  -1055392.75745  24929747.3214   24929751.5064          0.0004 
 -11413447.37247  -8749287.52547  20277307.8254   20277311.8464          0.0004 
  -9285319.40546  -7046096.91546  22852337.2624   22852340.7094          0.0004 
 -10290953.82247  -7887919.38747  20842757.6094   20842761.5594          0.0004 
 04  3  1  2 27 29.9990000  0  8G05G07G09G18G22G26G28G29
  -6717607.90645  -5008205.11445  23342062.8144   23342069.4604          0.0004 
  -9624752.51546  -7391966.55746  22826268.9434   22826275.4614          0.0004 
 -21926200.59947 -16873490.77546  20965886.0164   20965890.5174          0.0004 
 -13932721.13747  -4471358.82146  22460968.3994   22460972.2204          0.0004 
  -2234416.16645  -1122138.00545  24913447.9944   24913451.3004          0.0004 
 -11386704.82546  -8728449.18247  20282396.6104   20282400.5614          0.0004 
  -9207949.64346  -6985808.78046  22867060.6814   22867063.1554          0.0004 
 -10250782.99548  -7856617.46347  20850401.8844   20850405.7994          0.0004 
 04  3  1  2 27 59.9990000  0  8G05G07G09G18G22G26G28G29
  -6828732.82446  -5094795.96746  23320917.1124   23320923.9584          0.0004 
  -9664546.16646  -7422974.57446  22818696.6834   22818702.1114          0.0004 
 -21986308.35747 -16920327.97846  20954447.6714   20954452.8874          0.0004 
 -13970360.36147  -4500688.07646  22453806.1954   22453808.9264          0.0004 
  -2319731.69445  -1188617.63745  24897213.0554   24897216.1504          0.0004 
 -11359512.56946  -8707260.41247  20287571.1054   20287575.2204          0.0004 
  -9130322.23346  -6925319.87346  22881832.5714   22881836.1464          0.0004 
 -10210192.67447  -7824988.64847  20858126.1694   20858129.9204          0.0004 
 04  3  1  2 28 29.9990000  0  8G05G07G09G18G22G26G28G29
  -6939654.81345  -5181228.66046  23299808.8794   23299815.1854          0.0004 
  -9703896.81246  -7453637.39446  22811208.4314   22811213.8704          0.0004 
 -22046125.18448 -16966938.48146  20943064.7044   20943069.2874          0.0004 
 -14007414.95847  -4529561.77346  22446755.1014   22446758.1954          0.0004 
  -2404700.78145  -1254827.32745  24881043.3044   24881044.4294          0.0004 
 -11331867.78246  -8685719.03747  20292831.7074   20292835.5754          0.0004 
  -9052436.63546  -6864629.79746  22896653.5344   22896656.8754          0.0004 
 -10169180.17748  -7793030.86647  20865930.4814   20865934.5484          0.0004 
 04  3  1  2 28 59.9990000  0  8G05G07G09G18G22G26G28G29
  -7050375.63945  -5267504.61345  23278739.9364   23278745.8674          0.0004 
  -9742805.97046  -7483956.20146  22803804.1274   22803810.0814          0.0004 
 -22105653.82348 -17013324.42546  20931736.9914   20931741.2814          0.0004 
 -14043887.38647  -4557981.85846  22439814.4864   22439817.8394          0.0004 
  -2489324.61045  -1320768.02445  24864939.5584   24864942.3714          0.0004 
 -11303773.96446  -8663827.74847  20298177.8714   20298181.8214          0.0004 
  -8974298.39646  -6803742.85746  22911522.6764   22911525.9354          0.0004 
 -10127749.03046  -7760746.85847  20873814.5584   20873818.3214          0.0004 
 04  3  1  2 29 29.9990000  0  8G05G07G09G18G22G26G28G29
  -7160889.52646  -5353619.29245  23257709.4494   23257715.2044          0.0004 
  -9781268.09146  -7513926.71246  22796485.5014   22796491.1754          0.0004 
 -22164890.09348 -17059482.55247  20920464.7344   20920468.8024          0.0004 
 -14079772.53047  -4585944.32546  22432985.5904   22432988.7904          0.0004 
  -2573596.90945  -1386434.84145  24848903.5624   24848904.2774          0.0004 
 -11275227.33846  -8641583.64047  20303610.0644   20303613.9564          0.0004 
  -8895906.03346  -6742657.89046  22926440.3554   22926443.3794          0.0004 
 -10085895.80248  -7728133.97447  20881779.0314   20881783.3914          0.0004 
 04  3  1  2 29 59.9990000  0  8G05G07G09G18G22G26G28G29
  -7271196.93046  -5439573.07745  23236719.0934   23236722.0704          0.0004 
  -9819283.83546  -7543549.32646  22789250.7394   22789256.6004          0.0004 
 -22223835.66648 -17105414.14947  20909247.8084   20909252.4034          0.0004 
 -14115071.76347  -4613450.24446  22426268.4004   22426272.2684          0.0004 
  -2657517.76645  -1451827.71245  24832934.8864   24832936.6094          0.0004 
 -11246230.27946  -8618988.53747  20309128.1314   20309132.4454          0.0004 
  -8817263.71946  -6681378.16746  22941405.6884   22941408.3724          0.0004 
 -10043622.88946  -7695194.03147  20889823.4244   20889827.1634          0.0004 
 04  3  1  2 30 29.9990000  0  8G05G07G09G18G22G26G28G29
  -7381300.36745  -5525367.89845  23215766.4284   23215771.9964          0.0004 
  -9856855.78346  -7572826.14946  22782100.9654   22782106.5334          0.0004 
 -22282494.36748 -17151122.21447  20898085.3954   20898089.1934          0.0004 
 -14149788.36547  -4640502.16246  22419661.9364   22419665.2184          0.0004 
  -2741088.87143  -1516948.12745  24817030.8054   24817035.2364          0.0004 
 -11216787.27646  -8596045.93847  20314730.8554   20314735.4734          0.0004 
  -8738378.24746  -6619908.95146  22956417.1784   22956419.3474          0.0004 
 -10000934.91448  -7661930.68947  20897946.6004   20897950.4454          0.0004 
 04  3  1  2 30 59.9990000  0  8G05G07G09G18G22G26G28G29
  -7491185.69046  -5610992.84546  23194856.8444   23194861.8614          0.0004 
  -9893970.10546  -7601746.39146  22775039.0604   22775044.2884          0.0004 
 -22340853.72348 -17196597.03247  20886980.1634   20886984.0904          0.0004 
 -14183909.54347  -4667090.10346  22413169.1584   22413172.4064          0.0004 
  -2824296.06844  -1581784.92445  24801197.4964   24801199.9344          0.0004 
 -11186886.47746  -8572746.62647  20320420.8504   20320424.5424          0.0004 
  -8659239.72246  -6558242.60246  22971476.7334   22971479.5234          0.0004 
  -9957820.22746  -7628334.82747  20906150.9764   20906154.7974          0.0004 
 04  3  1  2 31 29.9990000  0  8G05G07G09G18G22G26G28G29
  -7600861.53145  -5696454.51946  23173985.6604   23173990.9584          0.0004 
  -9930635.88546  -7630317.13146  22768061.5434   22768068.3194          0.0004 
 -22398923.96647 -17241846.56747  20875929.8664   20875933.7224          0.0004 
 -14217444.61247  -4693221.34846  22406787.2964   22406791.6104          0.0004 
  -2907147.27445  -1646344.21845  24785431.9834   24785433.2724          0.0004 
 -11156538.40646  -8549098.78247  20326195.8774   20326200.2494          0.0004 
  -8579860.99646  -6496389.05046  22986581.3524   22986584.9394          0.0004 
  -9914289.59048  -7594414.86147  20914434.4524   20914439.1414          0.0004 
 04  3  1  2 31 59.9990000  0  8G05G07G09G18G22G26G28G29
  -7710319.76146  -5781746.64146  23153156.7314   23153162.3464          0.0004 
  -9966845.30046  -7658532.24046  22761171.1744   22761176.7774          0.0004 
 -22456698.17948 -17286865.41847  20864935.4714   20864939.7854          0.0004 
 -14250386.83747  -4718890.60346  22400519.2514   22400521.6554          0.0004 
  -2989634.05545  -1710619.62645  24769734.1524   24769735.9104          0.0004 
 -11125737.26946  -8525097.89547  20332057.2014   20332061.3164          0.0004 
  -8500238.03346  -6434345.20846  23001733.3714   23001736.3964          0.0004 
  -9870337.17347  -7560166.23447  20922798.2444   20922802.2414          0.0004 
 04  3  1  2 32 29.9990000  0  8G05G07G09G18G22G26G28G29
  -7819565.37446  -5866873.04646  23132367.9764   23132374.0014          0.0004 
 -10002603.52546  -7686395.78846  22754366.7984   22754371.8034          0.0004 
 -22514182.86947 -17331658.67547  20853996.5184   20854000.2104          0.0004 
 -14282742.07547  -4744102.46546  22394362.1664   22394365.5074          0.0004 
  -3071761.12845  -1774614.78845  24754105.9444   24754108.1594          0.0004 
 -11094490.11746  -8500749.48147  20338003.1714   20338007.5434          0.0004 
  -8420380.11646  -6372118.24446  23016930.1384   23016933.6664          0.0004 
  -9825970.22248  -7525594.60747  20931241.0874   20931245.6354          0.0004 
 04  3  1  2 32 59.9990000  0  8G05G07G09G18G22G26G28G29
  -7928593.95346  -5951830.38946  23111620.7004   23111626.8894          0.0004 
 -10037906.21546  -7713904.33746  22747648.7354   22747653.9984          0.0004 
 -22571374.58848 -17376223.63847  20843113.4584   20843117.9254          0.0004 
 -14314506.51746  -4768853.98646  22388317.4524   22388320.6524          0.0004 
  -3153522.88344  -1838325.29745  24738547.4614   24738550.6964          0.0004 
 -11062794.15046  -8476051.33147  20344034.8724   20344038.6004          0.0004 
  -8340286.50846  -6309707.63546  23032171.1264   23032174.5024          0.0004 
  -9781186.00147  -7490697.81447  20939763.3734   20939767.1714          0.0004 
 04  3  1  2 33 29.9990000  0  8G05G07G09G18G22G26G28G29
  -8037402.88446  -6036616.53746  23090914.7964   23090920.3414          0.0004 
 -10072751.12946  -7741056.20646  22741017.9064   22741023.8614          0.0004 
 -22628272.14747 -17420559.38747  20832286.0374   20832289.8934          0.0004 
 -14345678.78546  -4793144.08046  22382385.1924   22382388.1934          0.0004 
  -3234916.77944  -1901749.07745  24723057.0634   24723061.3654          0.0004 
 -11030648.87946  -8451003.07747  20350151.8184   20350155.7344          0.0004 
  -8259958.68346  -6247114.53746  23047457.0924   23047460.3514          0.0004 
  -9735984.23848  -7455475.67047  20948365.0864   20948368.8264          0.0004 
 04  3  1  2 33 59.9990000  0  8G05G07G09G18G22G26G28G29
  -8145983.37546  -6121224.72346  23070253.0004   23070258.0294          0.0004 
 -10107129.73346  -7767844.76846  22734476.1394   22734482.2814          0.0004 
 -22684868.30146 -17464660.27747  20821516.2334   20821520.1594          0.0004 
 -14376251.14746  -4816966.70746  22376567.1984   22376570.2464          0.0004 
  -3315933.44445  -1964879.01645  24707642.4804   24707645.9154          0.0004 
 -10998047.83646  -8425599.66947  20356355.5884   20356359.7144          0.0004 
  -8179392.14746  -6184335.42946  23062788.1614   23062791.4324          0.0004 
  -9690358.72647  -7419923.32247  20957047.2354   20957051.1504          0.0004 
 04  3  1  2 34 29.9990000  0  8G05G07G09G18G22G26G28G29
  -8254342.21446  -6205660.17746  23049632.2434   23049638.6554          0.0004 
 -10141049.36546  -7794275.61746  22728021.3914   22728026.1274          0.0004 
 -22741171.33947 -17508532.76047  20810802.0734   20810806.5284          0.0004 
 -14406231.62646  -4840328.11846  22370862.2644   22370866.4734          0.0004 
  -3396579.27745  -2027719.87245  24692296.3264   24692298.8934          0.0004 
 -10964999.83446  -8399847.99347  20362644.5584   20362648.7904          0.0004 
  -8098597.99146  -6121378.93546  23078162.7184   23078167.2784          0.0004 
  -9644318.42148  -7384047.76847  20965808.2374   20965812.2934          0.0004 
 04  3  1  2 34 59.9990000  0  8G05G07G09G18G22G26G28G29
  -8362475.86046  -6289920.14246  23029055.2534   23029060.6334          0.0004 
 -10174506.71246  -7820346.23046  22721654.0734   22721658.9374          0.0004 
 -22797179.03446 -17552175.11647  20800144.3604   20800148.3344          0.0004 
 -14435617.23846  -4863226.01646  22365270.6344   22365275.2184          0.0004 
  -3476850.05145  -2090268.54845  24677020.0964   24677021.9014          0.0004 
 -10931503.40846  -8373746.88147  20369018.7604   20369022.6994          0.0004 
  -8017576.40946  -6058245.23246  23093580.8644   23093586.1394          0.0004 
  -9597861.94347  -7347847.92947  20974648.8594   20974652.9034          0.0004 
 04  3  1  2 35 29.9990000  0  8G05G07G09G18G22G26G28G29
  -8470380.07446  -6374001.30446  23008522.0614   23008526.6214          0.0004 
 -10207498.00646  -7846053.72646  22715375.5484   22715381.4094          0.0004 
 -22852888.70246 -17595585.23447  20789542.9454   20789547.1544          0.0004 
 -14464405.45846  -4885658.42746  22359792.3124   22359795.8064          0.0004 
  -3556741.64445  -2152521.82945  24661817.9264   24661821.6664          0.0004 
 -10897556.92446  -8347295.07247  20375478.4254   20375482.5514          0.0004 
  -7936327.29946  -5994934.22446  23109041.7974   23109046.7094          0.0004 
  -9550987.55848  -7311322.43547  20983568.4784   20983572.8624          0.0004 
 04  3  1  2 35 59.9990000  0  8G05G07G09G18G22G26G28G29
  -8578054.39946  -6457903.37546  22988032.5904   22988036.6464          0.0004 
 -10240022.80146  -7871397.75246  22709186.8174   22709192.4794          0.0004 
 -22908300.85747 -17638763.50747  20778998.2954   20779002.7734          0.0004 
 -14492596.72546  -4907625.64946  22354427.6804   22354432.3344          0.0004 
  -3636252.85646  -2214478.64845  24646687.4624   24646689.1854          0.0004 
 -10863161.33746  -8320493.32447  20382023.5814   20382027.7194          0.0004 
  -7854854.39146  -5931448.86646  23124546.0704   23124549.8684          0.0004 
  -9503696.68348  -7274472.42047  20992567.6354   20992571.5974          0.0004 
 04  3  1  2 36 29.9990000  0  8G05G07G09G18G22G26G28G29
  -8685497.86346  -6541625.53546  22967586.6524   22967590.4734          0.0004 
 -10272080.76746  -7896377.95946  22703086.8354   22703091.5244          0.0004 
 -22963416.00846 -17681710.37547  20768510.1864   20768514.1604          0.0004 
 -14520191.30646  -4929127.92046  22349176.4454   22349180.1724          0.0004 
  -3715382.20745  -2276137.88445  24631629.0434   24631630.8364          0.0004 
 -10828318.05746  -8293342.72447  20388654.0274   20388658.6574          0.0004 
  -7773160.65546  -5867791.39945  23140091.7134   23140094.5264          0.0004 
  -9455990.72748  -7237298.95447  21001645.9114   21001649.8144          0.0004 
 04  3  1  2 36 59.9990000  0  8G05G07G09G18G22G26G28G29
  -8792703.95246  -6625162.73646  22947185.5684   22947191.7464          0.0004 
 -10303665.53046  -7920989.43746  22697076.3194   22697081.5234          0.0004 
 -23018229.16048 -17724421.91147  20758079.5014   20758083.9094          0.0004 
 -14547183.60146  -4950160.88446  22344040.4644   22344043.7704          0.0004 
  -3794122.33645  -2337493.84445  24616645.5634   24616647.3804          0.0004 
 -10793022.59246  -8265839.76947  20395370.4944   20395374.8434          0.0004 
  -7691243.42646  -5803959.80946  23155679.5984   23155683.5014          0.0004 
  -9407865.38848  -7199798.68847  21010803.8344   21010807.7144          0.0004 
 04  3  1  2 37 29.9990000  0  8G05G07G09G18G22G26G28G29
  -8899670.87946  -6708513.58946  22926830.6384   22926835.9604          0.0004 
 -10334775.87946  -7945231.26246  22691156.5554   22691162.2054          0.0004 
 -23072739.90548 -17766897.81047  20747706.4914   20747710.7934          0.0004 
 -14573572.99246  -4970724.02846  22339018.5504   22339021.0124          0.0004 
  -3872471.62545  -2398545.25645  24601735.5224   24601738.9214          0.0004 
 -10757275.37846  -8237984.80547  20402173.1194   20402176.8244          0.0004 
  -7609105.20946  -5739956.01546  23171310.6724   23171313.8254          0.0004 
  -9359321.43948  -7161972.24647  21020041.4984   21020045.6834          0.0004 
 04  3  1  2 37 59.9990000  0  8G05G07G09G18G22G26G28G29
  -9006399.26446  -6791678.51546  22906520.9434   22906523.9324          0.0004 
 -10365412.82246  -7969104.20446  22685326.2744   22685331.5964          0.0004 
 -23126949.98948 -17809139.43747  20737390.7474   20737395.3194          0.0004 
 -14599361.64346  -4990819.06445  22334111.4844   22334116.1734          0.0004 
  -3950430.11045  -2459292.13645  24586901.0894   24586905.7204          0.0004 
 -10721079.16746  -8209779.96747  20409061.0824   20409065.1734          0.0004 
  -7526750.52746  -5675783.54846  23186982.1664   23186985.6124          0.0004 
  -9310361.62148  -7123821.74547  21029358.1644   21029362.5364          0.0004 
 04  3  1  2 38 29.9990000  0  8G05G07G09G18G22G26G28G29
  -9112882.55446  -6874652.50646  22886257.7534   22886263.0404          0.0004 
 -10395570.53146  -7992603.70446  22679587.0144   22679593.6844          0.0004 
 -23180854.47147 -17851142.90847  20727133.0864   20727137.1654          0.0004 
 -14624544.30946  -5010441.92745  22329319.2274   22329322.7444          0.0004 
  -4027991.03946  -2519729.23745  24572141.7404   24572142.4204          0.0004 
 -10684430.00446  -8181222.18247  20416035.1914   20416039.6924          0.0004 
  -7444177.18446  -5611440.67745  23202695.1464   23202698.8394          0.0004 
  -9260982.12248  -7085344.22347  21038754.8904   21038759.0284          0.0004 
 04  3  1  2 38 59.9990000  0  8G05G07G09G18G22G26G28G29
  -9219124.77646  -6957438.67146  22866040.9994   22866045.4194          0.0004 
 -10425253.33246  -8015733.13746  22673938.3234   22673944.4774          0.0004 
 -23234458.54748 -17892912.30747  20716932.4954   20716936.8214          0.0004 
 -14649126.19045  -5029596.64445  22324641.4814   22324644.2714          0.0004 
  -4105157.95146  -2579859.22545  24557457.7124   24557458.6964          0.0004 
 -10647333.72046  -8152315.98347  20423094.2344   20423098.6424          0.0004 
  -7361392.98746  -5546933.53046  23218448.1974   23218451.3744          0.0004 
  -9211188.93647  -7046544.33647  21048230.4654   21048234.2044          0.0004 
 04  3  1  2 39 29.9990000  0  8G05G07G09G18G22G26G28G29
  -9325120.77246  -7040032.91946  22845870.4254   22845874.0944          0.0004 
 -10454456.21346  -8038488.61746  22668381.6534   22668387.3624          0.0004 
 -23287758.41148 -17934444.64247  20706789.6774   20706794.1554          0.0004 
 -14673103.05045  -5048279.81945  22320078.5834   22320078.8294          0.0004 
  -4181924.81745  -2639677.63045  24542849.0304   24542852.5234          0.0004 
 -10609787.28846  -8123059.02947  20430239.3084   20430243.2234          0.0004 
  -7278396.65746  -5482261.05646  23234242.3984   23234246.0794          0.0004 
  -9160979.13448  -7007419.82747  21057784.8884   21057788.8854          0.0004 
 04  3  1  2 39 59.9990000  0  8G05G07G09G18G22G26G28G29
  -9430873.64446  -7122437.72046  22825745.8144   22825749.9164          0.0004 
 -10483182.77447  -8060872.93646  22662915.6354   22662920.3474          0.0004 
 -23340758.45648 -17975743.37147  20696704.2814   20696708.3844          0.0004 
 -14696479.34245  -5066495.12145  22315629.3774   22315631.2654          0.0004 
  -4258294.50046  -2699186.53145  24528317.1914   24528318.8324          0.0004 
 -10571795.96346  -8093455.40647  20437468.8104   20437473.1714          0.0004 
  -7195195.13746  -5417428.71145  23250074.8964   23250078.7994          0.0004 
  -9110358.04348  -6967974.82847  21067417.7244   21067422.2724          0.0004 
 04  3  1  2 40 29.9990000  0  8G05G07G09G18G22G26G28G29
  -9536381.67746  -7204651.83246  22805669.1844   22805675.4204          0.0004 
 -10511431.88147  -8082885.22446  22657539.7444   22657544.3164          0.0004 
 -23393458.32148 -18016808.20747  20686675.7764   20686679.9144          0.0004 
 -14719254.75145  -5084242.22145  22311296.2844   22311298.7814          0.0004 
  -4334265.08045  -2758384.39145  24513860.1264   24513862.4364          0.0004 
 -10533360.32946  -8063505.56247  20444782.6894   20444786.9444          0.0004 
  -7111790.90446  -5352438.37645  23265945.8474   23265949.8684          0.0004 
  -9059326.50148  -6928210.00247  21077128.5164   21077132.9354          0.0004 
 04  3  1  2 40 59.9990000  0  8G05G07G09G18G22G26G28G29
  -9641645.16246  -7286675.28446  22785637.8024   22785642.8314          0.0004 
 -10539204.00946  -8104525.82946  22652255.0094   22652259.7104          0.0004 
 -23445859.25247 -18057640.08147  20676704.0404   20676708.4014          0.0004 
 -14741430.54045  -5101522.04445  22307077.5904   22307080.3334          0.0004 
  -4409835.98245  -2817270.78945  24499478.7124   24499481.6314          0.0004 
 -10494482.57046  -8033211.20947  20452180.8844   20452184.8464          0.0004 
  -7028187.80046  -5287293.10045  23281854.6224   23281858.2094          0.0004 
  -9007886.86348  -6888127.17347  21086917.4534   21086921.3794          0.0004 
 04  3  1  2 41 29.9990000  0  8G05G07G09G18G22G26G28G29
  -9746652.92446  -7368499.50246  22765654.9564   22765660.3724          0.0004 
 -10566488.72146  -8125786.63646  22647062.5044   22647068.3424          0.0004 
 -23497951.65247 -18098231.55547  20666791.1664   20666795.6444          0.0004 
 -14762997.01745  -5118327.14945  22302973.0654   22302975.2344          0.0004 
  -4484995.96745  -2875836.98245  24485175.8504   24485182.2744          0.0004 
 -10455153.96546  -8002565.56047  20459665.0554   20459668.8534          0.0004 
  -6944379.09246  -5221987.62545  23297803.0584   23297807.4074          0.0004 
  -8956030.54948  -6847719.66947  21096785.3474   21096789.5554          0.0004 
 04  3  1  2 41 59.9990000  0  8G05G07G09G18G22G26G28G29
  -9851406.51346  -7450125.65646  22745720.4084   22745726.6094          0.0004 
 -10593288.33546  -8146669.43146  22641962.8804   22641968.4364          0.0004 
 -23549738.49346 -18138584.92347  20656936.6634   20656940.7304          0.0004 
 -14783957.78544  -5134660.19745  22298983.9594   22298984.9564          0.0004 
  -4559746.53845  -2934084.24945  24470952.6594   24470956.3044          0.0004 
 -10415378.43546  -7971571.63547  20467233.9634   20467238.2184          0.0004 
  -6860370.45845  -5156526.34145  23313789.3634   23313794.9084          0.0004 
  -8903761.63148  -6806990.64547  21106731.7794   21106735.7064          0.0004 
 04  3  1  2 42 29.9990000  0  8G05G07G09G18G22G26G28G29
  -9955902.59546  -7531551.14446  22725835.4234   22725841.0034          0.0004 
 -10619599.64446  -8167171.72146  22636955.8144   22636961.0544          0.0004 
 -23601217.37346 -18178698.35447  20647140.7124   20647145.0144          0.0004 
 -14804310.19544  -5150519.17445  22295113.1104   22295113.9544          0.0004 
  -4634083.34445  -2992009.02445  24456807.0584   24456806.2254          0.0004 
 -10375154.37546  -7940228.21547  20474888.4174   20474892.5084          0.0004 
  -6776161.87046  -5090909.29245  23329814.0594   23329817.0014          0.0004 
  -8851078.69948  -6765939.01547  21116756.9034   21116760.8184          0.0004 
 04  3  1  2 42 59.9990000  0  8G05G07G09G18G22G26G28G29
 -10060142.51046  -7612777.04846  22706000.4064   22706005.6454          0.0004 
 -10645424.65146  -8187295.10646  22632041.2724   22632047.0514          0.0004 
 -23652391.44448 -18218574.23947  20637402.3024   20637406.8864          0.0004 
 -14824057.01542  -5165906.40244  22291354.3524   22291356.6034          0.0004 
  -4708007.68643  -3049612.47445  24442737.4054   24442741.2394          0.0004 
 -10334485.71446  -7908538.35247  20482627.2944   20482631.3734          0.0004 
  -6691758.77546  -5025140.65845  23345875.3554   23345878.0754          0.0004 
  -8797985.74648  -6724567.88947  21126860.2054   21126864.1204          0.0004 
 04  3  1  2 43 29.9990000  0  7G05G07G09G22G26G28G29
 -10164121.47246  -7693799.62146  22686213.2534   22686218.7274          0.0004 
 -10670759.44746  -8207036.50146  22627220.4704   22627225.5924          0.0004 
 -23703257.17846 -18258209.86347  20627723.1994   20627727.4664          0.0004 
  -4781514.55745  -3106890.51945  24428750.0874   24428754.3424          0.0004 
 -10293370.04646  -7876500.17347  20490451.3364   20490455.7794          0.0004 
  -6607160.77846  -4959220.11145  23361974.0544   23361977.9224          0.0004 
  -8744480.67948  -6682875.62947  21137042.0394   21137046.2714          0.0004 
 04  3  1  2 43 59.9990000  0  7G05G07G09G22G26G28G29
 -10267844.35046  -7774622.61846  22666475.5334   22666481.4414          0.0004 
 -10695609.09546  -8226399.86646  22622491.8364   22622496.1854          0.0004 
 -23753820.36146 -18297609.73447  20618101.2544   20618105.1694          0.0004 
  -4854608.08045  -3163846.50045  24414842.4024   24414845.2974          0.0004 
 -10251814.29846  -7844119.08947  20498359.0794   20498363.3814          0.0004 
  -6522376.17046  -4893154.18945  23378108.1074   23378110.4984          0.0004 
  -8690570.30448  -6640867.55247  21147300.7404   21147304.8784          0.0004 
 04  3  1  2 44 29.9990000  0  7G05G07G09G22G26G28G29
 -10371304.32446  -7855240.77246  22646787.8414   22646793.3384          0.0004 
 -10719967.61546  -8245380.51846  22617856.9024   22617861.5094          0.0004 
 -23804075.71746 -18336769.75447  20608537.9894   20608541.8694          0.0004 
  -4927281.27045  -3220474.99745  24401012.6744   24401013.3184          0.0004 
 -10209813.93146  -7811391.53047  20506351.6474   20506356.1724          0.0004 
  -6437402.13546  -4826940.67245  23394278.3804   23394280.7244          0.0004 
  -8636250.61148  -6598540.52847  21157637.5154   21157641.8524          0.0004 
 04  3  1  2 44 59.9990000  0  7G05G07G09G22G26G28G29
 -10474500.21746  -7935653.13546  22627150.2374   22627154.7154          0.0004 
 -10743834.44846  -8263978.03446  22613314.7334   22613319.7384          0.0004 
 -23854023.82547 -18375690.33647  20599033.0874   20599037.3194          0.0004 
  -4999532.94445  -3276774.99745  24387263.0354   24387265.8014          0.0004 
 -10167370.37946  -7778318.64647  20514428.4014   20514432.1754          0.0004 
  -6352241.61146  -4760581.79845  23410483.5554   23410487.1074          0.0004 
  -8581522.73548  -6555895.44247  21168051.7074   21168056.3024          0.0004 
 04  3  1  2 45 29.9990000  0  7G05G07G09G22G26G28G29
 -10577433.80046  -8015861.11346  22607562.3384   22607569.4544          0.0004 
 -10767211.93146  -8282194.24346  22608866.0594   22608871.1474          0.0004 
 -23903667.14046 -18414373.42547  20589586.3154   20589590.1954          0.0004 
  -5071364.14046  -3332747.36645  24373595.5114   24373595.7104          0.0004 
 -10124487.36746  -7744903.31447  20522588.9154   20522593.0184          0.0004 
  -6266900.27045  -4694082.05245  23426723.3754   23426728.4624          0.0004 
  -8526391.02448  -6512935.68047  21178543.1284   21178547.3134          0.0004 
 04  3  1  2 45 59.9990000  0  7G05G07G09G22G26G28G29
 -10680097.42246  -8095858.71546  22588026.6034   22588032.5694          0.0004 
 -10790092.53346  -8300023.28346  22604512.2874   22604518.0314          0.0004 
 -23952998.81546 -18452813.68847  20580198.9504   20580202.9234          0.0004 
  -5142766.49846  -3388385.54746  24360007.5204   24360009.9584          0.0004 
 -10081159.09346  -7711141.02347  20530833.9124   20530838.0264          0.0004 
  -6181373.87045  -4627438.10145  23442998.6364   23443003.7114          0.0004 
  -8470849.54148  -6469656.63247  21189112.2994   21189116.0734          0.0004 
 04  3  1  2 46 29.9990000  0  7G05G07G09G22G26G28G29
 -10782494.69746  -8175648.78846  22568540.9184   22568546.4504          0.0004 
 -10812481.07146  -8317468.88846  22600252.1814   22600256.4954          0.0004 
 -24002024.35247 -18491015.41347  20570869.4834   20570873.4574          0.0004 
  -5213743.54345  -3443692.36245  24346500.5574   24346504.9994          0.0004 
 -10037392.02646  -7677036.82247  20539162.2914   20539166.1944          0.0004 
  -6095670.14045  -4560655.99445  23459307.3014   23459311.5444          0.0004 
  -8414904.81348  -6426063.32947  21199758.1994   21199761.9154          0.0004 
 04  3  1  2 46 59.9990000  0  7G05G07G09G22G26G28G29
 -10884621.73646  -8255228.29346  22549106.9224   22549112.3024          0.0004 
 -10834374.43946  -8334528.64146  22596085.6674   22596090.1804          0.0004 
 -24050741.05546 -18528976.45247  20561598.9364   20561603.3674          0.0004 
  -5284291.45545  -3498664.80645  24333075.1584   24333082.5314          0.0004 
  -9993184.52646  -7642589.43347  20547574.7764   20547579.2304          0.0004 
  -6009789.31145  -4493735.87945  23475650.1154   23475654.8504          0.0004 
  -8358555.61348  -6382154.86447  21210481.2904   21210485.2534          0.0004 
 04  3  1  2 47 29.9990000  0  7G05G07G09G22G26G28G29
 -10986479.40146  -8334597.89946  22529724.0764   22529728.9524          0.0004 
 -10855773.71346  -8351203.37346  22592013.4224   22592018.2164          0.0004 
 -24099150.79046 -18566698.33047  20552386.7994   20552391.4654          0.0004 
  -5354410.33746  -3553302.87945  24319732.8494   24319735.2054          0.0004 
  -9948539.47146  -7607801.07447  20556070.6784   20556074.6174          0.0004 
  -5923735.57845  -4426681.02045  23492025.6714   23492027.9454          0.0004 
  -8301804.90848  -6337933.53947  21221280.3834   21221284.6034          0.0004 
 04  3  1  2 47 59.9990000  0  7G05G07G09G22G26G28G29
 -11088064.48246  -8413755.07146  22510393.0064   22510397.3434          0.0004 
 -10876676.23646  -8367491.06446  22588035.7644   22588041.3324          0.0004 
 -24147251.75646 -18604179.59747  20543233.6044   20543238.0824          0.0004 
  -5424096.55246  -3607603.84345  24306472.3104   24306474.2204          0.0004 
  -9903455.88546  -7572671.02547  20564649.7174   20564653.7504          0.0004 
  -5837509.61346  -4359491.95745  23508433.6464   23508435.7794          0.0004 
  -8244651.82348  -6293398.68447  21232156.4264   21232160.5414          0.0004 
 04  3  1  2 48 29.9990000  0  7G05G07G09G22G26G28G29
 -11189374.49546  -8492697.93146  22491114.1994   22491120.0254          0.0004 
 -10897080.44146  -8383390.43346  22584152.8014   22584158.2174          0.0004 
 -24195042.82246 -18641419.38447  20534139.3684   20534143.3894          0.0004 
  -5493347.49246  -3661565.62845  24293293.6814   24293296.3064          0.0004 
  -9857933.75547  -7537199.24147  20573312.4204   20573315.9844          0.0004 
  -5751112.77346  -4292169.73645  23524875.0074   23524876.7314          0.0004 
  -8187096.47148  -6248550.34447  21243108.6134   21243113.3254          0.0004 
 04  3  1  2 48 59.9990000  0  7G05G07G09G22G26G28G29
 -11290407.25446  -8571424.72746  22471887.6274   22471892.5624          0.0004 
 -10916984.89146  -8398900.36246  22580364.8124   22580371.0724          0.0004 
 -24242522.82946 -18678416.78547  20525104.2044   20525108.1894          0.0004 
  -5562160.48746  -3715186.16345  24280199.4354   24280201.9674          0.0004 
  -9811973.18546  -7501385.83147  20582058.2214   20582061.8784          0.0004 
  -5664546.72645  -4224715.65345  23541347.2514   23541350.6634          0.0004 
  -8129139.19648  -6203388.85347  21254137.5294   21254141.5734          0.0004 
 04  3  1  2 49 29.9990000  0  7G05G07G09G22G26G28G29
 -11391166.97646  -8649938.78246  22452714.1524   22452720.1194          0.0004 
 -10936394.31146  -8414024.57646  22576671.5494   22576676.9764          0.0004 
 -24289697.07547 -18715175.92347  20516127.0164   20516130.8724          0.0004 
  -5630539.32946  -3768468.40645  24267187.3304   24267187.6944          0.0004 
  -9765580.56646  -7465235.73347  20590886.4244   20590890.6684          0.0004 
  -5577819.27945  -4157135.86045  23557850.8924   23557855.8624          0.0004 
  -8070786.40048  -6157919.17047  21265241.9124   21265246.4254          0.0004 
 04  3  1  2 49 59.9990000  0  7G05G07G09G22G26G28G29
 -11491647.02946  -8728234.92546  22433593.6204   22433598.6254          0.0004 
 -10955302.95646  -8428758.58646  22573073.9304   22573079.0304          0.0004 
 -24336560.35247 -18751692.75147  20507209.2844   20507213.2464          0.0004 
  -5698477.34346  -3821407.11745  24254258.6244   24254260.8754          0.0004 
  -9718751.77646  -7428745.77947  20599797.7124   20599801.6984          0.0004 
  -5490927.71045  -4089428.12345  23574385.8034   23574390.2694          0.0004 
  -8012034.24448  -6112138.27947  21276422.0604   21276426.2224          0.0004 
 04  3  1  2 50 29.9990000  0  7G05G07G09G22G26G28G29
 -11591846.75246  -8806312.62546  22414526.7174   22414532.4024          0.0004 
 -10973711.30846  -8443102.74946  22569570.5984   22569575.3574          0.0004 
 -24383113.82446 -18787968.17647  20498350.2954   20498354.2924          0.0004 
  -5765974.09646  -3874002.01645  24241415.0444   24241417.2944          0.0004 
  -9671488.96546  -7391917.62347  20608791.6384   20608795.4724          0.0004 
  -5403875.54145  -4021595.27145  23590951.4124   23590955.1044          0.0004 
  -7952885.05448  -6066047.99847  21287677.7384   21287681.9824          0.0004 
 04  3  1  2 50 59.9990000  0  7G05G07G09G22G26G28G29
 -11691765.58846  -8884171.47146  22395512.7104   22395518.0674          0.0004 
 -10991619.18446  -8457056.91746  22566162.7654   22566168.3914          0.0004 
 -24429357.58846 -18824002.28847  20489550.6494   20489554.6704          0.0004 
  -5833028.00246  -3926251.84245  24228655.3084   24228655.6834          0.0004 
  -9623793.31046  -7354752.18347  20617867.5504   20617871.7464          0.0004 
  -5316665.46246  -3953639.37045  23607547.8914   23607548.9464          0.0004 
  -7893339.97148  -6019649.23847  21299008.5624   21299012.5834          0.0004 
 04  3  1  2 51 29.9990000  0  7G05G07G09G22G26G28G29
 -11791395.56946  -8961805.21246  22376553.3674   22376557.8804          0.0004 
 -11009019.13446  -8470615.31946  22562851.6814   22562857.9994          0.0004 
 -24475284.57946 -18859789.54047  20480811.0264   20480815.3864          0.0004 
  -5899630.86045  -3978150.17045  24215980.6354   24215981.7484          0.0004 
  -9575659.05946  -7317244.98247  20627027.2154   20627031.3064          0.0004 
  -5229293.29345  -3885557.18745  23624173.6824   23624176.7424          0.0004 
  -7833393.67748  -5972937.85147  21310416.2474   21310421.1824          0.0004 
 04  3  1  2 51 59.9990000  0  7G05G07G09G22G26G28G29
 -11890737.19546  -9039214.23946  22357649.2264   22357654.0084          0.0004 
 -11025912.84046  -8483779.25246  22559637.2314   22559642.6584          0.0004 
 -24520896.93246 -18895331.65247  20472131.1594   20472135.3214          0.0004 
  -5965783.05445  -4029697.33645  24203391.5854   24203394.4924          0.0004 
  -9527089.48046  -7279398.57147  20636269.8814   20636273.8434          0.0004 
  -5141763.48345  -3817352.16145  23640830.1074   23640832.5934          0.0004 
  -7773049.53448  -5925916.44147  21321899.3834   21321903.9324          0.0004 
 04  3  1  2 52 29.9990000  0  7G05G07G09G22G26G28G29
 -11989792.38646  -9116400.09246  22338799.5744   22338804.8964          0.0004 
 -11042302.85347  -8496550.64646  22556518.2754   22556522.2844          0.0004 
 -24566197.23247 -18930630.55847  20463510.6294   20463514.5214          0.0004 
  -6031486.20746  -4080894.56845  24190889.6534   24190892.8654          0.0004 
  -9478088.61846  -7241216.08547  20645594.4284   20645598.8014          0.0004 
  -5054081.24445  -3749028.32645  23657514.9004   23657517.5374          0.0004 
  -7712311.48448  -5878588.09947  21333457.4884   21333461.6734          0.0004 
 04  3  1  2 52 59.9990000  0  7G05G07G09G22G26G28G29
 -12088553.52846  -9193356.80946  22320006.0624   22320010.6224          0.0004 
 -11058182.18946  -8508924.13246  22553495.7434   22553500.9604          0.0004 
 -24611179.22648 -18965681.45647  20454951.0794   20454955.1234          0.0004 
  -6096732.16346  -4131735.59745  24178473.9884   24178474.7854          0.0004 
  -9428651.09346  -7202693.34647  20655002.1114   20655006.6124          0.0004 
  -4966242.79745  -3680582.71545  23674230.0684   23674233.7604          0.0004 
  -7651174.53348  -5830948.92847  21345091.3364   21345095.3214          0.0004 
 04  3  1  2 53 29.9990000  0  7G05G07G09G22G26G28G29
 -12187025.37046  -9270088.11346  22301267.4844   22301272.8764          0.0004 
 -11073556.44446  -8520904.08246  22550570.6134   22550576.7554          0.0004 
 -24655848.92546 -19000489.01247  20446450.7054   20446455.4414          0.0004 
  -6161525.63146  -4182224.01645  24166143.9614   24166146.7404          0.0004 
  -9378784.07846  -7163835.94247  20664491.4654   20664495.6264          0.0004 
  -4878256.51645  -3612022.01245  23690973.9024   23690978.5094          0.0004 
  -7589646.12648  -5783004.72147  21356799.8534   21356804.1084          0.0004 
 04  3  1  2 53 59.9990000  0  7G05G07G09G22G26G28G29
 -12285206.28646  -9346592.69646  22282584.3234   22282589.1064          0.0004 
 -11088424.98646  -8532489.95946  22547741.1944   22547746.9494          0.0004 
 -24700205.87346 -19035052.86347  20438009.9914   20438014.2114          0.0004 
  -6225864.62746  -4232358.25145  24153901.1184   24153902.2084          0.0004 
  -9328488.53046  -7124644.61747  20674062.3184   20674066.7964          0.0004 
  -4790124.56045  -3543347.78045  23707744.5904   23707747.8254          0.0004 
  -7527726.97947  -5734756.04746  21368582.3574   21368586.5544          0.0004 
 04  3  1  2 54 29.9990000  0  7G05G07G09G22G26G28G29
 -12383096.24346  -9422870.53446  22263956.5074   22263960.4924          0.0004 
 -11102788.54347  -8543682.31746  22545008.1324   22545012.7744          0.0004 
 -24744251.02546 -19069373.77147  20429628.4774   20429632.6034          0.0004 
  -6289748.85045  -4282138.14945  24141743.6964   24141745.7944          0.0004 
  -9277766.52946  -7085120.99447  20683714.4184   20683718.9554          0.0004 
  -4701850.43145  -3474562.74245  23724542.9964   23724545.7744          0.0004 
  -7465419.79247  -5686204.98546  21380439.1754   21380443.4304          0.0004 
 04  3  1  2 54 59.9990000  0  7G05G07G09G22G26G28G29
 -12480695.32247  -9498921.76546  22245384.0804   22245388.6754          0.0004 
 -11116648.03547  -8554481.89946  22542370.8704   22542374.9964          0.0004 
 -24787985.74146 -19103452.76547  20421305.9044   20421310.1824          0.0004 
  -6353178.25945  -4331563.72645  24129673.2434   24129677.1584          0.0004 
  -9226620.70646  -7045267.11647  20693447.2864   20693450.9784          0.0004 
  -4613437.99745  -3405669.95145  23741366.9834   23741370.0894          0.0004 
  -7402726.93048  -5637353.42647  21392369.4204   21392373.3234          0.0004 
 04  3  1  2 55 29.9990000  0  7G05G07G09G22G26G28G29
 -12577993.35147  -9574738.39246  22226869.4784   22226873.9684          0.0004 
 -11129994.45647  -8564881.70246  22539830.7174   22539835.4654          0.0004 
 -24831401.25446 -19137282.99647  20413044.0204   20413048.3814          0.0004 
  -6416142.72946  -4380626.98445  24117692.0854   24117694.4644          0.0004 
  -9175043.46346  -7005077.06647  20703261.8754   20703265.9784          0.0004 
  -4524880.82245  -3336664.39845  23758218.5904   23758221.1814          0.0004 
  -7339641.15348  -5588195.66647  21404374.2424   21404379.0484          0.0004 
 04  3  1  2 55 59.9990000  0  7G05G07G09G22G26G28G29
 -12674991.49747  -9650321.34146  22208410.7704   22208414.7324          0.0004 
 -11142829.71846  -8574883.19946  22537388.3964   22537394.1864          0.0004 
 -24874499.61846 -19170866.14347  20404843.0484   20404847.0464          0.0004 
  -6478642.83146  -4429328.35145  24105798.5364   24105799.1114          0.0004 
  -9123038.19246  -6964553.48247  20713158.2354   20713162.2094          0.0004 
  -4436183.43845  -3267549.56545  23775096.8624   23775099.5594          0.0004 
  -7276165.98548  -5538734.51247  21416453.0834   21416456.5184          0.0004 
 04  3  1  2 56 29.9990000  0  7G05G07G09G22G26G28G29
 -12771692.74647  -9725672.95746  22190009.1664   22190013.6444          0.0004 
 -11155157.30146  -8584489.09646  22535042.4924   22535048.4934          0.0004 
 -24917284.64846 -19204205.12747  20396701.1164   20396705.3954          0.0004 
  -6540681.06846  -4477669.75946  24093993.6574   24093995.0754          0.0004 
  -9070609.87546  -6923700.26247  20723135.2484   20723139.0464          0.0004 
  -4347352.17045  -3198330.34245  23792001.3164   23792005.6184          0.0004 
  -7212306.54047  -5488973.91646  21428605.1094   21428609.5634          0.0004 
 04  3  1  2 56 59.9990000  0  7G05G07G09G22G26G28G29
 -12868093.51946  -9800790.41346  22171664.2884   22171669.2234          0.0004 
 -11166974.71546  -8593697.44346  22532793.3584   22532799.5244          0.0004 
 -24959754.00247 -19237298.13547  20388619.7244   20388623.4284          0.0004 
  -6602253.61846  -4525648.43245  24082276.1504   24082279.2094          0.0004 
  -9017757.48546  -6882516.58247  20733192.6974   20733197.1404          0.0004 
  -4258387.37145  -3129007.07945  23808930.3964   23808933.6674          0.0004 
  -7148062.00847  -5438913.25646  21440830.3734   21440834.9804          0.0004 
 04  3  1  2 57 29.9990000  0  7G05G07G09G22G26G28G29
 -12964194.93146  -9875674.61846  22153376.8824   22153382.5444          0.0004 
 -11178284.20446  -8602510.02546  22530641.4364   22530647.6604          0.0004 
 -25001910.03446 -19270147.00947  20380597.6304   20380601.7214          0.0004 
  -6663361.90245  -4573265.31645  24070647.7224   24070650.1024          0.0004 
  -8964484.83146  -6841005.42747  20743330.0854   20743333.7664          0.0004 
  -4169293.86145  -3059583.59845  23825884.7964   23825886.8124          0.0004 
  -7083436.53147  -5388555.73346  21453128.0534   21453132.6014          0.0004 
 04  3  1  2 57 59.9990000  0  7G05G07G09G22G26G28G29
 -13059989.91647  -9950320.05946  22135148.0414   22135152.4724          0.0004 
 -11189079.65446  -8610922.05846  22528587.4294   22528592.7864          0.0004 
 -25043747.03046 -19302747.25147  20372636.2974   20372640.2824          0.0004 
  -6723998.71846  -4620514.75545  24059109.2924   24059109.5264          0.0004 
  -8910787.40147  -6799163.29047  20753548.1324   20753552.2934          0.0004 
  -4080067.93945  -2990056.92845  23842863.3954   23842867.7444          0.0004 
  -7018425.24148  -5337897.59446  21465499.4604   21465503.9494          0.0004 
 04  3  1  2 58 29.9990000  0  7G05G07G09G22G26G28G29
 -13155479.46747 -10024727.49046  22116976.6784   22116981.3324          0.0004 
 -11199363.08346  -8618935.09946  22526630.3784   22526635.8764          0.0004 
 -25085266.98446 -19335100.44347  20364735.2594   20364739.0454          0.0004 
  -6784164.77146  -4667397.34845  24047659.6804   24047660.4064          0.0004 
  -8856668.56247  -6756992.77247  20763846.7464   20763851.0484          0.0004 
  -3990714.23545  -2920430.66545  23859866.9154   23859872.5184          0.0004 
  -6953032.00748  -5286941.82046  21477943.5904   21477948.1624          0.0004 
 04  3  1  2 58 59.9990000  0  7G05G07G09G22G26G28G29
 -13250664.12746 -10098897.36046  22098863.4414   22098869.4194          0.0004 
 -11209135.83946  -8626550.22546  22524770.6374   22524776.3454          0.0004 
 -25126471.54246 -19367207.87147  20356894.2124   20356898.1274          0.0004 
  -6843860.22446  -4713913.30045  24036299.6064   24036301.8914          0.0004 
  -8802130.99446  -6714495.97947  20774225.0214   20774228.8314          0.0004 
  -3901236.70745  -2850707.94745  23876894.3404   23876899.2054          0.0004 
  -6887259.59848  -5235690.59946  21490459.7144   21490464.1334          0.0004 
 04  3  1  2 59 29.9990000  0  7G05G07G09G22G26G28G29
 -13345540.16246 -10172826.72046  22080809.2514   22080814.8664          0.0004 
 -11218394.87446  -8633765.06146  22523008.5814   22523014.9934          0.0004 
 -25167357.49646 -19399067.05447  20349113.8244   20349117.9504          0.0004 
  -6903080.87945  -4760059.28245  24025030.0414   24025032.6434          0.0004 
  -8747173.14647  -6671671.68647  20784683.0544   20784687.1684          0.0004 
  -3811634.82145  -2780888.28145  23893944.8514   23893947.8294          0.0004 
  -6821106.72047  -5184142.91646  21503047.9104   21503052.4944          0.0004 
 04  3  1  2 59 59.9990000  0  7G05G07G09G22G26G28G29
 -13440102.48147 -10246511.63746  22062814.6914   22062820.0604          0.0004 
 -11227136.07046  -8640576.35346  22521345.2834   22521350.2064          0.0004 
 -25207921.08546 -19430675.05747  20341394.7624   20341399.3454          0.0004 
  -6961821.61346  -4805831.26945  24013852.8914   24013854.4394          0.0004 
  -8691792.50046  -6628517.93547  20795221.6594   20795225.9264          0.0004 
  -3721907.09445  -2710970.55345  23911019.6584   23911023.2224          0.0004 
  -6754570.97047  -5132296.88346  21515709.1804   21515714.3154          0.0004 
 04  3  1  3  0 29.9990000  0  7G05G07G09G22G26G28G29
 -13534355.32947 -10319955.40846  22044878.6444   22044883.2154          0.0004 
 -11235365.28946  -8646988.71546  22519779.0904   22519784.4584          0.0004 
 -25248168.02046 -19462036.30447  20333736.0544   20333740.8374          0.0004 
  -7020086.76246  -4851232.70145  24002765.5124   24002766.0164          0.0004 
  -8635996.06746  -6585040.21447  20805839.5334   20805843.6244          0.0004 
  -3632061.66345  -2640961.17245  23928117.0744   23928120.3214          0.0004 
  -6687659.43647  -5080158.06146  21528442.2314   21528446.1114          0.0004 
 04  3  1  3  0 59.9990000  0  7G05G07G09G22G26G28G29
 -13628289.34046 -10393150.70746  22027003.4534   22027007.7324          0.0004 
 -11243074.01046  -8652995.49446  22518312.0014   22518317.8034          0.0004 
 -25288089.93146 -19493144.28147  20326139.2544   20326143.5924          0.0004 
  -7077866.79946  -4896256.15245  23991770.1084   23991771.6554          0.0004 
  -8579777.04946  -6541233.18947  20816537.6834   20816541.6924          0.0004 
  -3542092.65044  -2570855.45145  23945237.6634   23945242.7504          0.0004 
  -6620365.44347  -5027721.16646  21541247.8324   21541252.4394          0.0004 
 04  3  1  3  1 29.9990000  0  7G05G07G09G22G26G28G29
 -13721911.55447 -10466103.06746  22009188.0064   22009192.7774          0.0004 
 -11250270.19146  -8658602.90146  22516942.3964   22516949.1604          0.0004 
 -25327694.74346 -19524005.15047  20318602.6604   20318606.6334          0.0004 
  -7135168.53045  -4940906.84945  23980865.7104   23980868.3484          0.0004 
  -8523144.51446  -6497103.94947  20827314.4884   20827318.1694          0.0004 
  -3452010.16945  -2500661.23545  23962379.2014   23962383.2104          0.0004 
  -6552698.38248  -4974993.60546  21554124.6884   21554128.6154          0.0004 
 04  3  1  3  1 59.9990000  0  7G05G07G09G22G26G28G29
 -13815221.88147 -10538812.42346  21991431.6644   21991436.0364          0.0004 
 -11256954.42546  -8663811.39746  22515670.9284   22515675.9684          0.0004 
 -25366983.15746 -19554619.49247  20311126.4904   20311130.4414          0.0004 
  -7191991.45046  -4985184.38745  23970052.8814   23970053.5494          0.0004 
  -8466100.82246  -6452654.32747  20838169.3934   20838173.2504          0.0004 
  -3361817.37045  -2430381.16845  23979542.6524   23979546.8024          0.0004 
  -6484660.62647  -4921977.16646  21567071.7184   21567075.8564          0.0004 
 04  3  1  3  2 29.9990000  0  7G05G07G09G22G26G28G29
 -13908214.39147 -10611274.12646  21973736.3004   21973740.4504          0.0004 
 -11263121.90347  -8668617.22446  22514497.5814   22514502.4694          0.0004 
 -25405950.19646 -19584983.43147  20303711.2794   20303715.3934          0.0004 
  -7248329.63946  -5029084.27346  23959332.6444   23959332.7384          0.0004 
  -8408642.38446  -6407881.53147  20849103.5904   20849107.6934          0.0004 
  -3271511.94545  -2360013.34445  23996727.1474   23996730.3244          0.0004 
  -6416248.81447  -4868669.28346  21580090.0774   21580094.2864          0.0004 
 04  3  1  3  2 59.9990000  0  7G05G07G09G22G26G28G29
 -14000891.13146 -10683489.73846  21956099.8334   21956105.5304          0.0004 
 -11268776.05747  -8673023.02646  22513421.2414   22513426.0944          0.0004 
 -25444599.28046 -19615099.58947  20296356.4644   20296360.2864          0.0004 
  -7304185.10445  -5072608.02646  23948702.6754   23948704.6914          0.0004 
  -8350773.92246  -6362789.23147  20860115.5504   20860119.5834          0.0004 
  -3181099.66845  -2289562.21745  24013932.1314   24013938.7194          0.0004 
  -6347467.77948  -4815073.67346  21593178.7824   21593182.3814          0.0004 
 04  3  1  3  3 29.9990000  0  7G05G07G09G22G26G28G29
 -14093239.94747 -10755449.86446  21938526.8834   21938531.8884          0.0004 
 -11273905.94546  -8677020.32546  22512444.7634   22512450.0734          0.0004 
 -25482919.48546 -19644959.48147  20289064.3594   20289068.3444          0.0004 
  -7359545.66845  -5115746.20445  23938168.0284   23938172.2124          0.0004 
  -8292485.90646  -6317370.01347  20871207.2744   20871211.3294          0.0004 
  -3090571.41645  -2219020.74645  24031158.9904   24031162.9994          0.0004 
  -6278308.09347  -4761183.02746  21606339.3514   21606342.6804          0.0004 
 04  3  1  3  3 59.9990000  0  7G05G07G09G22G26G28G29
 -14185268.64347 -10827160.51546  21921014.1794   21921018.6804          0.0004 
 -11278519.90446  -8680615.61046  22511566.9904   22511572.9804          0.0004 
 -25520919.08547 -19674569.56047  20281833.3454   20281837.2134          0.0004 
  -7414418.86246  -5158504.51046  23927726.5394   23927729.0014          0.0004 
  -8233788.13547  -6271631.48747  20882377.0294   20882381.3554          0.0004 
  -2999938.34145  -2148397.55545  24048406.3834   24048409.7824          0.0004 
  -6208780.06947  -4707005.34446  21619570.0424   21619574.5554          0.0004 
 04  3  1  3  4 29.9990000  0  7G05G07G09G22G26G28G29
 -14276980.39347 -10898624.22046  21903562.0464   21903567.5554          0.0004 
 -11282622.48446  -8683812.43446  22510786.3034   22510791.8134          0.0004 
 -25558602.46246 -19703933.22447  20274662.4364   20274666.3864          0.0004 
  -7468807.83546  -5200885.50646  23917376.7944   23917377.9314          0.0004 
  -8174686.69048  -6225578.42547  20893623.6934   20893628.2884          0.0004 
  -2909207.02945  -2077697.79945  24065671.8444   24065672.7234          0.0004 
  -6138889.49247  -4652545.17046  21632869.7784   21632873.8234          0.0004 
 04  3  1  3  4 59.9990000  0  7G05G07G09G22G26G28G29
 -14368369.38547 -10969836.40446  21886171.1614   21886175.5804          0.0004 
 -11286209.10047  -8686607.18946  22510104.2324   22510109.7184          0.0004 
 -25595964.77646 -19733046.70247  20267552.5064   20267556.5384          0.0004 
  -7522706.65146  -5242884.56745  23907119.7654   23907120.6684          0.0004 
  -8115177.98046  -6179208.00847  20904947.9474   20904951.8044          0.0004 
  -2818375.04245  -2006919.64145  24082955.5364   24082958.0214          0.0004 
  -6068633.16347  -4597799.98146  21646239.0234   21646243.2434          0.0004 
 04  3  1  3  5 29.9990000  0  7G05G07G09G22G26G28G29
 -14459429.59147 -11040792.41046  21868843.2084   21868848.2374          0.0004 
 -11289274.76447  -8688995.99546  22509520.5944   22509525.6824          0.0004 
 -25633001.00546 -19761906.09247  20260504.9684   20260508.6954          0.0004 
  -7576109.16446  -5284496.96346  23896957.8084   23896960.7034          0.0004 
  -8055258.55746  -6132517.55747  20916350.3334   20916354.3894          0.0004 
  -2727439.99145  -1936061.16445  24100260.3894   24100264.1404          0.0004 
  -5998007.63847  -4542767.12046  21659678.5864   21659682.6424          0.0004 
 04  3  1  3  5 59.9990000  0  7G05G07G09G22G26G28G29
 -14550165.97747 -11111496.08046  21851576.7814   21851581.0594          0.0004 
 -11291825.36146  -8690983.43446  22509035.0004   22509039.7944          0.0004 
 -25669716.93746 -19790515.91647  20253518.0884   20253522.0034          0.0004 
  -7629020.13145  -5325726.29745  23886888.4844   23886893.1034          0.0004 
  -7994935.52948  -6085512.59947  20927829.2504   20927833.8104          0.0004 
  -2636409.71045  -1865128.49645  24117583.3424   24117588.0894          0.0004 
  -5927020.30148  -4487452.29646  21673187.3054   21673190.6584          0.0004 
 04  3  1  3  6 29.9990000  0  8G05G07G09G18G22G26G28G29
 -14640581.08747 -11181949.37346  21834370.8514   21834376.4664          0.0004 
 -11293864.65646  -8692572.49646  22508646.9554   22508652.5004          0.0004 
 -25706116.29846 -19818879.04647  20246591.4074   20246595.9084          0.0004 
      9906.77546      1139.71446  22244567.8824   22244571.2704          0.0004 
  -7681441.99146  -5366574.51646  23876913.9234   23876915.9274          0.0004 
  -7934214.03947  -6038197.15747  20939384.2464   20939388.6064          0.0004 
  -2545290.27345  -1794126.37345  24134922.8924   24134926.2804          0.0004 
  -5855676.37047  -4431859.63446  21686763.4154   21686767.1784          0.0004 
 04  3  1  3  6 59.9990000  0  8G05G07G09G18G22G26G28G29
 -14730666.11847 -11252145.51946  21817228.3354   21817233.5874          0.0004 
 -11295385.04846  -8693757.19646  22508357.8924   22508363.3314          0.0004 
 -25742190.95646 -19846989.16047  20239726.6764   20239731.2714          0.0004 
     19037.11646      8254.26845  22246304.7834   22246308.3114          0.0004 
  -7733366.01646  -5407034.79246  23867033.2334   23867033.3154          0.0004 
  -7873087.92247  -5990566.43347  20951015.9924   20951020.3304          0.0004 
  -2454075.78045  -1723050.12845  24152279.9994   24152283.3044          0.0004 
  -5783969.94147  -4375984.49146  21700408.5524   21700413.2764          0.0004 
 04  3  1  3  7 29.9990000  0  8G05G07G09G18G22G26G28G29
 -14820427.22147 -11322089.22246  21800147.9084   21800152.0814          0.0004 
 -11296394.13046  -8694543.48146  22508165.6204   22508171.1184          0.0004 
 -25777948.47946 -19874852.15547  20232922.2704   20232926.7134          0.0004 
     28748.27345     15821.37945  22248152.9144   22248157.3214          0.0004 
  -7784798.62646  -5447112.15846  23857245.7354   23857246.5914          0.0004 
  -7811565.97148  -5942627.26147  20962723.1734   20962727.3694          0.0004 
  -2362775.60745  -1651907.19345  24169653.8224   24169656.4014          0.0004 
  -5711909.86447  -4319833.79746  21714121.0914   21714125.0064          0.0004 
 04  3  1  3  7 59.9990000  0  8G05G07G09G18G22G26G28G29
 -14909857.99747 -11391775.52046  21783129.8804   21783133.5854          0.0004 
 -11296886.57146  -8694927.19846  22508071.7714   22508076.9174          0.0004 
 -25813383.28046 -19902463.68947  20226179.1374   20226183.3924          0.0004 
     39043.98045     23844.00445  22250112.5144   22250116.1954          0.0004 
  -7835733.02846  -5486801.30146  23847552.5774   23847556.1534          0.0004 
  -7749644.09047  -5894376.44247  20974506.5774   20974510.7504          0.0004 
  -2271387.05745  -1580695.32745  24187044.1494   24187048.5224          0.0004 
  -5639492.09347  -4263404.37846  21727901.9054   21727906.1954          0.0004 
 04  3  1  3  8 29.9990000  0  8G05G07G09G18G22G26G28G29
 -14998963.68747 -11461208.50246  21766173.1164   21766177.7464          0.0004 
 -11296868.91146  -8694913.42446  22508075.2944   22508079.9014          0.0004 
 -25848501.66547 -19929828.67947  20219496.4994   20219500.0274          0.0004 
     49916.23045     32315.87845  22252181.5774   22252186.3954          0.0004 
  -7886174.89746  -5526106.63646  23837954.3874   23837958.2204          0.0004 
  -7687330.21948  -5845820.20047  20986364.5424   20986368.9384          0.0004 
  -2179918.61745  -1509421.15145  24204450.5814   24204453.9574          0.0004 
  -5566724.98047  -4206702.73546  21741748.9324   21741753.0234          0.0004 
 04  3  1  3  8 59.9990000  0  8G05G07G09G18G22G26G28G29
 -15087731.76347 -11530378.42346  21749281.2564   21749286.1684          0.0004 
 -11296329.60746  -8694493.18046  22508178.2734   22508183.1144          0.0004 
 -25883291.67846 -19956937.78547  20212876.0634   20212880.4244          0.0004 
     61375.58345     41245.21045  22254362.3914   22254366.7404          0.0004 
  -7936111.25745  -5565018.10345  23828451.5644   23828452.8884          0.0004 
  -7624614.14148  -5796950.53647  20998299.0934   20998303.5364          0.0004 
  -2088360.77845  -1438077.43945  24221873.4444   24221874.6284          0.0004 
  -5493598.23447  -4149720.88846  21755664.3714   21755668.0994          0.0004 
 04  3  1  3  9 29.9990000  0  8G05G07G09G18G22G26G28G29
 -15176172.48947 -11599293.26746  21732451.7374   21732456.6024          0.0004 
 -11295279.78746  -8693675.13646  22508377.6414   22508383.1854          0.0004 
 -25917764.39746 -19983799.61947  20206316.0864   20206320.3534          0.0004 
     73409.44745     50622.27445  22256652.3474   22256657.1294          0.0004 
  -7985551.99445  -5603543.34845  23819042.8694   23819044.3354          0.0004 
  -7561508.20147  -5747777.09247  21010307.9934   21010312.2244          0.0004 
  -1996726.85245  -1366674.38145  24239312.0824   24239318.4944          0.0004 
  -5420124.50947  -4092468.63746  21769646.2164   21769650.8824          0.0004 
 04  3  1  3  9 59.9990000  0  8G05G07G09G18G22G26G28G29
 -15264274.67647 -11667944.31246  21715686.4704   21715690.7374          0.0004 
 -11293710.27947  -8692452.14346  22508676.4824   22508681.5224          0.0004 
 -25951910.10347 -20010406.67247  20199818.5524   20199822.1624          0.0004 
     86026.29545     60453.53245  22259053.3274   22259057.4654          0.0004 
  -8034486.71146  -5641674.24945  23809730.9714   23809732.0614          0.0004 
  -7498004.43747  -5698293.63447  21022392.2074   21022396.4044          0.0004 
  -1905009.42445  -1295206.22345  24256763.9524   24256767.7264          0.0004 
  -5346296.01047  -4034939.94246  21783695.2694   21783699.3724          0.0004 
 04  3  1  3 10 29.9990000  0  8G05G07G09G18G22G26G28G29
 -15352036.86847 -11736330.42146  21698985.3984   21698990.5794          0.0004 
 -11291620.41846  -8690823.66246  22509073.9634   22509079.1094          0.0004 
 -25985727.66947 -20036758.02447  20193383.2344   20193386.9504          0.0004 
     99225.40744     70738.57145  22261564.4724   22261569.2324          0.0004 
  -8082913.34346  -5679409.33046  23800516.9054   23800518.2294          0.0004 
  -7434103.45446  -5648500.67547  21034552.2124   21034555.7644          0.0004 
  -1813209.43045  -1223673.77645  24274232.0074   24274234.8794          0.0004 
  -5272113.32047  -3977135.24346  21797811.7134   21797816.0624          0.0004 
 04  3  1  3 10 59.9990000  0  8G05G07G09G18G22G26G28G29
 -15439463.92147 -11804455.39246  21682348.9544   21682354.4174          0.0004 
 -11289016.33146  -8688794.48946  22509569.6814   22509574.8034          0.0004 
 -26019223.02746 -20062858.29647  20187009.2004   20187013.2444          0.0004 
    112999.68044     81471.75645  22264185.0704   22264189.9004          0.0004 
  -8130837.08246  -5716752.47546  23791396.6894   23791397.8964          0.0004 
  -7369812.59048  -5598403.90147  21046786.3424   21046790.4334          0.0004 
  -1721335.13845  -1152083.51945  24291715.1554   24291717.6524          0.0004 
  -5197584.04947  -3919060.48746  21811994.0444   21811998.6984          0.0004 
 04  3  1  3 11 29.9990000  0  8G05G07G09G18G22G26G28G29
 -15526552.53947 -11872316.63146  21665776.1094   21665781.0794          0.0004 
 -11285896.05446  -8686363.11246  22510163.2524   22510168.8674          0.0004 
 -26052394.06546 -20088705.84947  20180697.0024   20180701.2804          0.0004 
    127349.62345     92653.52245  22266916.4584   22266922.1904          0.0004 
  -8178254.48046  -5753701.13446  23782373.1344   23782374.5994          0.0004 
  -7305131.27048  -5548002.87747  21059094.5834   21059098.4864          0.0004 
  -1629386.40245  -1080435.17145  24309213.6864   24309213.3824          0.0004 
  -5122707.59747  -3860715.22546  21826242.7264   21826246.6414          0.0004 
 04  3  1  3 11 59.9990000  0  8G05G07G09G18G22G26G28G29
 -15613297.70647 -11939910.25146  21649269.1364   21649274.5754          0.0004 
 -11282255.66147  -8683526.43346  22510856.3964   22510861.4964          0.0004 
 -26085236.25446 -20114297.16047  20174447.3414   20174451.6904          0.0004 
    142277.96345    104286.00945  22269756.8404   22269760.5204          0.0004 
  -8225160.52146  -5790251.26946  23773447.6494   23773449.5254          0.0004 
  -7240056.58448  -5497295.34147  21071477.9594   21071481.6514          0.0004 
  -1537361.36645  -1008727.27345  24326725.6434   24326727.1324          0.0004 
  -5047481.51847  -3802097.50046  21840558.0574   21840562.5354          0.0004 
 04  3  1  3 12 29.9990000  0  8G05G07G09G18G22G26G28G29
 -15699703.35147 -12007239.33146  21632826.8014   21632832.1114          0.0004 
 -11278100.56247  -8680288.68046  22511646.8954   22511651.6194          0.0004 
 -26117754.43146 -20139636.01347  20168259.3134   20168263.4864          0.0004 
    157778.20245    116364.08345  22272706.6354   22272708.9564          0.0004 
  -8271559.24146  -5826406.14646  23764618.0234   23764619.7584          0.0004 
  -7174595.12548  -5446286.42347  21083934.8964   21083939.0584          0.0004 
  -1445267.04645   -936965.49545  24344250.1104   24344253.0414          0.0004 
  -4971912.53547  -3743212.60046  21854938.4414   21854942.5214          0.0004 
 04  3  1  3 12 59.9990000  0  8G05G07G09G18G22G26G28G29
 -15785767.00747 -12074301.91246  21616449.4084   21616454.2034          0.0004 
 -11273429.68647  -8676649.01746  22512535.6534   22512540.7174          0.0004 
 -26149947.32946 -20164721.38447  20162132.9874   20162137.5584          0.0004 
    173850.08246    128887.59645  22275765.3374   22275767.1544          0.0004 
  -8317448.45046  -5862163.98346  23755885.1714   23755888.4414          0.0004 
  -7108747.24748  -5394976.39147  21096465.3504   21096469.2534          0.0004 
  -1353104.08545   -865150.21145  24361788.4194   24361791.3614          0.0004 
  -4896001.01847  -3684060.76146  21869383.6324   21869387.8874          0.0004 
 04  3  1  3 13 29.9990000  0  8G05G07G09G18G22G26G28G29
 -15871486.40147 -12141096.23246  21600137.8494   21600142.1394          0.0004 
 -11268241.85946  -8672606.53946  22513522.9204   22513527.9964          0.0004 
 -26181812.87147 -20189551.66647  20156069.4754   20156073.7534          0.0004 
    190493.80246    141856.70545  22278932.1604   22278935.3604          0.0004 
  -8362825.43846  -5897522.66546  23747250.5494   23747253.8434          0.0004 
  -7042512.82248  -5343365.16847  21109069.5694   21109073.6714          0.0004 
  -1260872.93443   -793281.78145  24379338.5894   24379342.9264          0.0004 
  -4819746.95547  -3624642.02946  21883894.2714   21883898.4794          0.0004 
 04  3  1  3 13 59.9990000  0  8G05G07G09G18G22G26G28G29
 -15956863.20647 -12207623.60246  21583890.5934   21583895.7624          0.0004 
 -11262540.13947  -8668163.65446  22514608.1534   22514612.7604          0.0004 
 -26213353.79847 -20214129.02547  20150067.4914   20150071.3594          0.0004 
    207704.96046    155267.95046  22282208.1834   22282210.6214          0.0004 
  -8407692.21246  -5932483.78346  23738713.0304   23738713.8274          0.0004 
  -6975896.15148  -5291456.06647  21121746.2004   21121750.8184          0.0004 
  -1168578.59143   -721364.23745  24396901.8644   24396908.0764          0.0004 
  -4743154.83547  -3564959.86446  21898469.1644   21898473.9234          0.0004 
 04  3  1  3 14 29.9990000  0  8G05G07G09G18G22G26G28G29
 -16041898.22447 -12273884.66146  21567708.9854   21567714.6944          0.0004 
 -11256326.62847  -8663321.94346  22515790.3024   22515795.1314          0.0004 
 -26244571.80646 -20238454.73247  20144126.5174   20144131.3004          0.0004 
    225480.27947    169118.81646  22285590.5774   22285593.3914          0.0004 
  -8452049.75146  -5967048.06546  23730271.4824   23730274.5064          0.0004 
  -6908900.55548  -5239251.73847  21134495.0054   21134498.8734          0.0004 
  -1076224.74543   -649400.20745  24414476.4334   24414482.0484          0.0004 
  -4666228.06047  -3505016.93446  21913107.8464   21913111.9844          0.0004 
 04  3  1  3 14 59.9990000  0  8G05G07G09G18G22G26G28G29
 -16126583.83247 -12339873.42746  21551594.3464   21551598.6244          0.0004 
 -11249595.16847  -8658076.64846  22517071.4494   22517077.0294          0.0004 
 -26275460.28446 -20262523.66647  20138248.7284   20138253.1474          0.0004 
    243824.70346    183413.14946  22289081.0804   22289084.2574          0.0004 
  -8495890.42146  -6001209.70445  23721928.9164   23721930.9324          0.0004 
  -6841520.95748  -5186748.15647  21147316.9014   21147320.9104          0.0004 
   -983806.95445   -577386.38045  24432063.6434   24432064.2884          0.0004 
  -4588961.92247  -3444809.56946  21927811.3484   21927815.0284          0.0004 
 04  3  1  3 15 29.9990000  0  8G05G07G09G18G22G26G28G29
 -16210916.48147 -12405587.17346  21535546.2964   21535550.5634          0.0004 
 -11242343.53746  -8652426.02646  22518451.3754   22518456.9904          0.0004 
 -26306016.23747 -20286333.51447  20132434.4444   20132438.4654          0.0004 
    262739.13447    198151.63946  22292680.1904   22292683.2614          0.0004 
  -8539210.83546  -6034965.89045  23713685.7464   23713688.2194          0.0004 
  -6773756.27147  -5133944.52047  21160212.0924   21160215.5504          0.0004 
   -891324.73745   -505322.25145  24449662.2604   24449665.7534          0.0004 
  -4511355.30847  -3384336.90546  21942579.4674   21942583.8274          0.0004 
 04  3  1  3 15 59.9990000  0  8G05G07G09G18G22G26G28G29
 -16294901.70747 -12471030.19946  21519564.4484   21519569.1374          0.0004 
 -11234578.87347  -8646375.63046  22519929.0804   22519934.0624          0.0004 
 -26336246.33046 -20309889.41547  20126681.4794   20126686.0034          0.0004 
    282215.45046    213327.97946  22296386.4534   22296389.7704          0.0004 
  -8582016.84946  -6068321.17145  23705540.0974   23705541.1994          0.0004 
  -6705614.86148  -5080847.32047  21173179.0334   21173183.2654          0.0004 
   -798786.61145   -433214.63445  24467271.5394   24467277.3184          0.0004 
  -4433416.67647  -3323605.50246  21957410.6794   21957414.9224          0.0004 
 04  3  1  3 16 29.9990000  0  8G05G07G09G18G22G26G28G29
 -16378533.44847 -12536197.78446  21503649.8534   21503654.6944          0.0004 
 -11226296.28347  -8639921.64846  22521505.2854   22521510.0214          0.0004 
 -26366145.19547 -20333187.21447  20120992.2934   20120996.2664          0.0004 
    302257.32446    228945.01546  22300200.5284   22300203.6694          0.0004 
  -8624302.35846  -6101270.91245  23697492.9584   23697495.0444          0.0004 
  -6637092.91948  -5027453.59947  21186218.3804   21186222.2484          0.0004 
   -706189.39143   -361060.89645  24484891.8104   24484899.4294          0.0004 
  -4355142.47647  -3262612.63846  21972305.9634   21972310.2894          0.0004 
 04  3  1  3 16 59.9990000  0  8G05G07G09G18G22G26G28G29
 -16461812.02247 -12601090.17846  21487802.0594   21487807.5574          0.0004 
 -11217497.24047  -8633065.24446  22523179.3734   22523184.1554          0.0004 
 -26395713.43847 -20356227.42247  20115365.6564   20115369.3254          0.0004 
    322861.77746    245000.41746  22304121.0184   22304124.8994          0.0004 
  -8666067.36746  -6133815.09246  23689545.9434   23689547.7604          0.0004 
  -6568192.94548  -4973765.32447  21199329.4394   21199333.0144          0.0004 
   -613535.83843   -288863.33445  24502522.2014   24502527.2774          0.0004 
  -4276535.41647  -3201360.39046  21987264.1714   21987267.7344          0.0004 
 04  3  1  3 17 29.9990000  0  8G05G07G09G18G22G26G28G29
 -16544735.67347 -12665705.98046  21472022.3504   21472027.8254          0.0004 
 -11208181.42446  -8625806.14546  22524951.9284   22524957.7434          0.0004 
 -26424950.33546 -20379009.42547  20109801.5894   20109806.0794          0.0004 
    344027.65846    261493.29246  22308149.0374   22308153.2454          0.0004 
  -8707310.53546  -6165952.63146  23681697.6864   23681700.6764          0.0004 
  -6498915.88348  -4919783.20847  21212512.5614   21212516.5234          0.0004 
   -520827.33143   -216622.98545  24520165.3444   24520169.2714          0.0004 
  -4197596.69947  -3139849.71346  22002285.9004   22002289.6634          0.0004 
 04  3  1  3 17 59.9990000  0  8G05G07G09G18G22G26G28G29
 -16627307.44547 -12730047.60146  21456309.4924   21456314.0054          0.0004 
 -11198353.45846  -8618148.00046  22526822.2064   22526827.0824          0.0004 
 -26453859.93446 -20401536.36947  20104300.5304   20104305.0074          0.0004 
    365749.38446    278419.30146  22312282.4724   22312286.7504          0.0004 
  -8748035.38946  -6197686.28546  23673947.9754   23673947.5774          0.0004 
  -6429267.63648  -4865511.85247  21225766.1384   21225770.6634          0.0004 
   -428070.09645   -144344.63345  24537816.0324   24537820.2874          0.0004 
  -4118331.97447  -3078084.97346  22017369.2684   22017372.8204          0.0004 
 04  3  1  3 18 29.9990000  0  8G05G07G09G18G22G26G28G29
 -16709526.89547 -12794114.69746  21440663.7614   21440668.1454          0.0004 
 -11188014.32546  -8610091.53546  22528789.4954   22528794.3604          0.0004 
 -26482442.37847 -20423808.41147  20098861.6564   20098865.5834          0.0004 
    388025.10047    295776.99246  22316521.6014   22316525.5044          0.0004 
  -8788241.40046  -6229015.60745  23666296.5534   23666297.6314          0.0004 
  -6359249.93048  -4810952.61047  21239089.9874   21239093.2104          0.0004 
   -335266.27143    -72029.99145  24555475.6854   24555481.3714          0.0004 
  -4038743.39447  -3016067.93146  22032514.2314   22032518.1114          0.0004 
 04  3  1  3 18 59.9990000  0  8G05G07G09G18G22G26G28G29
 -16791387.80347 -12857902.41646  21425086.0964   21425090.5744          0.0004 
 -11177159.07747  -8601632.88546  22530855.3204   22530860.0334          0.0004 
 -26510692.22446 -20445821.28847  20093485.6184   20093489.3924          0.0004 
    410858.02747    313568.88846  22320867.0424   22320870.8874          0.0004 
  -8827922.45745  -6259935.90445  23658744.3824   23658747.3484          0.0004 
  -6288859.05348  -4756102.59747  21252484.9694   21252489.0834          0.0004 
   -242412.84943       323.26645  24573145.7664   24573150.6894          0.0004 
  -3958827.52446  -2953795.83846  22047721.6244   22047726.1144          0.0004 
 04  3  1  3 19 29.9990000  0  8G05G07G09G18G22G26G28G29
 -16872899.05747 -12921417.68546  21409574.9984   21409580.6834          0.0004 
 -11165798.30546  -8592780.30546  22533017.2604   22533022.5704          0.0004 
 -26538618.98646 -20467582.38647  20088171.3054   20088175.2554          0.0004 
    434236.59747    331785.94146  22325315.5974   22325319.1604          0.0004 
  -8867087.81646  -6290454.41645  23651292.7384   23651293.5354          0.0004 
  -6218106.62948  -4700970.83747  21265948.7324   21265952.9764          0.0004 
   -149521.32843     72706.32645  24590821.5214   24590828.6134          0.0004 
  -3878595.83546  -2891277.64946  22062989.3784   22062993.6804          0.0004 
 04  3  1  3 19 59.9990000  0  8G05G07G09G18G22G26G28G29
 -16954052.89547 -12984654.42546  21394132.2054   21394137.0824          0.0004 
 -11153925.67946  -8583528.90646  22535276.2344   22535282.1884          0.0004 
 -26566215.82947 -20489086.41747  20082920.0174   20082923.6394          0.0004 
    458165.82547    350432.08046  22329869.1054   22329872.4814          0.0004 
  -8905729.72946  -6320564.98845  23643939.1114   23643942.9914          0.0004 
  -6146987.38348  -4645553.25647  21279482.1824   21279486.0744          0.0004 
    -56586.86442    145122.77843  24608506.3924   24608514.2934          0.0004 
  -3798043.46847  -2828509.58946  22078318.3084   22078321.7664          0.0004 
 04  3  1  3 20 29.9990000  0  8G05G07G09G18G22G26G28G29
 -17034849.13147 -13047612.49446  21378757.0234   21378761.0784          0.0004 
 -11141542.33446  -8573879.56246  22537633.0214   22537638.8114          0.0004 
 -26593483.20246 -20510333.73447  20077731.0304   20077734.6294          0.0004 
    482643.38547    369505.46646  22334526.9714   22334530.7454          0.0004 
  -8943848.34346  -6350267.82746  23636685.8354   23636687.8044          0.0004 
  -6075503.63348  -4589851.64147  21293085.4494   21293089.2004          0.0004 
     36387.88642    217570.60745  24626197.8684   24626201.5614          0.0004 
  -3717172.51547  -2765493.25246  22093707.3434   22093711.4104          0.0004 
 04  3  1  3 20 59.9990000  0  8G05G07G09G18G22G26G28G29
 -17115276.98847 -13110283.53046  21363451.3734   21363457.4214          0.0004 
 -11128638.78646  -8563824.85746  22540088.5384   22540094.2934          0.0004 
 -26620410.98646 -20531316.40947  20072606.8074   20072611.5674          0.0004 
    507677.42647    389012.47746  22339290.8174   22339293.6894          0.0004 
  -8981432.81546  -6379554.46445  23629533.5724   23629535.4124          0.0004 
  -6003646.85048  -4533859.35247  21306759.1134   21306762.8524          0.0004 
    129411.27445    290056.44845  24643901.3654   24643902.4914          0.0004 
  -3635974.96047  -2702222.44446  22109158.8064   22109162.5224          0.0004 
 04  3  1  3 21 29.9990000  0  8G05G07G09G18G22G26G28G29
 -17195348.59147 -13172676.99146  21348214.7334   21348220.1964          0.0004 
 -11115228.87846  -8553375.57146  22542640.3874   22542645.5094          0.0004 
 -26647011.99347 -20552044.45747  20067544.9154   20067549.0774          0.0004 
    533252.75846    408941.28546  22344157.6444   22344161.5714          0.0004 
  -9018495.79846  -6408434.75446  23622481.3754   23622482.0434          0.0004 
  -5931431.99248  -4477588.03747  21320501.0834   21320505.2564          0.0004 
    222468.06745    362568.12245  24661610.1844   24661614.1464          0.0004 
  -3554465.70347  -2638708.75546  22124669.6114   22124673.6914          0.0004 
 04  3  1  3 21 59.9990000  0  8G05G07G09G18G22G26G28G29
 -17275058.98848 -13234788.95646  21333046.6364   21333050.3054          0.0004 
 -11101309.10246  -8542528.97746  22545289.3274   22545293.8994          0.0004 
 -26673281.87446 -20572514.51347  20062545.8884   20062549.7104          0.0004 
    559371.82546    429293.79046  22349127.7394   22349131.2444          0.0004 
  -9055032.41146  -6436904.78146  23615528.4714   23615528.9404          0.0004 
  -5858856.47748  -4421035.70747  21334311.7384   21334315.9694          0.0004 
    315560.42244    435107.65645  24679323.1824   24679329.3014          0.0004 
  -3472642.38847  -2574950.32446  22140239.9494   22140243.4894          0.0004 
 04  3  1  3 22 29.9990000  0  8G05G07G09G18G22G26G28G29
 -17354406.68647 -13296618.30646  21317946.6934   21317950.6674          0.0004 
 -11086879.24447  -8531284.91646  22548034.7634   22548039.0654          0.0004 
 -26699219.62946 -20592725.73347  20057610.1214   20057614.0364          0.0004 
    586033.31846    450068.99746  22354200.5904   22354204.1304          0.0004 
  -9091041.19546  -6464963.58345  23608674.9724   23608676.5074          0.0004 
  -5785921.15348  -4364203.00047  21348190.9034   21348195.4044          0.0004 
    408687.53544    507674.21245  24697045.6834   24697050.5244          0.0004 
  -3390506.06747  -2510947.99046  22155869.8654   22155874.0734          0.0004 
 04  3  1  3 22 59.9990000  0  8G05G07G09G18G22G26G28G29
 -17433389.66647 -13358163.50646  21302917.3544   21302922.1724          0.0004 
 -11071939.22447  -8519643.34246  22550877.7074   22550881.8454          0.0004 
 -26724824.26247 -20612677.39447  20052737.8324   20052741.7474          0.0004 
    613236.20646    471266.05046  22359377.5904   22359381.6934          0.0004 
  -9126520.71546  -6492609.97945  23601923.7354   23601926.9944          0.0004 
  -5712626.80648  -4307090.52647  21362138.4634   21362142.5194          0.0004 
    501848.21544    580266.98045  24714774.3404   24714780.1074          0.0004 
  -3308057.64347  -2446702.48646  22171559.2844   22171563.0714          0.0004 
 04  3  1  3 23 29.9990000  0  8G05G07G09G18G22G26G28G29
 -17512004.11548 -13419421.49246  21287957.7884   21287962.0904          0.0004 
 -11056486.30146  -8507602.09046  22553818.2054   22553823.0464          0.0004 
 -26750092.39247 -20632366.85047  20047929.3854   20047933.2534          0.0004 
    640981.71546    492885.94146  22364657.7044   22364661.9714          0.0004 
  -9161467.13946  -6519840.97045  23595273.8884   23595277.0774          0.0004 
  -5638971.90348  -4249697.09646  21376154.4784   21376158.7454          0.0004 
    595044.06245    652887.03545  24732508.5984   24732508.8804          0.0004 
  -3225295.56646  -2382212.57746  22187308.1924   22187312.2014          0.0004 
 04  3  1  3 23 59.9990000  0  8G05G07G09G18G22G26G28G29
 -17590246.37747 -13480389.49646  21273067.9704   21273072.5184          0.0004 
 -11040518.54746  -8495159.67546  22556856.8344   22556862.2734          0.0004 
 -26775021.36446 -20651792.00747  20043185.3664   20043189.2464          0.0004 
    669270.49146    514929.12746  22370040.7894   22370044.5284          0.0004 
  -9195877.65646  -6546654.36946  23588726.3124   23588728.6684          0.0004 
  -5564955.32748  -4192021.85646  21390239.5164   21390243.9934          0.0004 
    688275.44245    725534.83045  24750250.4174   24750252.3634          0.0004 
  -3142219.04947  -2317477.63846  22203117.5324   22203121.7284          0.0004 
 04  3  1  3 24 29.9990000  0  8G05G07G09G18G22G26G28G29
 -17668125.37247 -13541074.42046  21258248.3374   21258253.0144          0.0004 
 -11024046.72546  -8482324.49846  22559991.4624   22559997.4644          0.0004 
 -26799620.78547 -20670960.38547  20038504.5464   20038508.2744          0.0004 
    698091.55846    537387.08946  22375525.4134   22375529.5044          0.0004 
  -9229760.84446  -6573056.86446  23582278.4464   23582279.8874          0.0004 
  -5490588.97948  -4134074.05446  21404390.6024   21404395.1984          0.0004 
    781531.36545    798201.81645  24767996.1734   24767998.2484          0.0004 
  -3058840.03347  -2252506.98446  22218983.9094   22218987.6954          0.0004 
 04  3  1  3 24 59.9990000  0  8G05G07G09G18G22G26G28G29
 -17745636.04848 -13601472.30946  21243498.7774   21243502.8924          0.0004 
 -11007066.95446  -8469093.52046  22563222.9144   22563228.0014          0.0004 
 -26823885.88047 -20689868.25947  20033887.1014   20033890.7354          0.0004 
    727446.83446    560261.31246  22381111.3694   22381115.3084          0.0004 
  -9263112.10846  -6599044.83946  23575931.8774   23575933.7644          0.0004 
  -5415869.78148  -4075851.31647  21418609.6774   21418613.9674          0.0004 
    874814.10544    870889.69345  24785747.1784   24785753.1564          0.0004 
  -2975155.63247  -2187298.38446  22234908.7634   22234912.5384          0.0004 
 04  3  1  3 25 29.9990000  0  8G05G07G09G18G22G26G28G29
 -17822783.56747 -13661587.23146  21228817.7154   21228822.3224          0.0004 
 -10989585.97847  -8455471.96146  22566549.5894   22566553.7974          0.0004 
 -26847822.38846 -20708520.07747  20029331.8394   20029335.7434          0.0004 
    757327.94746    583545.26646  22386797.6754   22386801.5444          0.0004 
  -9295937.00746  -6624622.69346  23569685.5884   23569686.4564          0.0004 
  -5340805.50048  -4017359.67546  21432893.6264   21432898.0574          0.0004 
    968115.84145    943592.35945  24803502.0684   24803504.2484          0.0004 
  -2891173.91446  -2121858.06946  22250889.7714   22250894.4834          0.0004 
 04  3  1  3 25 59.9990000  0  8G05G07G09G18G22G26G28G29
 -17899556.06847 -13721409.97446  21214208.2084   21214213.6124          0.0004 
 -10971593.70447  -8441451.99346  22569973.0434   22569977.9434          0.0004 
 -26871419.12647 -20726907.14247  20024841.8364   20024845.8454          0.0004 
    787744.00546    607246.02646  22392586.1294   22392589.7984          0.0004 
  -9328224.11646  -6649781.44546  23563541.5304   23563542.7614          0.0004 
  -5265386.93748  -3958591.96446  21447245.4054   21447250.0354          0.0004 
   1061445.70944   1016316.90045  24821262.5254   24821265.5494          0.0004 
  -2806885.62846  -2056178.89646  22266929.3114   22266934.0594          0.0004 
 04  3  1  3 26 29.9990000  0  8G05G07G09G18G22G26G28G29
 -17975958.67748 -13780944.45546  21199669.6184   21199674.4354          0.0004 
 -10953096.89146  -8427038.88946  22573492.8164   22573498.0914          0.0004 
 -26894682.13146 -20745034.16247  20020414.8264   20020418.9644          0.0004 
    818686.76846    631357.22946  22398474.0024   22398477.0384          0.0004 
  -9359978.94546  -6674525.48345  23557498.4834   23557500.3704          0.0004 
  -5189621.98948  -3899554.35346  21461662.8254   21461667.1854          0.0004 
   1154795.84542   1089057.33945  24839025.3194   24839033.0214          0.0004 
  -2722298.83346  -1990267.12146  22283025.4674   22283029.9334          0.0004 
 04  3  1  3 26 59.9990000  0  8G05G07G09G18G22G26G28G29
 -18051991.48048 -13840190.74946  21185201.1074   21185205.1744          0.0004 
 -10934097.15246  -8412233.89546  22577108.1434   22577113.7234          0.0004 
 -26917611.95646 -20762901.55047  20016051.2884   20016055.0864          0.0004 
    850153.48746    655876.73546  22404461.6024   22404465.9394          0.0004 
  -9391202.13045  -6698855.21645  23551556.6164   23551558.3154          0.0004 
  -5113512.97948  -3840248.64646  21476145.8154   21476149.8134          0.0004 
   1248163.58243   1161811.37045  24856793.5274   24856797.9234          0.0004 
  -2637416.06646  -1924124.73146  22299178.0304   22299183.1884          0.0004 
 04  3  1  3 27 29.9990000  0  8G05G07G09G18G22G26G28G29
 -18127651.93147 -13899146.91746  21170803.0014   21170807.6084          0.0004 
 -10914593.39347  -8397036.14046  22580820.1634   22580824.9104          0.0004 
 -26940206.45447 -20780507.65347  20011752.1074   20011755.4954          0.0004 
    882143.67946    680804.19646  22410549.4954   22410553.5984          0.0004 
  -9421891.10846  -6722768.77246  23545716.8894   23545718.6704          0.0004 
  -5037059.78148  -3780674.74646  21490694.7134   21490699.3094          0.0004 
   1341549.24045   1234579.23845  24874565.0314   24874565.0084          0.0004 
  -2552237.34546  -1857751.69046  22315386.9304   22315391.8764          0.0004 
 04  3  1  3 27 59.9990000  0  9G05G07G09G18G22G26G28G29G30
 -18202940.08047 -13957812.99546  21156476.2954   21156481.4644          0.0004 
 -10894587.32946  -8381446.99846  22584626.6804   22584631.6154          0.0004 
 -26962466.18546 -20797852.89747  20007515.8154   20007519.5074          0.0004 
    914655.09346    706137.76146  22416736.3674   22416739.8254          0.0004 
  -9452046.15946  -6746266.19646  23539978.5384   23539981.9964          0.0004 
  -4960265.11648  -3720834.73246  21505308.1704   21505312.1674          0.0004 
   1434950.06644   1307359.24445  24892337.4774   24892339.5874          0.0004 
  -2466765.34346  -1791150.16346  22331652.3444   22331656.0844          0.0004 
   -335193.41045    -49839.33845  24523712.1484   24523714.3634          0.0004 
 04  3  1  3 28 29.9990000  0  9G05G07G09G18G22G26G28G29G30
 -18277853.31947 -14016186.93946  21142220.9464   21142226.0224          0.0004 
 -10874077.81646  -8365465.56846  22588529.7304   22588535.1694          0.0004 
 -26984389.11146 -20814935.69847  20003344.1924   20003348.1894          0.0004 
    947687.12646    731876.99546  22423022.0554   22423025.6654          0.0004 
  -9481665.27046  -6769346.05946  23534342.5984   23534345.1064          0.0004 
  -4883128.53748  -3660728.31446  21519986.8294   21519990.6044          0.0004 
   1528366.26044   1380151.07245  24910113.8184   24910113.1744          0.0004 
  -2381000.16146  -1724320.14746  22347972.4984   22347976.5534          0.0004 
   -447993.07842   -137735.05645  24502246.0874   24502255.2654          0.0004 
 04  3  1  3 28 59.9990000  0  8G05G07G09G18G22G26G28G29
 -18352390.62347 -14074267.91046  21128036.6194   21128041.0854          0.0004 
 -10853065.65546  -8349092.42946  22592528.3604   22592533.0954          0.0004 
 -27005974.90747 -20831755.80147  19999236.5124   19999240.2524          0.0004 
    981237.76846    758020.35146  22429406.1634   22429409.8204          0.0004 
  -9510747.82445  -6792007.80546  23528807.7584   23528810.1384          0.0004 
  -4805651.87548  -3600356.89746  21534730.1384   21534734.0074          0.0004 
   1621796.22944   1452953.69245  24927893.2594   24927897.2804          0.0004 
  -2294943.44046  -1657262.98346  22364348.6974   22364352.2614          0.0004 
 04  3  1  3 29 29.9990000  0  8G05G07G09G18G22G26G28G29
 -18426555.11847 -14132058.41846  21113923.5404   21113929.0384          0.0004 
 -10831555.65546  -8332331.39446  22596621.1904   22596625.8324          0.0004 
 -27027227.39246 -20848316.16747  19995192.0844   19995196.7144          0.0004 
   1015300.67346    784562.86746  22435888.0294   22435892.6474          0.0004 
  -9539297.45046  -6814254.29046  23523375.5654   23523376.5854          0.0004 
  -4727840.85048  -3539724.94446  21549536.8254   21549540.7754          0.0004 
   1715234.56343   1525762.67545  24945673.9434   24945681.2344          0.0004 
  -2208601.08246  -1589983.23646  22380779.0004   22380783.3144          0.0004 
 04  3  1  3 29 59.9990000  0  8G05G07G09G18G22G26G28G29
 -18500342.46548 -14189555.04846  21099882.6344   21099888.0264          0.0004 
 -10809544.42946  -8315179.77646  22600809.7134   22600814.8594          0.0004 
 -27048142.03347 -20864613.30047  19991212.3374   19991216.2994          0.0004 
   1049878.09246    811506.31046  22442468.1014   22442472.3444          0.0004 
  -9567309.57846  -6836081.90446  23518044.6824   23518047.6724          0.0004 
  -4649692.92448  -3478830.46346  21564408.0714   21564412.3844          0.0004 
   1808683.36543   1598580.01445  24963456.2634   24963455.0564          0.0004 
  -2121970.89946  -1522479.22046  22397264.2104   22397269.1814          0.0004 
 04  3  1  3 30 29.9990000  0  9G05G07G09G18G22G26G28G29G30
 -18573751.02448 -14246756.49946  21085913.1734   21085918.1194          0.0004 
 -10787032.71046  -8297638.16746  22605093.4514   22605099.5584          0.0004 
 -27068718.30246 -20880646.75747  19987296.6714   19987300.9964          0.0004 
   1084968.12546    838849.19846  22449145.5674   22449149.0024          0.0004 
  -9594783.54046  -6857490.21446  23512816.8414   23512818.4834          0.0004 
  -4571209.50848  -3417674.57546  21579342.9824   21579347.4604          0.0004 
   1902141.54643   1671404.46345  24981241.5704   24981241.3364          0.0004 
  -2035054.16646  -1454751.90246  22413803.8914   22413808.4864          0.0004 
   -333759.07444    -58380.21445  24416572.7234   24416576.9664          0.0004 
 04  3  1  3 30 59.9990000  0  9G05G07G09G18G22G26G28G29G30
 -18646774.97247 -14303658.25246  21072017.0644   21072021.8704          0.0004 
 -10764016.34946  -8279703.36046  22609473.8114   22609479.9064          0.0004 
 -27088951.00647 -20896412.48547  19983446.8144   19983450.9054          0.0004 
   1120573.52946    866593.63746  22455921.4744   22455924.8154          0.0004 
  -9621714.15246  -6878475.08046  23507692.3884   23507694.0054          0.0004 
  -4492387.45847  -3356254.81046  21594342.4384   21594347.1034          0.0004 
   1995612.44942   1744238.96845  24999027.6544   24999024.0094          0.0004 
  -1947848.11746  -1386799.16046  22430398.8164   22430402.4734          0.0004 
   -446054.79943   -145883.32145  24395202.5904   24395211.0774          0.0004 
