     2.10           OBSERVATION DATA    G (GPS)             RINEX VERSION / TYPE
teqc  2000Jul20     ARGNET              20040302 02:08:51UTCPGM / RUN BY / DATE
Solaris 2.7|Ultra 2|cc SC5.0|=+-|*Sparc                     COMMENT
BIT 2 OF LLI FLAGS DATA COLLECTED UNDER A/S CONDITION       COMMENT
coco                                                        MARKER NAME
50127M001                                                   MARKER NUMBER
Geoscience AustraliaGeoscience Australia                    OBSERVER / AGENCY
C130U               AOA SNR-12 ACT      99.12.12 / 3.3.32.3 REC # / TYPE / VERS
261                 AOAD/M_T        AUST                    ANT # / TYPE
  -741952.1911  6190968.1181 -1337770.3869                  APPROX POSITION XYZ
        0.0040        0.0000        0.0000                  ANTENNA: DELTA H/E/N
     1     1                                                WAVELENGTH FACT L1/2
     7    L1    L2    C1    P2    P1    S1    S2            # / TYPES OF OBSERV
    30.0000                                                 INTERVAL
Australian Regional GPS Network (ARGN)                      COMMENT
Cocos Island AU018                                          COMMENT
    P1 =    P1  TurboRogue; =    Y1  Benchmark              COMMENT
    L1 = L1(P1) TurboRogue; = L1(Y1) Benchmark              COMMENT
    P2 =    P2  TurboRogue; =    Y2  Benchmark              COMMENT
    L2 = L2(P2) TurboRogue; = L2(Y2) Benchmark              COMMENT
 SNR is mapped to RINEX snr flag value [1,4-9]              COMMENT
    SNR:   >316  >100  >31.6  >10  >3.2    >0 bad=0         COMMENT
L1 & L2:      9     8     7     6     5     4     1         COMMENT
teqc windowed: start @ 2004 Mar  1 00:00:00.000             COMMENT
teqc windowed: delta = 86398.560 sec                        COMMENT
  2004     3     1     0     0    0.0000000     GPS         TIME OF FIRST OBS
                                                            END OF HEADER
 04  3  1  0  0  0.0000000  0  8G13G 7G25G27G 1G11G31G20
 -17674595.011 7 -13772412.412 6  21196784.025    21196781.968    21196784.348
       132.000         112.000
  -9452391.737 4  -7365500.366 4  23036929.418    23036928.402    23036929.055
        28.000          17.000
   1886888.958 4   1470300.293 4  24878050.217    24878050.553    24878049.858
        10.000           5.000
  -3357835.086 4  -2616498.384 4  24248988.796    24248988.488    24248989.241
         9.000           6.000
 -24306950.172 9 -18940479.597 9  20128148.608    20128147.344    20128148.423
       232.000         229.000
 -21143264.161 8 -16475267.996 7  20614128.339    20614125.815    20614128.404
       196.000         169.000
 -14948589.699 4 -11648250.922 4  22804206.053    22804204.765    22804205.659
        35.000          23.000
 -11979317.659 5  -9334533.420 4  22440826.807    22440824.571    22440826.140
        78.000          36.000
 04  3  1  0  0 30.0000000  0  8G13G 7G25G27G 1G11G31G20
 -17720165.219 7 -13807921.691 6  21188112.381    21188110.356    21188112.668
       132.000         115.000
  -9507222.893 4  -7408225.970 4  23026495.522    23026494.483    23026494.727
        27.000          16.000
   1945711.211 4   1516135.754 4  24889243.292    24889244.223    24889243.390
        11.000           6.000
  -3454698.459 4  -2691976.397 4  24230557.302    24230556.122    24230556.698
         9.000           6.000
 -24286227.890 9 -18924332.387 9  20132091.922    20132090.682    20132091.754
       233.000         228.000
 -21141785.389 8 -16474115.744 7  20614409.857    20614407.332    20614409.871
       196.000         169.000
 -14850262.676 4 -11571632.553 4  22822916.896    22822915.957    22822916.829
        33.000          22.000
 -11961850.462 5  -9320922.662 4  22444150.490    22444148.518    22444150.077
        78.000          35.000
 04  3  1  0  1  0.0000000  0  8G13G 7G25G27G 1G11G31G20
 -17765269.691 7 -13843068.056 6  21179529.367    21179527.283    21179529.619
       133.000         115.000
  -9561620.128 4  -7450613.456 4  23016144.057    23016142.872    23016143.659
        27.000          16.000
   2004914.726 4   1562268.321 4  24900510.058    24900510.406    24900509.988
        11.000           5.000
  -3551747.350 4  -2767598.985 4  24212089.489    24212088.203    24212089.317
        11.000           6.000
 -24265000.894 9 -18907791.895 9  20136131.288    20136130.044    20136131.109
       231.000         225.000
 -21139904.488 8 -16472650.144 7  20614767.776    20614765.280    20614767.751
       195.000         167.000
 -14751861.718 4 -11494956.556 4  22841642.224    22841641.146    22841642.009
        34.000          23.000
 -11944484.768 5  -9307390.998 4  22447455.102    22447453.144    22447454.606
        76.000          34.000
 04  3  1  0  1 30.0000000  0  8G13G 7G25G27G 1G11G31G20
 -17809893.145 7 -13877839.604 6  21171037.803    21171035.685    21171038.083
       134.000         115.000
  -9615567.481 4  -7492650.378 4  23005877.824    23005877.218    23005877.480
        26.000          16.000
   2064513.509 4   1608708.883 4  24911851.392    24911851.171    24911851.293
        10.000           3.000
  -3648964.825 4  -2843352.941 4  24193589.317    24193588.376    24193589.298
        11.000           6.000
 -24243255.984 9 -18890847.833 9  20140269.239    20140268.009    20140269.080
       232.000         226.000
 -21137605.339 8 -16470858.636 8  20615205.382    20615202.771    20615205.343
       196.000         170.000
 -14653374.815 4 -11418213.615 4  22860383.858    22860382.914    22860383.451
        32.000          25.000
 -11927205.990 5  -9293927.057 4  22450743.300    22450741.276    22450742.794
        75.000          34.000
 04  3  1  0  2  0.0000000  0  8G13G 7G25G27G 1G11G31G20
 -17854029.171 7 -13912231.337 6  21162639.025    21162636.944    21162639.321
       135.000         118.000
  -9669058.059 4  -7534331.378 4  22995699.052    22995698.148    22995698.575
        27.000          17.000
   2124511.999 4   1655460.907 4  24923268.759    24923269.274    24923268.328
         8.000           4.000
  -3746342.850 4  -2919231.992 4  24175059.424    24175058.161    24175058.659
        12.000           7.000
 -24220989.051 9 -18873497.001 9  20144506.541    20144505.308    20144506.357
       231.000         225.000
 -21134881.093 8 -16468735.881 7  20615723.701    20615721.178    20615723.739
       196.000         169.000
 -14554799.141 4 -11341401.499 4  22879142.440    22879141.208    22879142.033
        31.000          23.000
 -11910008.852 5  -9280526.733 4  22454015.795    22454013.820    22454015.209
        74.000          34.000
 04  3  1  0  2 30.0000000  0  8G13G 7G25G27G 1G11G31G20
 -17897686.000 7 -13946249.668 6  21154331.351    21154329.342    21154331.658
       132.000         116.000
  -9722099.499 4  -7575662.395 4  22985605.758    22985604.709    22985605.332
        27.000          17.000
   2184900.363 4   1702516.745 4  24934760.287    24934760.576    24934760.071
         7.000           4.000
  -3843888.224 4  -2995241.426 4  24156496.277    24156496.161    24156497.148
        13.000           8.000
 -24198210.729 9 -18855747.684 9  20148841.202    20148839.910    20148840.950
       232.000         223.000
 -21131739.493 8 -16466287.919 7  20616321.666    20616319.058    20616321.615
       196.000         169.000
 -14456146.382 4 -11264529.304 4  22897915.104    22897913.928    22897914.878
        31.000          20.000
 -11892902.648 5  -9267197.264 4  22457270.935    22457269.039    22457270.499
        74.000          35.000
 04  3  1  0  3  0.0000000  0  8G13G 7G25G27G 1G11G31G20
 -17940847.229 7 -13979881.820 6  21146118.085    21146116.060    21146118.413
       136.000         119.000
  -9774675.122 4  -7616630.442 4  22975601.024    22975599.960    22975600.592
        26.000          17.000
   2245693.032 4   1749887.588 4  24946327.655    24946328.923    24946327.843
         8.000           7.000
  -3941583.092 4  -3071367.366 4  24137906.092    24137905.887    24137906.059
        16.000           9.000
 -24174907.028 9 -18837588.981 9  20153275.715    20153274.463    20153275.551
       236.000         224.000
 -21128163.619 8 -16463501.561 7  20617002.111    20616999.607    20617002.135
       196.000         169.000
 -14357403.800 4 -11187587.114 4  22916705.766    22916704.491    22916705.414
        31.000          20.000
 -11875872.350 5  -9253926.941 4  22460511.654    22460509.865    22460511.350
        72.000          33.000
 04  3  1  0  3 30.0000000  0  8G13G 7G25G27G 1G11G31G20
 -17983528.324 7 -14013139.839 6  21137996.118    21137994.155    21137996.387
       137.000         121.000
  -9826799.652 4  -7657246.984 4  22965681.836    22965681.068    22965681.317
        25.000          17.000
   2306872.256 4   1797559.649 4  24957970.611    24957971.296    24957970.222
         8.000           6.000
  -4039441.228 4  -3147620.545 4  24119284.165    24119283.585    24119283.964
        15.000           9.000
 -24151095.451 9 -18819034.530 9  20157806.903    20157805.707    20157806.774
       236.000         222.000
 -21124168.087 8 -16460388.196 7  20617762.450    20617760.024    20617762.514
       196.000         169.000
 -14258590.256 4 -11110589.636 4  22935509.260    22935508.142    22935508.708
        28.000          22.000
 -11858934.166 5  -9240728.398 4  22463734.853    22463733.149    22463734.517
        74.000          34.000
 04  3  1  0  4  0.0000000  0  8G13G 7G25G27G 1G11G31G20
 -18025728.619 7 -14046023.208 6  21129965.677    21129963.748    21129965.992
       137.000         121.000
  -9878471.739 4  -7697510.974 4  22955849.311    22955848.290    22955848.694
        25.000          18.000
   2368437.646 4   1845532.615 4  24969685.829    24969686.658    24969686.096
         6.000           6.000
  -4137460.113 4  -3223998.948 4  24100631.896    24100631.314    24100631.660
        16.000          11.000
 -24126777.392 9 -18800085.418 9  20162434.571    20162433.299    20162434.362
       235.000         221.000
 -21119751.701 8 -16456946.896 7  20618602.936    20618600.453    20618602.926
       196.000         166.000
 -14159708.314 4 -11033538.871 4  22954326.220    22954325.083    22954325.492
        30.000          23.000
 -11842088.238 5  -9227601.741 4  22466940.764    22466938.836    22466940.282
        74.000          34.000
 04  3  1  0  4 30.0000000  0  8G13G 7G25G27G 1G11G31G20
 -18067443.329 7 -14078528.202 6  21122027.714    21122025.702    21122028.003
       138.000         122.000
  -9929686.365 4  -7737418.506 4  22946102.888    22946102.519    22946102.618
        26.000          18.000
   2430391.624 4   1893808.368 4  24981475.561    24981476.250    24981475.115
         6.000           5.000
  -4235633.336 4  -3300497.633 4  24081950.822    24081949.940    24081950.474
        14.000          11.000
 -24101950.526 9 -18780739.834 9  20167158.906    20167157.717    20167158.725
       234.000         220.000
 -21114909.195 8 -16453173.549 7  20619524.453    20619521.882    20619524.444
       195.000         164.000
 -14060756.789 4 -10956433.879 4  22973155.338    22973154.919    22973155.117
        28.000          21.000
 -11825330.689 5  -9214543.953 4  22470129.735    22470127.738    22470129.229
        75.000          34.000
 04  3  1  0  5  0.0000000  0  8G13G 7G25G27G 1G11G31G20
 -18108671.516 7 -14110654.087 6  21114182.210    21114180.261    21114182.576
       138.000         122.000
  -9980441.754 4  -7776968.193 4  22936444.766    22936444.071    22936444.433
        26.000          18.000
   2492733.926 4   1942386.702 4  24993338.625    24993339.286    24993338.851
         5.000           4.000
  -4333958.212 4  -3377114.477 4  24063239.094    24063239.707    24063239.557
        11.000          12.000
 -24076615.990 9 -18760998.663 9  20171979.909    20171978.761    20171979.756
       235.000         220.000
 -21109638.779 8 -16449066.768 7  20620527.509    20620524.777    20620527.464
       196.000         163.000
 -13961737.966 4 -10879276.451 4  22991998.799    22991997.537    22991997.970
        24.000          18.000
 -11808661.600 5  -9201555.092 4  22473301.741    22473299.730    22473301.197
        75.000          34.000
 04  3  1  0  5 30.0000000  0  8G13G 7G25G27G 1G11G31G20
 -18149406.461 7 -14142395.628 6  21106430.767    21106428.651    21106431.017
       139.000         122.000
 -10030730.812 4  -7816154.501 4  22926875.141    22926874.408    22926874.773
        25.000          18.000
   2555469.172 4   1991271.265 4  25005277.064    25005277.958    25005277.274
         9.000           5.000
  -4432426.441 4  -3453843.012 4  24044502.560    24044501.127    24044502.123
        10.000          10.000
 -24050769.551 9 -18740858.608 9  20176898.401    20176897.180    20176898.199
       235.000         217.000
 -21103933.259 8 -16444620.946 7  20621613.238    20621610.622    20621613.179
       196.000         163.000
 -13862648.633 4 -10802064.075 4  23010854.994    23010853.589    23010854.136
        25.000          18.000
 -11792075.167 5  -9188630.641 4  22476458.182    22476456.165    22476457.600
        74.000          34.000
 04  3  1  0  6  0.0000000  0  8G13G 7G25G27G 1G11G31G20
 -18189659.832 7 -14173761.918 6  21098770.681    21098768.672    21098771.020
       140.000         122.000
 -10080564.556 4  -7854986.025 4  22917392.404    22917391.442    22917391.873
        26.000          19.000
   2618584.166 4   2040451.715 4  25017287.418    25017288.037    25017287.211
        12.000           7.000
  -4531047.571 4  -3530690.701 4  24025735.134    24025733.916    24025735.133
        12.000           9.000
 -24024424.803 9 -18720330.260 9  20181911.711    20181910.437    20181911.485
       236.000         217.000
 -21097803.217 8 -16439844.330 7  20622779.599    20622777.263    20622779.649
       194.000         164.000
 -13763503.521 4 -10724808.235 4  23029721.234    23029720.669    23029720.775
        27.000          21.000
 -11775583.749 5  -9175780.221 4  22479596.067    22479594.364    22479595.759
        74.000          34.000
 04  3  1  0  6 30.0000000  0  8G13G 7G25G27G 1G11G31G20
 -18229419.066 7 -14204743.164 6  21091204.767    21091202.798    21091205.105
       141.000         122.000
 -10129929.944 4  -7893452.596 4  22907998.097    22907997.731    22907997.851
        25.000          19.000
   2682089.459 4   2089936.317 4  25029371.739    25029372.893    25029372.406
        10.000           6.000
  -4629807.368 4  -3607646.468 4  24006940.824    24006941.062    24006941.262
        11.000          11.000
 -23997571.601 9 -18699405.714 9  20187021.696    20187020.440    20187021.470
       235.000         214.000
 -21091235.764 8 -16434726.872 7  20624029.378    20624027.048    20624029.389
       194.000         164.000
 -13664293.464 4 -10647501.786 4  23048600.848    23048599.905    23048600.102
        26.000          21.000
 -11759175.727 5  -9162994.788 4  22482718.575    22482716.826    22482718.147
        73.000          33.000
 04  3  1  0  7  0.0000000  0  8G13G 7G25G27G 1G11G31G20
 -18268684.448 7 -14235339.591 6  21083732.842    21083730.888    21083733.204
       142.000         125.000
 -10178826.432 4  -7931553.792 4  22898693.500    22898692.901    22898693.184
        25.000          19.000
   2745983.094 4   2139723.510 4  25041530.966    25041531.628    25041530.619
        14.000          10.000
  -4728704.039 4  -3684708.867 4  23988122.995    23988122.045    23988122.395
        12.000          13.000
 -23970212.308 9 -18678086.809 9  20192227.988    20192226.766    20192227.826
       234.000         213.000
 -21084230.392 8 -16429268.176 7  20625362.548    20625360.094    20625362.566
       196.000         163.000
 -13565021.857 4 -10570147.398 4  23067491.464    23067490.404    23067490.796
        22.000          19.000
 -11742851.879 5  -9150274.950 4  22485824.897    22485823.107    22485824.581
        74.000          33.000
 04  3  1  0  7 30.0000000  0  8G13G 7G25G27G 1G11G31G20
 -18307471.795 7 -14265563.523 6  21076351.921    21076349.955    21076352.265
       143.000         126.000
 -10227269.639 4  -7969301.781 4  22889475.208    22889474.572    22889474.745
        25.000          20.000
   2810247.126 4   2189799.344 4  25053759.638    25053761.106    25053759.650
        11.000           8.000
  -4827751.911 4  -3761889.091 4  23969274.302    23969274.619    23969274.426
        14.000          14.000
 -23942365.305 9 -18656387.871 8  20197527.094    20197525.911    20197526.944
       233.000         212.000
 -21076802.589 8 -16423480.314 7  20626776.067    20626773.483    20626776.141
       193.000         160.000
 -13465708.065 4 -10492760.115 4  23086390.630    23086389.443    23086389.833
        22.000          17.000
 -11726628.986 5  -9137633.779 4  22488912.118    22488910.242    22488911.616
        72.000          33.000
 04  3  1  0  8  0.0000000  0  8G13G 7G25G27G 1G11G31G20
 -18345774.549 7 -14295409.851 7  21069063.150    21069061.192    21069063.461
       143.000         128.000
 -10275252.135 4  -8006690.774 4  22880344.541    22880343.795    22880344.079
        25.000          20.000
   2874886.524 4   2240167.679 4  25066060.563    25066060.958    25066060.452
         8.000           4.000
  -4926942.122 4  -3839180.219 4  23950399.271    23950398.732    23950399.106
        11.000          12.000
 -23914025.906 9 -18634305.248 8  20202919.948    20202918.782    20202919.763
       234.000         212.000
 -21068944.819 8 -16417357.413 7  20628271.428    20628268.871    20628271.422
       197.000         163.000
 -13366348.365 4 -10415337.069 4  23105297.641    23105296.840    23105297.372
        25.000          16.000
 -11710500.845 5  -9125066.439 4  22491981.297    22491979.449    22491980.822
        75.000          34.000
 04  3  1  0  8 30.0000000  0  8G13G 7G25G27G 1G11G31G20
 -18383594.311 7 -14324879.819 6  21061866.345    21061864.353    21061866.617
       143.000         127.000
 -10322775.195 4  -8043721.761 4  22871301.134    22871300.413    22871300.743
        23.000          19.000
   2939898.513 4   2290826.318 4  25078431.868    25078432.293    25078431.460
         7.000           5.000
  -5026274.376 4  -3916582.050 4  23931497.277    23931496.505    23931496.754
        12.000          11.000
 -23885198.067 9 -18611842.025 8  20208405.717    20208404.550    20208405.556
       232.000         210.000
 -21060658.166 8 -16410900.316 7  20629848.210    20629845.920    20629848.238
       194.000         163.000
 -13266947.663 4 -10337882.072 4  23124213.189    23124212.336    23124212.706
        24.000          17.000
 -11694469.922 5  -9112574.858 4  22495031.904    22495030.067    22495031.431
        76.000          35.000
 04  3  1  0  9  0.0000000  0  8G13G 7G25G27G 1G11G31G20
 -18420911.717 7 -14353958.343 6  21054765.123    21054763.122    21054765.400
       143.000         127.000
 -10369818.722 4  -8080379.098 4  22862349.057    22862348.600    22862348.602
        25.000          21.000
   3005300.239 4   2341788.690 4  25090877.275    25090878.127    25090877.292
        10.000           6.000
  -5125727.352 4  -3994077.922 4  23912571.364    23912570.785    23912571.636
        12.000          10.000
 -23855864.641 9 -18588984.837 8  20213987.655    20213986.554    20213987.497
       231.000         207.000
 -21051922.466 8 -16404093.314 7  20631510.553    20631508.301    20631510.593
       194.000         162.000
 -13167489.780 4 -10260382.522 4  23143139.864    23143138.806    23143139.170
        21.000          17.000
 -11678517.439 5  -9100144.395 4  22498067.556    22498065.712    22498067.113
        75.000          33.000
 04  3  1  0  9 30.0000000  0  8G13G 7G25G27G 1G11G31G20
 -18457720.164 7 -14382640.276 7  21047760.641    21047758.712    21047760.996
       144.000         129.000
 -10416375.711 4  -8116657.302 4  22853489.429    22853488.888    22853488.963
        25.000          21.000
   3071096.446 4   2393058.396 4  25103398.118    25103399.212    25103397.687
         8.000           6.000
  -5225292.409 4  -4071661.139 4  23893626.027    23893624.636    23893625.169
        13.000          10.000
 -23826021.390 9 -18565730.383 8  20219666.713    20219665.568    20219666.535
       232.000         210.000
 -21042730.702 8 -16396930.935 7  20633259.770    20633257.398    20633259.795
       197.000         163.000
 -13067971.169 4 -10182835.672 4  23162077.435    23162076.605    23162077.060
        21.000          16.000
 -11662637.432 5  -9087770.403 4  22501089.580    22501087.616    22501089.066
        75.000          34.000
 04  3  1  0 10  0.0000000  0  8G13G 7G25G27G 1G11G31G20
 -18494050.682 7 -14410949.796 7  21040847.279    21040845.282    21040847.571
       144.000         130.000
 -10462476.151 4  -8152579.756 4  22844716.851    22844716.445    22844716.627
        25.000          22.000
   3137254.482 4   2444610.076 4  25115987.139    25115988.386    25115986.747
         4.000           2.000
  -5324998.282 4  -4149354.081 4  23874651.185    23874651.450    23874651.060
        12.000          10.000
 -23795701.217 9 -18542104.301 8  20225436.525    20225435.341    20225436.277
       231.000         209.000
 -21033112.648 8 -16389436.388 7  20635090.145    20635087.576    20635090.088
       198.000         162.000
 -12968425.739 4 -10105267.893 4  23181020.442    23181019.182    23181020.006
        23.000          14.000
 -11646861.247 5  -9075477.315 4  22504091.667    22504089.859    22504091.174
        73.000          33.000
 04  3  1  0 10 30.0000000  0  8G13G 7G25G27G 1G11G31G20
 -18529892.983 7 -14438878.886 7  21034026.760    21034024.737    21034027.052
       145.000         130.000
 -10508109.709 4  -8188138.406 4  22836033.259    22836032.620    22836032.888
        26.000          22.000
   3203783.103 4   2496450.553 4  25128647.405    25128647.518    25128648.631
         4.000           2.000
  -5424832.815 4  -4227147.280 4  23855653.943    23855653.327    23855653.530
        13.000          10.000
 -23764896.397 9 -18518100.572 8  20231298.425    20231297.341    20231298.238
       231.000         208.000
 -21023058.032 8 -16381601.660 7  20637003.361    20637001.003    20637003.380
       192.000         160.000
 -12868846.658 4 -10027673.906 4  23199968.874    23199968.787    23199968.760
        22.000          14.000
 -11631179.429 5  -9063257.757 4  22507075.893    22507073.983    22507075.317
        73.000          34.000
 04  3  1  0 11  0.0000000  0  8G13G 7G25G27G 1G11G31G20
 -18565244.706 7 -14466425.708 7  21027299.537    21027297.496    21027299.807
       147.000         134.000
 -10553273.300 4  -8223330.844 4  22827439.031    22827438.289    22827438.572
        26.000          23.000
   3270682.831 4   2548580.178 4  25141378.551    25141378.590    25141378.081
         4.000           1.000
  -5524791.375 4  -4305037.122 4  23836632.935    23836631.857    23836632.160
        14.000          10.000
 -23733606.753 9 -18493719.057 8  20237252.662    20237251.577    20237252.461
       231.000         208.000
 -21012563.297 8 -16373423.982 7  20639000.483    20638998.223    20639000.513
       195.000         163.000
 -12769234.346 4  -9950054.015 4  23218925.188    23218924.892    23218924.500
        22.000          15.000
 -11615589.828 5  -9051110.058 4  22510042.482    22510040.716    22510041.976
        72.000          33.000
 04  3  1  0 11 30.0000000  0  7G13G 7G27G31G20G 1G11
 -18600114.273 7 -14493596.823 7  21020664.160    21020662.085    21020664.348
       146.000         133.000
 -10597974.812 4  -8258163.218 4  22818932.242    22818932.051    22818932.179
        26.000          23.000
  -5624880.329 4  -4383028.585 4  23817585.914    23817585.766    23817586.079
        15.000           9.000
 -12669600.328 4  -9872417.236 4  23237885.246    23237884.324    23237884.618
        23.000          15.000
 -11600101.489 5  -9039041.270 4  22512989.806    22512988.062    22512989.411
        71.000          32.000
 -23701842.975 9 -18468968.088 8  20243297.107    20243296.056    20243296.975
       231.000         208.000
 -21001636.415 8 -16364909.565 7  20641079.989    20641077.637    20641079.931
       197.000         165.000
 04  3  1  0 12  0.0000000  0  7G13G 7G27G31G20G 1G11
 -18634494.519 7 -14520386.650 7  21014121.724    21014119.791    21014122.015
       147.000         135.000
 -10642206.393 4  -8292629.410 4  22810515.544    22810515.002    22810515.270
        27.000          24.000
  -5725090.183 4  -4461114.244 4  23798517.116    23798516.818    23798516.426
        13.000           9.000
 -12569940.263 4  -9794760.141 4  23256849.863    23256848.616    23256849.174
        23.000          14.000
 -11584707.291 5  -9027045.835 4  22515919.158    22515917.684    22515918.813
        69.000          33.000
 -23669599.763 9 -18443843.534 8  20249432.875    20249431.777    20249432.663
       232.000         207.000
 -20990269.755 8 -16356052.466 7  20643242.966    20643240.575    20643243.018
       195.000         162.000
 04  3  1  0 12 30.0000000  0  7G13G 7G27G31G20G 1G11
 -18668372.758 7 -14546785.298 7  21007674.926    21007673.024    21007675.253
       147.000         136.000
 -10685954.864 4  -8326719.154 4  22802190.350    22802189.864    22802189.902
        26.000          23.000
  -5825406.198 4  -4539282.618 4  23779426.964    23779426.715    23779426.885
        13.000           8.000
 -12470244.495 4  -9717075.245 4  23275821.734    23275820.596    23275821.070
        21.000          13.000
 -11569395.396 5  -9015114.533 4  22518832.926    22518831.173    22518832.543
        70.000          33.000
 -23636866.746 9 -18418337.312 8  20255661.778    20255660.661    20255661.594
       233.000         206.000
 -20978449.247 8 -16346841.721 7  20645492.305    20645489.897    20645492.353
       197.000         161.000
 04  3  1  0 13  0.0000000  0  7G13G 7G27G31G20G 1G11
 -18701761.609 7 -14572802.608 7  21001321.166    21001319.339    21001321.532
       147.000         138.000
 -10729232.253 4  -8360441.823 4  22793955.168    22793954.615    22793954.785
        26.000          23.000
  -5925838.461 4  -4617541.599 4  23760315.416    23760315.470    23760315.649
        14.000          10.000
 -12370528.438 4  -9639374.534 4  23294796.529    23294796.189    23294795.896
        22.000          12.000
 -11554178.394 5  -9003257.173 4  22521728.609    22521727.046    22521728.297
        71.000          33.000
 -23603658.639 9 -18392460.892 8  20261981.043    20261980.007    20261980.878
       234.000         206.000
 -20966187.103 8 -16337286.847 7  20647825.784    20647823.384    20647825.750
       197.000         162.000
 04  3  1  0 13 30.0000000  0  7G13G 7G27G31G20G 1G11
 -18734652.822 7 -14598432.146 7  20995062.120    20995060.340    20995062.540
       147.000         139.000
 -10772029.721 4  -8393790.526 4  22785810.816    22785810.500    22785810.633
        27.000          24.000
  -6026376.665 4  -4695883.095 4  23741184.307    23741183.832    23741183.616
        16.000          10.000
 -12270786.716 4  -9561653.809 4  23313777.513    23313776.601    23313776.789
        23.000          12.000
 -11539048.466 5  -8991467.661 4  22524607.867    22524606.182    22524607.525
        71.000          33.000
 -23569969.553 9 -18366209.681 8  20268391.886    20268390.809    20268391.719
       232.000         204.000
 -20953474.395 8 -16327380.885 7  20650244.946    20650242.627    20650244.935
       196.000         162.000
 04  3  1  0 14  0.0000000  0  7G13G 7G27G31G20G 1G11
 -18767052.995 7 -14623679.057 7  20988896.629    20988894.788    20988897.071
       149.000         139.000
 -10814353.080 4  -8426769.795 4  22777757.283    22777756.659    22777756.759
        27.000          24.000
  -6127024.680 4  -4774310.183 4  23722030.758    23722030.873    23722031.247
        17.000          12.000
 -12171028.612 4  -9483920.345 4  23332760.167    23332759.901    23332759.821
        23.000          12.000
 -11524012.283 5  -8979751.193 4  22527469.063    22527467.566    22527468.716
        70.000          33.000
 -23535808.046 9 -18339590.352 8  20274892.633    20274891.564    20274892.486
       231.000         203.000
 -20940316.741 8 -16317128.208 7  20652748.901    20652746.567    20652748.920
       198.000         162.000
 04  3  1  0 14 30.0000000  0  7G 7G27G31G20G 1G13G11
 -10856207.350 4  -8459383.548 4  22769792.696    22769792.105    22769792.396
        27.000          25.000
  -6227785.821 4  -4852825.414 4  23702858.046    23702856.484    23702857.179
        17.000          10.000
 -12071262.570 4  -9406180.690 4  23351745.057    23351745.679    23351744.759
        22.000          14.000
 -11509075.641 5  -8968112.292 4  22530311.559    22530309.961    22530311.048
        69.000          34.000
 -23501181.987 9 -18312609.034 8  20281481.814    20281480.672    20281481.621
       232.000         200.000
 -18798967.527 7 -14648547.547 7  20982823.601    20982821.788    20982823.955
       149.000         142.000
 -20926719.261 8 -16306532.810 7  20655336.472    20655334.121    20655336.433
       197.000         163.000
 04  3  1  0 15  0.0000000  0  7G 7G27G31G20G 1G13G11
 -10897593.213 4  -8491632.307 4  22761917.207    22761916.737    22761916.662
        27.000          25.000
  -6328658.809 4  -4931427.803 4  23683660.976    23683661.211    23683661.999
        17.000          10.000
 -11971492.576 4  -9328437.945 4  23370730.828    23370730.951    23370730.838
        23.000          11.000
 -11494239.983 5  -8956552.081 4  22533134.651    22533133.178    22533134.371
        70.000          33.000
 -23466094.733 9 -18285268.344 8  20288158.704    20288157.600    20288158.535
       228.000         197.000
 -18830397.723 7 -14673038.634 7  20976842.708    20976840.723    20976842.998
       150.000         141.000
 -20912682.323 8 -16295594.978 7  20658007.586    20658005.245    20658007.604
       196.000         161.000
 04  3  1  0 15 30.0000000  0  7G 7G27G31G20G 1G13G11
 -10938502.449 4  -8523509.665 4  22754132.223    22754132.114    22754131.957
        28.000          26.000
  -6429633.815 4  -5010109.657 4  23664447.338    23664446.250    23664446.542
        16.000           9.000
 -11871713.749 4  -9250688.315 4  23389718.419    23389718.042    23389717.911
        23.000          11.000
 -11479498.102 5  -8945064.943 4  22535940.059    22535938.436    22535939.646
        68.000          32.000
 -23430540.771 9 -18257563.985 8  20294924.391    20294923.300    20294924.227
       226.000         195.000
 -18861336.176 7 -14697146.546 7  20970955.343    20970953.398    20970955.700
       150.000         142.000
 -20898197.630 8 -16284308.244 7  20660763.930    20660761.597    20660763.911
       197.000         162.000
 04  3  1  0 16  0.0000000  0  7G 7G27G31G20G 1G13G11
 -10978920.365 4  -8555004.182 4  22746441.015    22746440.790    22746440.771
        27.000          26.000
  -6530694.123 4  -5088858.004 4  23645215.784    23645215.320    23645215.624
        18.000           9.000
 -11771914.842 4  -9172923.028 4  23408710.139    23408709.162    23408709.140
        21.000          10.000
 -11464835.731 5  -8933639.761 4  22538730.137    22538728.688    22538729.749
        69.000          33.000
 -23394508.384 9 -18229486.826 8  20301781.165    20301780.083    20301780.980
       230.000         197.000
 -18891768.537 7 -14720860.099 7  20965164.341    20965162.367    20965164.606
       152.000         143.000
 -20883250.409 8 -16272661.097 7  20663608.361    20663606.022    20663608.310
       199.000         162.000
 04  3  1  0 16 30.0000000  0  7G 7G27G31G20G 1G13G11
 -11018862.928 4  -8586128.288 4  22738840.310    22738840.087    22738840.004
        27.000          26.000
  -6631853.651 4  -5167683.664 4  23625965.551    23625965.721    23625965.746
        22.000          10.000
 -11672114.871 4  -9095156.928 4  23427701.162    23427700.107    23427700.459
        21.000           9.000
 -11450269.369 5  -8922289.391 4  22541502.180    22541500.527    22541501.703
        69.000          33.000
 -23358016.034 9 -18201051.253 8  20308725.451    20308724.413    20308725.264
       227.000         194.000
 -18921711.285 7 -14744192.137 7  20959466.521    20959464.430    20959466.718
       151.000         142.000
 -20867856.205 8 -16260665.655 7  20666537.765    20666535.506    20666537.798
       198.000         161.000
 04  3  1  0 17  0.0000000  0  7G 7G27G31G20G 1G13G11
 -11058324.376 4  -8616877.507 4  22731331.392    22731330.917    22731330.862
        28.000          25.000
  -6733104.910 4  -5246580.800 4  23606699.139    23606698.224    23606698.408
        19.000          12.000
 -11572311.479 4  -9017388.174 4  23446692.840    23446692.593    23446692.719
        20.000          11.000
 -11435794.248 5  -8911010.118 4  22544256.842    22544255.114    22544256.383
        69.000          33.000
 -23321060.655 9 -18172254.881 8  20315757.864    20315756.793    20315757.650
       226.000         195.000
 -18951159.466 7 -14767138.799 7  20953862.640    20953860.788    20953862.871
       150.000         146.000
 -20852009.135 8 -16248317.331 7  20669553.396    20669551.197    20669553.434
       199.000         161.000
 04  3  1  0 17 30.0000000  0  7G 7G27G31G20G 1G13G11
 -11097310.596 4  -8647256.415 4  22723912.263    22723911.846    22723911.942
        28.000          25.000
  -6834451.604 4  -5325552.289 4  23587412.682    23587412.285    23587412.505
        19.000          13.000
 -11472513.597 4  -8939623.699 4  23465683.584    23465684.278    23465683.267
        18.000          10.000
 -11421416.574 5  -8899806.781 4  22546992.779    22546991.198    22546992.331
        70.000          33.000
 -23283650.863 9 -18143104.420 8  20322876.645    20322875.678    20322876.477
       225.000         194.000
 -18980119.300 7 -14789704.930 7  20948351.771    20948349.827    20948352.024
       150.000         146.000
 -20835714.889 8 -16235620.555 7  20672654.046    20672651.902    20672654.065
       199.000         159.000
 04  3  1  0 18  0.0000000  0  7G 7G27G31G20G 1G13G11
 -11135824.614 4  -8677267.374 4  22716583.160    22716583.076    22716582.877
        27.000          25.000
  -6935894.877 4  -5404599.026 4  23568108.784    23568108.579    23568108.505
        19.000          13.000
 -11372727.718 4  -8861868.572 4  23484672.733    23484672.803    23484672.524
        23.000          10.000
 -11407140.236 5  -8888682.400 4  22549709.359    22549707.936    22549709.100
        69.000          32.000
 -23245792.590 9 -18113604.494 8  20330080.836    20330079.884    20330080.675
       222.000         191.000
 -19008594.780 7 -14811893.640 7  20942933.027    20942931.167    20942933.317
       148.000         147.000
 -20818976.701 8 -16222577.846 7  20675839.203    20675837.018    20675839.261
       198.000         158.000
 04  3  1  0 18 30.0000000  0  7G 7G27G31G20G 1G13G11
 -11173845.011 4  -8706893.694 4  22709348.210    22709347.964    22709347.896
        28.000          25.000
  -7037411.075 4  -5483702.580 4  23548791.262    23548790.371    23548790.734
        18.000          11.000
 -11272935.280 4  -8784108.329 4  23503662.605    23503662.540    23503662.256
        21.000          10.000
 -11392944.189 5  -8877620.588 4  22552411.224    22552409.342    22552410.464
        70.000          32.000
 -23207467.023 9 -18083740.443 8  20337374.003    20337373.011    20337373.816
       222.000         191.000
 -19036564.985 7 -14833688.630 7  20937610.477    20937608.702    20937610.773
       149.000         149.000
 -20801772.556 8 -16209172.055 7  20679113.158    20679110.854    20679113.178
       197.000         155.000
 04  3  1  0 19  0.0000000  0  7G 7G27G31G20G 1G13G11
 -11211390.491 4  -8736149.949 4  22702203.726    22702203.310    22702203.421
        29.000          24.000
  -7139016.848 4  -5562875.962 4  23529455.999    23529455.813    23529455.418
        19.000          13.000
 -11173158.237 4  -8706360.081 4  23522649.798    23522649.517    23522649.233
        21.000           9.000
 -11378847.738 5  -8866636.383 4  22555093.501    22555091.852    22555093.044
        69.000          31.000
 -23168695.441 9 -18053528.848 8  20344752.049    20344751.021    20344751.871
       223.000         190.000
 -19064049.030 7 -14855104.797 7  20932380.488    20932378.585    20932380.748
       148.000         148.000
 -20784121.219 8 -16195417.806 7  20682472.112    20682469.840    20682472.154
       199.000         156.000
 04  3  1  0 19 30.0000000  0  7G 7G27G31G20G 1G13G11
 -11248459.874 4  -8765035.223 4  22695149.670    22695149.296    22695149.401
        29.000          25.000
  -7240708.935 4  -5642116.581 4  23510104.363    23510104.395    23510104.187
        19.000          13.000
 -11073398.518 4  -8628625.340 4  23541633.912    23541633.324    23541633.172
        20.000          10.000
 -11364850.176 5  -8855729.235 4  22557757.247    22557755.671    22557756.675
        69.000          32.000
 -23129479.427 9 -18022970.939 8  20352214.625    20352213.628    20352214.433
       220.000         187.000
 -19091046.384 7 -14876141.721 7  20927242.988    20927241.335    20927243.326
       149.000         150.000
 -20766021.319 8 -16181314.023 7  20685916.324    20685914.205    20685916.396
       199.000         155.000
 04  3  1  0 20  0.0000000  0  7G 7G27G31G20G 1G13G11
 -11285045.148 4  -8793543.269 4  22688187.634    22688187.372    22688187.465
        30.000          25.000
  -7342477.238 4  -5721416.602 4  23490738.912    23490738.617    23490738.910
        19.000          15.000
 -10973651.024 4  -8550900.153 4  23560614.257    23560614.789    23560614.193
        19.000          10.000
 -11350943.833 5  -8844893.168 4  22560403.552    22560401.779    22560403.035
        70.000          32.000
 -23089813.536 9 -17992062.478 8  20359762.823    20359761.846    20359762.633
       220.000         187.000
 -19117549.597 7 -14896793.598 7  20922199.624    20922197.833    20922199.983
       150.000         151.000
 -20747464.607 8 -16166854.283 7  20689447.757    20689445.514    20689447.748
       200.000         155.000
 04  3  1  0 20 30.0000000  0  7G 7G27G31G20G 1G13G11
 -11321167.129 4  -8821690.306 4  22681314.333    22681313.754    22681313.776
        30.000          25.000
  -7444340.273 4  -5800790.410 4  23471355.341    23471355.100    23471354.984
        18.000          15.000
 -10873939.791 4  -8473203.188 4  23579589.030    23579589.256    23579588.976
        20.000          10.000
 -11337149.858 5  -8834144.659 4  22563028.251    22563026.929    22563027.779
        67.000          32.000
 -23049721.253 9 -17960821.764 8  20367392.137    20367391.167    20367391.908
       221.000         186.000
 -19143579.979 7 -14917077.037 7  20917246.247    20917244.484    20917246.556
       150.000         152.000
 -20728472.054 8 -16152054.930 7  20693061.819    20693059.728    20693061.919
       200.000         154.000
 04  3  1  0 21  0.0000000  0  7G 7G27G31G20G 1G13G11
 -11356795.491 4  -8849452.707 4  22674534.206    22674533.910    22674533.857
        31.000          25.000
  -7546265.728 4  -5880212.867 4  23451959.469    23451959.366    23451959.246
        21.000          16.000
 -10774237.414 4  -8395513.146 4  23598562.411    23598562.183    23598561.649
        17.000          10.000
 -11323438.444 5  -8823460.486 4  22565637.705    22565635.995    22565637.246
        69.000          31.000
 -23009175.120 9 -17929227.402 8  20375107.806    20375106.818    20375107.632
       220.000         184.000
 -19169108.023 7 -14936969.041 7  20912388.458    20912386.700    20912388.809
       152.000         153.000
 -20709012.798 8 -16136891.915 7  20696764.911    20696762.713    20696764.938
       201.000         152.000
 04  3  1  0 21 30.0000000  0  7G 7G27G31G20G 1G13G11
 -11391938.461 4  -8876836.881 4  22667846.425    22667846.584    22667846.355
        31.000          25.000
  -7648259.393 4  -5959688.487 4  23432550.469    23432550.543    23432550.330
        20.000          15.000
 -10674555.213 4  -8317838.805 4  23617531.106    23617531.120    23617530.507
        17.000          10.000
 -11309818.258 5  -8812847.401 4  22568229.502    22568228.021    22568229.031
        68.000          31.000
 -22968185.916 9 -17897287.791 8  20382907.865    20382906.880    20382907.635
       219.000         182.000
 -19194142.627 7 -14956476.549 7  20907624.524    20907622.790    20907624.875
       152.000         152.000
 -20689094.409 8 -16121371.134 7  20700555.362    20700553.011    20700555.333
       200.000         151.000
 04  3  1  0 22  0.0000000  0  7G 7G27G31G20G 1G13G11
 -11426585.893 4  -8903834.921 4  22661253.670    22661253.253    22661253.395
        32.000          26.000
  -7750308.937 4  -6039207.645 4  23413130.910    23413130.878    23413130.417
        18.000          15.000
 -10574885.808 4  -8240174.457 4  23636496.580    23636497.528    23636496.784
        15.000          10.000
 -11296279.411 5  -8802297.697 4  22570805.842    22570804.358    22570805.466
        68.000          31.000
 -22926746.243 9 -17864997.166 8  20390793.506    20390792.575    20390793.371
       220.000         181.000
 -19218674.251 7 -14975592.125 7  20902956.494    20902954.574    20902956.774
       153.000         151.000
 -20668707.274 8 -16105485.089 7  20704434.891    20704432.588    20704434.848
       200.000         150.000
 04  3  1  0 22 30.0000000  0  7G 7G27G31G20G 1G13G11
 -11460762.993 4  -8930466.474 4  22654750.125    22654749.616    22654749.755
        32.000          27.000
  -7852437.145 4  -6118788.092 4  23393696.197    23393696.567    23393696.402
        17.000          16.000
 -10475257.323 4  -8162541.999 4  23655456.423    23655456.140    23655455.913
        15.000           9.000
 -11282847.184 5  -8791831.074 4  22573361.873    22573360.559    22573361.422
        65.000          31.000
 -22884883.780 9 -17832377.097 8  20398759.695    20398758.774    20398759.568
       217.000         179.000
 -19242728.408 7 -14994335.647 7  20898378.858    20898377.271    20898379.295
       153.000         153.000
 -20647876.253 8 -16089253.165 7  20708399.006    20708396.685    20708398.978
       205.000         151.000
 04  3  1  0 23  0.0000000  0  7G 7G27G31G20G 1G13G11
 -11494453.016 4  -8956718.485 4  22648338.975    22648338.868    22648338.689
        33.000          27.000
  -7954625.116 4  -6198415.102 4  23374251.457    23374251.337    23374251.197
        21.000          16.000
 -10375656.154 4  -8084930.783 4  23674409.885    23674410.157    23674409.109
        15.000           9.000
 -11269505.145 5  -8781434.727 4  22575900.949    22575899.533    22575900.549
        66.000          30.000
 -22842584.607 9 -17799416.733 8  20406808.966    20406808.066    20406808.865
       218.000         178.000
 -19266289.302 7 -15012694.803 7  20893895.541    20893893.751    20893895.888
       152.000         152.000
 -20626584.364 8 -16072662.121 7  20712450.729    20712448.490    20712450.732
       202.000         151.000
 04  3  1  0 23 30.0000000  0  7G 7G27G31G20G 1G13G11
 -11527670.932 4  -8982602.619 4  22642017.677    22642017.668    22642017.496
        32.000          26.000
  -8056884.984 4  -6278098.168 4  23354791.759    23354791.594    23354791.713
        22.000          16.000
 -10276099.666 4  -8007354.436 4  23693355.601    23693355.042    23693355.009
        14.000           9.000
 -11256268.348 5  -8771120.391 4  22578419.918    22578418.385    22578419.357
        66.000          31.000
 -22799866.052 9 -17766129.579 8  20414938.225    20414937.200    20414937.966
       218.000         177.000
 -19289372.101 7 -15030681.418 7  20889502.959    20889501.286    20889503.381
       153.000         153.000
 -20604846.233 8 -16055723.358 7  20716587.285    20716585.195    20716587.299
       203.000         152.000
 04  3  1  0 24  0.0000000  0  7G 7G27G31G20G 1G13G11
 -11560395.913 4  -9008102.648 4  22635790.354    22635790.222    22635790.017
        32.000          26.000
  -8159193.879 4  -6357819.411 4  23335322.585    23335323.061    23335322.847
        19.000          15.000
 -10176570.115 4  -7929799.040 4  23712295.753    23712295.028    23712294.825
        15.000           9.000
 -11243116.275 5  -8760872.068 4  22580922.528    22580921.132    22580922.155
        66.000          30.000
 -22756710.175 9 -17732501.656 8  20423150.436    20423149.489    20423150.291
       217.000         175.000
 -19311956.641 7 -15048279.779 7  20885205.488    20885203.601    20885205.731
       155.000         153.000
 -20582641.363 8 -16038420.903 7  20720812.847    20720810.647    20720812.845
       202.000         151.000
 04  3  1  0 24 30.0000000  0  7G 7G27G31G20G 1G13G11
 -11592636.854 4  -9033225.501 4  22629655.497    22629655.030    22629655.060
        31.000          26.000
  -8261558.255 4  -6437583.884 4  23315843.935    23315843.552    23315843.413
        20.000          16.000
 -10077079.213 4  -7852273.787 4  23731227.929    23731227.299    23731227.523
        14.000          10.000
 -11230057.845 5  -8750696.714 4  22583407.639    22583406.207    22583407.128
        66.000          31.000
 -22713128.422 9 -17698541.881 8  20431443.801    20431442.894    20431443.653
       217.000         173.000
 -19334052.713 7 -15065497.516 7  20881000.698    20880998.884    20881001.044
       155.000         154.000
 -20559977.765 8 -16020760.995 7  20725125.632    20725123.399    20725125.599
       202.000         150.000
 04  3  1  0 25  0.0000000  0  7G 7G27G31G20G 1G13G11
 -11624389.109 4  -9057967.558 4  22623613.099    22623612.988    22623612.846
        33.000          26.000
  -8363970.827 4  -6517385.908 4  23296354.775    23296355.011    23296354.801
        21.000          17.000
  -9977624.969 4  -7774777.107 4  23750153.012    23750153.378    23750152.682
        15.000           9.000
 -11217088.454 5  -8740590.744 4  22585875.676    22585874.228    22585875.141
        67.000          30.000
 -22669118.641 9 -17664248.574 8  20439818.685    20439817.701    20439818.479
       218.000         172.000
 -19355656.277 7 -15082331.480 7  20876889.677    20876887.870    20876889.963
       153.000         154.000
 -20536850.936 8 -16002740.128 7  20729526.655    20729524.283    20729526.625
       203.000         149.000
 04  3  1  0 25 30.0000000  0  7G 7G27G31G20G 1G13G11
 -11655668.224 4  -9082340.935 4  22617660.741    22617660.733    22617660.628
        34.000          26.000
  -8466444.638 4  -6597235.665 4  23276854.901    23276855.020    23276854.888
        21.000          16.000
  -9878225.639 4  -7697323.191 4  23769068.060    23769068.973    23769067.664
        14.000           9.000
 -11204223.889 5  -8730566.449 4  22588323.886    22588322.300    22588323.245
        66.000          30.000
 -22624698.881 9 -17629635.806 7  20448271.394    20448270.513    20448271.231
       216.000         169.000
 -19376782.989 7 -15098793.872 7  20872869.409    20872867.597    20872869.700
       152.000         154.000
 -20513276.121 8 -15984370.183 7  20734012.863    20734010.486    20734012.801
       203.000         149.000
 04  3  1  0 26  0.0000000  0  7G 7G27G31G20G 1G13G11
 -11686447.346 4  -9106324.708 4  22611803.760    22611803.576    22611803.384
        34.000          25.000
  -8568950.196 4  -6677110.156 4  23257349.141    23257348.997    23257348.996
        22.000          16.000
  -9778857.003 4  -7619893.211 4  23787977.779    23787978.142    23787976.759
        12.000           7.000
 -11191437.383 5  -8720602.986 4  22590756.893    22590755.629    22590756.446
        65.000          30.000
 -22579845.002 9 -17594684.761 7  20456806.841    20456805.976    20456806.681
       217.000         168.000
 -19397407.116 7 -15114864.638 7  20868944.747    20868943.050    20868945.072
       151.000         155.000
 -20489226.270 8 -15965630.076 7  20738589.249    20738587.144    20738589.222
       204.000         149.000
 04  3  1  0 26 30.0000000  0  7G 7G27G31G20G 1G13G11
 -11716744.464 4  -9129932.892 4  22606038.526    22606038.386    22606038.147
        34.000          25.000
  -8671503.062 4  -6757021.510 4  23237833.835    23237834.056    23237833.476
        21.000          17.000
  -9679539.704 4  -7542503.222 4  23806877.230    23806877.118    23806876.814
        15.000           8.000
 -11178746.794 5  -8710714.262 4  22593172.099    22593170.464    22593171.496
        64.000          29.000
 -22534577.632 9 -17559411.518 7  20465421.038    20465420.071    20465420.855
       217.000         167.000
 -19417546.972 7 -15130558.047 7  20865112.356    20865110.519    20865112.621
       152.000         154.000
 -20464719.067 8 -15946533.589 7  20743252.732    20743250.826    20743252.778
       201.000         148.000
 04  3  1  0 27  0.0000000  0  7G 7G27G31G20G 1G13G11
 -11746568.626 4  -9153172.534 4  22600363.213    22600363.080    22600362.870
        34.000          25.000
  -8774109.741 4  -6836974.786 4  23218308.426    23218308.484    23218308.223
        24.000          17.000
  -9580285.575 4  -7465162.470 4  23825764.316    23825765.101    23825764.174
        12.000          10.000
 -11166161.132 5  -8700907.298 4  22595566.931    22595565.565    22595566.330
        64.000          30.000
 -22488908.407 9 -17523825.140 7  20474111.629    20474110.679    20474111.423
       216.000         166.000
 -19437212.387 7 -15145881.766 7  20861370.145    20861368.331    20861370.455
       152.000         156.000
 -20439763.449 8 -15927087.692 7  20748001.786    20747999.746    20748001.766
       201.000         147.000
 04  3  1  0 27 30.0000000  0  7G 7G27G31G20G 1G13G11
 -11775907.596 4  -9176034.110 4  22594780.113    22594780.019    22594779.926
        35.000          26.000
  -8876755.184 4  -6916958.269 4  23198775.628    23198775.650    23198775.393
        24.000          18.000
  -9481084.885 4  -7387863.365 4  23844640.915    23844641.871    23844641.237
        11.000           8.000
 -11153668.116 5  -8691172.528 4  22597944.331    22597942.786    22597943.847
        65.000          29.000
 -22442827.345 9 -17487917.847 7  20482880.574    20482879.617    20482880.403
       217.000         164.000
 -19456391.495 7 -15160826.544 7  20857720.607    20857718.660    20857720.786
       152.000         156.000
 -20414347.131 8 -15907282.817 7  20752838.426    20752836.268    20752838.415
       199.000         145.000
 04  3  1  0 28  0.0000000  0  7G 7G27G31G20G 1G13G11
 -11804755.770 4  -9198513.240 4  22589290.691    22589290.451    22589290.328
        35.000          26.000
  -8979431.263 4  -6996965.622 4  23179237.486    23179237.370    23179236.953
        23.000          19.000
  -9381934.551 4  -7310603.472 4  23863510.181    23863510.011    23863509.528
        11.000           8.000
 -11141261.990 5  -8681505.459 4  22600305.212    22600303.777    22600304.622
        65.000          30.000
 -22396331.588 9 -17451687.415 7  20491728.365    20491727.506    20491728.230
       215.000         164.000
 -19475079.287 7 -15175388.477 7  20854164.374    20854162.577    20854164.669
       153.000         158.000
 -20388463.875 8 -15887114.091 7  20757763.774    20757761.715    20757763.799
       200.000         145.000
 04  3  1  0 28 30.0000000  0  7G 7G27G31G20G 1G13G11
 -11833125.731 4  -9220619.740 4  22583891.996    22583891.896    22583891.750
        36.000          26.000
  -9082147.773 4  -7077004.464 4  23159690.949    23159690.855    23159690.703
        24.000          18.000
  -9282849.782 4  -7233394.673 4  23882364.344    23882365.696    23882364.517
        11.000           9.000
 -11128955.081 5  -8671915.707 4  22602647.072    22602645.813    22602646.675
        65.000          29.000
 -22349436.060 9 -17415145.474 7  20500652.415    20500651.473    20500652.196
       217.000         163.000
 -19493289.075 7 -15189577.940 7  20850699.183    20850697.362    20850699.460
       152.000         159.000
 -20362126.337 8 -15866591.375 7  20762775.694    20762773.606    20762775.647
       200.000         144.000
 04  3  1  0 29  0.0000000  0  7G 7G27G31G20G 1G13G11
 -11861002.929 4  -9242342.268 4  22578587.343    22578586.873    22578586.910
        36.000          25.000
  -9184887.478 4  -7157061.410 4  23140139.780    23140139.769    23140139.697
        23.000          17.000
  -9183818.462 4  -7156227.553 4  23901210.330    23901211.467    23901209.457
         9.000          10.000
 -11116732.885 5  -8662391.962 4  22604973.013    22604971.637    22604972.498
        65.000          30.000
 -22302128.810 9 -17378282.712 7  20509654.680    20509653.763    20509654.484
       216.000         162.000
 -19511006.843 7 -15203384.014 7  20847327.449    20847325.784    20847327.857
       151.000         158.000
 -20335319.645 8 -15845703.080 7  20767876.779    20767874.764    20767876.814
       201.000         143.000
 04  3  1  0 29 30.0000000  0  7G 7G27G31G20G 1G13G11
 -11888404.549 4  -9263694.219 4  22573372.919    22573372.729    22573372.650
        37.000          26.000
  -9287664.744 4  -7237147.610 4  23120582.503    23120582.336    23120582.160
        24.000          19.000
  -9084860.238 4  -7079117.379 4  23920041.360    23920042.352    23920041.068
        12.000           9.000
 -11104612.291 5  -8652947.390 4  22607279.414    22607278.131    22607279.000
        65.000          29.000
 -22254429.472 9 -17341114.424 7  20518731.529    20518730.673    20518731.380
       215.000         160.000
 -19528250.539 7 -15216820.680 7  20844046.309    20844044.454    20844046.603
       152.000         160.000
 -20308060.837 8 -15824462.485 7  20773064.039    20773062.039    20773064.030
       200.000         143.000
 04  3  1  0 30  0.0000000  0  7G 7G27G31G20G 1G13G11
 -11915325.630 4  -9284671.728 4  22568249.951    22568249.917    22568249.746
        38.000          27.000
  -9390471.751 4  -7317256.979 4  23101018.564    23101018.635    23101018.791
        25.000          20.000
  -8985972.593 4  -7002062.201 4  23938859.777    23938860.009    23938859.224
        13.000          11.000
 -11092588.211 5  -8643578.022 4  22609567.699    22609566.226    22609567.165
        65.000          29.000
 -22206335.622 9 -17303638.723 7  20527883.573    20527882.687    20527883.351
       214.000         159.000
 -19545015.813 7 -15229884.549 7  20840855.946    20840854.131    20840856.243
       152.000         161.000
 -20280344.739 8 -15802865.566 7  20778338.300    20778336.299    20778338.270
       201.000         142.000
 04  3  1  0 30 30.0000000  0  7G 7G27G31G20G 1G13G11
 -11941752.740 4  -9305264.319 4  22563221.074    22563220.990    22563220.860
        37.000          26.000
  -9493292.166 4  -7397376.787 4  23081452.551    23081452.566    23081452.379
        23.000          19.000
  -8887144.377 4  -6925053.350 4  23957666.369    23957666.517    23957665.930
        15.000          11.000
 -11080646.656 5  -8634272.955 4  22611840.015    22611838.595    22611839.658
        64.000          28.000
 -22157836.103 9 -17265846.918 7  20537112.732    20537111.836    20537112.537
       214.000         157.000
 -19561289.329 7 -15242565.229 7  20837759.235    20837757.402    20837759.505
       151.000         162.000
 -20252157.446 8 -15780901.486 7  20783702.160    20783700.245    20783702.203
       200.000         141.000
 04  3  1  0 31  0.0000000  0  7G 7G27G31G20G 1G13G11
 -11967693.482 4  -9325477.923 4  22558284.615    22558284.617    22558284.594
        37.000          26.000
  -9596130.857 4  -7477510.849 4  23061883.605    23061883.100    23061883.197
        25.000          20.000
  -8788385.675 4  -6848098.654 4  23976459.439    23976459.537    23976459.079
        14.000          10.000
 -11068794.824 5  -8625037.810 4  22614095.333    22614094.043    22614094.891
        63.000          29.000
 -22108941.201 9 -17227747.022 7  20546417.105    20546416.231    20546416.928
       213.000         156.000
 -19577079.656 7 -15254869.399 7  20834754.478    20834752.645    20834754.743
       151.000         163.000
 -20223506.549 8 -15758576.154 7  20789154.422    20789152.334    20789154.401
       201.000         140.000
 04  3  1  0 31 30.0000000  0  7G 7G27G31G20G 1G13G11
 -11993152.754 4  -9345316.358 4  22553440.101    22553440.012    22553439.771
        39.000          27.000
  -9698989.760 4  -7557660.649 4  23042309.787    23042310.053    23042309.538
        25.000          22.000
  -8689703.745 4  -6771203.784 4  23995238.100    23995238.219    23995237.244
        14.000           7.000
 -11057037.546 5  -8615876.339 4  22616332.825    22616331.465    22616332.392
        64.000          29.000
 -22059658.245 9 -17189344.749 7  20555795.401    20555794.525    20555795.214
       213.000         155.000
 -19592392.388 7 -15266801.419 7  20831840.546    20831838.744    20831840.812
       151.000         164.000
 -20194396.609 8 -15735893.122 7  20794693.880    20794691.800    20794693.827
       201.000         139.000
 04  3  1  0 32  0.0000000  0  7G 7G27G31G20G 1G13G11
 -12018132.046 4  -9364780.785 4  22548686.858    22548686.391    22548686.506
        39.000          26.000
  -9801867.455 4  -7637825.090 4  23022732.679    23022732.835    23022732.556
        24.000          22.000
  -8591102.315 4  -6694371.646 4  24014000.261    24014001.876    24014000.546
        13.000           8.000
 -11045375.875 5  -8606789.367 4  22618551.823    22618550.576    22618551.414
        63.000          29.000
 -22009991.124 8 -17150643.128 7  20565246.758    20565245.940    20565246.540
       212.000         155.000
 -19607229.244 7 -15278362.628 7  20829017.155    20829015.445    20829017.402
       149.000         167.000
 -20164828.772 8 -15712853.278 7  20800320.508    20800318.376    20800320.454
       202.000         139.000
 04  3  1  0 32 30.0000000  0  7G 7G27G31G20G 1G13G11
 -12042614.107 4  -9383857.756 4  22544028.110    22544027.760    22544027.693
        39.000          26.000
  -9904743.754 4  -7717988.448 4  23003155.991    23003156.146    23003155.833
        25.000          20.000
  -8492566.389 4  -6617590.546 4  24032752.362    24032752.727    24032751.770
        12.000           8.000
 -11033792.327 5  -8597763.266 4  22620756.405    22620754.893    22620755.794
        65.000          29.000
 -21959925.021 8 -17111630.612 7  20574774.065    20574773.199    20574773.856
       211.000         152.000
 -19621573.910 7 -15289540.313 7  20826287.513    20826285.720    20826287.743
       149.000         167.000
 -20134785.738 8 -15689443.156 7  20806037.399    20806035.446    20806037.430
       201.000         139.000
 04  3  1  0 33  0.0000000  0  7G 7G27G31G20G 1G13G11
 -12066621.400 4  -9402564.784 4  22539459.319    22539459.416    22539459.309
        39.000          27.000
 -10007638.173 4  -7798165.921 4  22983575.997    22983575.939    22983575.721
        26.000          20.000
  -8394120.825 4  -6540879.877 4  24051485.993    24051486.164    24051485.908
        16.000           7.000
 -11022308.668 5  -8588815.003 4  22622941.468    22622940.283    22622941.109
        65.000          29.000
 -21909484.856 8 -17072326.620 7  20584372.448    20584371.657    20584372.303
       211.000         150.000
 -19635448.997 7 -15300352.088 7  20823647.153    20823645.466    20823647.375
       149.000         169.000
 -20104289.734 8 -15665680.069 7  20811840.640    20811838.686    20811840.590
       199.000         138.000
 04  3  1  0 33 30.0000000  0  7G 7G27G31G20G 1G13G11
 -12090141.573 4  -9420892.234 4  22534983.816    22534983.552    22534983.703
        40.000          26.000
 -10110535.070 4  -7878345.327 4  22963995.718    22963995.575    22963995.376
        28.000          23.000
  -8295755.162 4  -6464231.432 4  24070204.151    24070204.304    24070203.948
        15.000           8.000
 -11010911.887 5  -8579934.438 4  22625110.426    22625108.990    22625109.914
        64.000          29.000
 -21858660.430 8 -17032723.205 7  20594044.101    20594043.255    20594043.931
       210.000         149.000
 -19648843.164 7 -15310789.119 7  20821098.218    20821096.624    20821098.618
       150.000         167.000
 -20073328.054 8 -15641554.111 7  20817732.473    20817730.500    20817732.446
       196.000         135.000
 04  3  1  0 34  0.0000000  0  7G 7G27G31G20G 1G13G11
 -12113171.312 4  -9438837.528 4  22530601.361    22530601.465    22530601.274
        38.000          26.000
 -10213428.336 4  -7958521.903 4  22944415.366    22944415.428    22944415.381
        27.000          21.000
  -8197468.477 4  -6387644.585 4  24088907.623    24088908.107    24088907.057
        12.000           9.000
 -10999598.610 5  -8571118.939 4  22627263.254    22627261.969    22627262.704
        64.000          27.000
 -21807450.991 8 -16992819.780 7  20603789.079    20603788.127    20603788.822
       208.000         146.000
 -19661753.607 7 -15320849.225 7  20818641.620    20818639.867    20818641.925
       153.000         166.000
 -20041897.317 8 -15617062.663 7  20823713.569    20823711.578    20823713.587
       195.000         134.000
 04  3  1  0 34 30.0000000  0  7G 7G27G31G20G 1G13G11
 -12135725.579 4  -9456412.321 4  22526309.730    22526309.490    22526309.335
        39.000          26.000
 -10316329.877 4  -8038704.917 4  22924833.559    22924833.984    22924833.532
        28.000          22.000
  -8099277.890 4  -6311132.605 4  24107592.814    24107593.234    24107592.611
        15.000           7.000
 -10988383.054 5  -8562379.587 4  22629397.529    22629396.221    22629397.052
        64.000          28.000
 -21755873.889 8 -16952629.864 7  20613603.758    20613602.949    20613603.602
       207.000         145.000
 -19674195.952 7 -15330544.575 7  20816274.000    20816272.164    20816274.225
       152.000         166.000
 -20010012.184 8 -15592217.148 7  20829781.238    20829779.146    20829781.192
       197.000         133.000
 04  3  1  0 35  0.0000000  0  7G 7G27G31G20G 1G13G11
 -12157797.404 4  -9473611.186 4  22522109.435    22522109.376    22522109.181
        39.000          27.000
 -10419229.318 4  -8118886.309 4  22905252.682    22905252.489    22905252.517
        29.000          20.000
  -8001178.539 4  -6234691.674 4  24126260.881    24126261.286    24126260.353
        16.000           7.000
 -10977257.463 5  -8553710.343 4  22631514.670    22631513.349    22631514.207
        62.000          27.000
 -21703924.475 8 -16912149.835 7  20623489.498    20623488.658    20623489.299
       206.000         143.000
 -19686163.536 7 -15339869.982 7  20813996.599    20813994.812    20813996.854
       154.000         169.000
 -19977665.090 8 -15567011.658 7  20835936.719    20835934.638    20835936.671
       198.000         133.000
 04  3  1  0 35 30.0000000  0  7G 7G27G31G20G 1G13G11
 -12179384.857 4  -9490432.610 4  22518001.679    22518001.309    22518001.302
        40.000          26.000
 -10522121.775 4  -8199062.253 4  22885673.297    22885673.012    22885672.687
        28.000          22.000
  -7903170.453 4  -6158321.916 4  24144910.480    24144911.838    24144910.402
        12.000          10.000
 -10966219.341 5  -8545109.254 4  22633615.016    22633614.022    22633614.697
        63.000          29.000
 -21651603.077 8 -16871379.950 7  20633445.968    20633445.115    20633445.754
       205.000         143.000
 -19697655.095 7 -15348824.457 7  20811809.817    20811808.064    20811810.104
       152.000         166.000
 -19944853.671 8 -15541444.355 7  20842180.498    20842178.455    20842180.472
       199.000         134.000
 04  3  1  0 36  0.0000000  0  7G 7G27G31G20G 1G13G11
 -12200492.967 4  -9506880.520 4  22513984.734    22513985.022    22513984.583
        41.000          28.000
 -10625008.931 4  -8279234.063 4  22866094.369    22866093.960    22866094.304
        30.000          22.000
  -7805260.641 4  -6082028.729 4  24163542.830    24163544.002    24163541.953
        15.000           8.000
 -10955273.162 5  -8536579.812 4  22635698.128    22635696.929    22635697.719
        63.000          28.000
 -21598916.973 8 -16830325.880 7  20643471.695    20643470.985    20643471.577
       203.000         141.000
 -19708676.240 7 -15357412.376 7  20809712.519    20809710.793    20809712.815
       154.000         168.000
 -19911583.438 8 -15515519.534 7  20848511.603    20848509.644    20848511.568
       195.000         132.000
 04  3  1  0 36 30.0000000  0  7G 7G27G31G20G 1G13G11
 -12221123.029 4  -9522955.934 4  22510059.006    22510059.174    22510058.799
        40.000          27.000
 -10727888.927 4  -8359400.303 4  22846517.292    22846516.868    22846516.904
        31.000          22.000
  -7707452.620 4  -6005814.840 4  24182154.922    24182156.084    24182155.005
        16.000           9.000
 -10944419.580 5  -8528122.518 4  22637763.899    22637762.565    22637763.237
        63.000          28.000
 -21545869.635 8 -16788990.329 7  20653566.397    20653565.565    20653566.197
       203.000         140.000
 -19719228.874 7 -15365635.222 7  20807704.506    20807702.720    20807704.818
       155.000         168.000
 -19877855.151 8 -15489237.795 7  20854929.799    20854927.951    20854929.847
       194.000         131.000
 04  3  1  0 37  0.0000000  0  7G 7G27G31G20G 1G13G11
 -12241254.682 4  -9538642.970 4  22506228.395    22506228.021    22506227.826
        40.000          25.000
 -10830738.196 4  -8439542.592 4  22826945.079    22826945.268    22826945.029
        30.000          23.000
  -7609727.733 4  -5929665.730 4  24200752.340    24200752.547    24200752.012
        14.000           8.000
 -10933637.309 5  -8519720.794 4  22639815.190    22639814.235    22639815.031
        63.000          28.000
 -21492443.061 8 -16747359.268 7  20663733.140    20663732.368    20663732.949
       200.000         139.000
 -19729293.113 7 -15373477.497 7  20805789.309    20805787.567    20805789.651
       154.000         167.000
 -19843647.997 8 -15462582.910 7  20861439.341    20861437.328    20861439.334
       193.000         129.000
 04  3  1  0 37 30.0000000  0  7G 7G27G31G20G 1G13G11
 -12260914.396 4  -9553962.260 4  22502487.204    22502487.091    22502486.888
        40.000          27.000
 -10933579.915 4  -8519678.986 4  22807375.358    22807375.155    22807375.058
        32.000          24.000
  -7512114.569 4  -5853603.698 4  24219326.732    24219328.713    24219326.696
        13.000           9.000
 -10922952.162 5  -8511394.747 4  22641848.672    22641847.737    22641848.298
        62.000          28.000
 -21438666.015 8 -16705455.111 7  20673966.588    20673965.824    20673966.422
       201.000         138.000
 -19738896.091 7 -15380960.349 7  20803961.949    20803960.217    20803962.237
       153.000         167.000
 -19808988.094 8 -15435575.226 7  20868034.844    20868032.980    20868034.811
       192.000         130.000
 04  3  1  0 38  0.0000000  0  7G 7G27G31G20G 1G13G11
 -12280101.070 4  -9568912.959 4  22498836.005    22498836.048    22498835.665
        39.000          27.000
 -11036409.570 4  -8599806.000 4  22787807.225    22787807.079    22787807.052
        32.000          22.000
  -7414613.783 4  -5777629.237 4  24237881.017    24237881.855    24237880.434
        12.000           8.000
 -10912362.239 5  -8503142.903 4  22643864.084    22643862.774    22643863.506
        61.000          28.000
 -21384539.733 8 -16663278.828 7  20684266.527    20684265.748    20684266.340
       198.000         136.000
 -19748037.078 7 -15388083.205 7  20802222.425    20802220.746    20802222.717
       152.000         168.000
 -19773874.533 8 -15408214.044 7  20874716.767    20874714.994    20874716.728
       189.000         131.000
 04  3  1  0 38 30.0000000  0  7G 7G27G31G20G 1G13G11
 -12298789.371 4  -9583475.307 4  22495279.810    22495279.585    22495279.606
        40.000          25.000
 -11139198.583 4  -8679901.342 4  22768247.315    22768247.101    22768246.925
        30.000          23.000
  -7317202.146 4  -5701724.260 4  24256417.420    24256419.069    24256416.854
        12.000           7.000
 -10901841.610 5  -8494945.053 4  22645865.910    22645864.855    22645865.458
        61.000          28.000
 -21330041.100 8 -16620812.401 7  20694637.289    20694636.519    20694637.110
       197.000         135.000
 -19756691.735 7 -15394827.104 7  20800575.456    20800573.791    20800575.803
       153.000         169.000
 -19738281.347 8 -15380479.125 7  20881489.910    20881488.208    20881489.944
       187.000         130.000
 04  3  1  0 39  0.0000000  0  8G 7G27G 4G31G20G 1G13G11
 -12316992.994 4  -9597659.987 4  22491815.732    22491815.719    22491815.459
        40.000          27.000
 -11241957.134 4  -8759972.936 4  22748692.927    22748692.971    22748692.769
        32.000          26.000
         -.73014         -.18614  25365669.412    25365668.877    25365669.095
        11.000           7.000
  -7219894.999 4  -5625900.655 4  24274934.941    24274935.643    24274934.462
        12.000           6.000
 -10891402.472 5  -8486810.700 4  22647852.659    22647851.538    22647852.084
        62.000          28.000
 -21275186.018 8 -16578068.221 7  20705075.854    20705075.100    20705075.677
       195.000         133.000
 -19764873.828 7 -15401202.772 8  20799018.606    20799016.854    20799018.874
       153.000         171.000
 -19702221.836 8 -15352380.840 7  20888351.789    20888350.125    20888351.849
       188.000         130.000
 04  3  1  0 39 30.0000000  0  8G 7G27G 4G31G20G 1G13G11
 -12334729.779 4  -9611480.900 4  22488440.493    22488440.519    22488440.378
        40.000          26.000
 -11344699.673 4  -8840032.040 4  22729141.759    22729141.663    22729141.432
        30.000          24.000
    -99630.417 4    -77633.818 4  25346709.481    25346709.972    25346709.561
         8.000           6.000
  -7122711.932 4  -5550173.771 4  24293427.763    24293429.483    24293427.867
        15.000           6.000
 -10881061.971 5  -8478753.209 4  22649820.251    22649819.405    22649819.701
        62.000          28.000
 -21219994.517 8 -16535061.896 7  20715578.529    20715577.769    20715578.331
       193.000         132.000
 -19772601.986 7 -15407224.725 8  20797547.945    20797546.240    20797548.213
       152.000         171.000
 -19665713.704 8 -15323932.985 7  20895299.157    20895297.435    20895299.177
       187.000         130.000
 04  3  1  0 40  0.0000000  0  8G 7G27G 4G31G20G 1G13G11
 -12351987.039 4  -9624928.157 4  22485156.714    22485156.662    22485156.265
        40.000          26.000
 -11447410.324 4  -8920066.316 4  22709596.596    22709596.211    22709596.311
        32.000          24.000
   -199386.330 4   -155365.766 4  25327725.544    25327727.189    25327727.158
         8.000           8.000
  -7025642.294 4  -5474535.270 4  24311900.174    24311901.305    24311899.909
        17.000           5.000
 -10870806.901 5  -8470762.286 4  22651771.924    22651770.661    22651771.483
        62.000          28.000
 -21164456.293 8 -16491785.395 7  20726147.064    20726146.390    20726146.941
       192.000         131.000
 -19779863.968 7 -15412883.423 8  20796166.100    20796164.348    20796166.347
       154.000         171.000
 -19628744.098 8 -15295125.540 7  20902334.337    20902332.539    20902334.292
       187.000         130.000
 04  3  1  0 40 30.0000000  0  8G 7G27G 4G31G20G 1G13G11
 -12368772.552 4  -9638007.816 4  22481962.472    22481962.658    22481962.447
        41.000          27.000
 -11550093.235 4  -9000078.973 4  22690056.372    22690056.511    22690056.381
        32.000          25.000
   -299274.174 4   -233200.526 4  25308718.968    25308719.147    25308719.124
         8.000           6.000
  -6928695.498 4  -5398992.498 4  24330348.723    24330349.652    24330348.359
        13.000           4.000
 -10860644.000 5  -8462843.175 4  22653705.852    22653704.831    22653705.358
        62.000          29.000
 -21108581.143 8 -16448246.354 7  20736779.874    20736779.134    20736779.631
       189.000         131.000
 -19786668.288 7 -15418185.500 8  20794871.236    20794869.510    20794871.542
       155.000         173.000
 -19591320.402 8 -15265964.256 7  20909455.823    20909454.028    20909455.782
       187.000         128.000
 04  3  1  0 41  0.0000000  0  8G 7G 4G27G31G20G 1G13G11
 -12385083.472 4  -9650717.660 4  22478858.642    22478858.793    22478858.436
        41.000          27.000
   -399288.527 4   -311133.888 4  25289686.532    25289686.927    25289687.231
         8.000           6.000
 -11652741.991 4  -9080065.002 4  22670523.222    22670523.092    22670523.028
        32.000          26.000
  -6831870.200 4  -5323544.405 4  24348774.021    24348774.740    24348773.149
        13.000           1.000
 -10850569.173 5  -8454992.700 4  22655622.956    22655621.955    22655622.572
        62.000          29.000
 -21052368.289 8 -16404444.169 7  20747476.694    20747476.118    20747476.600
       186.000         130.000
 -19793012.592 7 -15423129.123 8  20793663.957    20793662.298    20793664.231
       154.000         172.000
 -19553439.251 8 -15236446.507 6  20916664.329    20916662.561    20916664.368
       186.000         126.000
 04  3  1  0 41 30.0000000  0  7G 7G 4G27G20G 1G13G11
 -12400899.022 4  -9663041.497 4  22475848.978    22475849.271    22475848.840
        41.000          27.000
   -499406.362 4   -389147.855 4  25270634.767    25270635.284    25270634.905
         8.000           7.000
 -11755332.430 4  -9160005.602 4  22651001.015    22651000.817    22651000.682
        35.000          24.000
 -10840560.638 5  -8447193.882 4  22657527.492    22657526.408    22657527.000
        60.000          27.000
 -20995799.110 8 -16360364.330 7  20758241.589    20758240.939    20758241.385
       187.000         131.000
 -19798876.693 7 -15427698.563 8  20792548.123    20792546.380    20792548.388
       151.000         171.000
 -19515080.251 8 -15206556.412 6  20923963.797    20923962.053    20923963.844
       185.000         125.000
 04  3  1  0 42  0.0000000  0  8G 7G 4G31G27G20G 1G13G11
 -12416235.490 4  -9674992.022 4  22472930.542    22472930.676    22472930.499
        41.000          27.000
   -599641.761 4   -467253.414 4  25251561.218    25251561.314    25251561.198
         8.000           6.000
         -.20514         -.87314  24385563.340    24385563.538    24385562.906
        20.000           1.000
 -11857877.217 4  -9239910.628 4  22631486.883    22631487.083    22631486.820
        34.000          25.000
 -10830633.638 5  -8439458.592 4  22659416.662    22659415.652    22659416.071
        60.000          29.000
 -20938892.048 8 -16316021.202 7  20769070.695    20769069.974    20769070.467
       185.000         130.000
 -19804277.481 7 -15431906.981 8  20791520.370    20791518.630    20791520.660
       151.000         172.000
 -19476258.860 8 -15176306.017 6  20931351.363    20931349.605    20931351.383
       185.000         124.000
 04  3  1  0 42 30.0000000  0  7G 7G 4G27G20G 1G13G11
 -12431111.167 4  -9686583.481 4  22470100.238    22470099.975    22470099.561
        41.000          27.000
   -700010.774 4   -545463.098 4  25232461.052    25232461.485    25232461.488
         9.000           7.000
 -11960391.009 4  -9319791.494 4  22611979.559    22611979.339    22611979.260
        35.000          24.000
 -10820805.495 5  -8431800.340 4  22661286.913    22661285.947    22661286.468
        60.000          28.000
 -20881667.470 8 -16271430.659 7  20779960.160    20779959.567    20779959.974
       185.000         129.000
 -19809233.527 7 -15435768.847 8  20790577.192    20790575.551    20790577.503
       152.000         173.000
 -19436993.355 8 -15145709.566 6  20938823.365    20938821.670    20938823.390
       185.000         123.000
 04  3  1  0 43  0.0000000  0  8G 7G 4G31G27G20G 1G13G11
 -12445504.574 4  -9697799.153 4  22467360.848    22467361.108    22467360.782
        42.000          26.000
   -800489.382 4   -623758.159 4  25213341.451    25213341.363    25213341.360
         8.000           6.000
         -.04314         -.05614  24422252.015    24422252.810    24422251.372
         9.000           1.000
 -12062848.673 4  -9399628.639 4  22592482.350    22592482.275    22592482.137
        35.000          24.000
 -10811053.468 5  -8424201.389 4  22663142.524    22663141.433    22663142.189
        59.000          27.000
 -20824105.988 8 -16226577.594 7  20790913.785    20790913.138    20790913.593
       184.000         128.000
 -19813724.194 7 -15439268.080 8  20789722.735    20789721.037    20789722.975
       152.000         172.000
 -19397261.637 8 -15114749.829 6  20946384.122    20946382.417    20946384.128
       187.000         122.000
 04  3  1  0 43 30.0000000  0  7G 7G27G20G 4G 1G13G11
 -12459422.089 4  -9708643.993 4  22464712.717    22464712.533    22464712.491
        42.000          26.000
 -12165253.057 4  -9479424.262 4  22572995.465    22572995.456    22572995.284
        36.000          26.000
 -10801382.766 5  -8416665.816 4  22664982.996    22664981.969    22664982.480
        59.000          27.000
   -901081.734 4   -702141.842 4  25194199.631    25194199.231    25194199.568
         8.000           6.000
 -20766216.091 8 -16181468.622 7  20801929.920    20801929.297    20801929.712
       183.000         128.000
 -19817756.290 7 -15442409.983 8  20788955.501    20788953.762    20788955.738
       154.000         174.000
 -19357070.025 8 -15083431.732 6  20954032.387    20954030.627    20954032.359
       188.000         121.000
 04  3  1  0 44  0.0000000  0  7G 7G 4G27G20G 1G13G11
 -12472866.493 5  -9719120.171 4  22462154.300    22462154.390    22462154.050
        43.000          27.000
  -1001787.884 4   -780614.191 4  25175034.976    25175035.165    25175035.438
         7.000           6.000
 -12267603.053 4  -9559177.506 4  22553518.947    22553518.710    22553518.755
        36.000          26.000
 -10791795.079 5  -8409194.922 4  22666807.462    22666806.606    22666806.917
        60.000          28.000
 -20708002.527 8 -16136107.442 6  20813007.542    20813006.985    20813007.400
       180.000         126.000
 -19821332.886 7 -15445196.950 8  20788274.690    20788273.171    20788275.074
       154.000         174.000
 -19316421.034 8 -15051757.230 6  20961767.583    20961765.903    20961767.641
       188.000         121.000
 04  3  1  0 44 30.0000000  0  8G 7G 4G31G27G20G 1G13G11
 -12485832.395 5  -9729223.499 4  22459686.889    22459687.100    22459686.613
        43.000          27.000
  -1102600.324 4   -859169.366 4  25155851.314    25155851.910    25155851.031
         6.000           6.000
          .47414                  24477103.901                    24477103.160
         9.000
 -12369889.731 4  -9638881.410 4  22534054.507    22534054.424    22534054.350
        36.000          26.000
 -10782283.767 5  -8401783.552 4  22668617.420    22668616.419    22668616.940
        59.000          28.000
 -20649462.051 8 -16090491.525 6  20824147.551    20824146.915    20824147.340
       178.000         126.000
 -19824449.356 7 -15447625.381 8  20787681.744    20787680.142    20787682.079
       154.000         173.000
 -19275308.805 8 -15019721.764 6  20969591.012    20969589.371    20969591.069
       188.000         120.000
 04  3  1  0 45  0.0000000  0  7G 7G 4G27G20G 1G13G11
 -12498329.383 5  -9738961.439 4  22457308.895    22457309.069    22457308.642
        43.000          27.000
  -1203525.669 4   -937812.501 4  25136645.150    25136646.297    25136646.419
         7.000           6.000
 -12472118.798 4  -9718540.417 4  22514600.697    22514600.999    22514600.658
        38.000          28.000
 -10772856.915 5  -8394437.988 4  22670411.497    22670410.334    22670410.983
        62.000          28.000
 -20590605.959 8 -16044629.675 6  20835347.359    20835346.948    20835347.281
       176.000         124.000
 -19827115.513 7 -15449702.918 8  20787174.460    20787172.769    20787174.785
       154.000         173.000
 -19233742.632 8 -14987332.579 6  20977500.831    20977499.201    20977500.857
       185.000         119.000
 04  3  1  0 45 30.0000000  0  8G11G 7G 4G31G27G20G 1G13
 -19191711.776 8 -14954581.302 6  20985499.062    20985497.488    20985499.091
       184.000         118.000
 -12510347.183 4  -9748325.982 4  22455022.044    22455021.979    22455021.629
        42.000          27.000
  -1304551.220 4  -1016533.764 4  25117420.544    25117421.129    25117421.649
         7.000           6.000
          .11314                  24513543.543                    24513543.741
         8.000
 -12574276.299 4  -9798143.653 4  22495161.020    22495160.977    22495160.571
        37.000          29.000
 -10763503.031 5  -8387149.288 4  22672191.453    22672190.569    22672190.931
        61.000          29.000
 -20531426.219 8 -15998515.633 6  20846609.011    20846608.465    20846608.825
       174.000         123.000
 -19829321.827 7 -15451422.137 8  20786754.632    20786752.959    20786754.961
       153.000         172.000
 04  3  1  0 46  0.0000000  0  7G11G 7G 4G27G20G 1G13
 -19149221.753 8 -14921472.230 6  20993584.732    20993583.082    20993584.716
       183.000         118.000
 -12521891.221 5  -9757321.358 4  22452825.577    22452825.363    22452825.028
        43.000          27.000
  -1405680.118 4  -1095335.529 4  25098177.329    25098177.826    25098177.283
         8.000           7.000
 -12676363.812 4  -9877692.360 4  22475734.445    22475734.156    22475734.400
        40.000          27.000
 -10754226.397 5  -8379920.786 4  22673956.729    22673955.735    22673956.264
        62.000          28.000
 -20471930.305 8 -15952155.222 6  20857930.721    20857930.190    20857930.538
       173.000         121.000
 -19831074.450 7 -15452787.833 8  20786421.141    20786419.414    20786421.417
       155.000         172.000
 04  3  1  0 46 30.0000000  0  8G11G 7G 4G31G27G20G 1G13
 -19106285.634 8 -14888015.547 6  21001755.211    21001753.612    21001755.211
       182.000         118.000
 -12532975.019 5  -9765958.110 4  22450715.880    22450716.190    22450715.873
        44.000          28.000
  -1506923.213 4  -1174226.279 4  25078910.743    25078911.555    25078911.492
         7.000           6.000
         -.29414                  24549878.682                    24549878.263
         4.000
 -12778391.109 4  -9957194.143 4  22456319.008    22456319.167    22456319.005
        40.000          29.000
 -10745039.088 5  -8372761.875 4  22675704.929    22675704.133    22675704.508
        62.000          29.000
 -20412133.570 8 -15905560.405 6  20869309.653    20869309.155    20869309.536
       173.000         119.000
 -19832387.303 7 -15453810.850 8  20786171.151    20786169.655    20786171.587
       154.000         173.000
 04  3  1  0 47  0.0000000  0  7G11G 7G27G20G 4G 1G13
 -19062886.913 8 -14854198.393 6  21010013.731    21010012.127    21010013.705
       180.000         118.000
 -12543582.203 5  -9774223.473 4  22448697.477    22448697.716    22448697.225
        43.000          27.000
 -12880337.881 5 -10036633.173 4  22436919.724    22436919.442    22436919.309
        43.000          31.000
 -10735923.277 5  -8365658.686 4  22677439.653    22677438.805    22677439.293
        63.000          28.000
  -1608261.369 4  -1253191.100 4  25059626.803    25059627.634    25059627.155
         7.000           6.000
 -20352021.520 8 -15858719.884 6  20880748.638    20880748.165    20880748.483
       171.000         118.000
 -19833244.403 7 -15454478.734 8  20786008.205    20786006.541    20786008.513
       154.000         173.000
 04  3  1  0 47 30.0000000  0  8G11G 7G27G 4G 1G13G 8G20
 -19019024.284 8 -14820019.755 6  21018360.461    21018358.888    21018360.502
       180.000         117.000
 -12553712.212 5  -9782117.006 4  22446770.152    22446770.123    22446769.811
        44.000          27.000
 -12982199.772 5 -10116006.073 4  22417535.460    22417535.603    22417535.498
        44.000          31.000
  -1709691.123 4  -1332227.321 4  25040325.491    25040326.404    25040325.726
         7.000           5.000
 -20291595.564 8 -15811634.761 6  20892247.341    20892246.797    20892247.227
       173.000         118.000
 -19833645.861 7 -15454791.572 8  20785931.811    20785930.223    20785932.123
       154.000         174.000
         -.48114         -.56314  24992046.981    24992048.941    24992047.955
         8.000           7.000
 -10726876.941 5  -8358609.624 4  22679161.229    22679160.212    22679160.618
        61.000          27.000
 04  3  1  0 48  0.0000000  0  9G11G 7G27G 4G31G 1G13G 8G20
 -18974705.755 8 -14785485.874 6  21026794.169    21026792.438    21026794.126
       181.000         116.000
 -12563372.983 5  -9789644.900 4  22444931.551    22444931.761    22444931.328
        45.000          28.000
 -13083980.739 5 -10195315.913 4  22398167.247    22398167.375    22398167.227
        43.000          33.000
  -1811218.028 4  -1411339.222 4  25021005.116    25021006.384    25021006.192
         6.000           6.000
         -.99614         -.36114  24604176.667    24604177.066    24604175.695
         4.000           1.000
 -20230865.681 8 -15764312.813 6  20903803.866    20903803.445    20903803.787
       173.000         118.000
 -19833600.138 7 -15454755.956 8  20785940.442    20785938.894    20785940.805
       153.000         174.000
   -100422.532 4    -78251.605 4  24972937.184    24972939.442    24972938.249
        10.000           7.000
 -10717906.617 5  -8351619.798 4  22680868.356    22680867.372    22680867.951
        62.000          28.000
 04  3  1  0 48 30.0000000  0  8G11G 7G27G 4G 8G 1G13G20
 -18929935.747 8 -14750600.186 6  21035313.567    21035311.933    21035313.543
       181.000         116.000
 -12572569.680 5  -9796811.177 4  22443181.514    22443181.649    22443181.255
        44.000          28.000
 -13185681.982 5 -10274563.630 4  22378814.442    22378814.391    22378814.146
        45.000          34.000
  -1912844.294 4  -1490528.566 4  25001666.327    25001667.664    25001666.966
         6.000           6.000
   -201010.275 4   -156631.766 4  24953799.009    24953798.361    24953797.421
        10.000           4.000
 -20169838.900 8 -15716759.518 6  20915416.967    20915416.450    20915416.774
       171.000         117.000
 -19833112.681 7 -15454376.131 8  20786033.369    20786031.688    20786033.600
       154.000         175.000
 -10709016.136 5  -8344692.193 4  22682560.087    22682559.094    22682559.652
        62.000          28.000
 04  3  1  0 49  0.0000000  0  9G11G 7G27G 4G31G 1G13G 8G20
 -18884719.722 8 -14715366.952 6  21043917.848    21043916.288    21043917.826
       179.000         115.000
 -12581307.907 5  -9803620.200 4  22441518.772    22441518.974    22441518.479
        45.000          28.000
 -13287305.066 5 -10353750.447 4  22359475.869    22359475.984    22359475.824
        44.000          34.000
  -2014572.806 4  -1569797.573 4  24982307.948    24982309.770    24982309.073
         5.000           6.000
         -.48614          .41914  24640229.419    24640234.234    24640230.336
         2.000           2.000
 -20108522.478 8 -15668980.531 6  20927085.146    20927084.654    20927084.998
       171.000         115.000
 -19832189.606 7 -15453656.864 8  20786208.959    20786207.407    20786209.260
       153.000         177.000
   -301766.338 4   -235143.084 4  24934624.966    24934624.953    24934623.330
        10.000           4.000
 -10700209.370 5  -8337829.817 4  22684235.889    22684235.049    22684235.278
        61.000          28.000
 04  3  1  0 49 30.0000000  0  9G11G 7G27G20G 4G31G 1G13G 8
 -18839050.096 8 -14679780.262 6  21052608.448    21052606.949    21052608.515
       178.000         113.000
 -12589580.214 5  -9810066.169 4  22439944.670    22439944.777    22439944.390
        44.000          29.000
 -13388838.595 5 -10432867.471 4  22340154.960    22340154.949    22340154.666
        45.000          35.000
 -10691477.359 5  -8331025.694 4  22685897.640    22685896.814    22685897.243
        62.000          28.000
  -2116393.179 4  -1649138.168 4  24962931.991    24962933.340    24962933.695
         5.000           6.000
     94498.308 4     73635.550 4  24658213.362    24658222.429    24658209.374
         1.000           3.000
 -20046911.047 8 -15620971.663 6  20938809.515    20938808.891    20938809.273
       170.000         114.000
 -19830824.092 7 -15452592.839 8  20786468.785    20786467.239    20786469.080
       153.000         178.000
   -402680.275 4   -313777.437 4  24915419.244    24915421.370    24915420.214
         8.000           4.000
 04  3  1  0 50  0.0000000  0  9G11G 7G27G20G 4G31G 1G13G 8
 -18792928.229 8 -14643841.177 6  21061385.356    21061383.705    21061385.282
       178.000         113.000
 -12597388.309 5  -9816150.422 4  22438458.776    22438459.001    22438458.472
        44.000          29.000
 -13490280.225 5 -10511912.891 4  22320851.323    22320851.061    22320850.914
        46.000          35.000
 -10682820.080 5  -8324279.804 4  22687545.066    22687544.160    22687544.603
        61.000          27.000
  -2218304.412 4  -1728549.564 4  24943539.494    24943540.759    24943539.088
         5.000           5.000
    188839.939 4    147148.321 4  24676166.571    24676170.885    24676164.606
         1.000           1.000
 -19985007.978 8 -15572735.542 6  20950589.274    20950588.734    20950589.103
       171.000         113.000
 -19829018.284 7 -15451185.727 8  20786812.314    20786810.887    20786812.708
       154.000         178.000
   -503750.876 4   -392533.816 4  24896187.198    24896188.422    24896187.614
         4.000           3.000
 04  3  1  0 50 30.0000000  0  8G11G 7G27G20G 4G 8G 1G13
 -18746357.222 8 -14607552.114 6  21070247.377    21070245.944    21070247.437
       179.000         113.000
 -12604735.762 5  -9821875.724 4  22437060.841    22437060.792    22437060.375
        43.000          28.000
 -13591629.720 5 -10590886.515 4  22301564.892    22301565.006    22301564.804
        47.000          37.000
 -10674239.627 5  -8317593.775 4  22689177.928    22689177.056    22689177.433
        62.000          27.000
  -2320307.260 4  -1808032.356 4  24924129.073    24924130.036    24924129.916
         5.000           5.000
   -604978.251 4   -471412.355 4  24876925.838    24876925.799    24876924.910
         5.000           3.000
 -19922818.808 8 -15524276.486 6  20962423.416    20962422.978    20962423.305
       170.000         113.000
 -19826776.386 7 -15449438.805 8  20787239.107    20787237.506    20787239.376
       153.000         177.000
 04  3  1  0 51  0.0000000  0  8G11G 7G27G20G 4G 1G13G 8
 -18699330.922 8 -14570908.280 6  21079196.317    21079194.768    21079196.365
       178.000         112.000
 -12611616.781 5  -9827237.574 4  22435751.120    22435751.313    22435751.017
        45.000          29.000
 -13692876.882 5 -10669780.396 4  22282298.287    22282298.143    22282297.993
        48.000          37.000
 -10665728.423 5  -8310961.706 4  22690797.569    22690796.825    22690797.089
        62.000          29.000
  -2422392.711 4  -1887579.526 4  24904703.313    24904704.259    24904703.566
         5.000           5.000
 -19860339.340 8 -15475591.223 6  20974312.974    20974312.457    20974312.807
       170.000         112.000
 -19824093.133 7 -15447347.968 8  20787749.710    20787748.149    20787749.994
       154.000         177.000
   -706353.439 4   -550406.114 4  24857634.911    24857634.140    24857633.838
         5.000           2.000
 04  3  1  0 51 30.0000000  0  9G 7G 1G27G11G 4G31G13G 8G20
 -12618029.536 5  -9832234.543 4  22434530.769    22434531.037    22434530.693
        46.000          30.000
 -19797569.669 8 -15426679.830 6  20986257.686    20986257.211    20986257.505
       170.000         111.000
 -13794015.900 5 -10748590.017 4  22263052.339    22263052.157    22263052.016
        49.000          38.000
 -18651847.350 8 -14533908.138 6  21088232.114    21088230.659    21088232.165
       179.000         113.000
  -2524556.283 4  -1967187.551 4  24885262.342    24885263.490    24885262.770
         5.000           4.000
         -.43014                  24729842.319                    24729842.860
         3.000
 -19820966.965 7 -15444912.003 8  20788344.558    20788343.013    20788344.934
       155.000         177.000
   -807871.765 4   -629511.364 4  24838315.980    24838316.707    24838315.292
         6.000           2.000
 -10657282.980 5  -8304380.885 4  22692404.730    22692403.859    22692404.440
        61.000          27.000
 04  3  1  0 52  0.0000000  0  8G 7G 1G 4G27G 8G11G13G20
 -12623981.131 5  -9836872.164 4  22433398.451    22433398.483    22433398.014
        44.000          29.000
 -19734518.473 7 -15377549.065 6  20998255.818    20998255.454    20998255.703
       168.000         110.000
  -2626801.986 4  -2046859.562 4  24865805.187    24865806.890    24865805.045
         5.000           4.000
 -13895049.682 5 -10827317.623 4  22243826.008    22243826.138    22243825.943
        49.000          39.000
   -909536.992 4   -708731.086 4  24818969.550    24818969.901    24818968.844
         8.000           1.000
 -18603913.397 8 -14496557.054 6  21097353.746    21097352.230    21097353.709
       179.000         112.000
 -19817405.401 7 -15442136.766 8  20789022.317    20789020.798    20789022.627
       155.000         178.000
 -10648908.918 5  -8297855.684 4  22693998.297    22693997.412    22693997.822
        62.000          28.000
 04  3  1  0 52 30.0000000  0  7G 7G 1G27G11G 4G20G13
 -12629467.242 5  -9841147.075 4  22432354.440    22432354.761    22432354.219
        44.000          29.000
 -19671183.207 7 -15328196.948 6  21010308.226    21010307.818    21010308.079
       166.000         109.000
 -13995969.727 5 -10905956.613 4  22224621.779    22224621.429    22224621.434
        49.000          38.000
 -18555524.125 8 -14458851.167 6  21106562.088    21106560.435    21106562.033
       180.000         111.000
  -2729122.465 4  -2126589.834 4  24846335.452    24846334.970    24846334.960
         4.000           5.000
 -10640600.315 5  -8291381.493 4  22695579.558    22695578.550    22695578.872
        61.000          28.000
 -19813404.656 7 -15439019.309 8  20789783.700    20789782.095    20789783.970
       154.000         175.000
 04  3  1  0 53  0.0000000  0  8G 7G 1G 4G27G 8G11G13G20
 -12634503.144 5  -9845071.172 4  22431396.050    22431396.250    22431395.851
        45.000          29.000
 -19607580.832 7 -15278636.692 6  21022411.448    21022410.927    21022411.187
       164.000         107.000
  -2831529.870 4  -2206387.841 4  24826847.530    24826847.591    24826847.270
         4.000           4.000
 -14096787.232 5 -10984515.694 4  22205436.673    22205436.775    22205436.532
        49.000          39.000
         -.96014         -.97114  24780196.223    24780196.589    24780195.031
         5.000           4.000
 -18506694.290 8 -14420801.982 6  21115854.166    21115852.483    21115854.085
       181.000         109.000
 -19808980.527 7 -15435571.946 8  20790625.498    20790623.973    20790625.835
       154.000         174.000
 -10632370.228 5  -8284968.484 4  22697145.511    22697144.852    22697145.038
        59.000          28.000
 04  3  1  0 53 30.0000000  0  8G 7G 1G27G 4G 8G11G20G13
 -12639085.553 5  -9848641.895 4  22430524.229    22430524.413    22430524.018
        46.000          29.000
 -19543709.823 7 -15228867.113 6  21034565.622    21034565.249    21034565.492
       164.000         107.000
 -14197494.547 5 -11062988.919 4  22186272.670    22186272.618    22186272.347
        49.000          40.000
  -2934017.878 4  -2286248.621 4  24807343.603    24807344.766    24807344.495
         4.000           4.000
   -102102.029 4    -79560.275 4  24760765.968    24760767.979    24760765.952
         4.000           4.000
 -18457420.574 8 -14382406.909 6  21125230.584    21125228.981    21125230.554
       182.000         109.000
 -10624213.574 5  -8278612.703 4  22698697.664    22698696.921    22698697.125
        60.000          27.000
 -19804130.137 7 -15431792.430 8  20791548.622    20791546.979    20791548.925
       156.000         173.000
 04  3  1  0 54  0.0000000  0  8G 7G 1G27G 4G 8G11G20G13
 -12643203.235 5  -9851850.494 4  22429740.358    22429740.970    22429740.285
        43.000          29.000
 -19479560.681 7 -15178880.802 6  21046772.868    21046772.437    21046772.703
       163.000         105.000
 -14298076.183 5 -11141364.214 4  22167132.747    22167132.442    22167132.449
        50.000          40.000
  -3036572.105 4  -2366161.008 4  24787829.705    24787829.804    24787829.030
         4.000           4.000
   -204333.320 4   -159221.103 4  24741312.954    24741313.245    24741311.499
         5.000           4.000
 -18407691.396 8 -14343656.923 6  21134693.810    21134692.149    21134693.719
       178.000         107.000
 -10616117.280 5  -8272303.950 4  22700238.642    22700237.630    22700238.110
        62.000          28.000
 -19798842.809 7 -15427672.443 8  20792554.753    20792553.136    20792555.032
       154.000         172.000
 04  3  1  0 54 30.0000000  0  8G 7G 1G27G 4G 8G11G20G13
 -12646864.386 5  -9854703.357 4  22429044.186    22429044.119    22429043.615
        44.000          29.000
 -19415143.286 7 -15128685.463 6  21059031.097    21059030.714    21059030.966
       163.000         104.000
 -14398536.201 5 -11219644.739 4  22148015.654    22148015.725    22148015.539
        50.000          41.000
  -3139197.664 4  -2446128.979 4  24768300.514    24768300.705    24768300.195
         5.000           4.000
   -306699.880 4   -238987.293 4  24721832.911    24721833.544    24721832.210
         7.000           6.000
 -18357514.606 8 -14304558.147 6  21144242.054    21144240.544    21144242.048
       179.000         106.000
 -10608087.815 5  -8266047.277 4  22701766.522    22701765.840    22701766.071
        61.000          28.000
 -19793127.205 7 -15423218.734 8  20793642.350    20793640.766    20793642.673
       154.000         173.000
 04  3  1  0 55  0.0000000  0  8G 7G 1G27G 4G 8G11G20G13
 -12650082.380 5  -9857210.899 4  22428431.560    22428431.675    22428431.205
        45.000          30.000
 -19350472.581 7 -15078292.743 6  21071337.644    21071337.184    21071337.437
       163.000         103.000
 -14498883.511 5 -11297837.442 4  22128920.277    22128920.183    22128920.088
        52.000          41.000
  -3241904.959 4  -2526160.651 4  24748755.412    24748755.455    24748756.060
         4.000           4.000
   -409211.548 4   -318866.546 4  24702324.986    24702326.184    24702325.154
         7.000           4.000
 -18306903.205 8 -14265120.712 6  21153873.123    21153871.517    21153873.054
       178.000         104.000
 -10600136.502 5  -8259851.501 4  22703279.343    22703278.816    22703278.934
        58.000          27.000
 -19786997.111 7 -15418442.045 8  20794808.859    20794807.317    20794809.193
       153.000         173.000
 04  3  1  0 55 30.0000000  0  8G 7G 1G 4G27G 8G11G20G13
 -12652853.473 5  -9859370.219 4  22427904.188    22427904.483    22427903.978
        43.000          30.000
 -19285546.380 7 -15027700.932 6  21083692.615    21083692.254    21083692.508
       158.000         100.000
  -3344686.655 4  -2606250.304 4  24729197.516    24729197.720    24729197.424
         5.000           4.000
 -14599110.132 5 -11375936.103 4  22109847.966    22109847.691    22109847.651
        52.000          42.000
   -511861.058 4   -398853.236 4  24682792.269    24682792.807    24682790.960
         7.000           4.000
 -18255853.126 8 -14225341.455 6  21163587.621    21163586.069    21163587.587
       178.000         104.000
 -10592257.746 5  -8253712.263 4  22704779.180    22704778.024    22704778.559
        62.000          27.000
 -19780448.981 7 -15413339.614 8  20796054.988    20796053.439    20796055.290
       153.000         173.000
 04  3  1  0 56  0.0000000  0  8G 7G 1G 4G27G 8G11G20G13
 -12655150.803 5  -9861160.367 4  22427467.078    22427467.305    22427466.895
        44.000          30.000
 -19220339.424 7 -14976890.351 6  21096101.143    21096100.758    21096101.012
       160.000         101.000
  -3447512.856 4  -2686374.650 4  24709629.348    24709630.551    24709629.801
         5.000           3.000
 -14699184.811 5 -11453916.367 4  22090804.196    22090804.082    22090803.981
        52.000          41.000
   -614618.243 4   -478923.822 4  24663238.549    24663238.943    24663237.035
         6.000           4.000
 -18204337.066 8 -14185199.099 6  21173390.780    21173389.306    21173390.797
       181.000         106.000
 -10584422.817 5  -8247607.173 4  22706269.909    22706269.247    22706269.366
        60.000          28.000
 -19773456.754 7 -15407891.131 8  20797385.574    20797383.979    20797385.820
       153.000         173.000
 04  3  1  0 56 30.0000000  0  8G 7G 1G 4G27G 8G11G20G13
 -12656996.506 5  -9862598.595 4  22427116.032    22427116.169    22427115.678
        45.000          30.000
 -19154875.341 7 -14925879.410 6  21108558.588    21108558.214    21108558.426
       159.000         100.000
  -3550402.362 4  -2766548.336 4  24690049.666    24690051.365    24690050.700
         6.000           3.000
 -14799125.424 5 -11531792.163 4  22071786.091    22071786.148    22071785.933
        52.000          42.000
   -717501.772 4   -559092.846 4  24643658.158    24643661.109    24643658.056
         3.000           5.000
 -18152377.075 8 -14144710.820 6  21183278.424    21183277.016    21183278.444
       178.000         104.000
 -10576651.657 5  -8241551.774 4  22707748.600    22707747.860    22707748.232
        59.000          27.000
 -19766042.966 7 -15402114.159 8  20798796.312    20798794.768    20798796.635
       153.000         172.000
 04  3  1  0 57  0.0000000  0  8G 7G 1G 4G27G 8G11G13G20
 -12658401.635 5  -9863693.514 4  22426848.628    22426848.726    22426848.197
        44.000          29.000
 -19089166.822 7 -14874678.000 6  21121062.465    21121062.187    21121062.306
       156.000          98.000
  -3653363.092 4  -2846777.524 4  24670457.431    24670458.244    24670457.277
         7.000           3.000
 -14898938.467 5 -11609568.555 5  22052792.208    22052792.230    22052792.134
        54.000          43.000
   -820519.357 4   -639366.277 4  24624054.955    24624057.298    24624054.570
         4.000           4.000
 -18099983.705 8 -14103884.843 6  21193248.668    21193247.186    21193248.624
       177.000         104.000
 -19758218.929 7 -15396017.511 8  20800285.245    20800283.639    20800285.509
       154.000         172.000
 -10568953.353 5  -8235553.141 4  22709213.818    22709212.892    22709213.320
        61.000          26.000
 04  3  1  0 57 30.0000000  0  8G 7G 4G 1G27G 8G11G20G13
 -12659361.645 5  -9864441.589 4  22426665.841    22426666.226    22426665.545
        43.000          30.000
  -3756387.169 4  -2927056.082 4  24650852.152    24650853.703    24650853.330
         6.000           3.000
 -19023210.993 7 -14823283.880 6  21133613.604    21133613.138    21133613.352
       155.000          97.000
 -14998615.046 5 -11687238.610 5  22033824.468    22033824.363    22033824.285
        54.000          43.000
   -923662.498 4   -719737.631 4  24604427.959    24604429.769    24604427.803
         5.000           4.000
 -18047152.263 8 -14062717.510 6  21203302.133    21203300.708    21203302.151
       176.000         103.000
 -10561321.354 5  -8229606.182 4  22710666.149    22710665.498    22710665.651
        61.000          26.000
 -19749980.639 7 -15389598.069 8  20801852.914    20801851.343    20801853.193
       154.000         170.000
 04  3  1  0 58  0.0000000  0  8G 7G 4G 1G27G 8G11G20G13
 -12659854.543 5  -9864825.674 4  22426571.980    22426572.341    22426571.662
        44.000          29.000
  -3859449.092 4  -3007364.131 4  24631240.078    24631241.226    24631241.105
         7.000           4.000
 -18956987.186 7 -14771680.947 6  21146215.416    21146215.203    21146215.307
       156.000          97.000
 -15098128.774 5 -11764781.764 5  22014887.664    22014887.687    22014887.398
        55.000          44.000
  -1026905.906 4   -800187.076 4  24584781.313    24584783.206    24584780.913
         5.000           5.000
 -17993859.880 8 -14021191.002 6  21213443.390    21213441.920    21213443.340
       172.000         101.000
 -10553731.536 5  -8223692.080 4  22712110.357    22712109.453    22712109.980
        61.000          26.000
 -19741306.440 7 -15382838.959 8  20803503.513    20803501.983    20803503.861
       155.000         171.000
 04  3  1  0 58 30.0000000  0  8G 7G 4G 1G27G 8G11G13G20
 -12659905.068 5  -9864865.054 4  22426562.265    22426562.737    22426562.154
        45.000          29.000
  -3962570.269 4  -3087718.345 4  24611617.865    24611618.421    24611617.878
         7.000           4.000
 -18890521.577 7 -14719889.596 6  21158863.445    21158863.155    21158863.349
       153.000          96.000
 -15197499.783 5 -11842213.715 5  21995977.976    21995977.971    21995977.729
        55.000          44.000
  -1130270.753 4   -880731.112 4  24565113.595    24565113.677    24565113.003
         4.000           5.000
 -17940131.306 8 -13979324.604 6  21223667.493    21223666.180    21223667.478
       171.000         100.000
 -19732221.462 7 -15375759.763 8  20805232.419    20805230.818    20805232.695
       154.000         170.000
 -10546206.615 5  -8217828.556 4  22713542.214    22713541.635    22713541.746
        58.000          26.000
 04  3  1  0 59  0.0000000  0  8G 7G 4G 1G27G 8G11G20G13
 -12659521.540 5  -9864566.209 4  22426635.504    22426635.684    22426635.071
        45.000          28.000
  -4065755.512 4  -3168122.491 4  24591982.368    24591982.434    24591982.435
         8.000           4.000
 -18823824.013 7 -14667917.501 6  21171555.652    21171555.345    21171555.501
       151.000          94.000
 -15296731.890 5 -11919537.427 5  21977094.675    21977094.649    21977094.562
        56.000          46.000
  -1233761.647 4   -961373.400 4  24545418.958    24545420.465    24545417.525
         4.000           4.000
 -17885974.696 8 -13937124.671 6  21233973.185    21233971.888    21233973.189
       173.000         101.000
 -10538752.606 5  -8212020.287 4  22714961.019    22714960.110    22714960.455
        61.000          26.000
 -19722734.554 7 -15368367.373 8  20807037.641    20807036.154    20807037.983
       157.000         171.000
 04  3  1  0 59 30.0000000  0  8G 7G 4G 1G27G 8G11G13G20
 -12658687.454 5  -9863916.280 4  22426794.339    22426794.388    22426793.954
        46.000          30.000
  -4168984.919 4  -3248561.038 4  24572338.526    24572338.851    24572338.349
         9.000           4.000
 -18756879.373 7 -14615752.882 6  21184294.853    21184294.491    21184294.667
       149.000          93.000
 -15395804.142 5 -11996736.580 5  21958241.957    21958241.900    21958241.647
        58.000          46.000
  -1337358.483 4  -1042098.215 4  24525704.070    24525706.246    24525703.023
         4.000           5.000
 -17831372.977 8 -13894577.902 6  21244363.597    21244362.326    21244363.572
       172.000          99.000
 -19712829.776 7 -15360649.372 8  20808922.483    20808920.953    20808922.812
       157.000         170.000
 -10531350.907 5  -8206252.788 4  22716369.529    22716368.780    22716369.077
        61.000          26.000
 04  3  1  1  0  0.0000000  0  8G 7G 4G 1G27G 8G11G20G13
 -12657395.100 5  -9862909.261 4  22427040.180    22427040.493    22427039.831
        47.000          30.000
  -4272247.234 4  -3329025.233 4  24552688.623    24552688.860    24552688.383
         9.000           4.000
 -18689681.334 7 -14563390.807 6  21197082.211    21197081.967    21197082.055
       145.000          91.000
 -15494704.237 5 -12073801.582 5  21939421.674    21939421.762    21939421.588
        58.000          46.000
  -1441049.801 4  -1122896.671 4  24505973.778    24505974.637    24505972.826
         4.000           4.000
 -17776317.879 8 -13851677.851 6  21254840.207    21254838.944    21254840.235
       172.000          98.000
 -10523991.513 5  -8200518.254 4  22717769.772    22717769.205    22717769.363
        59.000          26.000
 -19702499.762 7 -15352600.018 7  20810888.362    20810886.698    20810888.580
       157.000         169.000
 04  3  1  1  0 30.0000000  0  8G 7G 4G 1G27G 8G11G20G13
 -12655677.039 5  -9861570.520 4  22427367.178    22427367.358    22427366.916
        46.000          30.000
  -4375571.577 4  -3409537.741 4  24533026.144    24533027.010    24533026.642
         9.000           4.000
 -18622263.959 7 -14510857.824 6  21209911.341    21209911.034    21209911.170
       145.000          91.000
 -15593460.156 5 -12150754.239 5  21920629.224    21920629.078    21920628.875
        58.000          46.000
  -1544864.503 4  -1203791.271 4  24486218.464    24486219.185    24486217.381
         7.000           3.000
 -17720841.897 8 -13808449.831 6  21265397.000    21265395.742    21265397.031
       170.000          97.000
 -10516704.812 5  -8194840.367 4  22719156.555    22719155.878    22719156.041
        61.000          26.000
 -19691777.294 7 -15344244.856 7  20812928.689    20812927.087    20812929.013
       158.000         168.000
 04  3  1  1  1  0.0000000  0  8G 7G 4G 1G27G 8G11G20G13
 -12653528.775 5  -9859896.557 4  22427775.846    22427776.134    22427775.590
        45.000          30.000
  -4478949.673 4  -3490092.131 4  24513354.369    24513355.260    24513354.308
        10.000           5.000
 -18554624.231 7 -14458151.578 6  21222782.874    21222782.563    21222782.624
       143.000          90.000
 -15692062.717 5 -12227587.399 5  21901866.024    21901865.691    21901865.667
        61.000          47.000
  -1648794.052 4  -1284775.375 4  24466439.963    24466442.127    24466440.104
         7.000           2.000
 -17664940.025 8 -13764889.958 6  21276034.888    21276033.517    21276034.863
       171.000          97.000
 -10509484.059 5  -8189213.866 4  22720530.724    22720530.169    22720530.246
        61.000          27.000
 -19680658.150 7 -15335580.594 7  20815044.540    20815043.022    20815044.905
       156.000         167.000
 04  3  1  1  1 30.0000000  0  8G 7G 4G 1G27G 8G11G20G13
 -12650942.401 5  -9857881.207 4  22428267.942    22428268.237    22428267.882
        48.000          30.000
  -4582370.369 4  -3570679.728 4  24493673.752    24493674.974    24493674.257
        10.000           5.000
 -18486755.613 7 -14405266.978 6  21235697.805    21235697.466    21235697.617
       140.000          88.000
 -15790499.643 5 -12304291.488 5  21883133.564    21883133.872    21883133.636
        61.000          48.000
  -1752827.152 4  -1365840.130 4  24446643.634    24446644.788    24446643.408
         7.000           3.000
 -17608604.271 8 -13720992.001 6  21286755.214    21286753.838    21286755.215
       171.000          95.000
 -10502319.145 5  -8183630.872 4  22721894.112    22721893.628    22721893.616
        59.000          26.000
 -19669135.294 7 -15326601.751 7  20817237.319    20817235.784    20817237.625
       157.000         166.000
 04  3  1  1  2  0.0000000  0  8G 7G 4G 1G27G 8G11G20G13
 -12647918.103 5  -9855524.613 4  22428843.563    22428843.876    22428843.277
        46.000          29.000
  -4685830.057 4  -3651297.680 4  24473985.993    24473987.342    24473986.264
        11.000           5.000
 -18418659.467 7 -14352205.083 6  21248656.044    21248655.780    21248655.918
       138.000          87.000
 -15888766.257 5 -12380862.872 5  21864434.470    21864434.178    21864434.187
        63.000          48.000
  -1856960.049 4  -1446982.669 4  24426828.443    24426829.079    24426827.906
        10.000           3.000
 -17551834.194 8 -13676755.607 6  21297558.270    21297556.828    21297558.273
       171.000          94.000
 -10495207.686 5  -8178089.526 4  22723247.612    22723246.899    22723247.123
        61.000          27.000
 -19657208.869 7 -15317308.439 7  20819506.919    20819505.294    20819507.155
       156.000         165.000
 04  3  1  1  2 30.0000000  0  8G 7G 4G 1G27G 8G11G20G13
 -12644442.346 5  -9852816.238 4  22429504.900    22429505.196    22429504.611
        44.000          30.000
  -4789311.504 4  -3731932.587 4  24454293.605    24454295.354    24454294.126
        11.000           5.000
 -18350323.606 7 -14298956.397 6  21261659.981    21261659.733    21261659.830
       136.000          86.000
 -15986844.482 5 -12457287.454 5  21845770.788    21845770.494    21845770.490
        64.000          49.000
  -1961175.340 4  -1528189.413 4  24406996.301    24406997.506    24406995.836
         9.000           2.000
 -17494615.986 8 -13632170.020 6  21308446.586    21308445.132    21308446.585
       170.000          92.000
 -10488133.935 5  -8172577.560 4  22724593.489    22724592.893    22724593.223
        61.000          26.000
 -19644865.799 7 -15307690.467 7  20821855.677    20821854.093    20821855.996
       156.000         164.000
 04  3  1  1  3  0.0000000  0  8G 7G 4G 1G27G 8G11G20G13
 -12640531.542 5  -9849768.863 4  22430249.044    22430249.469    22430248.929
        45.000          29.000
  -4892827.531 4  -3812594.431 4  24434595.629    24434596.709    24434596.001
        12.000           5.000
 -18281765.595 7 -14245534.606 6  21274706.260    21274705.933    21274705.949
       135.000          87.000
 -16084745.942 5 -12533574.296 5  21827140.661    21827140.586    21827140.408
        66.000          51.000
  -2065485.454 4  -1609470.029 4  24387146.509    24387148.487    24387146.135
         6.000           3.000
 -17436965.694 7 -13587247.746 6  21319417.116    21319415.594    21319417.109
       169.000          91.000
 -10481112.092 5  -8167106.044 4  22725929.886    22725929.336    22725929.358
        61.000          27.000
 -19632123.061 7 -15297761.064 7  20824280.425    20824278.940    20824280.812
       155.000         163.000
 04  3  1  1  3 30.0000000  0  8G 7G 4G 1G27G 8G11G20G13
 -12636202.666 5  -9846395.712 4  22431072.490    22431073.199    22431072.559
        45.000          30.000
  -4996391.539 4  -3893293.665 4  24414888.214    24414889.155    24414888.603
        12.000           6.000
 -18213003.914 7 -14191954.114 5  21287791.141    21287790.874    21287790.948
       132.000          84.000
 -16182482.991 5 -12609733.023 5  21808541.851    21808541.758    21808541.650
        68.000          51.000
  -2169903.602 4  -1690834.777 4  24367276.438    24367277.808    24367276.638
         8.000           2.000
 -17378900.095 7 -13542001.852 6  21330466.708    21330465.150    21330466.622
       166.000          89.000
 -10474156.497 5  -8161686.149 4  22727253.783    22727252.804    22727253.201
        62.000          26.000
 -19618997.836 7 -15287533.619 7  20826778.223    20826776.580    20826778.499
       155.000         161.000
 04  3  1  1  4  0.0000000  0  8G 7G 4G 1G27G 8G11G20G13
 -12631447.067 5  -9842690.049 4  22431977.880    22431978.107    22431977.582
        44.000          30.000
  -5099991.092 4  -3974020.594 4  24395174.048    24395174.834    24395174.401
        12.000           6.000
 -18144031.129 7 -14138209.125 5  21300916.401    21300915.960    21300916.010
       130.000          83.000
 -16280042.232 5 -12685753.201 5  21789976.788    21789976.893    21789976.709
        68.000          52.000
  -2274417.359 4  -1772274.090 4  24347388.685    24347389.266    24347388.113
        11.000           2.000
 -17320410.090 7 -13496425.252 6  21341596.855    21341595.428    21341596.848
       164.000          89.000
 -10467256.037 5  -8156309.195 4  22728566.659    22728566.164    22728566.194
        58.000          27.000
 -19605481.836 7 -15277001.671 7  20829350.140    20829348.580    20829350.481
       156.000         160.000
 04  3  1  1  4 30.0000000  0  8G 7G 4G 1G27G 8G11G20G13
 -12626252.730 5  -9838642.514 4  22432966.684    22432966.646    22432966.064
        44.000          31.000
  -5203610.255 4  -4054762.799 4  24375455.881    24375456.479    24375456.331
        13.000           6.000
 -18074836.342 6 -14084291.146 5  21314083.473    21314083.384    21314083.367
       127.000          83.000
 -16377406.692 5 -12761621.602 5  21771449.239    21771449.115    21771448.901
        71.000          52.000
  -2379010.456 4  -1853775.199 4  24327484.352    24327485.334    24327484.469
        12.000           2.000
 -17261483.012 7 -13450508.074 6  21352810.273    21352808.876    21352810.318
       164.000          88.000
 -10460396.416 5  -8150964.066 4  22729871.741    22729871.248    22729871.391
        57.000          26.000
 -19591563.361 7 -15266156.105 7  20831998.835    20831997.165    20831999.084
       156.000         159.000
 04  3  1  1  5  0.0000000  0  8G 7G 4G 1G27G 8G11G20G13
 -12620630.199 5  -9834261.318 4  22434035.952    22434036.661    22434035.975
        45.000          30.000
  -5307255.979 4  -4135525.698 4  24355732.714    24355733.604    24355732.910
        13.000           7.000
 -18005431.282 6 -14030209.318 5  21327290.987    21327290.778    21327290.841
       126.000          82.000
 -16474582.318 5 -12837342.859 5  21752956.999    21752956.992    21752956.957
        73.000          52.000
  -2483689.626 4  -1935343.377 4  24307564.741    24307565.992    24307564.498
        12.000           3.000
 -17202129.134 7 -13404258.320 6  21364105.029    21364103.594    21364105.001
       161.000          87.000
 -10453585.459 5  -8145656.862 4  22731168.259    22731167.628    22731167.696
        60.000          26.000
 -19577253.391 7 -15255005.475 7  20834721.819    20834720.282    20834722.152
       156.000         159.000
 04  3  1  1  5 30.0000000  0  8G 7G 4G 1G27G 8G11G20G13
 -12614585.039 5  -9829550.801 4  22435186.072    22435186.697    22435186.288
        44.000          29.000
  -5410929.971 4  -4216310.623 4  24336004.276    24336005.139    24336004.610
        14.000           7.000
 -17935822.704 6 -13975968.902 5  21340537.014    21340536.817    21340536.813
       126.000          82.000
 -16571569.833 5 -12912917.536 5  21734500.753    21734500.974    21734500.713
        72.000          51.000
  -2588456.462 4  -2016979.870 4  24287629.741    24287629.901    24287628.383
        10.000           3.000
 -17142353.812 7 -13357680.173 6  21375479.912    21375478.457    21375479.880
       159.000          86.000
 -10446826.165 5  -8140389.895 4  22732454.680    22732453.632    22732454.071
        60.000          25.000
 -19562557.704 7 -15243554.287 7  20837518.423    20837516.787    20837518.695
       157.000         160.000
 04  3  1  1  6  0.0000000  0  8G 7G 4G 1G27G 8G11G13G20
 -12608108.349 5  -9824504.023 4  22436419.130    22436419.297    22436418.820
        45.000          30.000
  -5514619.264 4  -4297107.478 4  24316273.001    24316273.838    24316273.013
        15.000           8.000
 -17866002.995 6 -13921563.968 5  21353823.380    21353823.148    21353823.202
       125.000          81.000
 -16668355.470 5 -12988334.911 5  21716083.641    21716083.364    21716083.120
        75.000          54.000
  -2693297.836 4  -2098674.419 4  24267678.058    24267679.538    24267677.905
        12.000           5.000
 -17082147.868 7 -13310766.475 6  21386936.786    21386935.298    21386936.692
       158.000          85.000
 -19547467.869 7 -15231795.973 7  20840389.889    20840388.321    20840390.199
       155.000         158.000
 -10440107.239 5  -8135154.390 4  22733732.973    22733732.470    22733732.408
        58.000          26.000
 04  3  1  1  6 30.0000000  0  8G 7G 4G 1G27G 8G11G20G13
 -12601217.326 5  -9819134.398 4  22437730.595    22437730.614    22437730.145
        44.000          30.000
  -5618337.488 4  -4377926.873 4  24296535.944    24296536.685    24296536.173
        14.000           8.000
 -17795990.472 6 -13867008.790 5  21367146.168    21367146.146    21367146.064
       122.000          80.000
 -16764951.593 5 -13063604.606 5  21697701.674    21697701.627    21697701.455
        76.000          54.000
  -2798226.885 4  -2180437.296 4  24247710.089    24247711.914    24247710.789
        14.000           4.000
 -17021527.841 7 -13263530.115 6  21398472.294    21398470.900    21398472.265
       158.000          85.000
 -10433443.295 5  -8129961.730 4  22735001.105    22735000.663    22735000.687
        60.000          27.000
 -19532001.280 7 -15219744.087 7  20843333.058    20843331.486    20843333.340
       156.000         159.000
 04  3  1  1  7  0.0000000  0  8G 7G 4G 1G27G 8G11G13G20
 -12593911.568 5  -9813441.598 4  22439120.402    22439120.774    22439120.384
        45.000          30.000
  -5722080.243 4  -4458765.389 4  24276793.838    24276795.231    24276794.503
        15.000           8.000
 -17725785.933 6 -13812303.990 5  21380505.789    21380505.624    21380505.548
       119.000          78.000
 -16861352.934 5 -13138722.528 5  21679356.836    21679356.906    21679356.975
        79.000          55.000
  -2903239.157 4  -2262265.021 4  24227727.177    24227728.662    24227726.557
        10.000           4.000
 -16960493.153 7 -13215970.643 5  21410086.851    21410085.470    21410086.792
       156.000          84.000
 -19516158.101 7 -15207398.754 7  20846347.939    20846346.365    20846348.237
       156.000         159.000
 -10426831.352 5  -8124809.601 4  22736259.563    22736259.259    22736258.963
        61.000          29.000
 04  3  1  1  7 30.0000000  0  8G 7G 4G 1G27G 8G11G13G20
 -12586172.839 5  -9807411.424 4  22440593.117    22440593.485    22440593.007
        45.000          30.000
  -5825825.487 4  -4539605.852 4  24257051.956    24257052.876    24257052.548
        14.000           8.000
 -17655372.055 6 -13757436.074 5  21393905.090    21393905.048    21393904.907
       119.000          78.000
 -16957536.382 5 -13213670.666 5  21661053.937    21661054.003    21661053.792
        80.000          57.000
  -3008312.325 4  -2344140.202 4  24207732.379    24207733.762    24207732.001
        12.000           6.000
 -16899025.361 7 -13168073.688 5  21421783.774    21421782.473    21421783.753
       155.000          83.000
 -19499920.381 7 -15194745.992 7  20849437.767    20849436.257    20849438.142
       155.000         157.000
 -10420250.185 5  -8119681.452 4  22737511.614    22737511.110    22737511.170
        59.000          26.000
 04  3  1  1  8  0.0000000  0  8G 7G 4G 1G27G 8G11G13G20
 -12578009.764 5  -9801050.591 4  22442146.628    22442146.825    22442146.306
        44.000          30.000
  -5929577.841 4  -4620451.863 4  24237308.877    24237309.846    24237309.140
        15.000           9.000
 -17584758.589 6 -13702412.631 5  21407342.468    21407342.356    21407342.228
       118.000          77.000
 -17053505.735 5 -13288451.976 5  21642791.924    21642791.547    21642791.463
        79.000          56.000
  -3113451.038 4  -2426066.457 4  24187725.198    24187726.731    24187725.422
        15.000           4.000
 -16837132.424 7 -13119845.454 5  21433561.413    21433560.385    21433561.506
       151.000          81.000
 -19483297.314 7 -15181792.958 7  20852601.076    20852599.572    20852601.375
       154.000         157.000
 -10413706.246 5  -8114582.307 4  22738756.973    22738756.494    22738756.492
        61.000          27.000
 04  3  1  1  8 30.0000000  0  8G 7G 4G 1G27G 8G11G13G20
 -12569430.292 5  -9794365.297 4  22443779.317    22443779.596    22443779.016
        43.000          30.000
  -6033341.228 4  -4701306.462 4  24217563.612    24217563.982    24217563.544
        14.000           9.000
 -17513954.661 6 -13647240.777 5  21420816.018    21420815.874    21420815.776
       117.000          75.000
 -17149264.083 5 -13363068.864 5  21624569.432    21624569.409    21624569.245
        81.000          57.000
  -3218658.823 4  -2508046.541 4  24167704.797    24167706.217    24167704.544
        12.000           5.000
 -16774821.815 7 -13071291.757 5  21445418.927    21445417.722    21445418.909
       149.000          79.000
 -19466296.717 7 -15168545.747 7  20855836.254    20855834.674    20855836.547
       154.000         156.000
 -10407204.693 5  -8109516.190 4  22739994.315    22739993.654    22739993.887
        61.000          25.000
 04  3  1  1  9  0.0000000  0  8G 7G 4G 1G27G 8G11G13G20
 -12560442.337 5  -9787361.701 4  22445489.756    22445489.878    22445489.330
        44.000          31.000
  -6137119.556 4  -4782172.697 4  24197814.808    24197816.062    24197815.337
        14.000           9.000
 -17442969.049 6 -13591927.351 5  21434324.294    21434324.035    21434324.033
       115.000          74.000
 -17244814.246 5 -13437523.530 5  21606386.670    21606386.872    21606386.632
        81.000          59.000
  -3323939.692 4  -2590083.571 4  24147670.624    24147672.529    24147670.345
        13.000           6.000
 -16712101.571 7 -13022418.866 5  21457354.090    21457353.019    21457354.157
       146.000          79.000
 -19448926.816 7 -15155010.765 7  20859141.527    20859140.091    20859141.859
       152.000         155.000
 -10400750.637 5  -8104487.082 4  22741222.393    22741221.913    22741221.757
        58.000          26.000
 04  3  1  1  9 30.0000000  0  8G 7G 4G 1G27G 8G11G13G20
 -12551048.483 5  -9780041.815 4  22447277.177    22447277.463    22447276.804
        43.000          30.000
  -6240911.229 4  -4863049.339 4  24178064.502    24178064.796    24178064.416
        14.000          10.000
 -17371805.412 6 -13536475.200 5  21447866.082    21447866.066    21447865.962
       117.000          75.000
 -17340153.858 5 -13511814.130 5  21588244.501    21588244.283    21588244.222
        84.000          60.000
  -3429291.577 4  -2672175.920 4  24127623.199    24127624.280    24127622.459
        14.000           7.000
 -16648973.628 7 -12973228.288 5  21469367.066    21469365.901    21469367.031
       145.000          78.000
 -19431190.486 7 -15141190.256 7  20862516.683    20862515.185    20862517.001
       155.000         156.000
 -10394343.831 5  -8099494.786 4  22742441.745    22742441.006    22742441.144
        59.000          25.000
 04  3  1  1 10  0.0000000  0  8G 7G 4G 1G27G 8G11G13G20
 -12541241.148 5  -9772399.731 4  22449143.277    22449143.758    22449143.174
        44.000          31.000
  -6344704.719 4  -4943927.400 4  24158313.146    24158313.695    24158313.152
        14.000          10.000
 -17300457.251 6 -13480879.264 5  21461443.332    21461443.225    21461443.140
       116.000          73.000
 -17435270.388 5 -13585930.896 5  21570144.521    21570144.120    21570144.070
        84.000          61.000
  -3534702.925 4  -2754314.646 4  24107564.246    24107564.832    24107563.581
        14.000           6.000
 -16585430.197 7 -12923713.953 5  21481459.100    21481457.792    21481459.067
       144.000          77.000
 -19413080.538 7 -15127078.615 7  20865963.001    20865961.421    20865963.263
       154.000         153.000
 -10387973.964 5  -8094531.279 4  22743653.935    22743653.248    22743653.502
        63.000          26.000
 04  3  1  1 10 30.0000000  0  8G 7G 4G 1G27G 8G11G13G20
 -12531022.795 5  -9764437.379 4  22451088.099    22451088.318    22451087.679
        43.000          31.000
  -6448498.482 4  -5024805.665 4  24138561.542    24138562.276    24138561.534
        13.000          10.000
 -17228928.042 6 -13425142.252 5  21475054.801    21475054.790    21475054.722
       118.000          73.000
 -17530161.415 5 -13659871.953 5  21552087.029    21552086.959    21552086.904
        83.000          62.000
  -3640171.952 4  -2836498.270 4  24087494.539    24087495.020    24087493.679
        15.000           8.000
 -16521472.933 7 -12873877.149 5  21493629.828    21493628.436    21493629.748
       146.000          76.000
 -19394599.948 7 -15112678.159 7  20869479.620    20869478.180    20869479.989
       156.000         154.000
 -10381640.920 5  -8089596.465 4  22744858.870    22744858.600    22744858.342
        59.000          27.000
 04  3  1  1 11  0.0000000  0  8G 7G 4G 1G27G 8G11G13G20
 -12520387.585 5  -9756150.195 4  22453111.919    22453112.063    22453111.587
        44.000          30.000
  -6552282.503 4  -5105676.344 4  24118811.846    24118813.043    24118812.497
        14.000          11.000
 -17157212.824 6 -13369260.294 5  21488701.885    21488701.761    21488701.710
       115.000          71.000
 -17624815.971 5 -13733628.736 5  21534074.627    21534074.855    21534074.746
        84.000          63.000
  -3745688.308 4  -2918718.824 4  24067414.608    24067415.930    24067414.887
        16.000           6.000
 -16457095.985 7 -12823713.323 5  21505880.357    21505879.065    21505880.339
       143.000          75.000
 -19375743.020 7 -15097984.449 7  20873068.075    20873066.484    20873068.338
       157.000         151.000
 -10375335.859 5  -8084683.466 4  22746058.689    22746058.364    22746058.224
        57.000          27.000
 04  3  1  1 11 30.0000000  0  8G 7G 4G 1G27G 8G11G13G20
 -12509342.511 5  -9747543.635 4  22455213.577    22455213.917    22455213.436
        45.000          30.000
  -6656059.507 4  -5186541.560 4  24099063.759    24099064.968    24099063.871
        14.000          12.000
 -17085319.336 6 -13313239.424 5  21502382.817    21502382.665    21502382.604
       113.000          69.000
 -17719235.901 6 -13807202.694 5  21516107.574    21516107.232    21516107.274
        86.000          64.000
  -3851254.688 4  -3000978.330 4  24047325.115    24047327.428    24047325.409
        14.000           7.000
 -16392306.033 7 -12773227.674 5  21518209.571    21518208.249    21518209.543
       142.000          74.000
 -19356516.921 7 -15083003.072 7  20876726.681    20876725.128    20876726.984
       158.000         151.000
 -10369062.681 5  -8079795.285 4  22747252.520    22747251.992    22747252.143
        60.000          26.000
 04  3  1  1 12  0.0000000  0  8G 7G 4G 1G27G 8G11G13G20
 -12497901.078 4  -9738628.226 4  22457390.454    22457391.012    22457390.358
        42.000          29.000
  -6759838.854 4  -5267408.588 4  24079315.475    24079316.105    24079315.679
        14.000          12.000
 -17013262.233 6 -13257091.058 5  21516094.866    21516094.690    21516094.666
       114.000          69.000
 -17813429.754 6 -13880600.493 5  21498183.010    21498182.812    21498182.726
        86.000          65.000
  -3956880.337 4  -3083283.996 4  24027225.883    24027227.555    24027225.213
        11.000           6.000
 -16327115.901 7 -12722430.201 5  21530614.785    21530613.565    21530614.803
       140.000          74.000
 -19336935.463 7 -15067744.791 7  20880452.872    20880451.286    20880453.176
       157.000         149.000
 -10362832.413 5  -8074940.556 4  22748438.024    22748437.579    22748437.574
        58.000          25.000
 04  3  1  1 12 30.0000000  0  8G 7G 4G 1G27G 8G11G13G20
 -12486058.396 5  -9729400.165 4  22459643.979    22459644.725    22459644.099
        43.000          30.000
  -6863611.623 4  -5348270.486 4  24059568.173    24059569.082    24059568.587
        13.000          12.000
 -16941037.606 6 -13200812.155 5  21529838.798    21529838.625    21529838.565
       113.000          68.000
 -17907387.618 6 -13953814.400 5  21480303.346    21480303.260    21480303.023
        85.000          66.000
  -4062555.920 4  -3165628.607 4  24007116.973    24007118.302    24007116.106
        15.000           7.000
 -16261520.629 7 -12671317.034 5  21543097.241    21543095.944    21543097.147
       138.000          73.000
 -19316994.079 7 -15052206.045 7  20884247.549    20884246.010    20884247.896
       158.000         148.000
 -10356637.250 5  -8070113.171 4  22749616.922    22749616.598    22749616.487
        57.000          25.000
 04  3  1  1 13  0.0000000  0  8G 7G 4G 1G27G 8G11G13G20
 -12473804.021 4  -9719851.306 4  22461976.126    22461976.525    22461975.918
        42.000          30.000
  -6967362.968 4  -5429115.686 4  24039825.058    24039825.912    24039825.200
        14.000          12.000
 -16868635.833 6 -13144395.213 5  21543616.314    21543616.280    21543616.149
       114.000          68.000
 -18001093.784 6 -14026832.178 5  21462471.591    21462471.485    21462471.470
        88.000          68.000
  -4168266.503 4  -3248000.474 4  23987000.206    23987002.187    23987000.058
        16.000           7.000
 -16195509.284 7 -12619879.650 5  21555658.656    21555657.492    21555658.704
       137.000          73.000
 -19296682.440 7 -15036378.787 7  20888112.750    20888111.185    20888113.097
       158.000         148.000
 -10350463.831 5  -8065302.733 4  22750791.860    22750791.654    22750791.360
        58.000          28.000
 04  3  1  1 13 30.0000000  0  8G 7G 4G 1G27G 8G11G13G20
 -12461155.475 5  -9709995.299 4  22464383.117    22464383.493    22464383.014
        44.000          29.000
  -7071106.344 4  -5509954.675 4  24020083.039    24020084.109    24020083.690
        14.000          12.000
 -16796075.262 6 -13087854.536 5  21557424.245    21557424.048    21557423.968
       113.000          66.000
 -18094560.977 6 -14099663.747 5  21444685.195    21444685.295    21444685.185
        86.000          68.000
  -4274025.146 4  -3330409.777 4  23966875.672    23966877.069    23966875.066
        19.000           8.000
 -16129098.986 7 -12568131.397 5  21568296.318    21568294.952    21568296.264
       135.000          71.000
 -19276018.558 7 -15020277.059 7  20892044.980    20892043.361    20892045.296
       158.000         147.000
 -10344326.427 5  -8060520.344 4  22751959.689    22751959.171    22751959.240
        59.000          27.000
 04  3  1  1 14  0.0000000  0  8G 7G 4G 1G27G 8G11G20G13
 -12448109.600 5  -9699829.690 4  22466865.893    22466866.198    22466865.481
        43.000          30.000
  -7174834.226 4  -5590781.573 4  24000344.197    24000345.221    24000344.808
        14.000          13.000
 -16723353.455 6 -13031188.220 5  21571262.587    21571262.649    21571262.477
       112.000          66.000
 -18187780.604 6 -14172302.404 5  21426946.395    21426946.190    21426946.103
        90.000          70.000
  -4379824.390 4  -3412850.741 4  23946742.512    23946744.083    23946741.977
        17.000           8.000
 -16062286.225 7 -12516069.537 5  21581010.464    21581009.035    21581010.386
       134.000          71.000
 -10338218.990 5  -8055761.313 4  22753121.997    22753121.534    22753121.532
        58.000          26.000
 -19254999.338 7 -15003898.440 7  20896044.783    20896043.201    20896045.095
       158.000         146.000
 04  3  1  1 14 30.0000000  0  8G 7G 4G 1G27G 8G11G20G13
 -12434658.789 5  -9689348.542 4  22469425.680    22469425.737    22469425.194
        43.000          30.000
  -7278534.765 4  -5671587.166 4  23980610.588    23980611.741    23980610.827
        13.000          13.000
 -16650463.692 6 -12974391.028 5  21585133.203    21585133.156    21585133.020
       110.000          65.000
 -18280740.097 6 -14244738.360 5  21409256.783    21409256.597    21409256.444
        89.000          70.000
  -4485652.171 4  -3495313.935 4  23926603.726    23926605.471    23926603.725
        17.000           8.000
 -15995062.986 7 -12463687.828 5  21593802.469    21593801.223    21593802.533
       133.000          69.000
 -10332131.248 5  -8051017.621 4  22754280.164    22754279.808    22754279.696
        58.000          26.000
 -19233617.449 7 -14987237.222 7  20900113.684    20900112.066    20900113.958
       158.000         145.000
 04  3  1  1 15  0.0000000  0  8G 7G 4G 1G27G 8G11G20G13
 -12420823.551 5  -9678567.844 4  22472058.207    22472058.589    22472057.924
        43.000          31.000
  -7382223.851 4  -5752383.833 4  23960879.634    23960880.250    23960879.531
        13.000          13.000
 -16577427.130 6 -12917479.450 5  21599031.476    21599031.594    21599031.360
       109.000          64.000
 -18373454.738 6 -14316983.522 5  21391613.330    21391613.527    21391613.312
        90.000          71.000
  -4591524.227 4  -3577811.610 4  23906457.671    23906458.477    23906457.200
        19.000           8.000
 -15927449.209 7 -12411001.806 5  21606669.085    21606667.630    21606669.054
       134.000          68.000
 -10326080.511 5  -8046302.772 4  22755431.829    22755431.551    22755431.413
        62.000          27.000
 -19211893.717 7 -14970309.635 7  20904247.561    20904245.939    20904247.832
       158.000         146.000
 04  3  1  1 15 30.0000000  0  8G 7G 4G 1G27G 8G11G20G13
 -12406586.750 5  -9667474.245 4  22474767.294    22474767.677    22474767.237
        44.000          31.000
  -7485880.380 4  -5833155.126 4  23941154.509    23941154.859    23941154.584
        12.000          12.000
 -16504227.583 6 -12860440.873 5  21612961.053    21612960.967    21612960.878
       110.000          64.000
 -18465902.260 6 -14389020.541 5  21374021.472    21374021.332    21374021.226
        93.000          72.000
  -4697419.011 4  -3660327.018 4  23886306.676    23886307.157    23886305.983
        13.000           8.000
 -15859427.697 7 -12357998.071 5  21619613.072    21619611.668    21619613.050
       134.000          67.000
 -10320046.565 5  -8041601.009 4  22756580.318    22756579.498    22756579.858
        64.000          26.000
 -19189811.008 7 -14953102.325 7  20908449.733    20908448.167    20908450.057
       160.000         147.000
 04  3  1  1 16  0.0000000  0  8G 7G 4G 1G27G 8G11G20G13
 -12391952.170 4  -9656070.686 4  22477552.067    22477552.582    22477551.850
        42.000          30.000
  -7589503.629 4  -5913900.492 4  23921435.337    23921436.527    23921435.829
        13.000          12.000
 -16430869.539 6 -12803278.794 5  21626920.584    21626920.651    21626920.391
       107.000          63.000
 -18558081.437 6 -14460848.462 5  21356480.253    21356480.221    21356480.078
        93.000          73.000
  -4803335.897 4  -3742859.587 4  23866151.195    23866152.513    23866151.155
        16.000          12.000
 -15791001.964 7 -12304679.359 5  21632633.866    21632632.723    21632633.967
       131.000          66.000
 -10314030.146 5  -8036912.909 4  22757724.750    22757724.584    22757724.407
        58.000          26.000
 -19167373.638 7 -14935618.655 7  20912719.377    20912717.814    20912719.702
       159.000         145.000
 04  3  1  1 16 30.0000000  0  8G 7G 4G 1G27G 8G11G20G13
 -12376938.654 5  -9644371.856 4  22480409.190    22480409.419    22480409.145
        45.000          30.000
  -7693108.105 4  -5994631.221 4  23901719.613    23901721.030    23901720.252
        13.000          14.000
 -16357372.479 6 -12746008.392 5  21640906.664    21640906.758    21640906.486
       106.000          62.000
 -18650005.757 6 -14532477.789 5  21338987.803    21338987.598    21338987.575
        95.000          73.000
  -4909289.011 4  -3825420.411 4  23845988.882    23845989.846    23845989.134
        17.000          11.000
 -15722190.041 7 -12251059.721 5  21645728.343    21645727.264    21645728.434
       128.000          66.000
 -10308047.032 5  -8032250.760 4  22758863.496    22758862.931    22758863.093
        60.000          25.000
 -19144600.646 7 -14917873.460 7  20917052.968    20917051.349    20917053.285
       158.000         144.000
 04  3  1  1 17  0.0000000  0  8G 7G 4G 1G27G 8G11G20G13
 -12361557.676 5  -9632386.685 4  22483336.228    22483336.450    22483335.905
        45.000          29.000
  -7796700.567 4  -6075352.589 4  23882007.234    23882007.887    23882007.384
        13.000          13.000
 -16283748.529 6 -12688639.114 5  21654916.729    21654916.870    21654916.656
       104.000          61.000
 -18741681.395 6 -14603913.340 5  21321542.479    21321542.256    21321542.128
        96.000          74.000
  -5015285.124 4  -3908014.741 4  23825818.442    23825819.521    23825817.835
        14.000          10.000
 -15653003.225 6 -12197147.958 5  21658894.382    21658893.141    21658894.371
       127.000          65.000
 -10302105.469 5  -8027620.991 4  22759994.169    22759993.747    22759993.767
        61.000          25.000
 -19121503.423 7 -14899875.620 7  20921448.252    20921446.629    20921448.536
       158.000         145.000
 04  3  1  1 17 30.0000000  0  8G 7G 4G 1G27G 8G11G20G13
 -12345776.870 5  -9620089.965 4  22486339.255    22486339.534    22486338.962
        44.000          31.000
  -7900244.409 4  -6156036.078 4  23862303.067    23862304.310    23862303.721
        13.000          13.000
 -16209966.081 6 -12631146.333 5  21668957.123    21668957.331    21668957.048
       101.000          61.000
 -18833070.807 6 -14675125.858 5  21304151.415    21304151.417    21304151.390
        98.000          74.000
  -5121287.467 4  -3990613.948 4  23805646.729    23805648.186    23805646.450
        17.000          12.000
 -15583408.929 6 -12142918.681 5  21672137.807    21672136.526    21672137.799
       127.000          64.000
 -10296170.048 5  -8022996.006 4  22761123.631    22761123.107    22761123.170
        62.000          26.000
 -19098050.216 7 -14881600.390 7  20925911.175    20925909.664    20925911.484
       157.000         145.000
 04  3  1  1 18  0.0000000  0  8G 7G 4G 1G27G 8G11G20G13
 -12329612.912 5  -9607494.689 4  22489415.354    22489415.521    22489414.675
        43.000          31.000
  -8003751.800 4  -6236691.156 4  23842606.546    23842607.374    23842606.559
        13.000          12.000
 -16136042.331 6 -12573543.443 5  21683024.274    21683024.475    21683024.283
       101.000          60.000
 -18924185.353 6 -14746124.193 5  21286813.010    21286812.908    21286812.860
       101.000          77.000
  -5227307.746 4  -4073227.104 4  23785471.153    23785472.796    23785471.279
        14.000          11.000
 -15513422.888 6 -12088384.146 5  21685455.747    21685454.546    21685455.760
       126.000          64.000
 -10290254.052 5  -8018386.152 4  22762249.471    22762249.185    22762248.957
        61.000          27.000
 -19074257.527 7 -14863060.630 7  20930438.815    20930437.262    20930439.064
       155.000         145.000
 04  3  1  1 18 30.0000000  0  8G 7G 4G 1G27G 8G11G20G13
 -12313075.635 5  -9594608.517 4  22492561.952    22492562.381    22492561.738
        43.000          31.000
  -8107228.076 4  -6317321.984 4  23822915.963    23822916.566    23822915.891
        12.000          13.000
 -16061987.940 6 -12515838.757 5  21697116.492    21697116.569    21697116.343
        99.000          58.000
 -19015029.768 6 -14816912.039 5  21269526.026    21269525.727    21269525.707
       102.000          77.000
  -5333351.389 4  -4155858.494 4  23765292.855    23765293.481    23765292.181
        16.000          10.000
 -15443055.171 6 -12033552.196 5  21698846.251    21698845.115    21698846.283
       125.000          63.000
 -10284364.667 5  -8013797.040 4  22763369.998    22763369.715    22763369.633
        59.000          25.000
 -19050135.622 7 -14844264.337 7  20935028.918    20935027.478    20935029.263
       154.000         144.000
 04  3  1  1 19  0.0000000  0  8G 7G 4G 1G27G 8G11G20G13
 -12296152.979 5  -9581422.050 4  22495782.337    22495782.635    22495782.148
        44.000          30.000
  -8210656.897 4  -6397915.834 4  23803233.358    23803234.609    23803233.797
        13.000          13.000
 -15987791.365 6 -12458023.280 5  21711235.895    21711235.808    21711235.598
        97.000          57.000
 -19105586.736 6 -14887475.903 5  21252293.395    21252293.305    21252293.229
       104.000          78.000
  -5439401.506 4  -4238494.906 4  23745111.822    23745112.858    23745110.986
        12.000          10.000
 -15372293.182 6 -11978413.023 5  21712311.893    21712310.694    21712311.892
       125.000          63.000
 -10278486.137 5  -8009216.381 4  22764488.903    22764488.449    22764488.440
        60.000          26.000
 -19025672.457 7 -14825202.130 7  20939684.215    20939682.686    20939684.525
       154.000         143.000
 04  3  1  1 19 30.0000000  0  8G 7G 4G 1G27G 8G11G20G13
 -12278853.826 5  -9567942.202 4  22499074.393    22499074.732    22499073.960
        44.000          30.000
  -8314042.053 4  -6478475.659 4  23783560.185    23783561.241    23783560.238
        13.000          14.000
 -15913462.091 6 -12400104.403 5  21725380.073    21725380.097    21725379.977
        98.000          57.000
 -19195859.797 6 -14957818.540 5  21235115.118    21235114.945    21235114.856
       104.000          78.000
  -5545462.183 4  -4321139.576 4  23724928.326    23724930.150    23724928.203
        12.000          11.000
 -15301145.524 6 -11922973.333 5  21725850.851    21725849.807    21725850.849
       126.000          63.000
 -10272624.298 5  -8004648.722 4  22765604.259    22765603.820    22765603.789
        59.000          25.000
 -19000877.211 7 -14805881.160 7  20944402.572    20944401.052    20944402.886
       155.000         142.000
 04  3  1  1 20  0.0000000  0  8G 7G 4G 1G27G 8G11G20G13
 -12261187.655 5  -9554176.373 4  22502435.939    22502436.335    22502435.857
        45.000          29.000
  -8417389.021 4  -6559005.719 4  23763894.078    23763894.866    23763893.879
        13.000          13.000
 -15839010.148 6 -12342089.940 5  21739547.983    21739547.955    21739547.714
        96.000          57.000
 -19285853.188 6 -15027943.256 5  21217989.890    21217989.709    21217989.665
       105.000          78.000
  -5651538.323 4  -4403796.304 4  23704742.687    23704744.520    23704742.390
        12.000          12.000
 -15229621.291 6 -11867240.206 5  21739461.515    21739460.374    21739461.491
       123.000          61.000
 -10266785.388 5  -8000098.928 4  22766715.470    22766715.178    22766714.853
        59.000          27.000
 -18975759.554 7 -14786308.963 7  20949182.301    20949180.760    20949182.603
       153.000         141.000
 04  3  1  1 20 30.0000000  0  8G 7G 4G 1G27G 8G11G20G13
 -12243153.099 5  -9540123.484 4  22505867.470    22505868.246    22505867.536
        44.000          29.000
  -8520691.511 4  -6639501.120 4  23744235.788    23744237.020    23744236.287
        14.000          13.000
 -15764434.597 6 -12283979.159 5  21753739.096    21753739.235    21753739.016
        94.000          57.000
 -19375559.913 6 -15097844.593 5  21200919.236    21200919.125    21200919.059
       108.000          79.000
  -5757623.739 4  -4486460.202 4  23684555.523    23684557.240    23684555.136
        13.000          13.000
 -15157718.317 6 -11811211.953 5  21753144.173    21753143.030    21753144.175
       122.000          60.000
 -10260964.744 5  -7995563.379 4  22767823.157    22767822.821    22767822.686
        60.000          26.000
 -18950318.102 7 -14766484.454 7  20954023.614    20954022.147    20954023.924
       152.000         139.000
 04  3  1  1 21  0.0000000  0  8G 7G 4G 1G27G 8G11G20G13
 -12224742.435 5  -9525777.535 4  22509370.964    22509371.927    22509371.038
        44.000          32.000
  -8623937.261 4  -6719952.317 4  23724588.667    23724589.947    23724589.314
        14.000          13.000
 -15689728.367 6 -12225766.548 5  21767955.345    21767955.439    21767955.196
        91.000          55.000
 -19464967.303 6 -15167512.679 5  21183905.476    21183905.448    21183905.392
       110.000          79.000
  -5863705.913 4  -4569121.634 4  23664368.582    23664369.755    23664368.285
        14.000          11.000
 -15085428.727 6 -11754882.437 5  21766900.535    21766899.340    21766900.488
       121.000          59.000
 -10255151.283 5  -7991033.414 4  22768929.157    22768928.897    22768928.906
        61.000          25.000
 -18924545.366 7 -14746401.803 7  20958928.022    20958926.543    20958928.334
       153.000         139.000
 04  3  1  1 21 30.0000000  0  8G 7G 4G 1G27G 8G11G20G13
 -12205965.260 5  -9511145.988 4  22512944.535    22512944.944    22512944.363
        44.000          31.000
  -8727131.311 4  -6800363.225 4  23704951.588    23704952.618    23704952.179
        15.000          13.000
 -15614901.657 6 -12167460.059 5  21782194.209    21782194.447    21782194.188
        90.000          55.000
 -19554079.555 6 -15236950.790 5  21166948.129    21166947.894    21166947.967
       113.000          80.000
  -5969789.614 4  -4651784.235 4  23644182.247    23644183.011    23644182.148
        16.000          12.000
 -15012761.945 6 -11698259.009 5  21780728.644    21780727.370    21780728.597
       120.000          58.000
 -10249351.302 5  -7986513.959 4  22770033.050    22770032.612    22770032.744
        61.000          25.000
 -18898451.247 7 -14726068.722 7  20963893.576    20963892.081    20963893.926
       154.000         139.000
 04  3  1  1 22  0.0000000  0  8G 7G 4G 1G27G 8G11G20G13
 -12186816.659 5  -9496225.022 4  22516588.196    22516588.924    22516588.106
        43.000          32.000
  -8830264.154 4  -6880726.443 4  23685326.374    23685327.059    23685326.578
        16.000          13.000
 -15539949.879 6 -12109056.114 5  21796457.367    21796457.414    21796457.139
        87.000          55.000
 -19642886.360 6 -15306150.892 5  21150048.863    21150048.563    21150048.532
       115.000          83.000
  -6075865.066 4  -4734440.413 4  23623996.621    23623997.051    23623995.751
        13.000          12.000
 -14939712.591 6 -11641337.473 5  21794629.495    21794628.217    21794629.517
       119.000          57.000
 -10243556.648 5  -7981998.651 4  22771135.581    22771135.165    22771135.304
        60.000          25.000
 -18872030.925 7 -14705481.459 7  20968921.242    20968919.699    20968921.514
       153.000         138.000
 04  3  1  1 22 30.0000000  0  8G 7G 4G 1G27G 8G11G20G13
 -12167304.711 5  -9481020.935 4  22520301.427    22520302.042    22520301.178
        44.000          30.000
  -8933338.962 4  -6961044.445 4  23665711.311    23665712.435    23665711.837
        17.000          14.000
 -15464881.768 6 -12050561.516 5  21810742.209    21810742.436    21810742.076
        86.000          54.000
 -19731390.446 6 -15375115.105 5  21133207.093    21133206.821    21133206.757
       116.000          84.000
  -6181935.436 4  -4817092.641 4  23603812.241    23603813.129    23603811.445
        15.000          13.000
 -14866288.305 6 -11584123.781 5  21808601.834    21808600.326    21808601.706
       118.000          56.000
 -10237772.064 5  -7977491.187 4  22772236.612    22772236.265    22772236.168
        58.000          25.000
 -18845292.303 7 -14684646.170 7  20974009.335    20974007.894    20974009.703
       152.000         137.000
 04  3  1  1 23  0.0000000  0  8G27G 7G 4G 1G 8G11G20G13
 -19819576.600 6 -15443831.581 6  21116425.608    21116425.490    21116425.501
       118.000          85.000
 -12147419.474 5  -9465525.968 4  22524085.387    22524085.853    22524085.119
        44.000          29.000
  -9036341.227 4  -7041305.915 4  23646111.206    23646111.641    23646111.290
        18.000          13.000
 -15389687.780 6 -11991968.832 5  21825051.295    21825051.402    21825051.128
        85.000          54.000
  -6287985.925 4  -4899729.358 4  23583630.972    23583632.647    23583630.901
        17.000          13.000
 -14792478.922 6 -11526610.019 5  21822647.158    21822645.977    21822647.121
       116.000          55.000
 -10231984.118 5  -7972981.113 4  22773338.058    22773337.494    22773337.525
        59.000          25.000
 -18818225.946 7 -14663555.504 7  20979160.053    20979158.446    20979160.274
       153.000         137.000
 04  3  1  1 23 30.0000000  0  8G 7G 4G 1G27G13G 8G11G20
 -12127174.966 5  -9449751.050 4  22527937.783    22527938.311    22527937.609
        44.000          29.000
  -9139280.204 4  -7121518.068 4  23626522.644    23626523.202    23626522.709
        19.000          14.000
 -15314382.326 5 -11933289.288 5  21839381.241    21839381.665    21839381.187
        84.000          53.000
 -19907453.339 6 -15512306.951 6  21099703.098    21099703.113    21099703.100
       119.000          86.000
 -18790846.061 7 -14642220.533 7  20984370.126    20984368.668    20984370.499
       153.000         135.000
  -6394025.732 4  -4982357.743 4  23563451.997    23563453.512    23563451.948
        16.000          12.000
 -14718297.983 6 -11468806.734 5  21836763.314    21836762.289    21836763.296
       116.000          55.000
 -10226203.598 5  -7968476.815 4  22774438.194    22774437.896    22774437.673
        62.000          27.000
 04  3  1  1 24  0.0000000  0  8G 7G 4G 1G27G13G 8G11G20
 -12106573.667 5  -9433698.109 4  22531858.130    22531858.676    22531858.027
        44.000          29.000
  -9242153.620 4  -7201679.129 4  23606946.609    23606947.113    23606946.496
        19.000          13.000
 -15238968.231 5 -11874525.085 5  21853732.243    21853732.399    21853732.104
        82.000          52.000
 -19995017.736 6 -15580538.938 6  21083040.448    21083040.125    21083040.209
       121.000          87.000
 -18763155.104 7 -14620643.166 7  20989639.721    20989638.102    20989639.929
       153.000         135.000
  -6500052.366 4  -5064975.867 4  23543276.869    23543277.223    23543276.217
        18.000          12.000
 -14643747.414 6 -11410715.428 5  21850949.887    21850948.877    21850949.817
       114.000          55.000
 -10220429.495 5  -7963977.527 4  22775537.099    22775536.550    22775536.532
        64.000          27.000
 04  3  1  1 24 30.0000000  0  8G 7G 4G 1G27G13G 8G11G20
 -12085617.155 5  -9417368.378 4  22535846.199    22535846.418    22535845.864
        43.000          29.000
  -9344958.317 4  -7281786.642 4  23587383.141    23587383.939    23587383.375
        20.000          14.000
 -15163447.450 5 -11815677.756 5  21868103.337    21868103.703    21868103.169
        83.000          52.000
 -20082266.202 6 -15648524.745 6  21066437.658    21066437.264    21066437.355
       123.000          87.000
 -18735154.486 7 -14598824.505 7  20994967.891    20994966.422    20994968.248
       152.000         134.000
  -6606062.416 4  -5147581.091 4  23523103.096    23523104.429    23523102.688
        18.000          11.000
 -14568828.536 6 -11352337.123 5  21865206.469    21865205.407    21865206.379
       112.000          54.000
 -10214659.866 5  -7959481.735 4  22776634.821    22776634.598    22776634.276
        63.000          28.000
 04  3  1  1 25  0.0000000  0  8G 7G 4G 1G27G13G 8G11G20
 -12064296.512 5  -9400754.910 4  22539903.269    22539903.818    22539903.077
        43.000          29.000
  -9447680.637 4  -7361829.965 4  23567835.895    23567836.304    23567836.152
        21.000          14.000
 -15087811.419 5 -11756740.617 5  21882496.588    21882496.659    21882496.267
        81.000          52.000
 -20169184.258 6 -15716253.090 6  21049897.654    21049897.377    21049897.417
       123.000          90.000
 -18706835.732 7 -14576757.949 7  21000356.800    21000355.290    21000357.134
       151.000         131.000
  -6712042.164 4  -5230162.678 4  23502935.362    23502936.718    23502935.295
        18.000          11.000
 -14493532.244 6 -11293664.739 5  21879534.950    21879533.856    21879534.948
       110.000          52.000
 -10208882.402 5  -7954979.835 4  22777734.151    22777733.932    22777733.679
        62.000          26.000
 04  3  1  1 25 30.0000000  0  8G 7G 4G 1G27G13G 8G11G20
 -12042637.519 4  -9383877.793 4  22544024.873    22544025.292    22544024.513
        41.000          28.000
  -9550341.439 4  -7441825.348 4  23548300.001    23548300.652    23548300.153
        21.000          13.000
 -15012086.079 5 -11697733.887 5  21896906.541    21896906.904    21896906.450
        79.000          50.000
 -20255792.193 6 -15783739.784 6  21033416.515    21033416.341    21033416.378
       124.000          90.000
 -18678224.706 7 -14554463.647 7  21005801.347    21005799.810    21005801.622
       151.000         131.000
  -6818012.113 4  -5312736.644 4  23482770.912    23482771.528    23482770.373
        19.000          11.000
 -14417883.612 6 -11234717.810 5  21893930.489    21893929.456    21893930.378
       108.000          52.000
 -10203119.177 5  -7950489.018 4  22778830.623    22778830.466    22778830.137
        58.000          26.000
 04  3  1  1 26  0.0000000  0  8G 7G 4G 1G27G13G 8G11G20
 -12020634.369 4  -9366732.501 4  22548211.991    22548212.329    22548211.767
        41.000          28.000
  -9652930.223 4  -7521764.614 4  23528777.786    23528778.692    23528777.954
        23.000          14.000
 -14936266.234 5 -11638653.514 5  21911334.494    21911334.776    21911334.378
        79.000          51.000
 -20342078.928 6 -15850976.192 6  21016996.651    21016996.524    21016996.584
       126.000          90.000
 -18649315.705 7 -14531937.157 7  21011302.476    21011301.019    21011302.830
       151.000         130.000
  -6923961.807 4  -5395294.827 4  23462608.994    23462610.497    23462608.531
        20.000          12.000
 -14341876.711 6 -11175491.710 5  21908394.263    21908393.109    21908394.195
       107.000          51.000
 -10197361.310 5  -7946002.386 4  22779926.521    22779926.298    22779926.078
        59.000          27.000
 04  3  1  1 26 30.0000000  0  8G 7G 4G 1G27G13G 8G11G20
 -11998283.928 4  -9349316.594 4  22552465.225    22552465.511    22552464.781
        42.000          28.000
  -9755438.922 4  -7601641.478 4  23509271.095    23509271.885    23509271.203
        24.000          14.000
 -14860348.985 5 -11579497.243 5  21925781.319    21925781.516    21925781.074
        78.000          50.000
 -20428035.899 7 -15917955.638 6  21000639.621    21000639.511    21000639.510
       128.000          92.000
 -18620105.546 7 -14509175.998 7  21016861.090    21016859.532    21016861.364
       150.000         130.000
  -7029882.962 4  -5477830.755 4  23442452.566    23442453.777    23442452.356
        21.000          11.000
 -14265507.747 6 -11115983.479 5  21922926.687    21922925.576    21922926.674
       106.000          50.000
 -10191601.874 5  -7941514.534 4  22781022.251    22781022.108    22781021.903
        58.000          25.000
 04  3  1  1 27  0.0000000  0  8G13G 7G 4G 1G 8G11G20G27
 -18590592.142 7 -14486178.546 7  21022477.291    21022475.738    21022477.559
       151.000         130.000
 -11975584.134 4  -9331628.463 4  22556784.938    22556785.224    22556784.487
        42.000          28.000
  -9857860.572 4  -7681450.512 4  23489780.908    23489781.556    23489781.068
        24.000          14.000
 -14784332.439 5 -11520263.599 5  21940246.718    21940246.971    21940246.556
        78.000          50.000
  -7135768.364 4  -5560338.838 4  23422303.084    23422304.452    23422303.035
        20.000          11.000
 -14188774.496 6 -11056191.388 5  21937528.542    21937527.516    21937528.591
       104.000          49.000
 -10185835.221 5  -7937021.050 4  22782119.692    22782119.580    22782119.345
        59.000          26.000
 -20513655.491 7 -15984672.193 6  20984346.851    20984346.645    20984346.588
       128.000          94.000
 04  3  1  1 27 30.0000000  0  8G13G 7G 4G 1G 8G11G20G27
 -18560787.676 7 -14462954.292 7  21028148.869    21028147.358    21028149.147
       151.000         129.000
 -11952546.693 4  -9313677.235 4  22561168.811    22561169.068    22561168.392
        42.000          28.000
  -9960201.927 4  -7761196.968 4  23470305.971    23470306.330    23470306.009
        25.000          14.000
 -14708228.615 5 -11460961.945 5  21954728.893    21954729.068    21954728.684
        77.000          50.000
  -7241624.755 4  -5642824.328 4  23402159.573    23402160.642    23402159.185
        20.000          10.000
 -14111688.423 6 -10996124.378 5  21952197.480    21952196.511    21952197.476
       102.000          48.000
 -10180069.684 5  -7932528.447 4  22783216.967    22783216.732    22783216.563
        57.000          26.000
 -20598944.243 7 -16051130.949 6  20968117.014    20968116.709    20968116.655
       130.000          95.000
 04  3  1  1 28  0.0000000  0  8G13G 7G 4G 1G 8G11G20G27
 -18530686.810 7 -14439499.076 7  21033876.849    21033875.330    21033877.216
       150.000         128.000
 -11929166.269 5  -9295458.744 4  22565618.050    22565618.246    22565617.529
        43.000          27.000
 -10062453.002 4  -7840873.073 4  23450848.129    23450848.837    23450848.350
        25.000          14.000
 -14632032.391 5 -11401588.301 5  21969228.456    21969228.800    21969228.338
        76.000          49.000
  -7347441.714 4  -5725279.070 4  23382023.236    23382024.398    23382022.668
        21.000          13.000
 -14034243.782 6 -10935777.968 5  21966934.754    21966933.801    21966934.734
       100.000          47.000
 -10174296.290 5  -7928029.703 4  22784315.653    22784315.409    22784315.279
        57.000          25.000
 -20683890.989 7 -16117323.205 6  20951952.178    20951951.903    20951951.884
       130.000          97.000
 04  3  1  1 28 30.0000000  0  8G13G 7G 4G 1G 8G11G20G27
 -18500290.224 7 -14415813.430 6  21039661.192    21039659.626    21039661.489
       149.000         126.000
 -11905443.614 4  -9276973.578 4  22570132.275    22570132.670    22570131.886
        41.000          28.000
 -10164609.520 4  -7920475.487 4  23431408.618    23431409.061    23431408.425
        26.000          14.000
 -14555744.674 5 -11342143.354 5  21983745.603    21983745.858    21983745.451
        76.000          49.000
  -7453215.005 4  -5807699.802 4  23361895.184    23361896.464    23361894.822
        22.000          12.000
 -13956440.870 6 -10875152.384 5  21981740.236    21981739.322    21981740.265
        98.000          46.000
 -10168512.215 5  -7923522.637 4  22785416.408    22785416.298    22785415.836
        59.000          27.000
 -20768491.355 7 -16183245.559 6  20935853.088    20935853.027    20935852.998
       131.000          98.000
 04  3  1  1 29  0.0000000  0  8G13G 7G 4G 1G 8G11G20G27
 -18469586.641 7 -14391888.566 6  21045503.795    21045502.328    21045504.150
       150.000         127.000
 -11881367.922 5  -9258213.322 4  22574713.578    22574714.071    22574713.395
        44.000          28.000
 -10266655.591 4  -7999991.842 4  23411989.947    23411989.908    23411989.826
        25.000          15.000
 -14479354.947 5 -11282618.928 5  21998282.385    21998282.365    21998281.976
        76.000          48.000
  -7558928.475 4  -5890073.887 4  23341778.614    23341780.197    23341778.618
        25.000          14.000
 -13878268.082 6 -10814238.583 5  21996616.124    21996615.207    21996616.031
        97.000          45.000
 -10162702.889 5  -7918995.894 4  22786521.777    22786521.477    22786521.275
        59.000          25.000
 -20852728.938 7 -16248885.220 6  20919823.263    20919823.078    20919823.043
       132.000         100.000
 04  3  1  1 29 30.0000000  0  8G13G 7G 4G 1G 8G11G27G20
 -18438612.668 7 -14367753.009 6  21051398.012    21051396.491    21051398.290
       148.000         126.000
 -11856975.166 5  -9239205.998 4  22579355.462    22579355.715    22579355.217
        43.000          26.000
 -10368622.325 4  -8079446.362 4  23392586.126    23392586.443    23392586.150
        26.000          15.000
 -14402899.389 5 -11223043.205 5  22012831.397    22012831.418    22012831.105
        75.000          48.000
  -7664613.069 4  -5972425.508 4  23321667.067    23321668.716    23321666.984
        23.000          12.000
 -13799761.426 6 -10753064.618 5  22011555.396    22011554.533    22011555.361
        97.000          45.000
 -20936634.225 7 -16314265.948 6  20903856.625    20903856.360    20903856.423
       134.000         100.000
 -10156901.006 5  -7914474.949 4  22787625.886    22787625.471    22787625.384
        58.000          25.000
 04  3  1  1 30  0.0000000  0  8G13G 7G 4G 1G 8G11G20G27
 -18407360.984 7 -14343401.055 6  21057345.019    21057343.531    21057345.289
       146.000         126.000
 -11832257.907 4  -9219945.816 4  22584059.145    22584059.456    22584058.758
        42.000          26.000
 -10470497.235 4  -8158829.336 4  23373199.899    23373200.223    23373199.894
        25.000          15.000
 -14326370.530 5 -11163410.364 5  22027394.138    22027394.524    22027393.946
        73.000          47.000
  -7770256.171 4  -6054744.781 4  23301564.393    23301565.148    23301563.873
        22.000          12.000
 -13720913.274 6 -10691624.553 5  22026559.869    22026558.889    22026559.784
        94.000          44.000
 -10151095.120 5  -7909950.887 4  22788730.793    22788730.233    22788730.396
        60.000          25.000
 -21020194.277 7 -16379377.665 6  20887955.593    20887955.406    20887955.448
       135.000         100.000
 04  3  1  1 30 30.0000000  0  8G13G 7G 4G 1G 8G11G27G20
 -18375823.997 7 -14318826.787 6  21063346.250    21063344.865    21063346.570
       144.000         125.000
 -11807208.829 4  -9200427.075 4  22588825.791    22588825.979    22588825.357
        41.000          26.000
 -10572268.067 4  -8238131.209 4  23353833.258    23353833.623    23353833.499
        25.000          16.000
 -14249761.301 5 -11103714.893 5  22041972.216    22041972.713    22041972.127
        71.000          46.000
  -7875845.311 4  -6137021.998 4  23281471.353    23281471.994    23281471.066
        20.000          12.000
 -13641715.716 6 -10629912.224 5  22041630.643    22041629.865    22041630.645
        92.000          44.000
 -21103396.325 7 -16444210.417 6  20872122.851    20872122.632    20872122.615
       136.000         101.000
 -10145274.287 5  -7905415.184 4  22789838.513    22789837.969    22789838.008
        59.000          26.000
 04  3  1  1 31  0.0000000  0  8G13G 7G 4G 1G 8G11G20G27
 -18343995.452 7 -14294025.332 6  21069402.989    21069401.647    21069403.342
       145.000         126.000
 -11781821.246 4  -9180644.565 4  22593656.711    22593657.224    22593656.468
        41.000          25.000
 -10673923.234 4  -8317342.953 4  23334488.922    23334489.531    23334489.121
        26.000          17.000
 -14173065.411 5 -11043951.898 5  22056567.210    22056567.640    22056566.990
        72.000          47.000
  -7981368.620 4  -6219247.911 4  23261390.534    23261392.232    23261390.251
        22.000          15.000
 -13562161.649 6 -10567922.100 5  22056769.343    22056768.483    22056769.284
        90.000          44.000
 -10139428.289 5  -7900859.867 4  22790951.026    22790950.573    22790950.557
        60.000          27.000
 -21186228.191 7 -16508754.714 6  20856360.425    20856360.164    20856360.194
       139.000         104.000
 04  3  1  1 31 30.0000000  0  8G13G 7G 4G 1G 8G11G27G20
 -18311902.193 7 -14269017.606 6  21075510.213    21075508.758    21075510.517
       144.000         125.000
 -11756122.425 4  -9160619.535 4  22598547.039    22598547.637    22598546.833
        41.000          25.000
 -10775484.739 4  -8396481.714 4  23315162.366    23315162.767    23315162.441
        25.000          17.000
 -14096310.082 5 -10984142.587 5  22071173.270    22071173.561    22071173.132
        71.000          45.000
  -8086848.177 4  -6301439.741 4  23241318.675    23241319.794    23241318.370
        23.000          14.000
 -13482277.940 6 -10505675.119 4  22071970.798    22071969.912    22071970.772
        88.000          42.000
 -21268711.774 7 -16573027.623 6  20840664.387    20840664.048    20840664.084
       138.000         104.000
 -10133580.616 5  -7896303.244 4  22792063.774    22792063.345    22792063.160
        59.000          27.000
 04  3  1  1 32  0.0000000  0  8G13G 7G 4G 1G 8G11G20G27
 -18279529.260 7 -14243791.955 6  21081670.604    21081669.140    21081670.925
       146.000         125.000
 -11730097.171 4  -9140340.142 4  22603499.830    22603500.013    22603499.310
        39.000          26.000
 -10876932.407 4  -8475531.778 4  23295857.411    23295858.123    23295857.844
        26.000          18.000
 -14019480.203 5 -10924275.187 5  22085793.400    22085793.930    22085793.381
        70.000          45.000
  -8192263.609 4  -6383581.591 4  23221258.780    23221259.858    23221258.392
        24.000          14.000
 -13402049.345 6 -10443159.391 4  22087237.780    22087236.815    22087237.759
        89.000          42.000
 -10127712.281 5  -7891730.517 4  22793180.220    22793180.226    22793179.687
        58.000          27.000
 -21350826.252 7 -16637012.918 6  20825038.322    20825038.199    20825038.197
       139.000         106.000
 04  3  1  1 32 30.0000000  0  8G13G 7G 4G 1G 8G11G27G20
 -18246868.503 7 -14218342.025 6  21087885.710    21087884.282    21087886.046
       146.000         123.000
 -11703737.311 4  -9119800.021 4  22608515.616    22608516.155    22608515.382
        39.000          26.000
 -10978253.154 4  -8554482.941 4  23276576.358    23276577.074    23276576.853
        26.000          19.000
 -13942567.541 5 -10864343.281 5  22100429.676    22100429.899    22100429.442
        69.000          44.000
  -8297601.477 4  -6465663.031 4  23201213.523    23201214.577    23201213.165
        22.000          14.000
 -13321466.937 6 -10380367.967 4  22102572.277    22102571.152    22102572.152
        87.000          41.000
 -21432558.117 7 -16700700.075 6  20809485.180    20809485.126    20809485.075
       139.000         107.000
 -10121811.596 5  -7887132.570 4  22794303.268    22794303.154    22794302.676
        58.000          28.000
 04  3  1  1 33  0.0000000  0  8G13G 7G 4G 1G 8G27G11G20
 -18213946.576 7 -14192688.588 6  21094150.556    21094149.129    21094150.898
       147.000         122.000
 -11677069.887 4  -9099020.242 4  22613590.388    22613590.876    22613590.127
        40.000          27.000
 -11079468.592 4  -8633352.048 4  23257315.728    23257316.404    23257316.085
        24.000          19.000
 -13865599.042 5 -10804367.864 5  22115076.152    22115076.399    22115076.040
        68.000          43.000
  -8402883.575 4  -6547700.987 4  23181178.317    23181180.219    23181178.463
        22.000          16.000
 -21513928.720 7 -16764105.728 6  20794000.946    20794000.850    20794000.812
       141.000         109.000
 -13240557.477 6 -10317321.704 4  22117968.752    22117967.763    22117968.734
        85.000          41.000
 -10115901.613 5  -7882527.377 4  22795427.932    22795427.550    22795427.340
        59.000          27.000
 04  3  1  1 33 30.0000000  0  8G13G 7G 4G 1G27G 8G11G20
 -18180752.587 7 -14166823.153 6  21100467.201    21100465.745    21100467.496
       146.000         121.000
 -11650083.594 4  -9077991.986 4  22618725.750    22618726.322    22618725.393
        40.000          27.000
 -11180562.554 4  -8712126.498 4  23238078.139    23238078.779    23238078.755
        25.000          20.000
 -13788563.539 5 -10744340.241 4  22129735.546    22129736.027    22129735.504
        67.000          42.000
 -21594921.535 7 -16827216.999 6  20778588.469    20778588.425    20778588.363
       143.000         111.000
  -8508093.298 4  -6629682.542 4  23161158.220    23161159.669    23161157.728
        23.000          17.000
 -13159309.435 5 -10254011.614 4  22133429.720    22133428.803    22133429.791
        83.000          40.000
 -10109967.489 5  -7877903.370 4  22796557.300    22796556.842    22796556.755
        59.000          26.000
 04  3  1  1 34  0.0000000  0  8G13G 7G 4G 1G 8G27G11G20
 -18147287.137 7 -14140746.193 6  21106835.441    21106834.006    21106835.755
       145.000         119.000
 -11622779.002 4  -9056715.705 4  22623921.506    22623922.072    22623921.359
        40.000          26.000
 -11281530.456 4  -8790802.714 4  23218864.485    23218865.030    23218865.012
        25.000          21.000
 -13711461.628 5 -10684260.865 4  22144407.598    22144407.890    22144407.510
        66.000          42.000
  -8613225.946 4  -6711604.056 4  23141152.178    23141153.176    23141151.777
        24.000          16.000
 -21675531.363 7 -16890029.840 6  20763249.199    20763248.855    20763248.891
       146.000         112.000
 -13077722.867 5 -10190437.730 4  22148955.432    22148954.392    22148955.305
        82.000          39.000
 -10104005.913 5  -7873257.982 4  22797691.393    22797691.151    22797690.978
        57.000          26.000
 04  3  1  1 34 30.0000000  0  8G13G 7G 4G 1G 8G27G11G20
 -18113569.312 7 -14114472.574 6  21113251.763    21113250.321    21113252.060
       145.000         119.000
 -11595175.469 4  -9035206.484 4  22629174.229    22629174.979    22629174.034
        39.000          26.000
 -11382386.567 4  -8869391.823 4  23199672.438    23199672.779    23199672.672
        25.000          21.000
 -13634312.670 5 -10624144.834 4  22159088.752    22159088.990    22159088.493
        67.000          42.000
  -8718295.525 4  -6793476.417 4  23121158.661    23121159.394    23121158.083
        26.000          18.000
 -21755771.889 7 -16952554.914 6  20747979.869    20747979.577    20747979.570
       146.000         113.000
 -12995816.884 5 -10126614.953 4  22164541.658    22164540.664    22164541.606
        81.000          39.000
 -10098032.411 5  -7868603.311 4  22798827.965    22798827.868    22798827.603
        55.000          26.000
 04  3  1  1 35  0.0000000  0  8G13G 7G 4G 1G 8G27G11G20
 -18079594.665 7 -14087998.836 6  21119716.969    21119715.445    21119717.268
       144.000         118.000
 -11567268.435 4  -9013460.769 4  22634484.842    22634485.453    22634484.650
        40.000          25.000
 -11483121.206 4  -8947886.283 4  23180503.365    23180503.580    23180503.472
        24.000          22.000
 -13557112.088 5 -10563988.574 4  22173779.612    22173779.704    22173779.354
        66.000          41.000
  -8823292.290 4  -6875292.047 4  23101177.948    23101178.933    23101177.420
        26.000          17.000
 -21835633.472 7 -17014784.707 6  20732782.699    20732782.386    20732782.417
       146.000         113.000
 -12913586.438 5 -10062539.348 4  22180189.602    22180188.673    22180189.603
        79.000          39.000
 -10092038.802 5  -7863932.974 4  22799968.569    22799968.702    22799968.075
        56.000          26.000
 04  3  1  1 35 30.0000000  0  8G13G 7G 4G 1G27G 8G11G20
 -18045355.300 7 -14061318.821 6  21126232.479    21126231.026    21126232.750
       142.000         116.000
 -11539050.244 4  -8991472.599 4  22639854.504    22639855.007    22639854.427
        38.000          24.000
 -11583721.202 4  -9026275.829 4  23161359.622    23161360.027    23161359.859
        26.000          23.000
 -13479852.033 5 -10503785.972 4  22188481.645    22188481.917    22188481.457
        65.000          40.000
 -21915102.663 7 -17076708.743 6  20717660.231    20717659.928    20717659.942
       146.000         114.000
  -8928203.029 4  -6957040.646 4  23081213.814    23081215.144    23081213.564
        27.000          18.000
 -12831023.608 5  -9998204.746 4  22195900.811    22195899.830    22195900.779
        78.000          38.000
 -10086013.490 5  -7859237.933 4  22801115.088    22801115.045    22801114.587
        55.000          25.000
 04  3  1  1 36  0.0000000  0  8G13G 7G 4G 1G27G 8G11G20
 -18010851.969 7 -14034433.116 6  21132798.144    21132796.806    21132798.479
       140.000         116.000
 -11510521.353 4  -8969242.328 4  22645283.614    22645284.198    22645283.354
        38.000          23.000
 -11684182.169 4  -9104557.045 4  23142242.687    23142242.835    23142242.800
        26.000          23.000
 -13402532.996 5 -10443537.417 4  22203194.829    22203195.231    22203194.794
        64.000          40.000
 -21994174.487 7 -17138323.140 6  20702613.191    20702613.113    20702612.981
       147.000         116.000
  -9033023.235 4  -7038718.695 4  23061266.978    23061268.738    23061266.822
        27.000          21.000
 -12748128.586 5  -9933611.297 4  22211675.246    22211674.329    22211675.224
        77.000          38.000
 -10079952.888 5  -7854515.402 4  22802268.710    22802268.283    22802268.298
        58.000          25.000
 04  3  1  1 36 30.0000000  0  8G13G 7G 4G 1G27G 8G11G20
 -17976093.001 7 -14007348.212 6  21139412.590    21139411.183    21139412.906
       140.000         116.000
 -11481690.337 4  -8946776.631 4  22650770.056    22650770.426    22650769.816
        38.000          24.000
 -11784507.376 4  -9182732.472 4  23123151.186    23123151.619    23123151.264
        27.000          25.000
 -13325163.354 5 -10383249.419 4  22217917.904    22217918.304    22217917.869
        64.000          39.000
 -22072852.002 7 -17199630.285 6  20687641.242    20687641.143    20687641.195
       148.000         116.000
  -9137755.618 4  -7120328.316 4  23041337.430    23041338.271    23041337.023
        28.000          19.000
 -12664909.363 5  -9868765.216 4  22227511.328    22227510.612    22227511.380
        75.000          38.000
 -10073861.853 5  -7849769.167 4  22803427.673    22803427.407    22803427.299
        59.000          24.000
 04  3  1  1 37  0.0000000  0  8G13G 7G 4G 1G27G 8G11G20
 -17941089.041 7 -13980072.402 6  21146073.627    21146072.239    21146073.941
       139.000         115.000
 -11452567.923 4  -8924083.868 4  22656311.852    22656312.302    22656311.476
        37.000          24.000
 -11884702.293 4  -9260806.378 4  23104084.634    23104085.048    23104084.828
        28.000          25.000
 -13247753.867 5 -10322930.383 4  22232648.461    22232648.814    22232648.222
        61.000          38.000
 -22151140.628 7 -17260634.398 6  20672743.655    20672743.376    20672743.384
       150.000         116.000
  -9242405.978 4  -7201874.027 4  23021423.218    23021423.827    23021422.788
        28.000          18.000
 -12581376.417 5  -9803674.680 4  22243407.038    22243406.529    22243407.161
        75.000          38.000
 -10067747.258 5  -7845004.569 4  22804591.562    22804590.944    22804591.168
        60.000          24.000
 04  3  1  1 37 30.0000000  0  8G13G 7G 4G 1G27G 8G11G20
 -17905829.269 7 -13952597.259 6  21152783.376    21152781.966    21152783.701
       139.000         114.000
 -11423143.407 4  -8901155.706 4  22661910.932    22661911.581    22661910.995
        38.000          24.000
 -11984750.920 4  -9338766.286 4  23085046.182    23085046.336    23085046.343
        27.000          26.000
 -13170293.658 5 -10262571.819 4  22247388.600    22247389.041    22247388.586
        60.000          37.000
 -22229023.895 7 -17321322.647 6  20657922.803    20657922.633    20657922.703
       154.000         117.000
  -9346957.703 4  -7283342.878 4  23001527.327    23001528.709    23001527.271
        30.000          20.000
 -12497518.326 5  -9738330.781 4  22259364.721    22259364.139    22259364.814
        73.000          38.000
 -10061594.328 5  -7840210.101 4  22805762.560    22805761.942    22805761.922
        60.000          25.000
 04  3  1  1 38  0.0000000  0  8G13G 7G 4G 1G27G 8G11G20
 -17870321.820 7 -13924929.124 6  21159540.215    21159538.837    21159540.521
       139.000         114.000
 -11393424.837 4  -8877998.408 4  22667566.251    22667566.818    22667566.128
        37.000          23.000
 -12084656.326 4  -9416614.592 4  23066034.593    23066034.994    23066034.805
        29.000          26.000
 -13092790.692 5 -10202179.944 4  22262136.946    22262137.405    22262136.787
        59.000          37.000
 -22306504.394 7 -17381697.052 6  20643178.789    20643178.569    20643178.612
       155.000         117.000
  -9451413.924 4  -7364737.313 4  22981650.043    22981651.411    22981649.717
        29.000          21.000
 -12413343.163 5  -9672739.820 4  22275383.100    22275382.151    22275383.043
        72.000          37.000
 -10055407.691 5  -7835389.368 4  22806939.294    22806939.322    22806939.069
        56.000          24.000
 04  3  1  1 38 30.0000000  0  8G13G 7G 4G 1G27G 8G11G20
 -17834576.210 7 -13897075.408 6  21166342.383    21166340.989    21166342.691
       139.000         112.000
 -11363421.900 4  -8854619.537 4  22673275.938    22673276.400    22673275.422
        36.000          24.000
 -12184422.751 4  -9494354.599 4  23047049.272    23047049.976    23047049.825
        29.000          27.000
 -13015254.380 5 -10141762.080 4  22276891.786    22276892.105    22276891.602
        59.000          36.000
 -22383586.411 7 -17441760.951 6  20628510.796    20628510.329    20628510.436
       156.000         119.000
  -9555778.845 4  -7446060.594 4  22961790.311    22961791.293    22961789.709
        29.000          22.000
 -12328860.406 5  -9606909.173 4  22291459.709    22291458.885    22291459.674
        72.000          37.000
 -10049192.913 5  -7830546.714 4  22808121.973    22808121.943    22808121.628
        54.000          24.000
 04  3  1  1 39  0.0000000  0  8G13G 7G 4G 1G27G 8G11G20
 -17798589.266 7 -13869033.644 6  21173190.492    21173189.079    21173190.809
       141.000         112.000
 -11333131.569 4  -8831016.710 4  22679039.779    22679040.282    22679039.660
        38.000          23.000
 -12284041.802 4  -9571979.773 4  23028092.193    23028093.045    23028092.672
        29.000          27.000
 -12937681.444 5 -10081315.683 4  22291653.319    22291653.935    22291653.107
        57.000          35.000
 -22460261.201 7 -17501507.532 6  20613919.852    20613919.549    20613919.629
       158.000         120.000
  -9660043.825 4  -7527306.011 4  22941949.300    22941950.279    22941948.539
        28.000          21.000
 -12244066.359 5  -9540835.965 4  22307595.543    22307594.742    22307595.541
        72.000          37.000
 -10042942.761 5  -7825676.487 4  22809311.586    22809311.085    22809311.120
        57.000          24.000
 04  3  1  1 39 30.0000000  0  8G13G 7G 4G 1G27G 8G11G20
 -17762354.619 7 -13840798.863 6  21180085.792    21180084.263    21180086.091
       142.000         111.000
 -11302547.242 4  -8807184.801 4  22684859.851    22684860.526    22684859.577
        38.000          25.000
 -12383501.821 4  -9649481.028 4  23009165.789    23009166.510    23009166.231
        30.000          27.000
 -12860065.189 5 -10020835.528 4  22306423.461    22306423.627    22306423.277
        58.000          34.000
 -22536516.962 7 -17560927.595 6  20599408.912    20599408.638    20599408.702
       160.000         120.000
  -9764196.996 4  -7608464.295 4  22922129.092    22922130.461    22922128.922
        29.000          21.000
 -12158954.076 5  -9474514.786 4  22323791.917    22323791.171    22323791.844
        71.000          36.000
 -10036646.968 5  -7820770.691 4  22810509.935    22810509.282    22810509.373
        59.000          23.000
 04  3  1  1 40  0.0000000  0  8G13G 7G 4G 1G27G 8G11G20
 -17725885.572 7 -13812381.436 6  21187025.581    21187024.115    21187025.900
       143.000         111.000
 -11271682.605 4  -8783134.468 4  22690733.133    22690733.994    22690733.095
        37.000          24.000
 -12482810.982 4  -9726864.738 4  22990268.233    22990268.593    22990268.230
        31.000          27.000
 -12782418.929 5  -9960331.996 4  22321198.914    22321199.457    22321198.713
        57.000          34.000
 -22612361.646 7 -17620027.342 6  20584976.282    20584975.792    20584975.886
       162.000         121.000
  -9868246.521 4  -7689541.822 4  22902329.360    22902330.446    22902329.049
        29.000          21.000
 -12073537.050 5  -9407956.143 4  22340046.101    22340045.540    22340046.077
        70.000          34.000
 -10030315.258 5  -7815836.915 4  22811714.720    22811714.142    22811714.178
        58.000          24.000
 04  3  1  1 40 30.0000000  0  8G13G 7G 4G 1G27G 8G11G20
 -17689178.976 7 -13783778.905 6  21194010.572    21194009.159    21194010.939
       142.000         110.000
 -11240534.572 4  -8758863.311 4  22696660.499    22696661.084    22696660.330
        37.000          24.000
 -12581961.109 4  -9804124.531 4  22971400.408    22971400.957    22971400.574
        31.000          27.000
 -12704739.459 5  -9899802.584 4  22335980.836    22335981.276    22335980.840
        58.000          34.000
 -22687786.648 7 -17678800.064 6  20570623.138    20570622.935    20570623.030
       164.000         124.000
  -9972183.668 4  -7770531.786 4  22882550.936    22882551.945    22882550.505
        30.000          23.000
 -11987811.690 5  -9341157.238 4  22356359.058    22356358.630    22356359.059
        70.000          34.000
 -10023940.444 5  -7810869.555 4  22812927.597    22812927.313    22812927.161
        58.000          25.000
 04  3  1  1 41  0.0000000  0  8G13G 7G 4G 1G27G 8G11G20
 -17652235.292 7 -13754991.632 6  21201040.842    21201039.364    21201041.087
       142.000         109.000
 -11209103.529 4  -8734371.626 4  22702641.820    22702642.278    22702641.589
        38.000          23.000
 -12680947.168 4  -9881256.483 4  22952563.925    22952564.385    22952564.193
        31.000          28.000
 -12627027.036 5  -9839247.494 4  22350769.084    22350769.546    22350768.999
        56.000          32.000
 -22762787.030 7 -17737241.914 6  20556351.153    20556350.821    20556350.867
       165.000         124.000
 -10076003.629 4  -7851430.429 4  22862794.359    22862795.581    22862794.113
        30.000          22.000
 -11901778.235 5  -9274118.263 4  22372730.632    22372730.194    22372730.760
        70.000          33.000
 -10017519.103 5  -7805865.940 4  22814149.523    22814149.211    22814148.962
        58.000          25.000
 04  3  1  1 41 30.0000000  0  8G13G 7G 4G 1G27G 8G11G20
 -17615062.608 7 -13726025.915 6  21208114.543    21208113.100    21208114.843
       141.000         108.000
 -11177397.781 4  -8709665.883 4  22708675.251    22708675.830    22708674.928
        37.000          23.000
 -12779772.235 4  -9958262.984 4  22933758.144    22933758.592    22933758.282
        32.000          27.000
 -12549289.351 5  -9778672.717 4  22365562.132    22365562.699    22365561.977
        57.000          33.000
 -22837365.516 7 -17795355.012 6  20542159.327    20542159.000    20542159.126
       165.000         125.000
 -10179709.093 4  -7932239.849 4  22843059.796    22843061.116    22843059.587
        30.000          22.000
 -11815444.444 5  -9206845.258 4  22389159.620    22389159.090    22389159.725
        69.000          32.000
 -10011055.478 5  -7800829.384 4  22815379.685    22815379.339    22815379.190
        59.000          24.000
 04  3  1  1 42  0.0000000  0  8G13G 7G 4G 1G27G 8G11G20
 -17577666.289 7 -13696885.938 6  21215230.858    21215229.369    21215231.141
       141.000         108.000
 -11145422.897 4  -8684750.429 4  22714759.901    22714760.366    22714759.628
        37.000          23.000
 -12878436.373 4 -10035144.088 4  22914982.828    22914983.353    22914983.089
        34.000          28.000
 -12471531.953 5  -9718082.580 4  22380358.878    22380359.207    22380358.881
        55.000          32.000
 -22911522.284 7 -17853139.501 6  20528047.546    20528047.383    20528047.496
       167.000         127.000
 -10283300.303 4  -8012960.246 4  22823347.547    22823348.061    22823346.789
        29.000          24.000
 -11728815.633 5  -9139342.368 4  22405644.797    22405644.154    22405644.763
        69.000          31.000
 -10004551.262 5  -7795761.191 4  22816617.368    22816617.111    22816616.905
        61.000          26.000
 04  3  1  1 42 30.0000000  0  8G13G 7G 4G 1G27G 8G11G20
 -17540039.688 7 -13667566.522 6  21222390.917    21222389.508    21222391.223
       141.000         108.000
 -11113172.497 4  -8659620.276 4  22720896.841    22720897.390    22720896.645
        36.000          23.000
 -12976927.643 4 -10111890.491 4  22896240.468    22896240.958    22896240.748
        34.000          28.000
 -12393747.994 5  -9657471.747 4  22395160.801    22395161.451    22395160.576
        55.000          33.000
 -22985245.288 7 -17910585.990 7  20514018.705    20514018.354    20514018.515
       168.000         128.000
 -10386765.111 4  -8093582.135 4  22803658.908    22803659.644    22803658.267
        31.000          25.000
 -11641884.949 5  -9071604.252 4  22422187.287    22422186.750    22422187.181
        67.000          31.000
  -9997995.825 5  -7790653.094 4  22817865.209    22817864.617    22817864.716
        64.000          26.000
 04  3  1  1 43  0.0000000  0  8G13G 7G 4G 1G27G 8G11G20
 -17502189.524 7 -13638072.902 6  21229593.573    21229592.150    21229593.898
       140.000         108.000
 -11080653.385 4  -8634280.740 4  22727085.144    22727085.580    22727084.911
        37.000          23.000
 -13075247.855 4 -10188503.606 4  22877531.009    22877531.324    22877531.081
        35.000          28.000
 -12315943.970 5  -9596845.278 4  22409966.391    22409966.678    22409966.391
        55.000          31.000
 -23058535.944 8 -17967695.586 7  20500071.941    20500071.637    20500071.746
       170.000         129.000
 -10490104.798 4  -8174106.523 4  22783993.350    22783994.564    22783993.046
        29.000          24.000
 -11554658.728 5  -9003635.846 4  22438785.856    22438785.404    22438785.807
        66.000          31.000
  -9991392.126 5  -7785507.386 4  22819121.652    22819121.240    22819121.129
        63.000          26.000
 04  3  1  1 43 30.0000000  0  8G13G 7G 4G 1G27G 8G11G20
 -17464118.080 7 -13608406.855 6  21236838.369    21236836.945    21236838.683
       141.000         106.000
 -11047867.933 4  -8608733.668 4  22733324.111    22733324.674    22733323.869
        37.000          24.000
 -13173393.863 4 -10264980.974 4  22858854.093    22858854.671    22858854.491
        35.000          27.000
 -12238121.919 5  -9536204.759 4  22424775.366    22424776.134    22424775.306
        54.000          32.000
 -23131391.131 8 -18024465.856 7  20486208.085    20486207.783    20486207.864
       171.000         131.000
 -10593316.255 4  -8254530.998 4  22764352.865    22764354.103    22764352.759
        31.000          23.000
 -11467139.293 5  -8935438.966 4  22455440.468    22455439.745    22455440.325
        64.000          30.000
  -9984738.302 5  -7780322.622 4  22820388.000    22820387.562    22820387.407
        61.000          25.000
 04  3  1  1 44  0.0000000  0  8G13G 7G 4G 1G27G 8G11G20
 -17425819.225 7 -13578563.602 6  21244126.417    21244125.007    21244126.726
       142.000         105.000
 -11014809.856 4  -8582974.166 4  22739614.967    22739615.494    22739614.559
        37.000          23.000
 -13271353.812 4 -10341313.357 4  22840212.755    22840213.429    22840213.150
        37.000          28.000
 -12160275.155 5  -9475544.992 4  22439589.336    22439589.645    22439589.121
        53.000          30.000
 -23203799.027 8 -18080887.584 7  20472429.325    20472429.001    20472429.025
       171.000         133.000
 -10696387.690 4  -8334846.367 4  22744739.438    22744740.210    22744738.702
        32.000          24.000
 -11379319.902 5  -8867008.352 4  22472151.924    22472151.295    22472151.872
        63.000          30.000
  -9978024.174 5  -7775090.859 4  22821665.546    22821665.237    22821665.015
        59.000          26.000
 04  3  1  1 44 30.0000000  0  8G13G 7G 4G 1G27G 8G11G20
 -17387316.246 7 -13548561.292 6  21251453.311    21251451.844    21251453.623
       141.000         103.000
 -10981503.107 4  -8557020.888 4  22745953.104    22745953.335    22745952.709
        37.000          23.000
 -13369146.334 4 -10417515.277 4  22821603.629    22821604.046    22821603.969
        37.000          28.000
 -12082427.243 5  -9414884.327 4  22454403.404    22454403.729    22454403.060
        53.000          30.000
 -23275778.194 8 -18136975.237 7  20458732.183    20458731.756    20458731.889
       174.000         134.000
 -10799337.548 4  -8415067.002 4  22725148.729    22725149.351    22725148.140
        34.000          24.000
 -11291224.045 5  -8798362.317 4  22488916.032    22488915.590    22488915.969
        62.000          29.000
  -9971269.587 5  -7769827.563 4  22822950.822    22822950.806    22822950.235
        59.000          27.000
 04  3  1  1 45  0.0000000  0  8G13G 7G 4G 1G27G 8G11G20
 -17348589.906 7 -13518384.936 6  21258822.719    21258821.202    21258823.002
       140.000         103.000
 -10947928.137 4  -8530858.608 4  22752342.060    22752342.669    22752341.750
        36.000          23.000
 -13466746.602 4 -10493567.394 4  22803030.987    22803031.334    22803031.244
        39.000          28.000
 -12004558.319 5  -9354207.295 4  22469221.385    22469221.851    22469221.259
        53.000          29.000
 -23347303.578 8 -18192709.295 7  20445121.368    20445120.987    20445121.072
       177.000         137.000
 -10902140.689 4  -8495173.319 4  22705585.080    22705586.605    22705585.324
        34.000          24.000
 -11202832.196 5  -8729485.634 4  22505736.308    22505735.986    22505736.279
        60.000          29.000
  -9964450.978 5  -7764514.396 4  22824248.536    22824248.231    22824248.114
        63.000          27.000
 04  3  1  1 45 30.0000000  0  8G13G 7G 4G 1G27G 8G11G20
 -17309646.465 7 -13488039.410 6  21266233.399    21266231.949    21266233.687
       139.000         101.000
 -10914091.527 4  -8504492.460 4  22758780.945    22758781.520    22758780.655
        37.000          23.000
 -13564155.591 4 -10569470.463 4  22784494.466    22784494.906    22784494.761
        38.000          28.000
 -11926674.350 5  -9293518.541 4  22484041.941    22484042.372    22484041.830
        51.000          28.000
 -23418376.418 8 -18248090.719 7  20431596.488    20431596.280    20431596.351
       180.000         138.000
 -11004798.001 4  -8575165.999 4  22686050.402    22686051.652    22686050.269
        36.000          26.000
 -11114150.220 5  -8660382.875 4  22522611.913    22522611.552    22522612.060
        58.000          28.000
  -9957570.791 5  -7759153.242 4  22825557.623    22825557.540    22825557.168
        58.000          26.000
 04  3  1  1 46  0.0000000  0  8G13G 7G 4G 1G27G 8G11G20
 -17270490.411 7 -13457528.213 6  21273684.503    21273683.115    21273684.842
       139.000         101.000
 -10879998.038 4  -8477926.140 4  22765268.906    22765269.464    22765268.407
        35.000          22.000
 -13661372.863 4 -10645224.143 4  22765994.635    22765995.070    22765994.937
        38.000          28.000
 -11848779.623 5  -9232821.400 4  22498865.164    22498865.957    22498864.941
        52.000          30.000
 -23488995.938 8 -18303118.908 7  20418158.113    20418157.838    20418157.871
       179.000         139.000
 -11107308.714 4  -8655044.442 4  22666543.552    22666544.372    22666542.961
        33.000          26.000
 -11025182.691 5  -8591057.620 4  22539541.736    22539541.673    22539541.913
        56.000          27.000
  -9950629.822 5  -7753744.725 4  22826878.593    22826878.214    22826878.148
        60.000          25.000
 04  3  1  1 46 30.0000000  0  8G13G 7G 4G 1G27G 8G11G20
 -17231126.540 7 -13426855.080 6  21281175.154    21281173.800    21281175.535
       138.000         101.000
 -10845652.792 4  -8451163.640 4  22771804.457    22771805.083    22771804.197
        35.000          22.000
 -13758397.828 4 -10720827.974 4  22747531.637    22747531.765    22747531.799
        40.000          29.000
 -11770878.874 5  -9172119.576 4  22513689.011    22513689.461    22513688.887
        51.000          28.000
 -23559161.870 8 -18357793.650 7  20404805.931    20404805.690    20404805.714
       181.000         141.000
 -11209672.519 4  -8734808.409 4  22647064.516    22647065.075    22647063.986
        35.000          25.000
 -10935934.313 5  -8521513.522 4  22556525.425    22556525.181    22556525.389
        55.000          27.000
  -9943628.911 5  -7748289.496 4  22828210.632    22828210.420    22828210.204
        57.000          26.000
 04  3  1  1 47  0.0000000  0  8G13G 7G 4G 1G27G 8G11G20
 -17191564.512 7 -13396027.539 6  21288703.720    21288702.263    21288704.009
       138.000         100.000
 -10811065.488 4  -8424212.526 4  22778386.298    22778386.941    22778385.926
        36.000          23.000
 -13855234.975 4 -10796285.456 4  22729104.326    22729104.281    22729104.395
        40.000          28.000
 -11692981.457 5  -9111420.336 4  22528512.585    22528513.200    22528512.512
        51.000          29.000
 -23628878.503 8 -18412118.290 7  20391539.326    20391539.013    20391539.096
       182.000         142.000
 -11311893.391 4  -8814461.006 4  22627612.218    22627613.042    22627611.935
        36.000          26.000
 -10846414.512 5  -8451757.926 4  22573560.472    22573560.149    22573560.531
        54.000          25.000
  -9936573.766 5  -7742791.994 4  22829553.385    22829553.180    22829552.949
        58.000          25.000
 04  3  1  1 47 30.0000000  0  8G13G 7G 4G 1G27G 8G11G20
 -17151804.714 7 -13365045.892 6  21296269.662    21296268.297    21296269.978
       137.000          99.000
 -10776236.705 4  -8397073.249 4  22785014.040    22785014.710    22785013.828
        36.000          22.000
 -13951879.121 4 -10871592.548 4  22710713.430    22710713.448    22710713.484
        41.000          29.000
 -11615087.384 5  -9050723.714 4  22543335.445    22543335.901    22543335.297
        50.000          28.000
 -23698140.837 8 -18466088.930 7  20378358.962    20378358.804    20378358.903
       183.000         144.000
 -11413966.186 4  -8893998.212 4  22608188.010    22608189.423    22608188.044
        36.000          27.000
 -10756623.448 5  -8381790.958 4  22590647.220    22590646.964    22590647.348
        52.000          25.000
  -9929460.993 5  -7737249.595 4  22830906.693    22830906.648    22830906.259
        56.000          24.000
 04  3  1  1 48  0.0000000  0  8G13G 7G 4G 1G27G 8G11G20
 -17111844.544 7 -13333908.112 6  21303873.929    21303872.472    21303874.180
       137.000         100.000
 -10741164.210 4  -8369744.071 4  22791687.771    22791688.599    22791687.633
        34.000          21.000
 -14048322.737 4 -10946743.391 4  22692360.584    22692360.750    22692360.897
        41.000          29.000
 -11537193.978 5  -8990027.602 4  22558157.981    22558158.503    22558157.795
        50.000          27.000
 -23766941.310 8 -18519699.678 7  20365266.725    20365266.526    20365266.635
       184.000         145.000
 -11515883.223 4  -8973414.053 4  22588794.167    22588795.026    22588793.778
        36.000          26.000
 -10666558.502 5  -8311610.575 4  22607786.440    22607785.896    22607786.272
        51.000          25.000
  -9922284.026 5  -7731657.177 4  22832272.529    22832272.364    22832272.101
        56.000          25.000
 04  3  1  1 48 30.0000000  0  8G13G 7G 4G 1G27G 8G11G20
 -17071690.425 7 -13302619.199 6  21311514.944    21311513.563    21311515.252
       137.000          97.000
 -10705854.198 4  -8342229.808 4  22798407.375    22798407.855    22798407.242
        35.000          21.000
 -14144566.552 5 -11021738.541 4  22674045.932    22674046.176    22674046.181
        43.000          30.000
 -11459306.769 5  -8929336.319 4  22572979.364    22572980.277    22572979.339
        47.000          28.000
 -23835280.785 8 -18572951.206 7  20352262.195    20352261.966    20352262.025
       183.000         146.000
 -11617644.925 4  -9052708.855 4  22569430.053    22569430.452    22569429.141
        37.000          26.000
 -10576225.773 5  -8241221.542 4  22624976.255    22624975.840    22624976.108
        51.000          25.000
  -9915044.915 5  -7726016.343 4  22833650.046    22833650.018    22833649.707
        57.000          25.000
 04  3  1  1 49  0.0000000  0  8G13G 7G 4G 1G27G 8G11G20
 -17031332.260 7 -13271171.291 6  21319194.889    21319193.464    21319195.192
       139.000          97.000
 -10670297.185 4  -8314523.085 4  22805173.655    22805174.434    22805173.531
        36.000          22.000
 -14240595.612 4 -11096566.353 4  22655772.082    22655772.439    22655772.426
        42.000          30.000
 -11381415.743 5  -8868642.071 4  22587801.584    22587802.249    22587801.475
        48.000          27.000
 -23903144.274 8 -18625831.836 7  20339348.148    20339347.953    20339348.037
       185.000         148.000
 -11719236.301 4  -9131870.934 4  22550097.727    22550098.309    22550097.136
        39.000          27.000
 -10485615.434 5  -8170616.188 4  22642218.776    22642218.611    22642218.933
        50.000          24.000
  -9907730.071 5  -7720316.493 4  22835042.105    22835041.898    22835041.618
        58.000          25.000
 04  3  1  1 49 30.0000000  0  8G13G 7G 4G 1G27G 8G11G20
 -16990769.842 7 -13239564.221 6  21326913.732    21326912.304    21326914.006
       138.000          96.000
 -10634493.044 4  -8286623.800 4  22811987.119    22811987.714    22811987.011
        37.000          22.000
 -14336404.299 5 -11171222.447 4  22637540.364    22637540.629    22637540.550
        43.000          30.000
 -11303520.135 5  -8807944.236 4  22602624.874    22602625.376    22602624.678
        48.000          27.000
 -23970526.336 8 -18678337.328 7  20326525.863    20326525.562    20326525.632
       186.000         149.000
 -11820651.714 4  -9210895.910 4  22530798.139    22530799.479    22530798.218
        41.000          27.000
 -10394727.094 5  -8099794.217 4  22659514.493    22659514.494    22659514.362
        49.000          23.000
  -9900335.229 5  -7714554.304 4  22836449.271    22836449.187    22836448.833
        57.000          26.000
 04  3  1  1 50  0.0000000  0  8G13G 7G 4G 1G27G 8G11G20
 -16950014.750 7 -13207807.017 6  21334669.115    21334667.729    21334669.411
       137.000          96.000
 -10598453.662 4  -8258541.201 4  22818845.300    22818845.650    22818844.858
        35.000          21.000
 -14431998.695 5 -11245711.562 4  22619349.480    22619349.680    22619349.591
        44.000          31.000
 -11225631.388 5  -8747251.762 4  22617446.418    22617447.338    22617446.249
        47.000          28.000
 -24037433.526 8 -18730472.792 7  20313793.831    20313793.563    20313793.608
       185.000         150.000
 -11921897.022 4  -9289788.319 4  22511531.833    22511533.123    22511531.877
        40.000          28.000
 -10303572.016 5  -8028764.399 4  22676860.783    22676860.457    22676860.654
        48.000          23.000
  -9892868.111 5  -7708735.791 4  22837870.207    22837870.257    22837869.886
        57.000          26.000
 04  3  1  1 50 30.0000000  0  8G13G 7G 4G 1G27G 8G11G20
 -16909092.408 7 -13175919.491 6  21342456.400    21342455.036    21342456.686
       136.000          96.000
 -10562204.697 4  -8230295.289 4  22825742.948    22825743.687    22825742.822
        34.000          21.000
 -14527399.249 5 -11320049.629 4  22601195.395    22601195.602    22601195.457
        44.000          32.000
 -11147774.564 5  -8686584.156 4  22632262.419    22632262.751    22632262.127
        46.000          27.000
 -24103886.007 8 -18782253.938 7  20301148.360    20301148.001    20301148.143
       187.000         151.000
 -12022992.406 5  -9368563.919 4  22492294.777    22492295.116    22492294.276
        43.000          29.000
 -10212175.581 5  -7957546.503 4  22694252.948    22694252.865    22694252.950
        47.000          23.000
  -9885350.268 5  -7702877.758 4  22839301.089    22839300.684    22839300.718
        60.000          25.000
 04  3  1  1 51  0.0000000  0  8G13G 7G 4G 1G27G 8G11G20
 -16867981.800 7 -13143885.264 6  21350279.529    21350278.138    21350279.773
       135.000          95.000
 -10525725.362 4  -8201869.875 4  22832684.997    22832685.635    22832684.660
        35.000          22.000
 -14622579.517 5 -11394216.042 4  22583083.007    22583083.297    22583083.347
        44.000          33.000
 -11069928.203 5  -8625924.710 4  22647075.802    22647076.872    22647075.733
        45.000          27.000
 -24169857.608 8 -18833660.372 7  20288594.396    20288594.058    20288594.169
       189.000         152.000
 -12123911.407 4  -9447202.074 4  22473090.473    22473090.925    22473089.780
        42.000          28.000
 -10120516.366 5  -7886123.857 4  22711695.008    22711694.983    22711694.981
        47.000          22.000
  -9877756.776 5  -7696960.780 4  22840746.018    22840745.759    22840745.486
        59.000          24.000
 04  3  1  1 51 30.0000000  0  8G13G 7G 4G 1G27G 8G11G20
 -16826691.172 7 -13111710.764 6  21358136.800    21358135.494    21358137.148
       134.000          94.000
 -10489024.049 4  -8173271.493 4  22839669.002    22839669.626    22839668.639
        34.000          23.000
 -14717542.337 5 -11468213.011 4  22565012.096    22565012.363    22565012.461
        46.000          33.000
 -10992100.123 5  -8565279.505 4  22661886.412    22661886.843    22661886.027
        44.000          27.000
 -24235351.499 8 -18884694.565 7  20276131.349    20276130.968    20276131.125
       190.000         153.000
 -12224656.784 4  -9525704.931 4  22453919.369    22453919.620    22453918.489
        42.000          28.000
 -10028603.047 5  -7814503.191 4  22729185.712    22729185.646    22729185.739
        46.000          22.000
  -9870091.800 5  -7690988.105 4  22842204.703    22842204.160    22842204.174
        58.000          22.000
 04  3  1  1 52  0.0000000  0  8G13G 7G 4G 1G27G 8G11G20
 -16785216.035 7 -13079392.491 6  21366029.370    21366027.922    21366029.611
       133.000          94.000
 -10452096.538 4  -8144496.846 4  22846696.007    22846696.691    22846695.772
        32.000          23.000
 -14812278.141 5 -11542033.088 4  22546984.545    22546984.687    22546984.798
        46.000          33.000
 -10914285.603 4  -8504644.865 4  22676693.740    22676694.520    22676693.584
        41.000          26.000
 -24300358.112 8 -18935349.062 7  20263761.054    20263760.609    20263760.732
       191.000         156.000
 -12325218.633 5  -9604064.786 4  22434782.315    22434783.382    22434782.247
        44.000          30.000
  -9936431.021 5  -7742680.949 4  22746725.647    22746725.243    22746725.644
        46.000          21.000
  -9862346.874 5  -7684953.134 4  22843678.623    22843678.069    22843678.033
        59.000          24.000
 04  3  1  1 52 30.0000000  0  8G13G 7G 4G 1G27G 8G11G20
 -16743542.565 7 -13046919.672 6  21373959.463    21373958.150    21373959.823
       133.000          93.000
 -10414929.409 4  -8115535.487 4  22853768.654    22853769.502    22853768.557
        33.000          23.000
 -14906767.950 5 -11615661.476 4  22529003.783    22529003.817    22529003.981
        47.000          34.000
 -10836470.579 5  -8444009.839 4  22691501.605    22691502.298    22691501.513
        44.000          27.000
 -24364858.693 8 -18985609.248 7  20251486.948    20251486.571    20251486.676
       190.000         155.000
 -12425577.905 5  -9682266.775 4  22415684.204    22415685.731    22415684.434
        44.000          30.000
  -9843986.181 5  -7670646.124 4  22764317.318    22764317.235    22764317.330
        46.000          22.000
  -9854504.400 5  -7678842.153 4  22845170.728    22845170.830    22845170.299
        58.000          25.000
 04  3  1  1 53  0.0000000  0  8G13G 7G 4G 1G27G 8G11G20
 -16701702.400 7 -13014316.961 6  21381921.417    21381920.059    21381921.703
       132.000          91.000
 -10377554.590 4  -8086412.291 4  22860881.016    22860881.707    22860880.716
        33.000          23.000
 -15001037.920 5 -11689118.566 4  22511064.694    22511064.853    22511065.046
        48.000          35.000
 -10758686.050 4  -8383398.568 4  22706303.457    22706304.273    22706303.263
        41.000          26.000
 -24428879.851 8 -19035495.860 7  20239304.065    20239303.718    20239303.803
       190.000         156.000
 -12525760.723 5  -9760331.272 4  22396621.140    22396621.329    22396620.403
        46.000          30.000
  -9751300.182 5  -7598423.381 4  22781954.985    22781954.855    22781954.918
        44.000          20.000
  -9846592.076 5  -7672676.747 4  22846676.428    22846676.481    22846675.872
        58.000          24.000
 04  3  1  1 53 30.0000000  0  8G13G 7G 4G 1G27G 8G11G20
 -16659682.010 7 -12981573.814 6  21389917.598    21389916.327    21389917.963
       132.000          91.000
 -10339958.767 4  -8057116.890 4  22868035.383    22868036.056    22868034.906
        33.000          24.000
 -15095069.303 5 -11762389.746 4  22493171.272    22493171.152    22493171.438
        49.000          35.000
 -10680917.994 4  -8322800.131 4  22721102.620    22721103.110    22721102.344
        42.000          26.000
 -24492402.921 8 -19084994.351 7  20227215.958    20227215.702    20227215.778
       190.000         156.000
 -12625747.975 5  -9838243.383 4  22377594.161    22377594.514    22377593.538
        46.000          31.000
  -9658359.319 5  -7526002.047 4  22799641.440    22799640.983    22799641.250
        44.000          21.000
  -9838592.368 5  -7666443.231 4  22848198.900    22848198.681    22848198.521
        60.000          24.000
 04  3  1  1 54  0.0000000  0  8G13G 7G 4G 1G27G 8G11G20
 -16617492.943 7 -12948699.231 6  21397945.920    21397944.604    21397946.272
       133.000          90.000
 -10302153.671 4  -8027658.410 4  22875229.486    22875230.225    22875229.125
        34.000          24.000
 -15188868.230 5 -11835479.790 4  22475321.878    22475321.810    22475322.089
        49.000          36.000
 -10603177.804 4  -8262223.414 4  22735895.799    22735896.721    22735895.627
        41.000          27.000
 -24555434.381 8 -19134109.770 7  20215221.471    20215221.139    20215221.233
       191.000         158.000
 -12725546.023 5  -9916008.061 4  22358602.836    22358603.415    22358602.419
        47.000          32.000
  -9565175.525 5  -7453391.421 4  22817373.664    22817373.446    22817373.555
        43.000          20.000
  -9830512.893 5  -7660147.576 4  22849736.377    22849736.313    22849735.985
        61.000          25.000
 04  3  1  1 54 30.0000000  0  8G13G 7G 4G 1G27G 8G11G20
 -16575130.312 7 -12915689.403 6  21406007.288    21406005.973    21406007.639
       131.000          88.000
 -10264134.916 4  -7998033.449 4  22882463.999    22882465.018    22882463.813
        32.000          24.000
 -15282424.686 5 -11908380.897 4  22457518.488    22457518.462    22457518.772
        50.000          37.000
 -10525460.087 4  -8201664.208 4  22750685.182    22750685.800    22750684.994
        41.000          26.000
 -24617964.514 8 -19182834.545 7  20203322.415    20203322.074    20203322.194
       193.000         159.000
 -12825144.726 5  -9993617.401 4  22339649.771    22339650.494    22339649.289
        48.000          34.000
  -9471743.629 4  -7380587.469 4  22835153.130    22835153.130    22835153.216
        42.000          20.000
  -9822344.947 5  -7653782.965 4  22851290.576    22851290.525    22851290.220
        61.000          25.000
 04  3  1  1 55  0.0000000  0  8G13G 7G 4G 1G27G 8G11G20
 -16532603.556 7 -12882551.687 6  21414099.958    21414098.575    21414100.256
       133.000          87.000
 -10225912.142 4  -7968249.520 4  22889737.260    22889738.528    22889737.362
        31.000          24.000
 -15375743.024 5 -11981096.459 4  22439760.759    22439760.657    22439760.875
        51.000          37.000
 -10447773.970 4  -8141129.623 4  22765468.374    22765469.115    22765468.119
        41.000          27.000
 -24679997.960 8 -19231172.291 7  20191517.743    20191517.505    20191517.601
       192.000         160.000
 -12924547.924 5 -10071074.402 4  22320733.510    22320734.773    22320733.480
        50.000          36.000
  -9378073.352 4  -7307597.764 4  22852978.000    22852978.066    22852978.031
        40.000          20.000
  -9814094.108 5  -7647353.773 4  22852860.654    22852860.603    22852860.241
        59.000          25.000
 04  3  1  1 55 30.0000000  0  8G13G 7G 4G 1G27G 8G11G20
 -16489906.834 7 -12849281.529 6  21422224.871    21422223.508    21422225.159
       132.000          87.000
 -10187479.557 4  -7938302.096 4  22897051.272    22897052.080    22897050.978
        32.000          23.000
 -15468811.740 5 -12053617.510 4  22422050.385    22422050.203    22422050.411
        51.000          37.000
 -10370112.853 4  -8080614.524 4  22780246.788    22780247.486    22780246.478
        38.000          26.000
 -24741523.497 8 -19279114.264 7  20179809.853    20179809.595    20179809.673
       193.000         161.000
 -13023744.028 5 -10148370.025 4  22301857.416    22301858.241    22301857.187
        51.000          36.000
  -9284158.212 4  -7234417.262 4  22870849.522    22870849.784    22870849.576
        40.000          21.000
  -9805750.399 5  -7640852.222 4  22854448.562    22854448.462    22854448.173
        58.000          24.000
 04  3  1  1 56  0.0000000  0  8G13G 7G 4G 1G27G 8G11G20
 -16447051.017 7 -12815887.402 6  21430380.082    21430378.674    21430380.353
       130.000          85.000
 -10148848.504 4  -7908200.015 4  22904402.458    22904403.410    22904402.164
        31.000          24.000
 -15561636.654 5 -12125948.585 4  22404386.402    22404386.239    22404386.434
        52.000          38.000
 -10292487.167 4  -8020127.026 4  22795018.326    22795019.402    22795018.280
        39.000          26.000
 -24802547.234 8 -19326665.224 7  20168197.384    20168197.160    20168197.250
       193.000         162.000
 -13122738.822 5 -10225508.790 4  22283019.689    22283020.001    22283018.998
        50.000          35.000
  -9190009.348 4  -7161054.643 4  22888765.625    22888765.714    22888765.545
        41.000          21.000
  -9797320.711 5  -7634283.672 4  22856052.691    22856052.614    22856052.303
        59.000          25.000
 04  3  1  1 56 30.0000000  0  8G13G 7G 4G 1G27G 8G11G20
 -16404046.465 7 -12782377.381 6  21438563.580    21438562.237    21438563.861
       131.000          85.000
 -10110029.637 4  -7877951.597 4  22911789.411    22911790.605    22911789.251
        31.000          25.000
 -15654222.745 5 -12198093.566 4  22386767.593    22386767.707    22386767.934
        53.000          39.000
 -10214906.881 4  -7959674.919 4  22809781.661    22809782.234    22809781.318
        36.000          25.000
 -24863074.629 8 -19373829.422 7  20156679.434    20156679.174    20156679.252
       194.000         163.000
 -13221537.384 5 -10302494.648 4  22264218.860    22264219.377    22264218.210
        50.000          36.000
  -9095637.153 4  -7087517.982 4  22906724.021    22906724.490    22906724.125
        41.000          20.000
  -9788811.489 5  -7627653.143 4  22857672.056    22857671.864    22857671.558
        58.000          24.000
 04  3  1  1 57  0.0000000  0  8G13G 7G 4G 1G27G 8G11G20
 -16360885.587 7 -12748745.542 5  21446776.776    21446775.470    21446777.166
       130.000          83.000
 -10071015.954 4  -7847551.370 4  22919213.368    22919214.614    22919213.275
        32.000          26.000
 -15746557.250 5 -12270042.502 4  22369197.001    22369197.020    22369197.208
        54.000          40.000
 -10137364.153 4  -7899252.067 4  22824537.652    22824538.567    22824537.390
        38.000          26.000
 -24923093.535 8 -19420597.398 7  20145258.125    20145257.935    20145258.031
       194.000         164.000
 -13320126.661 5 -10379317.427 4  22245457.567    22245458.414    22245457.196
        50.000          36.000
  -9001034.264 4  -7013801.571 4  22924726.703    22924726.660    22924726.608
        39.000          19.000
  -9780211.408 5  -7620951.803 4  22859308.588    22859308.404    22859308.041
        58.000          24.000
 04  3  1  1 57 30.0000000  0  8G13G 7G 4G 1G27G 8G11G20
 -16317557.203 7 -12714983.179 5  21455021.960    21455020.612    21455022.259
       129.000          82.000
 -10031796.391 4  -7816990.717 4  22926676.864    22926677.823    22926676.532
        33.000          25.000
 -15838623.809 5 -12341782.648 4  22351677.366    22351677.368    22351677.445
        54.000          40.000
 -10059847.121 4  -7838849.245 4  22839288.362    22839289.273    22839288.149
        36.000          24.000
 -24982587.697 8 -19466956.480 7  20133936.785    20133936.570    20133936.683
       196.000         166.000
 -13418489.912 5 -10455964.076 4  22226739.622    22226740.517    22226739.299
        51.000          36.000
  -8906189.209 4  -6939896.470 4  22942775.259    22942775.522    22942775.195
        39.000          19.000
  -9771505.382 5  -7614167.924 4  22860965.127    22860965.275    22860964.590
        55.000          24.000
 04  3  1  1 58  0.0000000  0  8G13G 7G 4G 1G27G 8G11G20
 -16274064.226 7 -12681092.564 5  21463298.312    21463297.027    21463298.707
       128.000          81.000
  -9992374.208 4  -7786272.181 4  22934178.949    22934179.832    22934178.447
        34.000          24.000
 -15930420.024 5 -12413312.141 4  22334209.017    22334209.134    22334209.256
        54.000          41.000
  -9982358.191 4  -7778468.316 4  22854034.446    22854035.120    22854034.414
        37.000          25.000
 -25041555.081 8 -19512905.088 7  20122715.683    20122715.440    20122715.536
       196.000         164.000
 -13516624.869 5 -10532432.843 4  22208065.424    22208065.775    22208064.991
        51.000          36.000
  -8811105.252 4  -6865805.220 4  22960869.122    22960869.517    22960869.018
        37.000          20.000
  -9762692.333 5  -7607300.645 4  22862642.389    22862642.312    22862641.868
        56.000          23.000
 04  3  1  1 58 30.0000000  0  8G 7G 4G 1G27G13G 8G11G20
  -9952775.681 4  -7755416.233 4  22941714.278    22941715.088    22941713.816
        32.000          24.000
 -16021966.576 5 -12484647.087 4  22316788.180    22316788.344    22316788.462
        56.000          42.000
  -9904922.849 4  -7718129.149 4  22868769.623    22868770.741    22868769.315
        34.000          25.000
 -25100016.938 8 -19558459.777 7  20111590.915    20111590.548    20111590.650
       196.000         169.000
 -16230432.407 7 -12647093.761 5  21471601.308    21471599.895    21471601.595
       128.000          81.000
 -13614551.996 5 -10608739.659 4  22189430.425    22189430.956    22189429.963
        53.000          37.000
  -8715808.340 4  -6791548.015 4  22979003.601    22979003.666    22979003.798
        38.000          19.000
  -9753794.335 5  -7600367.168 4  22864335.529    22864335.536    22864335.200
        56.000          23.000
 04  3  1  1 59  0.0000000  0  8G 7G 4G 1G27G13G 8G11G20
  -9912998.477 4  -7724421.061 4  22949283.296    22949284.425    22949283.018
        31.000          24.000
 -16113255.451 5 -12555781.248 5  22299416.582    22299416.547    22299416.729
        57.000          43.000
  -9827537.967 4  -7657829.299 4  22883495.788    22883496.463    22883495.656
        34.000          23.000
 -25157965.698 8 -19603614.651 7  20100563.504    20100563.235    20100563.327
       196.000         168.000
 -16186659.335 7 -12612984.893 5  21479930.991    21479929.693    21479931.300
       128.000          80.000
 -13712263.172 5 -10684878.205 4  22170836.646    22170837.197    22170836.252
        55.000          37.000
  -8620295.466 4  -6717122.551 4  22997179.338    22997179.726    22997179.240
        37.000          19.000
  -9744804.700 5  -7593362.299 4  22866046.042    22866046.326    22866045.554
        51.000          23.000
 04  3  1  1 59 30.0000000  0  8G 7G 4G 1G27G13G 8G11G20
  -9873033.384 4  -7693279.484 4  22956888.583    22956889.606    22956888.389
        32.000          24.000
 -16204271.728 5 -12626702.996 5  22282096.485    22282096.718    22282096.806
        58.000          43.000
  -9750193.358 4  -7597560.831 4  22898213.771    22898214.669    22898213.450
        33.000          24.000
 -25215387.039 8 -19648358.550 7  20089636.736    20089636.326    20089636.426
       199.000         169.000
 -16142735.396 7 -12578758.466 5  21488289.495    21488288.160    21488289.851
       129.000          81.000
 -13809743.480 5 -10760836.853 4  22152286.403    22152287.241    22152286.083
        55.000          39.000
  -8524557.569 4  -6642521.723 4  23015397.888    23015397.843    23015397.653
        36.000          19.000
  -9735709.954 5  -7586275.523 4  22867776.950    22867776.934    22867776.413
        52.000          23.000
 04  3  1  2  0  0.0000000  0  8G 7G 4G 1G27G13G 8G11G20
  -9832877.451 4  -7661989.197 4  22964530.113    22964531.119    22964529.893
        33.000          25.000
 -16295006.995 5 -12697405.779 5  22264830.337    22264830.283    22264830.408
        57.000          43.000
  -9672885.135 4  -7537320.722 4  22912925.063    22912926.310    22912924.901
        33.000          24.000
 -25272272.989 8 -19692685.261 8  20078811.626    20078811.285    20078811.405
       200.000         171.000
 -16098657.165 6 -12544411.815 5  21496677.373    21496675.980    21496677.648
       126.000          79.000
 -13906984.223 5 -10836608.825 4  22133782.127    22133782.944    22133781.795
        55.000          39.000
  -8428591.308 4  -6567742.964 4  23033659.766    23033659.943    23033659.698
        36.000          20.000
  -9726502.709 5  -7579101.096 4  22869528.970    22869529.040    22869528.388
        51.000          23.000
 04  3  1  2  0 30.0000000  0  8G 7G 4G 1G27G13G 8G11G20
  -9792542.449 4  -7630559.373 4  22972205.602    22972206.755    22972205.420
        34.000          25.000
 -16385467.624 5 -12767894.560 5  22247616.296    22247616.183    22247616.462
        61.000          44.000
  -9595624.377 4  -7477117.592 4  22927627.584    22927628.131    22927627.191
        32.000          23.000
 -25328630.306 8 -19736600.050 8  20068087.228    20068086.853    20068086.991
       201.000         172.000
 -16054436.110 6 -12509953.874 5  21505092.314    21505091.029    21505092.671
       125.000          78.000
 -14003991.566 5 -10912198.931 4  22115322.258    22115322.994    22115321.988
        56.000          41.000
  -8332408.077 4  -6492795.135 4  23051962.776    23051963.083    23051962.913
        36.000          19.000
  -9717190.712 5  -7571845.036 4  22871301.081    22871301.008    22871300.615
        53.000          23.000
 04  3  1  2  1  0.0000000  0  8G 7G 4G 1G27G13G 8G11G20
  -9752042.178 4  -7599000.773 4  22979912.674    22979913.633    22979912.327
        31.000          25.000
 -16475661.579 5 -12838175.544 5  22230453.010    22230452.780    22230453.087
        61.000          45.000
  -9518423.814 4  -7416961.371 4  22942318.358    22942319.351    22942317.949
        31.000          24.000
 -25384467.581 8 -19780109.610 8  20057461.658    20057461.351    20057461.472
       204.000         172.000
 -16010085.643 6 -12475395.092 5  21513531.986    21513530.650    21513532.251
       126.000          78.000
 -14100773.385 5 -10987613.303 4  22096905.418    22096905.955    22096904.990
        57.000          41.000
  -8236020.995 4  -6417688.471 4  23070304.700    23070305.321    23070304.756
        34.000          19.000
  -9707783.554 5  -7564514.832 4  22873091.247    22873091.034    22873090.789
        52.000          22.000
 04  3  1  2  1 30.0000000  0  8G 7G 4G 1G27G13G 8G11G20
  -9711373.345 4  -7567310.820 4  22987651.642    22987652.763    22987651.352
        29.000          24.000
 -16565579.832 5 -12908241.694 5  22213341.966    22213341.898    22213342.103
        63.000          45.000
  -9441279.302 4  -7356848.828 4  22956998.429    22956999.323    22956998.427
        31.000          23.000
 -25439776.494 8 -19823207.460 8  20046936.799    20046936.425    20046936.546
       205.000         173.000
 -15965601.891 6 -12440732.450 5  21521997.017    21521995.641    21521997.288
       122.000          77.000
 -14197320.818 5 -11062845.039 4  22078532.938    22078533.617    22078532.513
        56.000          42.000
  -8139426.840 4  -6342420.440 4  23088686.019    23088686.548    23088685.999
        32.000          17.000
  -9698273.401 5  -7557104.362 4  22874900.946    22874901.143    22874900.567
        53.000          24.000
 04  3  1  2  2  0.0000000  0  8G 7G 4G 1G27G13G 8G11G20
  -9670515.432 4  -7535473.534 4  22995426.671    22995427.694    22995426.394
        30.000          23.000
 -16655196.782 5 -12978073.065 5  22196288.356    22196288.324    22196288.627
        63.000          46.000
  -9364169.352 4  -7296763.222 4  22971671.980    22971673.078    22971671.664
        30.000          22.000
 -25494531.727 8 -19865873.871 8  20036517.284    20036516.894    20036516.996
       208.000         175.000
 -15920964.396 6 -12405950.010 5  21530491.227    21530489.916    21530491.507
       124.000          77.000
 -14293607.662 5 -11137873.719 4  22060209.906    22060210.793    22060209.718
        57.000          41.000
  -8042604.922 4  -6266974.928 4  23107110.646    23107111.431    23107110.799
        32.000          18.000
  -9688635.738 5  -7549594.538 4  22876734.919    22876735.110    22876734.590
        53.000          24.000
 04  3  1  2  2 30.0000000  0  8G 7G 4G 1G27G13G 8G11G20
  -9629488.045 4  -7503504.191 4  23003233.831    23003234.959    23003233.679
        31.000          22.000
 -16744525.821 5 -13047680.092 5  22179289.667    22179289.511    22179289.866
        64.000          47.000
  -9287112.491 4  -7236718.976 4  22986335.670    22986336.448    22986335.361
        31.000          22.000
 -25548747.551 8 -19908119.963 8  20026200.242    20026199.864    20026200.030
       209.000         174.000
 -15876191.853 6 -12371062.336 5  21539011.123    21539009.872    21539011.445
       121.000          77.000
 -14389647.563 5 -11212709.978 4  22041934.399    22041934.958    22041933.952
        59.000          42.000
  -7945574.404 4  -6191366.883 4  23125575.426    23125575.836    23125575.344
        32.000          17.000
  -9678885.633 5  -7541997.095 4  22878590.409    22878590.496    22878589.966
        51.000          24.000
 04  3  1  2  3  0.0000000  0  8G 7G 4G 1G27G13G 8G11G20
  -9588302.963 4  -7471411.973 4  23011071.588    23011072.395    23011071.051
        32.000          23.000
 -16833573.564 5 -13117067.928 5  22162344.431    22162344.259    22162344.650
        65.000          48.000
  -9210119.707 4  -7176724.671 4  23000986.690    23000988.147    23000986.633
        29.000          22.000
 -25602431.018 8 -19949951.231 8  20015984.669    20015984.267    20015984.393
       208.000         174.000
 -15831295.903 6 -12336078.502 5  21547554.577    21547553.334    21547554.863
       121.000          76.000
 -14485446.780 5 -11287358.691 4  22023704.239    22023704.955    22023703.935
        59.000          42.000
  -7848347.147 4  -6115605.523 4  23144077.161    23144077.656    23144077.139
        30.000          17.000
  -9669030.802 5  -7534318.048 4  22880465.531    22880466.197    22880464.918
        48.000          24.000
 04  3  1  2  3 30.0000000  0  8G 7G 4G 1G27G13G 8G11G20
  -9546962.587 4  -7439198.754 4  23018938.165    23018939.242    23018938.025
        32.000          23.000
 -16922336.610 5 -13186233.927 5  22145453.362    22145453.369    22145453.501
        66.000          49.000
  -9133192.258 4  -7116781.277 4  23015625.541    23015626.591    23015625.535
        30.000          21.000
 -25655579.414 8 -19991365.561 8  20005870.768    20005870.440    20005870.566
       209.000         174.000
 -15786278.520 6 -12301000.044 5  21556121.044    21556119.829    21556121.420
       121.000          76.000
 -14581001.843 5 -11361817.151 5  22005520.754    22005521.344    22005520.208
        58.000          44.000
  -7750924.612 4  -6039692.005 4  23162616.112    23162616.774    23162615.986
        29.000          17.000
  -9659069.168 5  -7526555.787 4  22882361.506    22882361.547    22882361.009
        51.000          24.000
 04  3  1  2  4  0.0000000  0  8G 7G 4G 1G27G13G 8G11G20
  -9505459.567 4  -7406858.789 4  23026836.060    23026837.078    23026835.720
        28.000          24.000
 -17010802.211 5 -13255168.148 5  22128618.988    22128618.879    22128619.094
        67.000          49.000
  -9056321.797 4  -7056882.276 4  23030253.572    23030255.000    23030253.489
        30.000          22.000
 -25708180.528 8 -20032353.439 8  19995861.107    19995860.808    19995860.922
       211.000         175.000
 -15741132.053 6 -12265820.999 5  21564712.240    21564710.959    21564712.572
       119.000          75.000
 -14676299.834 5 -11436075.292 5  21987386.238    21987386.803    21987385.739
        60.000          46.000
  -7653299.586 4  -5963620.707 4  23181193.375    23181194.159    23181193.364
        29.000          17.000
  -9648989.294 5  -7518701.381 4  22884279.679    22884279.704    22884279.185
        52.000          23.000
 04  3  1  2  4 30.0000000  0  8G 7G 4G 1G27G13G 8G11G20
  -9463795.735 4  -7374393.521 4  23034764.372    23034765.677    23034764.042
        28.000          24.000
 -17098966.387 5 -13323867.491 5  22111841.994    22111841.792    22111842.047
        68.000          50.000
  -8979509.249 4  -6997028.417 4  23044870.476    23044871.658    23044870.307
        30.000          21.000
 -25760231.162 9 -20072912.370 8  19985956.267    19985955.874    19985956.024
       213.000         177.000
 -15695857.932 6 -12230542.484 5  21573327.687    21573326.373    21573327.945
       119.000          75.000
 -14771336.688 5 -11510129.953 5  21969301.065    21969301.789    21969300.735
        61.000          47.000
  -7555473.540 4  -5887392.769 4  23199809.528    23199810.181    23199809.412
        29.000          17.000
  -9638788.509 5  -7510752.766 4  22886220.693    22886220.904    22886220.320
        50.000          22.000
 04  3  1  2  5  0.0000000  0  8G 7G 4G 1G27G13G 8G11G20
  -9421975.570 4  -7341806.436 4  23042722.701    23042723.592    23042722.211
        29.000          24.000
 -17186827.996 5 -13392331.071 5  22095122.368    22095122.293    22095122.529
        70.000          51.000
  -8902758.022 4  -6937222.326 4  23059476.113    23059477.126    23059475.905
        29.000          20.000
 -25811730.918 9 -20113042.046 8  19976156.232    19976155.814    19976155.944
       213.000         178.000
 -15650459.931 6 -12195167.442 5  21581966.615    21581965.327    21581966.923
       117.000          74.000
 -14866111.155 5 -11583980.156 5  21951266.238    21951266.867    21951265.790
        61.000          49.000
  -7457450.678 4  -5811011.469 4  23218462.554    23218463.501    23218462.316
        27.000          17.000
  -9628467.027 5  -7502710.092 4  22888184.843    22888184.933    22888184.401
        50.000          23.000
 04  3  1  2  5 30.0000000  0  8G 7G 4G 1G27G13G 8G11G20
  -9380010.647 4  -7309106.549 4  23050708.311    23050709.334    23050708.178
        31.000          23.000
 -17274393.125 5 -13460563.626 5  22078459.292    22078459.124    22078459.407
        71.000          51.000
  -8826078.785 4  -6877472.341 4  23074067.391    23074068.669    23074067.355
        28.000          21.000
 -25862686.692 9 -20152747.837 8  19966459.674    19966459.298    19966459.416
       214.000         179.000
 -15604949.448 6 -12159704.750 5  21590626.915    21590625.748    21590627.239
       114.000          74.000
 -14960629.223 5 -11657630.564 5  21933279.720    21933280.608    21933279.587
        63.000          49.000
  -7359242.302 4  -5734485.608 4  23237150.979    23237151.968    23237151.054
        27.000          15.000
  -9618032.298 5  -7494579.180 4  22890170.585    22890170.731    22890170.068
        49.000          22.000
 04  3  1  2  6  0.0000000  0  8G 7G 4G 1G27G13G 8G11G20
  -9337906.743 4  -7276298.370 4  23058720.543    23058721.638    23058720.029
        28.000          22.000
 -17361661.841 5 -13528565.212 5  22061852.588    22061852.446    22061852.753
        72.000          51.000
  -8749476.346 4  -6817782.205 4  23088644.604    23088645.974    23088644.570
        30.000          21.000
 -25913099.263 9 -20192030.358 8  19956866.517    19956866.055    19956866.181
       214.000         180.000
 -15559331.665 6 -12124158.452 5  21599307.843    21599306.501    21599308.075
       112.000          73.000
 -15054890.940 5 -11731081.222 5  21915342.482    21915343.051    21915342.220
        63.000          49.000
  -7260854.035 4  -5657819.585 4  23255873.727    23255874.985    23255873.795
        27.000          17.000
  -9607485.930 5  -7486361.276 4  22892177.393    22892177.869    22892176.945
        48.000          23.000
 04  3  1  2  6 30.0000000  0  8G 7G 4G 1G27G13G 8G11G20
  -9295644.935 4  -7243367.153 4  23066762.480    23066763.823    23066762.104
        26.000          22.000
 -17448609.821 5 -13596316.875 5  22045307.001    22045306.789    22045307.136
        73.000          51.000
  -8672930.608 4  -6758136.239 4  23103210.681    23103211.831    23103210.558
        29.000          19.000
 -25962944.772 9 -20230871.010 8  19947381.087    19947380.768    19947380.875
       217.000         181.000
 -15513587.465 6 -12088513.648 5  21608012.621    21608011.355    21608012.905
       111.000          72.000
 -15148871.588 5 -11804312.858 5  21897458.639    21897459.185    21897458.235
        64.000          49.000
  -7162266.631 4  -5580998.385 4  23274634.414    23274635.523    23274634.533
        27.000          16.000
  -9596804.386 5  -7478038.035 4  22894210.208    22894210.341    22894209.801
        50.000          22.000
 04  3  1  2  7  0.0000000  0  8G 7G 4G 1G27G13G 8G11G20
  -9253240.312 4  -7210324.645 4  23074831.804    23074832.942    23074831.522
        26.000          22.000
 -17535246.312 5 -13663825.818 5  22028820.492    22028820.330    22028820.767
        74.000          52.000
  -8596455.618 4  -6698545.411 4  23117763.457    23117765.093    23117763.476
        29.000          20.000
 -26012233.693 9 -20269277.958 8  19938001.811    19938001.359    19938001.532
       218.000         181.000
 -15467731.326 6 -12052781.618 5  21616738.777    21616737.541    21616739.053
       109.000          72.000
 -15242580.649 5 -11877332.877 5  21879626.594    21879626.932    21879625.956
        65.000          50.000
  -7063494.911 4  -5504033.577 4  23293430.537    23293431.353    23293430.326
        26.000          16.000
  -9585998.728 5  -7469618.070 4  22896266.544    22896266.514    22896266.066
        51.000          20.000
 04  3  1  2  7 30.0000000  0  8G 7G 4G 1G27G13G 8G11G20
  -9210684.536 4  -7177164.347 4  23082930.136    23082931.397    23082929.749
        27.000          22.000
 -17621557.569 5 -13731081.333 5  22012396.156    22012395.868    22012396.257
        76.000          53.000
  -8520041.797 4  -6639002.244 4  23132304.930    23132306.058    23132304.726
        29.000          20.000
 -26060952.699 9 -20307240.816 8  19928730.862    19928730.446    19928730.648
       219.000         181.000
 -15421754.183 6 -12016955.303 5  21625487.902    21625486.742    21625488.203
       109.000          71.000
 -15336003.897 5 -11950130.178 5  21861848.953    21861849.044    21861848.042
        65.000          51.000
  -6964530.012 4  -5426918.223 4  23312263.048    23312263.651    23312262.917
        26.000          15.000
  -9575056.180 5  -7461091.448 4  22898348.749    22898349.014    22898348.350
        50.000          22.000
 04  3  1  2  8  0.0000000  0  8G 7G 4G 1G27G13G 8G11G20
  -9168002.174 4  -7143905.422 4  23091052.553    23091053.643    23091052.033
        28.000          22.000
 -17707562.781 5 -13798098.368 5  21996029.944    21996029.651    21996029.999
        77.000          53.000
  -8443712.855 4  -6579525.206 4  23146829.855    23146830.883    23146829.524
        29.000          18.000
 -26109121.723 9 -20344775.118 8  19919564.605    19919564.194    19919564.382
       221.000         183.000
 -15375680.681 6 -11981053.904 5  21634255.462    21634254.245    21634255.777
       108.000          70.000
 -15429160.440 5 -12022719.663 5  21844121.281    21844121.877    21844120.938
        67.000          51.000
  -6865396.463 4  -5349671.479 4  23331127.824    23331128.649    23331127.434
        25.000          14.000
  -9563997.038 5  -7452473.985 4  22900453.437    22900453.597    22900453.045
        52.000          22.000
 04  3  1  2  8 30.0000000  0  8G 7G 4G 1G27G13G 8G11G20
  -9125183.890 4  -7110540.583 4  23099200.481    23099201.697    23099200.093
        27.000          21.000
 -17793246.633 5 -13864864.997 5  21979724.644    21979724.597    21979724.844
        77.000          54.000
  -8367458.116 4  -6520105.995 4  23161340.867    23161341.832    23161340.433
        30.000          19.000
 -26156726.589 9 -20381869.816 8  19910505.709    19910505.276    19910505.464
       223.000         184.000
 -15329500.673 6 -11945069.512 5  21643043.279    21643042.067    21643043.542
       107.000          71.000
 -15522034.935 5 -12095089.363 5  21826447.452    21826448.359    21826447.436
        70.000          52.000
  -6766084.773 4  -5272285.910 4  23350025.798    23350027.045    23350025.939
        25.000          15.000
  -9552807.674 5  -7443755.040 4  22902582.830    22902582.663    22902582.445
        53.000          21.000
 04  3  1  2  9  0.0000000  0  8G 7G 4G 1G27G13G 8G11G20
  -9082230.621 4  -7077070.559 4  23107374.393    23107375.382    23107373.874
        26.000          21.000
 -17878604.822 5 -13931377.862 5  21963481.397    21963481.390    21963481.701
        78.000          54.000
  -8291277.650 4  -6460744.665 4  23175837.361    23175838.544    23175836.900
        28.000          18.000
 -26203763.690 9 -20418522.100 8  19901554.874    19901554.412    19901554.605
       225.000         185.000
 -15283214.729 6 -11909002.574 5  21651851.114    21651850.013    21651851.459
       107.000          69.000
 -15614622.981 5 -12167235.857 5  21808828.836    21808829.557    21808828.523
        72.000          53.000
  -6666595.496 4  -5194761.976 4  23368958.257    23368959.470    23368958.166
        24.000          14.000
  -9541484.918 5  -7434932.140 4  22904737.415    22904737.368    22904736.872
        51.000          21.000
 04  3  1  2  9 30.0000000  0  8G 7G 4G 1G27G13G 8G11G20
  -9039137.685 4  -7043491.696 4  23115574.523    23115575.863    23115574.125
        24.000          22.000
 -17963626.853 5 -13997628.790 5  21947302.175    21947302.217    21947302.508
        79.000          55.000
  -8215165.458 4  -6401436.525 4  23190320.991    23190321.995    23190320.890
        29.000          17.000
 -26250223.546 9 -20454724.584 8  19892713.798    19892713.383    19892713.595
       223.000         185.000
 -15236817.755 6 -11872849.120 5  21660680.215    21660679.142    21660680.555
       106.000          68.000
 -15706913.976 5 -12239150.883 5  21791266.196    21791267.055    21791266.151
        73.000          53.000
  -6566923.801 4  -5117095.887 4  23387925.513    23387926.388    23387925.375
        27.000          14.000
  -9530019.634 5  -7425998.192 4  22906919.036    22906919.503    22906918.677
        50.000          23.000
 04  3  1  2 10  0.0000000  0  8G 7G 4G 1G27G13G 8G11G20
  -8995915.150 4  -7009811.855 4  23123799.511    23123800.830    23123799.192
        24.000          22.000
 -18048317.291 5 -14063621.334 5  21931186.177    21931186.182    21931186.459
        79.000          55.000
  -8139130.442 4  -6342188.518 4  23204790.161    23204791.166    23204789.938
        29.000          18.000
 -26296111.586 9 -20490481.497 8  19883981.556    19883981.199    19883981.354
       223.000         188.000
 -15190319.100 6 -11836616.435 5  21669528.633    21669527.560    21669528.980
       104.000          67.000
 -15798912.191 5 -12310837.769 5  21773759.824    21773760.284    21773759.390
        73.000          52.000
  -6467079.503 4  -5039295.325 4  23406924.986    23406926.379    23406925.084
        24.000          14.000
  -9518417.602 5  -7416957.691 4  22909126.950    22909127.352    22909126.510
        50.000          22.000
 04  3  1  2 10 30.0000000  0  8G 7G 4G 1G27G13G 8G11G20
  -8952575.765 4  -6976040.961 4  23132047.001    23132048.010    23132046.650
        26.000          21.000
 -18132683.358 5 -14129361.123 5  21915131.885    21915131.801    21915132.166
        82.000          56.000
  -8063184.296 4  -6283009.779 4  23219242.095    23219243.659    23219241.842
        27.000          17.000
 -26341435.870 9 -20525799.119 8  19875356.650    19875356.269    19875356.389
       221.000         187.000
 -15143731.132 6 -11800314.152 5  21678394.144    21678392.950    21678394.420
       102.000          67.000
 -15890624.963 5 -12382302.237 5  21756307.849    21756307.964    21756307.070
        77.000          53.000
  -6367075.279 4  -4961370.125 4  23425955.813    23425956.552    23425955.606
        26.000          13.000
  -9506687.393 5  -7407817.310 4  22911359.401    22911359.422    22911358.749
        53.000          21.000
 04  3  1  2 11  0.0000000  0  8G 7G 4G 1G27G13G 8G11G20
  -8909103.108 4  -6942166.214 4  23140319.176    23140320.714    23140319.074
        26.000          20.000
 -18216703.118 5 -14194831.062 5  21899143.448    21899143.363    21899143.761
        83.000          56.000
  -7987309.434 4  -6223886.570 4  23233680.928    23233681.817    23233680.698
        30.000          16.000
 -26386175.310 9 -20560661.021 8  19866843.014    19866842.623    19866842.778
       222.000         189.000
 -15097036.959 6 -11763929.112 5  21687279.793    21687278.594    21687280.048
       103.000          67.000
 -15982029.961 5 -12453526.878 5  21738913.680    21738914.117    21738913.247
        78.000          53.000
  -6266894.020 4  -4883306.989 4  23445019.746    23445020.722    23445019.784
        26.000          13.000
  -9494808.273 5  -7398560.880 4  22913619.982    22913619.859    22913619.514
        52.000          21.000
 04  3  1  2 11 30.0000000  0  9G 7G 4G 1G27G13G 8G11G24G20
  -8865514.739 4  -6908201.304 4  23148614.141    23148615.166    23148613.596
        25.000          20.000
 -18300388.400 5 -14260040.369 5  21883218.779    21883218.550    21883218.942
        83.000          57.000
  -7911522.164 4  -6164831.607 4  23248102.487    23248103.693    23248102.388
        27.000          16.000
 -26430342.905 9 -20595077.329 8  19858438.207    19858437.791    19858438.012
       222.000         189.000
 -15050253.742 6 -11727474.689 5  21696182.257    21696181.204    21696182.557
       101.000          66.000
 -16073139.101 5 -12524520.984 5  21721576.202    21721576.548    21721575.669
        79.000          53.000
  -6166553.165 4  -4805119.497 4  23464114.052    23464115.474    23464113.731
        23.000          12.000
         -.32114         -.56914  25061823.484    25061826.433    25061822.905
         8.000           6.000
  -9482793.647 5  -7389198.878 4  22915906.051    22915906.227    22915905.669
        50.000          21.000
 04  3  1  2 12  0.0000000  0  9G 7G 4G 1G27G13G 8G11G24G20
  -8821815.347 4  -6874149.889 4  23156929.649    23156931.263    23156929.498
        25.000          20.000
 -18383738.472 5 -14324988.474 5  21867357.606    21867357.581    21867357.954
        84.000          57.000
  -7835825.875 4  -6105847.561 4  23262507.058    23262508.500    23262507.029
        27.000          16.000
 -26473938.705 9 -20629048.085 8  19850142.202    19850141.794    19850141.999
       224.000         191.000
 -15003385.450 6 -11690953.977 5  21705101.011    21705099.964    21705101.332
        99.000          66.000
 -16163951.492 5 -12595283.853 5  21704294.840    21704295.583    21704294.682
        80.000          54.000
  -6066057.144 4  -4726811.101 4  23483238.159    23483238.683    23483238.134
        26.000          11.000
   -108420.832 4    -84484.080 4  25041191.899    25041194.742    25041191.616
         7.000           7.000
  -9470643.729 5  -7379731.453 4  22918218.302    22918218.160    22918217.891
        53.000          20.000
 04  3  1  2 12 30.0000000  0  9G 7G 4G 1G27G13G 8G11G24G20
  -8778001.260 4  -6840009.090 4  23165267.618    23165268.826    23165267.285
        25.000          22.000
 -18466744.216 6 -14389668.270 5  21851562.267    21851562.082    21851562.498
        86.000          58.000
  -7760216.027 4  -6046930.847 4  23276895.652    23276896.314    23276895.359
        29.000          15.000
 -26516954.784 9 -20662567.109 8  19841956.530    19841956.144    19841956.270
       223.000         193.000
 -14956427.859 6 -11654363.678 5  21714036.847    21714035.767    21714037.124
        99.000          65.000
 -16254457.714 5 -12665808.153 5  21687072.235    21687072.772    21687071.810
        81.000          56.000
  -5965402.230 4  -4648378.890 4  23502392.181    23502393.542    23502392.195
        23.000          12.000
   -216792.871 4   -168929.781 4  25020570.177    25020572.044    25020569.372
         8.000           7.000
  -9458350.610 5  -7370152.438 4  22920557.668    22920557.634    22920557.310
        53.000          20.000
 04  3  1  2 13  0.0000000  0 10G 7G 4G 1G27G13G 8G11G24G20G28
  -8734081.639 4  -6805786.065 4  23173625.067    23173626.308    23173624.727
        25.000          22.000
 -18549409.030 6 -14454082.410 5  21835831.604    21835831.571    21835831.866
        88.000          59.000
  -7684700.405 4  -5988087.565 4  23291265.219    23291266.786    23291264.945
        26.000          15.000
 -26559395.551 9 -20695637.838 8  19833880.363    19833879.942    19833880.100
       223.000         194.000
 -14909389.927 6 -11617710.778 5  21722987.828    21722986.763    21722988.149
        98.000          64.000
 -16344661.502 5 -12736096.791 5  21669906.947    21669907.436    21669906.631
        83.000          55.000
  -5864597.167 4  -4569829.695 4  23521574.881    23521576.169    23521574.832
        24.000          11.000
   -325120.319 4   -253340.770 4  24999955.714    24999958.334    24999955.089
         9.000           7.000
  -9445919.113 5  -7360465.603 4  22922923.343    22922923.138    22922922.763
        50.000          19.000
         -.39514         -.12914  25488698.960    25488703.487    25488700.492
         7.000           2.000
 04  3  1  2 13 30.0000000  0 10G 7G 4G 1G27G13G 8G11G24G20G28
  -8690053.677 4  -6771478.616 4  23182003.233    23182004.758    23182002.921
        25.000          21.000
 -18631724.574 6 -14518224.391 5  21820167.492    21820167.415    21820167.743
        88.000          60.000
  -7609274.877 4  -5929314.495 4  23305618.646    23305619.615    23305618.432
        29.000          14.000
 -26601253.748 9 -20728254.617 8  19825914.966    19825914.605    19825914.731
       225.000         196.000
 -14862268.205 6 -11580992.586 5  21731954.809    21731953.751    21731955.128
        98.000          64.000
 -16434554.102 5 -12806142.947 5  21652800.914    21652801.469    21652800.584
        83.000          56.000
  -5763639.003 4  -4491161.187 4  23540786.478    23540788.047    23540786.558
        24.000          12.000
   -433394.923 4   -337710.553 4  24979351.438    24979353.796    24979350.720
         8.000           6.000
  -9433342.328 5  -7350665.557 4  22925316.501    22925316.471    22925316.096
        50.000          19.000
    -42964.971 4    -33479.118 4  25480525.078    25480527.967    25480523.761
         5.000           3.000
 04  3  1  2 14  0.0000000  0 10G 7G 4G 1G27G13G 8G11G24G20G28
  -8645921.575 4  -6737090.022 4  23190401.359    23190402.795    23190401.166
        26.000          20.000
 -18713689.858 6 -14582093.445 5  21804570.063    21804569.930    21804570.288
        89.000          60.000
  -7533942.502 4  -5870613.994 4  23319953.858    23319955.379    23319953.615
        27.000          14.000
 -26642529.162 9 -20760417.279 8  19818060.546    19818060.130    19818060.294
       225.000         196.000
 -14815066.286 6 -11544211.903 5  21740937.019    21740935.993    21740937.399
        98.000          63.000
 -16524134.326 6 -12875945.696 5  21635754.498    21635754.878    21635754.035
        85.000          57.000
  -5662531.803 4  -4412376.549 4  23560026.641    23560028.295    23560026.656
        23.000          12.000
   -541615.699 4   -422038.409 4  24958757.694    24958760.795    24958757.149
         8.000           7.000
  -9420620.205 5  -7340752.257 4  22927737.296    22927737.413    22927736.962
        49.000          20.000
    -86261.327 4    -67216.699 4  25472284.771    25472289.147    25472284.836
         6.000           3.000
 04  3  1  2 14 30.0000000  0 10G 7G 4G 1G27G13G 8G11G24G20G28
  -8601675.665 4  -6702612.745 4  23198821.046    23198822.615    23198820.865
        25.000          20.000
 -18795289.524 6 -14645677.598 5  21789042.278    21789042.079    21789042.372
        91.000          61.000
  -7458692.348 4  -5811977.571 4  23334273.634    23334274.711    23334273.404
        27.000          13.000
 -26683207.496 9 -20792114.685 8  19810319.730    19810319.284    19810319.470
       226.000         197.000
 -14767773.836 6 -11507360.675 5  21749936.593    21749935.505    21749936.871
        99.000          63.000
 -16613386.554 6 -12945492.864 5  21618770.173    21618770.739    21618769.823
        85.000          59.000
  -5561265.545 4  -4333467.990 4  23579297.108    23579298.844    23579297.260
        23.000          11.000
   -649768.079 4   -506312.936 4  24938176.557    24938179.565    24938176.578
         7.000           6.000
  -9407738.734 5  -7330714.793 4  22930188.838    22930188.955    22930188.305
        51.000          20.000
   -129876.805 4   -101202.890 4  25463986.829    25463988.169    25463985.639
         7.000           1.000
 04  3  1  2 15  0.0000000  0  9G 7G 4G 1G27G13G 8G11G24G20
  -8557335.791 4  -6668062.250 4  23207258.961    23207260.329    23207258.505
        24.000          20.000
 -18876537.778 6 -14708987.924 5  21773580.950    21773581.067    21773581.326
        92.000          62.000
  -7383543.056 4  -5753419.738 4  23348574.110    23348575.436    23348573.947
        28.000          14.000
 -26723304.349 9 -20823358.988 8  19802689.545    19802689.091    19802689.305
       226.000         198.000
 -14720410.347 6 -11470454.095 5  21758949.586    21758948.559    21758949.870
        98.000          63.000
 -16702325.275 6 -13014795.741 5  21601845.666    21601846.207    21601845.337
        85.000          59.000
  -5459859.788 4  -4254450.739 4  23598594.175    23598595.958    23598594.142
        23.000          11.000
   -757866.400 4   -590545.366 4  24917605.718    24917609.079    24917604.944
         9.000           8.000
  -9394713.477 5  -7320565.289 4  22932667.549    22932667.537    22932667.047
        53.000          19.000
 04  3  1  2 15 30.0000000  0 10G 7G 4G 1G27G13G 8G11G24G20G28
  -8512902.798 4  -6633439.183 4  23215713.998    23215715.669    23215713.824
        23.000          20.000
 -18957430.160 6 -14772020.949 5  21758187.810    21758187.759    21758188.099
        93.000          62.000
  -7308494.141 4  -5694940.121 4  23362855.182    23362856.752    23362855.118
        27.000          13.000
 -26762816.179 9 -20854147.430 8  19795170.687    19795170.296    19795170.436
       224.000         199.000
 -14672976.281 6 -11433492.518 5  21767975.976    21767974.974    21767976.279
        98.000          62.000
 -16790945.706 6 -13083850.599 5  21584981.649    21584982.378    21584981.454
        86.000          61.000
  -5358315.351 4  -4175325.411 4  23617917.505    23617919.243    23617917.580
        22.000          10.000
   -865906.084 4   -674732.054 4  24897046.803    24897049.644    24897046.639
         8.000           7.000
  -9381541.209 5  -7310301.226 4  22935174.113    22935174.044    22935173.746
        52.000          19.000
         -.17714          .11814  25447195.622    25447198.418    25447194.032
         5.000           3.000
 04  3  1  2 16  0.0000000  0 10G 7G 4G 1G27G13G 8G11G24G20G28
  -8468370.432 4  -6598738.686 4  23224188.677    23224189.799    23224188.239
        25.000          19.000
 -19037954.994 6 -14834767.569 5  21742864.510    21742864.349    21742864.730
        93.000          63.000
  -7233538.166 4  -5636532.931 4  23377119.230    23377120.474    23377119.034
        27.000          12.000
 -26801732.564 9 -20884471.887 8  19787765.111    19787764.731    19787764.889
       224.000         200.000
 -14625464.468 6 -11396470.358 5  21777017.103    21777016.206    21777017.478
        97.000          62.000
 -16879236.019 6 -13152648.219 5  21568180.592    21568181.219    21568180.305
        86.000          61.000
  -5256625.649 4  -4096086.900 4  23637268.905    23637270.757    23637268.857
        22.000          11.000
   -973875.604 4   -758864.103 4  24876500.853    24876503.612    24876500.405
         6.000           6.000
  -9368211.228 5  -7299914.265 4  22937710.874    22937710.734    22937710.410
        55.000          19.000
    -44608.394 4    -34759.633 4  25438706.719    25438710.392    25438706.801
         6.000           5.000
 04  3  1  2 16 30.0000000  0 10G 7G 4G 1G27G13G 8G11G24G20G28
  -8423737.020 4  -6563959.457 4  23232681.915    23232683.218    23232681.581
        24.000          19.000
 -19118104.761 6 -14897221.932 5  21727612.386    21727612.388    21727612.714
        95.000          63.000
  -7158672.168 4  -5578195.846 4  23391365.532    23391367.045    23391365.479
        26.000          14.000
 -26840047.229 9 -20914327.468 8  19780474.082    19780473.704    19780473.854
       226.000         201.000
 -14577872.855 6 -11359386.018 5  21786073.708    21786072.624    21786073.927
        96.000          61.000
 -16967188.933 6 -13221182.938 5  21551443.985    21551444.173    21551443.387
        88.000          61.000
  -5154788.834 4  -4016733.764 4  23656647.680    23656650.244    23656647.803
        20.000          11.000
  -1081767.937 4   -842935.976 4  24855969.425    24855972.416    24855969.358
         7.000           6.000
  -9354717.737 5  -7289399.898 4  22940278.657    22940278.577    22940278.155
        55.000          19.000
    -89535.931 4    -69768.170 4  25430157.271    25430161.310    25430156.948
         5.000           6.000
 04  3  1  2 17  0.0000000  0 10G 7G 4G 1G27G13G 8G11G24G20G28
  -8379014.585 4  -6529110.869 4  23241192.536    23241193.781    23241191.932
        24.000          19.000
 -19197886.330 6 -14959389.388 5  21712430.558    21712430.349    21712430.752
        96.000          64.000
  -7083906.798 4  -5519937.182 4  23405593.175    23405594.519    23405592.878
        25.000          13.000
 -26877767.947 9 -20943720.232 8  19773296.025    19773295.666    19773295.830
       225.000         201.000
 -14530213.004 6 -11322248.504 5  21795143.001    21795141.990    21795143.333
        96.000          60.000
 -17054810.617 6 -13289459.555 5  21534770.114    21534770.413    21534769.587
        90.000          62.000
  -5052816.468 4  -3937275.007 4  23676052.577    23676054.544    23676052.546
        20.000           9.000
  -1189589.687 4   -926952.868 4  24835451.448    24835454.490    24835451.931
         6.000           6.000
  -9341068.355 5  -7278764.067 4  22942876.040    22942876.106    22942875.439
        51.000          19.000
   -134791.386 4   -105032.206 4  25421545.897    25421549.714    25421544.984
         3.000           4.000
 04  3  1  2 17 30.0000000  0 10G 7G 4G 1G27G13G 8G11G24G20G28
  -8334209.857 4  -6494198.152 4  23249718.817    23249719.997    23249718.179
        25.000          22.000
 -19277300.971 6 -15021270.929 5  21697318.485    21697318.292    21697318.671
        98.000          64.000
  -7009247.508 4  -5461761.178 4  23419800.359    23419801.623    23419800.244
        26.000          13.000
 -26914897.270 9 -20972652.168 8  19766230.502    19766230.189    19766230.348
       224.000         203.000
 -14482490.821 6 -11285062.421 5  21804224.275    21804223.240    21804224.638
        95.000          60.000
 -17142102.494 6 -13357479.181 5  21518159.261    21518159.341    21518158.579
        92.000          66.000
  -4950715.385 4  -3857715.951 4  23695482.018    23695484.073    23695482.037
        19.000           9.000
  -1297342.558 4  -1010916.073 4  24814946.828    24814950.199    24814946.905
         7.000           6.000
  -9327265.668 5  -7268008.774 4  22945502.545    22945502.363    22945501.928
        50.000          17.000
   -180378.233 4   -140554.502 4  25412870.628    25412874.533    25412869.895
         5.000           3.000
 04  3  1  2 18  0.0000000  0 10G 7G 4G 1G27G13G 8G11G24G20G28
  -8289320.405 4  -6459219.419 4  23258260.799    23258262.158    23258260.563
        25.000          20.000
 -19356340.873 6 -15082860.465 5  21682277.614    21682277.553    21682277.905
        98.000          65.000
  -6934690.428 4  -5403664.811 4  23433987.912    23433989.284    23433987.900
        24.000          12.000
 -26951428.523 9 -21001118.073 8  19759278.823    19759278.497    19759278.669
       222.000         202.000
 -14434703.453 6 -11247825.548 5  21813317.991    21813316.859    21813318.263
        95.000          59.000
 -17229056.437 6 -13425235.479 5  21501612.098    21501612.510    21501611.716
        92.000          66.000
  -4848482.865 4  -3778054.478 4  23714936.392    23714938.774    23714936.093
        19.000          10.000
  -1405018.694 4  -1094819.497 4  24794456.702    24794460.070    24794456.734
         6.000           5.000
  -9313303.346 5  -7257129.093 4  22948159.439    22948159.187    22948159.068
        50.000          15.000
   -226291.053 4   -176330.866 4  25404134.110    25404137.881    25404133.299
        10.000           5.000
 04  3  1  2 18 30.0000000  0 10G 7G 4G 1G27G13G 8G11G24G20G28
  -8244343.735 4  -6424172.720 4  23266819.674    23266820.867    23266819.149
        25.000          19.000
 -19434997.721 6 -15144151.516 5  21667309.754    21667309.646    21667309.942
       101.000          67.000
  -6860231.708 4  -5345645.090 4  23448157.215    23448158.927    23448156.925
        24.000          13.000
 -26987354.966 9 -21029112.698 8  19752442.315    19752441.912    19752442.118
       223.000         205.000
 -14386847.740 6 -11210535.419 5  21822424.713    21822423.506    21822424.948
        94.000          59.000
 -17315664.482 6 -13492722.244 5  21485131.302    21485131.452    21485130.807
        94.000          66.000
  -4746116.118 4  -3698288.427 4  23734416.272    23734417.963    23734416.353
        19.000           9.000
  -1512610.298 4  -1178657.063 4  24773983.329    24773985.427    24773982.502
         6.000           5.000
  -9299174.398 5  -7246119.575 4  22950848.229    22950847.910    22950847.693
        47.000          15.000
   -272523.859 4   -212356.532 4  25395336.491    25395340.350    25395335.770
         5.000           4.000
 04  3  1  2 19  0.0000000  0 10G 7G 4G 1G27G13G 8G11G24G20G28
  -8199295.390 4  -6389070.172 4  23275392.190    23275393.651    23275391.921
        25.000          19.000
 -19513281.904 6 -15205152.180 5  21652412.793    21652412.647    21652412.994
       103.000          68.000
  -6785885.658 4  -5287713.172 4  23462304.808    23462306.463    23462304.618
        24.000          13.000
 -27022688.085 9 -21056644.990 8  19745718.644    19745718.242    19745718.419
       223.000         205.000
 -14338938.864 6 -11173203.866 5  21831541.425    21831540.345    21831541.726
        94.000          58.000
 -17401936.724 6 -13559947.346 5  21468714.019    21468714.393    21468713.627
        95.000          67.000
  -4643630.578 4  -3618429.803 4  23753919.015    23753921.122    23753918.846
        17.000           9.000
  -1620127.525 4  -1262436.650 4  24753523.236    24753525.433    24753523.224
         6.000           6.000
  -9284890.231 5  -7234989.106 4  22953566.421    22953566.430    22953565.910
        47.000          16.000
   -319089.174 4   -248641.274 4  25386475.044    25386479.045    25386474.604
         4.000           3.000
 04  3  1  2 19 30.0000000  0 10G 7G 4G 1G27G13G 8G11G24G20G28
  -8154167.894 4  -6353905.944 4  23283979.663    23283981.037    23283979.205
        24.000          19.000
 -19591180.568 6 -15265852.438 5  21637589.067    21637589.067    21637589.352
       103.000          68.000
  -6711643.475 4  -5229862.177 4  23476432.717    23476434.136    23476432.516
        22.000          12.000
 -27057416.152 9 -21083705.813 8  19739110.035    19739109.735    19739109.866
       222.000         206.000
 -14290968.513 6 -11135824.410 5  21840669.924    21840668.807    21840670.189
        93.000          58.000
 -17487859.806 6 -13626900.370 5  21452363.207    21452363.828    21452362.981
        96.000          69.000
  -4541018.621 4  -3538472.692 4  23773445.103    23773447.758    23773445.304
        17.000          10.000
  -1727558.000 4  -1346148.642 4  24733079.051    24733082.515    24733079.531
         5.000           6.000
  -9270439.085 5  -7223728.534 4  22956316.462    22956316.463    22956315.962
        49.000          17.000
   -365976.270 4   -285176.786 4  25377552.910    25377555.822    25377552.894
         5.000           6.000
 04  3  1  2 20  0.0000000  0 10G 7G 4G 1G27G13G 8G11G24G20G28
  -8108945.982 4  -6318668.150 4  23292584.966    23292586.440    23292584.775
        24.000          19.000
 -19668673.025 6 -15326236.172 5  21622842.859    21622842.764    21622843.128
       106.000          71.000
  -6637488.658 4  -5172079.261 4  23490543.771    23490545.367    23490543.595
        22.000          12.000
 -27091519.883 9 -21110280.142 8  19732620.369    19732620.007    19732620.133
       222.000         207.000
 -14242920.965 6 -11098384.797 5  21849812.878    21849812.031    21849813.336
        94.000          58.000
 -17573413.228 6 -13693565.347 5  21436083.142    21436083.476    21436082.749
        99.000          70.000
  -4438264.524 4  -3458404.819 4  23792998.971    23793001.095    23792999.315
        18.000           8.000
  -1834881.075 4  -1429776.919 4  24712655.741    24712659.355    24712655.740
         5.000           5.000
  -9255801.431 5  -7212322.621 4  22959101.597    22959102.114    22959101.208
        46.000          17.000
   -413166.667 4   -321948.596 4  25368572.184    25368577.046    25368572.447
         7.000          10.000
 04  3  1  2 20 30.0000000  0 10G 7G 4G 1G27G13G 8G11G24G20G28
  -8063656.704 4  -6283377.865 4  23301203.012    23301204.814    23301202.708
        23.000          19.000
 -19745780.678 6 -15386320.062 5  21608169.795    21608169.626    21608170.018
       106.000          71.000
  -6563446.670 4  -5114384.261 4  23504633.508    23504635.309    23504633.612
        22.000          13.000
 -27125022.068 9 -21136385.734 8  19726244.978    19726244.735    19726244.868
       222.000         210.000
 -14194822.238 6 -11060905.304 5  21858965.934    21858964.972    21858966.298
        94.000          57.000
 -17658618.337 6 -13759958.914 5  21419869.076    21419869.373    21419868.738
        99.000          70.000
  -4335395.242 4  -3378247.174 4  23812574.859    23812576.835    23812574.960
        16.000           8.000
  -1942118.423 4  -1513338.407 4  24692249.620    24692253.218    24692250.052
         5.000           5.000
  -9241000.158 5  -7200789.212 4  22961918.213    22961918.580    22961917.769
        46.000          17.000
   -460684.144 4   -358975.238 4  25359530.903    25359533.979    25359530.350
         9.000           7.000
 04  3  1  2 21  0.0000000  0 10G 7G 4G 1G27G13G 8G11G24G20G28
  -8018300.618 4  -6248035.524 4  23309834.391    23309835.745    23309834.016
        24.000          19.000
 -19822499.087 6 -15446100.645 5  21593570.656    21593570.613    21593570.954
       107.000          72.000
  -6489516.803 4  -5056776.645 4  23518701.832    23518703.468    23518701.711
        20.000          12.000
 -27157919.536 9 -21162020.118 8  19719984.964    19719984.571    19719984.708
       220.000         210.000
 -14146672.773 6 -11023386.278 5  21868128.548    21868127.545    21868128.843
        94.000          56.000
 -17743470.265 6 -13826077.275 5  21403722.309    21403722.723    21403721.895
        99.000          71.000
  -4232411.214 4  -3298000.155 4  23832172.374    23832174.568    23832172.087
        15.000           9.000
  -2049264.988 4  -1596829.148 4  24671860.620    24671863.862    24671859.899
         4.000           4.000
  -9226031.835 5  -7189125.633 4  22964767.138    22964767.245    22964766.563
        52.000          17.000
   -508526.071 4   -396254.782 4  25350426.217    25350429.924    25350426.075
         8.000           2.000
 04  3  1  2 21 30.0000000  0 10G 7G 4G 1G27G13G 8G11G24G20G28
  -7972883.203 4  -6212645.391 4  23318476.897    23318478.530    23318476.832
        23.000          19.000
 -19898828.142 6 -15505577.835 5  21579045.913    21579045.686    21579046.050
       108.000          73.000
  -6415703.176 4  -4999259.590 4  23532748.278    23532749.951    23532748.187
        22.000          11.000
 -27190213.550 9 -21187184.280 8  19713839.477    19713839.220    19713839.342
       219.000         211.000
 -14098477.603 6 -10985831.637 5  21877299.872    21877298.878    21877300.128
        95.000          57.000
 -17827969.100 6 -13891920.500 5  21387642.552    21387643.103    21387642.429
       101.000          72.000
  -4129317.799 4  -3217667.894 4  23851790.747    23851792.824    23851790.202
        16.000           9.000
  -2156320.950 4  -1680249.286 4  24651489.260    24651490.921    24651487.442
         4.000           6.000
  -9210897.611 5  -7177332.766 4  22967647.185    22967646.961    22967646.649
        55.000          16.000
   -556694.679 4   -433788.852 4  25341260.409    25341263.059    25341260.638
         8.000           2.000
 04  3  1  2 22  0.0000000  0 10G 7G 4G 1G27G13G 8G11G24G20G28
  -7927395.849 4  -6177200.764 4  23327133.143    23327134.736    23327132.791
        23.000          19.000
 -19974753.927 6 -15564740.789 5  21564597.628    21564597.547    21564597.826
       109.000          75.000
  -6341995.659 4  -4941825.211 4  23546774.365    23546776.036    23546774.235
        19.000          12.000
 -27221891.473 9 -21211868.374 8  19707811.397    19707811.120    19707811.199
       217.000         212.000
 -14050227.228 6 -10948233.979 5  21886481.491    21886480.662    21886481.884
        95.000          56.000
 -17912100.670 6 -13957477.544 5  21371632.906    21371633.334    21371632.606
       101.000          73.000
  -4026106.175 4  -3137243.511 4  23871431.486    23871433.462    23871431.392
        15.000           8.000
  -2263272.557 4  -1763588.122 4  24631136.139    24631139.052    24631136.074
         5.000           5.000
  -9195584.672 5  -7165400.653 4  22970560.932    22970560.871    22970560.522
        52.000          16.000
   -605177.650 4   -471567.849 4  25332034.514    25332038.138    25332034.053
         9.000           5.000
 04  3  1  2 22 30.0000000  0 10G 7G 4G 1G27G13G 8G11G24G20G28
  -7881848.955 4  -6141709.734 4  23335800.410    23335801.888    23335799.793
        22.000          19.000
 -20050281.542 6 -15623593.478 5  21550225.131    21550225.127    21550225.437
       110.000          76.000
  -6268403.183 4  -4884480.506 4  23560778.774    23560780.355    23560778.413
        18.000          13.000
 -27252959.875 9 -21236077.517 9  19701899.358    19701898.997    19701899.100
       219.000         213.000
 -14001931.488 6 -10910600.972 5  21895671.984    21895671.038    21895672.324
        94.000          56.000
 -17995869.848 6 -14022752.203 5  21355692.183    21355692.525    21355691.774
       101.000          73.000
  -3922786.388 4  -3056734.854 4  23891091.974    23891095.351    23891092.161
        14.000           9.000
  -2370125.096 4  -1846849.746 4  24610802.220    24610805.834    24610802.298
         4.000           4.000
  -9180099.284 5  -7153334.158 4  22973507.821    22973507.584    22973507.278
        52.000          16.000
   -653982.529 4   -509597.631 4  25322747.293    25322751.102    25322747.224
         7.000           6.000
 04  3  1  2 23  0.0000000  0 10G 7G 4G 1G27G13G 8G11G24G20G28
  -7836255.540 4  -6106182.473 4  23344476.439    23344478.127    23344476.419
        23.000          18.000
 -20125418.634 6 -15682141.863 5  21535927.148    21535926.911    21535927.347
       111.000          76.000
  -6194937.521 4  -4827234.603 4  23574758.781    23574760.242    23574758.680
        18.000          12.000
 -27283427.747 9 -21259818.717 9  19696101.404    19696101.135    19696101.237
       218.000         213.000
 -13953602.731 6 -10872942.234 5  21904868.599    21904867.719    21904868.957
        94.000          55.000
 -18079284.323 6 -14087750.474 5  21339818.790    21339819.274    21339818.525
       103.000          75.000
  -3819371.473 4  -2976152.091 4  23910771.574    23910774.699    23910771.501
        15.000           9.000
  -2476885.668 4  -1930039.745 4  24590486.680    24590489.427    24590487.029
         4.000           4.000
  -9164450.367 5  -7141140.236 4  22976485.783    22976485.698    22976485.240
        52.000          17.000
   -703118.828 4   -547885.785 4  25313397.056    25313401.995    25313396.582
         7.000           6.000
 04  3  1  2 23 30.0000000  0 10G 7G 4G 1G27G13G 8G11G24G20G28
  -7790593.628 4  -6070601.828 4  23353165.796    23353167.584    23353165.532
        24.000          19.000
 -20200137.598 6 -15740364.433 5  21521708.528    21521708.424    21521708.720
       112.000          77.000
  -6121575.019 4  -4770069.065 4  23588719.297    23588721.068    23588719.201
        18.000          12.000
 -27313269.242 9 -21283071.833 9  19690422.841    19690422.518    19690422.619
       221.000         214.000
 -13905218.109 6 -10835239.970 5  21914076.018    21914074.992    21914076.298
        93.000          55.000
 -18162316.394 6 -14152450.767 5  21324018.248    21324018.747    21324018.036
       104.000          76.000
  -3715839.113 4  -2895477.805 4  23930473.373    23930475.837    23930473.581
        13.000           8.000
  -2583527.074 4  -2013136.882 4  24570194.504    24570195.951    24570193.001
         5.000           4.000
  -9148611.547 5  -7128798.340 4  22979499.686    22979499.937    22979499.316
        54.000          18.000
   -752561.618 4   -586412.679 4  25303987.911    25303992.303    25303988.291
         3.000           2.000
 04  3  1  2 24  0.0000000  0 10G 7G 4G 1G27G13G 8G11G24G20G28
  -7744899.070 4  -6034995.746 4  23361861.182    23361862.795    23361860.860
        24.000          18.000
 -20274469.322 6 -15798285.258 5  21507563.590    21507563.568    21507563.832
       114.000          78.000
  -6048350.358 4  -4713010.963 4  23602653.534    23602655.249    23602653.367
        17.000          13.000
 -27342516.336 9 -21305861.781 9  19684857.334    19684856.915    19684857.117
       222.000         214.000
 -13856813.073 6 -10797521.796 5  21923287.168    21923286.320    21923287.532
        93.000          55.000
 -18244996.886 6 -14216877.104 5  21308284.704    21308285.233    21308284.472
       105.000          77.000
  -3612225.133 4  -2814739.930 4  23950190.425    23950193.928    23950190.714
        14.000           9.000
  -2690080.135 4  -2096165.182 4  24549916.227    24549920.308    24549917.006
         5.000           5.000
  -9132614.927 5  -7116333.506 4  22982543.797    22982544.056    22982543.448
        53.000          18.000
   -802342.961 4   -625203.374 4  25294516.263    25294519.445    25294515.834
         4.000           4.000
 04  3  1  2 24 30.0000000  0 10G 7G 4G 1G27G13G 8G11G24G20G28
  -7699138.868 4  -5999338.518 4  23370568.924    23370570.912    23370568.909
        24.000          17.000
 -20348375.478 6 -15855874.474 5  21493499.960    21493499.681    21493500.063
       114.000          79.000
  -5975229.021 4  -4656033.374 4  23616568.088    23616569.944    23616567.805
        16.000          12.000
 -27371132.199 9 -21328159.861 9  19679411.932    19679411.517    19679411.700
       223.000         214.000
 -13808353.907 6 -10759761.449 5  21932508.787    21932507.828    21932509.021
        92.000          54.000
 -18327287.032 6 -14280999.276 5  21292625.388    21292625.885    21292625.127
       107.000          77.000
  -3508496.054 4  -2733912.378 4  23969929.267    23969933.360    23969929.428
        12.000           8.000
  -2796506.444 4  -2179094.696 4  24529663.839    24529667.241    24529664.195
         4.000           3.000
  -9116423.036 5  -7103716.504 4  22985625.198    22985625.464    22985624.782
        55.000          19.000
   -852426.567 4   -664229.665 4  25284984.375    25284989.425    25284984.325
         2.000           3.000
 04  3  1  2 25  0.0000000  0 10G 7G 4G 1G27G13G 8G11G24G20G28
  -7653326.372 4  -5963640.547 4  23379287.434    23379288.573    23379287.071
        26.000          18.000
 -20421863.920 6 -15913138.199 5  21479515.483    21479515.272    21479515.634
       114.000          80.000
  -5902222.703 4  -4599145.404 4  23630460.809    23630462.661    23630460.478
        15.000          11.000
 -27399126.377 9 -21349973.515 9  19674084.855    19674084.384    19674084.626
       223.000         214.000
 -13759853.267 6 -10721968.779 5  21941738.062    21941737.188    21941738.426
        91.000          54.000
 -18409194.986 6 -14344823.639 5  21277038.998    21277039.318    21277038.554
       106.000          78.000
  -3404665.095 4  -2653005.445 4  23989688.724    23989691.644    23989688.539
        13.000           8.000
  -2902813.587 4  -2261931.401 4  24509434.387    24509437.857    24509435.559
         4.000           3.000
  -9100045.240 5  -7090954.642 4  22988741.853    22988741.952    22988741.275
        53.000          18.000
   -902822.751 4   -703499.465 4  25275394.994    25275398.597    25275394.162
         3.000           2.000
 04  3  1  2 25 30.0000000  0 10G 7G 4G 1G27G13G 8G11G24G20G28
  -7607460.322 4  -5927900.836 4  23388015.142    23388016.686    23388014.893
        25.000          17.000
 -20494928.510 6 -15970071.649 5  21465611.667    21465611.654    21465611.882
       116.000          81.000
  -5829328.877 4  -4542345.090 4  23644332.054    23644333.698    23644331.910
        16.000          12.000
 -27426494.023 9 -21371298.965 9  19668876.872    19668876.565    19668876.714
       221.000         215.000
 -13711309.441 6 -10684142.463 5  21950975.631    21950974.879    21950975.999
        92.000          54.000
 -18490714.041 6 -14408344.960 5  21261526.489    21261526.700    21261526.048
       110.000          80.000
  -3300731.133 4  -2572018.247 4  24009466.890    24009469.777    24009466.669
        14.000           8.000
  -3008995.520 4  -2344670.516 4  24489228.403    24489231.881    24489229.027
         5.000           3.000
  -9083476.057 5  -7078043.641 4  22991894.644    22991894.857    22991894.337
        52.000          17.000
   -953526.658 4   -743009.040 4  25265746.650    25265750.695    25265745.857
         4.000           4.000
 04  3  1  2 26  0.0000000  0 10G 7G 4G 1G27G13G 8G11G24G20G28
  -7561562.540 4  -5892136.398 4  23396749.032    23396751.182    23396749.044
        24.000          18.000
 -20567585.690 6 -16026687.635 5  21451785.489    21451785.349    21451785.668
       116.000          81.000
  -5756567.870 4  -4485648.266 4  23658177.886    23658179.811    23658177.737
        13.000          12.000
 -27453253.225 9 -21392150.301 9  19663784.871    19663784.437    19663784.595
       222.000         217.000
 -13662743.630 6 -10646299.012 5  21960217.515    21960216.610    21960217.831
        89.000          52.000
 -18571860.756 6 -14471576.149 5  21246084.806    21246085.001    21246084.242
       111.000          81.000
  -3196715.792 4  -2490967.631 4  24029260.875    24029263.547    24029260.710
        14.000           9.000
  -3115068.542 4  -2427324.771 4  24469043.949    24469046.493    24469044.031
         5.000           3.000
  -9066733.370 5  -7064997.450 4  22995080.876    22995081.208    22995080.548
        54.000          17.000
  -1004557.022 4   -782772.978 4  25256034.695    25256039.503    25256035.189
         2.000           1.000
 04  3  1  2 26 30.0000000  0  9G 7G 4G 1G27G13G 8G11G24G20
  -7515626.036 4  -5856341.791 4  23405490.558    23405492.544    23405490.492
        24.000          18.000
 -20639823.055 6 -16082976.491 5  21438039.151    21438039.027    21438039.372
       117.000          81.000
  -5683931.325 4  -4429048.447 4  23672000.337    23672002.221    23672000.307
        16.000          13.000
 -27479393.126 9 -21412519.065 9  19658810.622    19658810.203    19658810.360
       222.000         217.000
 -13614147.877 6 -10608432.230 5  21969464.987    21969464.144    21969465.291
        88.000          51.000
 -18652622.614 6 -14534507.452 5  21230716.451    21230716.446    21230715.876
       117.000          82.000
  -3092611.683 4  -2409847.882 4  24049071.536    24049074.562    24049071.357
        13.000          10.000
  -3221020.177 4  -2509884.415 4  24448882.562    24448884.825    24448881.872
         6.000           3.000
  -9049806.104 5  -7051807.432 4  22998302.218    22998302.427    22998301.603
        53.000          19.000
 04  3  1  2 27  0.0000000  0 10G 7G 4G28G 1G27G13G 8G11G24G20
  -7469640.549 4  -5820509.026 4  23414241.652    23414243.276    23414241.314
        24.000          17.000
 -20711625.150 6 -16138926.176 5  21424375.511    21424375.567    21424375.821
       118.000          83.000
          .42314          .33614  25236436.900    25236441.375    25236437.520
         1.000           2.000
  -5611407.591 4  -4372536.513 4  23685801.381    23685802.946    23685801.274
        16.000          13.000
 -27504899.862 9 -21432394.452 9  19653956.782    19653956.420    19653956.586
       220.000         217.000
 -13565511.362 6 -10570533.684 5  21978720.151    21978719.359    21978720.532
        87.000          51.000
 -18732984.054 6 -14597126.743 5  21215424.019    21215424.220    21215423.522
       119.000          83.000
  -2988408.534 4  -2328650.962 4  24068900.556    24068903.563    24068900.305
        11.000           8.000
  -3326835.182 4  -2592337.610 4  24428746.083    24428748.773    24428746.399
         6.000           3.000
  -9032679.886 5  -7038462.394 4  23001561.222    23001561.734    23001560.704
        51.000          19.000
 04  3  1  2 27 30.0000000  0 10G 7G 4G28G 1G27G13G 8G11G24G20
  -7423628.429 4  -5784655.507 4  23422997.235    23422999.184    23422997.159
        23.000          18.000
 -20783009.386 6 -16194550.257 5  21410791.621    21410791.619    21410791.881
       120.000          84.000
    -51969.413 4    -40495.706 4  25226546.888    25226550.844    25226546.485
         2.000           2.000
  -5539017.043 4  -4316128.375 4  23699576.891    23699578.718    23699576.577
        14.000          12.000
 -27529792.167 9 -21451791.059 9  19649219.988    19649219.601    19649219.729
       220.000         218.000
 -13516855.833 6 -10532620.323 5  21987979.123    21987978.243    21987979.380
        86.000          50.000
 -18812962.181 6 -14659447.348 5  21200204.533    21200204.824    21200204.194
       122.000          83.000
  -2884128.547 4  -2247394.164 4  24088744.411    24088748.199    24088744.397
        12.000           9.000
  -3432530.232 4  -2674697.353 4  24408633.939    24408635.510    24408633.276
         7.000           3.000
  -9015372.739 5  -7024976.371 4  23004854.702    23004855.132    23004854.274
        53.000          19.000
 04  3  1  2 28  0.0000000  0 10G 7G 4G28G 1G27G13G 8G11G24G20
  -7377569.914 4  -5748765.839 4  23431762.360    23431764.018    23431761.727
        23.000          19.000
 -20853950.644 6 -16249829.160 6  21397292.150    21397291.959    21397292.271
       122.000          85.000
   -104237.281 4    -81225.022 4  25216601.193    25216607.737    25216600.186
         1.000           1.000
  -5466738.719 4  -4259807.686 4  23713330.787    23713332.872    23713330.729
        14.000          12.000
 -27554046.851 9 -21470690.818 9  19644604.479    19644604.053    19644604.234
       220.000         217.000
 -13468160.863 6 -10494676.234 5  21997245.573    21997244.615    21997245.852
        85.000          49.000
 -18892531.826 6 -14721449.653 5  21185063.084    21185063.261    21185062.633
       122.000          83.000
  -2779751.782 4  -2166061.959 4  24108607.348    24108611.056    24108607.024
        12.000          10.000
  -3538080.415 4  -2756944.203 4  24388548.193    24388549.804    24388547.681
         6.000           3.000
  -8997861.004 5  -7011330.920 4  23008187.228    23008187.386    23008186.629
        56.000          18.000
 04  3  1  2 28 30.0000000  0  9G 7G 4G 1G27G13G 8G11G24G20
  -7331501.110 4  -5712868.148 4  23440529.004    23440530.756    23440528.628
        24.000          19.000
 -20924479.733 6 -16304786.893 6  21383870.790    21383870.710    21383870.994
       123.000          85.000
  -5394607.109 4  -4203601.311 4  23727057.447    23727058.906    23727057.036
        15.000          12.000
 -27577696.299 9 -21489118.963 9  19640104.111    19640103.741    19640103.911
       219.000         216.000
 -13419461.883 6 -10456729.023 5  22006512.631    22006511.740    22006512.968
        85.000          49.000
 -18971723.836 6 -14783157.698 6  21169993.250    21169993.478    21169992.813
       123.000          85.000
  -2675313.932 4  -2084682.174 4  24128481.766    24128485.073    24128481.228
        13.000          11.000
  -3643516.562 4  -2839102.198 4  24368484.276    24368486.214    24368484.198
         7.000           3.000
  -8980176.665 5  -6997550.968 4  23011552.257    23011552.817    23011551.845
        52.000          18.000
 04  3  1  2 29  0.0000000  0  9G 7G 4G 1G27G13G 8G11G24G20
  -7285411.897 4  -5676954.551 4  23449299.513    23449301.145    23449299.079
        23.000          18.000
 -20994581.528 6 -16359411.668 6  21370530.683    21370530.781    21370531.000
       124.000          87.000
  -5322610.490 4  -4147500.124 4  23740757.871    23740759.516    23740757.397
        14.000          12.000
 -27600726.855 9 -21507064.853 9  19635721.594    19635721.154    19635721.355
       221.000         218.000
 -13370747.943 6 -10418770.154 5  22015782.735    22015781.777    22015782.987
        85.000          48.000
 -19050522.871 6 -14844559.528 6  21154998.390    21154998.551    21154997.900
       124.000          86.000
  -2570805.062 4  -2003247.051 4  24148369.308    24148372.539    24148369.232
        14.000          10.000
  -3748823.110 4  -2921159.213 4  24348444.749    24348447.025    24348445.007
         7.000           3.000
  -8962305.696 5  -6983625.612 4  23014953.079    23014953.614    23014952.589
        50.000          19.000
 04  3  1  2 29 30.0000000  0  9G 7G 4G 1G27G13G 8G11G24G20
  -7239285.772 4  -5641012.194 4  23458076.911    23458078.696    23458076.756
        24.000          17.000
 -21064234.387 6 -16413686.624 6  21357276.359    21357276.270    21357276.537
       126.000          88.000
  -5250730.941 4  -4091490.174 4  23754435.967    23754437.978    23754435.850
        14.000          13.000
 -27623118.687 9 -21524513.035 9  19631460.560    19631460.139    19631460.318
       219.000         218.000
 -13322002.040 6 -10380786.376 5  22025058.721    22025057.800    22025058.995
        85.000          48.000
 -19128907.202 6 -14905638.213 6  21140082.269    21140082.457    21140081.824
       122.000          86.000
  -2466208.391 4  -1921743.503 4  24168273.319    24168276.972    24168273.303
        11.000          10.000
  -3853978.088 4  -3003098.118 4  24328434.462    24328436.170    24328434.083
         8.000           3.000
  -8944227.603 5  -6969538.857 4  23018393.262    23018394.021    23018392.853
        51.000          19.000
 04  3  1  2 30  0.0000000  0  9G 7G 4G 1G27G13G 8G11G24G20
  -7193115.884 4  -5605035.743 4  23466862.731    23466864.647    23466862.616
        25.000          18.000
 -21133426.328 7 -16467602.421 6  21344109.581    21344109.501    21344109.753
       129.000          89.000
  -5178960.128 4  -4035564.957 4  23768093.217    23768095.224    23768093.354
        13.000          12.000
 -27644861.407 9 -21541455.416 9  19627323.011    19627322.658    19627322.783
       220.000         220.000
 -13273216.371 5 -10342771.612 5  22034342.376    22034341.511    22034342.685
        84.000          48.000
 -19206864.497 6 -14966384.144 6  21125247.537    21125247.644    21125247.037
       125.000          88.000
  -2361516.982 4  -1840166.171 4  24188195.923    24188199.737    24188195.997
        12.000          12.000
  -3958969.243 4  -3084909.364 4  24308454.927    24308457.534    24308455.133
         8.000           4.000
  -8925931.275 5  -6955282.044 4  23021875.097    23021875.575    23021874.491
        52.000          18.000
 04  3  1  2 30 30.0000000  0  9G 7G 4G 1G27G13G 8G11G24G20
  -7146931.728 4  -5569048.169 4  23475651.443    23475653.315    23475651.086
        24.000          18.000
 -21202181.765 7 -16521178.087 6  21331025.786    21331025.797    21331026.063
       132.000          90.000
  -5107326.001 4  -3979746.233 4  23781725.347    23781727.121    23781725.245
        14.000          11.000
 -27665981.080 9 -21557912.304 9  19623304.027    19623303.735    19623303.851
       219.000         221.000
 -13224419.966 5 -10304748.484 5  22043628.049    22043627.166    22043628.341
        84.000          47.000
 -19284419.339 6 -15026816.475 6  21110489.317    21110489.438    21110488.803
       126.000          89.000
  -2256760.079 4  -1758537.807 4  24208130.354    24208134.808    24208130.479
        11.000          11.000
  -4063820.988 4  -3166611.982 4  24288502.674    24288504.703    24288502.388
         9.000           3.000
  -8907442.350 5  -6940875.147 4  23025393.512    23025393.832    23025393.018
        52.000          18.000
 04  3  1  2 31  0.0000000  0  9G 7G 4G 1G27G13G 8G11G24G20
  -7100742.895 4  -5533056.959 4  23484440.839    23484442.726    23484440.521
        22.000          16.000
 -21270505.079 7 -16574417.036 6  21318024.375    21318024.266    21318024.638
       135.000          91.000
  -5035836.606 4  -3924040.284 4  23795329.480    23795331.083    23795328.946
        15.000          11.000
 -27686484.055 9 -21573888.649 9  19619402.484    19619402.151    19619402.247
       219.000         221.000
 -13175621.557 5 -10266723.790 5  22052914.133    22052913.331    22052914.400
        83.000          47.000
 -19361575.983 6 -15086938.518 6  21095806.956    21095807.026    21095806.392
       127.000          90.000
  -2151947.651 4  -1676866.180 4  24228076.571    24228080.283    24228076.451
        15.000          10.000
  -4168537.673 4  -3248209.349 4  24268575.917    24268577.715    24268575.192
         9.000           4.000
  -8888766.370 5  -6926322.501 4  23028947.194    23028948.023    23028946.721
        48.000          18.000
 04  3  1  2 31 30.0000000  0 10G 7G 4G28G 1G27G13G 8G11G24G20
  -7054533.813 4  -5497049.975 4  23493234.585    23493236.224    23493234.213
        22.000          17.000
 -21338375.734 7 -16627303.266 6  21305109.048    21305108.909    21305109.305
       137.000          91.000
         -.79514                  25145314.572                    25145313.570
         2.000
  -4964474.901 4  -3868433.840 4  23808909.164    23808911.160    23808909.041
        14.000          13.000
 -27706351.295 9 -21589369.615 9  19615621.892    19615621.507    19615621.652
       219.000         221.000
 -13126805.158 5 -10228685.080 5  22062203.614    22062202.772    22062203.915
        81.000          47.000
 -19438313.542 7 -15146734.006 6  21081204.273    21081204.257    21081203.694
       129.000          90.000
  -2047063.226 4  -1595138.453 4  24248035.203    24248039.275    24248035.249
        13.000           9.000
  -4273098.154 4  -3329685.004 4  24248678.234    24248680.842    24248677.897
        10.000           4.000
  -8869883.755 5  -6911608.844 4  23032540.503    23032541.330    23032540.041
        46.000          18.000
 04  3  1  2 32  0.0000000  0  9G 7G 4G 1G27G13G 8G11G24G20
  -7008309.737 4  -5461031.306 4  23502030.764    23502032.485    23502029.960
        22.000          16.000
 -21405793.887 7 -16679836.896 6  21292279.827    21292279.652    21292280.050
       137.000          92.000
  -4893244.567 4  -3812929.787 4  23822463.650    23822465.826    23822463.720
        15.000          12.000
 -27725584.741 9 -21604356.716 9  19611961.897    19611961.519    19611961.677
       219.000         222.000
 -13077974.999 5 -10190635.651 5  22071495.669    22071494.857    22071495.954
        80.000          46.000
 -19514632.260 7 -15206203.123 6  21066680.954    21066681.335    21066680.621
       131.000          92.000
  -1942112.257 4  -1513358.862 4  24268007.108    24268011.239    24268006.987
        14.000           8.000
  -4377502.333 4  -3411038.869 4  24228811.019    24228813.216    24228810.323
        11.000           5.000
  -8850795.651 5  -6896735.064 4  23036172.661    23036173.680    23036172.138
        45.000          17.000
 04  3  1  2 32 30.0000000  0  9G 4G 7G 1G27G13G 8G11G24G20
 -21472772.759 7 -16732028.229 6  21279534.145    21279534.046    21279534.373
       141.000          95.000
  -6962088.827 4  -5425015.101 4  23510826.395    23510827.986    23510825.697
        22.000          15.000
  -4822162.223 4  -3757541.019 4  23835990.584    23835992.111    23835990.417
        16.000          11.000
 -27744199.391 9 -21618861.642 9  19608419.678    19608419.251    19608419.411
       219.000         223.000
 -13029148.599 5 -10152589.152 5  22080787.043    22080786.218    22080787.368
        79.000          46.000
 -19590545.280 7 -15265356.114 6  21052235.576    21052235.606    21052234.994
       134.000          94.000
  -1837112.838 4  -1431541.553 4  24287988.049    24287992.338    24287987.985
        12.000           8.000
  -4481763.066 4  -3492280.962 4  24208970.679    24208972.946    24208970.225
        11.000           5.000
  -8831516.495 5  -6881712.402 4  23039841.614    23039842.528    23039841.027
        48.000          17.000
 04  3  1  2 33  0.0000000  0  9G 4G 7G 1G27G13G 8G11G24G20
 -21539286.461 7 -16783857.092 6  21266876.953    21266876.924    21266877.247
       140.000          95.000
  -6915850.324 4  -5388985.197 4  23519625.131    23519626.991    23519624.845
        21.000          14.000
  -4751205.230 4  -3702249.929 4  23849492.571    23849495.011    23849492.790
        15.000          11.000
 -27762171.165 9 -21632865.626 9  19604999.740    19604999.328    19604999.502
       218.000         224.000
 -12980304.536 5 -10114528.882 5  22090081.791    22090080.995    22090082.092
        78.000          46.000
 -19666026.272 7 -15324172.461 6  21037871.938    21037871.914    21037871.377
       135.000          95.000
  -1732043.778 4  -1349669.946 4  24307982.923    24307986.808    24307982.505
        12.000           7.000
  -4585854.220 4  -3573390.913 4  24189163.009    24189165.065    24189162.766
        12.000           5.000
  -8812021.304 5  -6866521.404 4  23043551.420    23043552.336    23043551.174
        52.000          17.000
 04  3  1  2 33 30.0000000  0  9G 7G 4G 1G27G13G 8G11G24G20
  -6869618.584 4  -5352960.563 4  23528422.752    23528424.732    23528422.473
        21.000          14.000
 -21605354.398 7 -16835338.606 6  21254304.762    21254304.625    21254304.921
       141.000          96.000
  -4680396.455 4  -3647074.349 4  23862967.718    23862969.666    23862967.503
        14.000          11.000
 -27779521.231 9 -21646385.164 9  19601698.068    19601697.749    19601697.850
       217.000         224.000
 -12931466.363 5 -10076473.202 5  22099375.509    22099374.604    22099375.693
        77.000          45.000
 -19741094.640 7 -15382667.283 6  21023586.823    21023586.953    21023586.385
       134.000          97.000
  -1626929.580 4  -1267763.200 4  24327986.180    24327990.306    24327985.940
         9.000          10.000
  -4689795.139 4  -3654383.799 4  24169384.074    24169385.627    24169383.561
        13.000           6.000
  -8792330.493 5  -6851177.977 4  23047298.500    23047299.465    23047298.080
        51.000          17.000
 04  3  1  2 34  0.0000000  0  9G 7G 4G 1G27G13G 8G11G24G20
  -6823375.086 4  -5316926.758 4  23537222.750    23537224.560    23537222.351
        21.000          14.000
 -21670953.354 7 -16886454.682 6  21241821.686    21241821.558    21241821.854
       144.000          97.000
  -4609715.670 4  -3591998.491 4  23876417.827    23876419.726    23876417.743
        16.000          12.000
 -27796227.936 9 -21659403.384 9  19598518.907    19598518.565    19598518.709
       217.000         224.000
 -12882614.662 5 -10038406.984 5  22108671.559    22108670.855    22108671.875
        75.000          45.000
 -19815726.777 7 -15440822.184 6  21009384.621    21009385.005    21009384.253
       136.000         100.000
  -1521751.250 4  -1185806.538 4  24348000.453    24348005.262    24348000.106
         8.000           9.000
  -4793561.604 4  -3735240.751 4  24149637.215    24149639.803    24149637.613
        13.000           6.000
  -8772421.709 5  -6835664.708 4  23051087.084    23051087.903    23051086.596
        48.000          17.000
 04  3  1  2 34 30.0000000  0  9G 4G 7G 1G27G13G 8G11G24G20
 -21736083.188 7 -16937205.208 6  21229427.921    21229427.799    21229428.126
       147.000          98.000
  -6777125.086 4  -5280887.902 4  23546023.793    23546025.524    23546023.435
        21.000          13.000
  -4539166.652 4  -3537025.308 4  23889843.082    23889844.911    23889842.827
        16.000          12.000
 -27812293.421 9 -21671921.955 9  19595461.795    19595461.426    19595461.565
       218.000         224.000
 -12833754.179 5 -10000333.919 5  22117969.350    22117968.816    22117969.737
        75.000          44.000
 -19889922.977 7 -15498637.392 6  20995265.550    20995265.869    20995265.136
       136.000         101.000
  -1416514.391 4  -1103804.230 4  24368027.051    24368031.405    24368027.249
        12.000          10.000
  -4897153.566 4  -3815961.723 4  24129924.568    24129926.541    24129924.341
        13.000           6.000
  -8752296.330 5  -6819982.665 4  23054916.916    23054917.665    23054916.484
        47.000          18.000
 04  3  1  2 35  0.0000000  0  9G 4G13G 7G 1G27G 8G11G24G20
 -21800752.211 7 -16987596.664 6  21217121.763    21217121.701    21217122.018
       147.000          98.000
 -12784897.114 5  -9962263.518 5  22127266.728    22127266.061    22127267.005
        75.000          44.000
  -6730881.586 4  -5244854.112 4  23554823.888    23554825.644    23554823.382
        21.000          14.000
  -4468760.711 4  -3482163.630 4  23903240.773    23903243.001    23903240.835
        16.000          11.000
 -27827727.499 9 -21683948.522 9  19592524.717    19592524.419    19592524.553
       217.000         223.000
 -19963691.128 7 -15556119.059 6  20981228.100    20981228.276    20981227.618
       138.000         102.000
  -1311231.847 4  -1021766.335 4  24388061.899    24388066.368    24388061.736
        15.000          11.000
  -5000578.857 4  -3896552.826 4  24110243.122    24110245.229    24110242.984
        13.000           6.000
  -8731963.244 5  -6804138.767 4  23058786.408    23058786.975    23058786.028
        49.000          18.000
 04  3  1  2 35 30.0000000  0  9G 4G13G 7G 1G27G 8G11G24G20
 -21864965.890 7 -17037633.304 6  21204902.318    21204902.226    21204902.540
       148.000          99.000
 -12736053.073 5  -9924203.259 5  22136561.584    22136560.708    22136561.825
        74.000          44.000
  -6684655.129 4  -5208833.584 4  23563620.465    23563622.596    23563620.018
        22.000          15.000
  -4398506.928 4  -3427420.505 4  23916609.537    23916611.723    23916609.628
        15.000          10.000
 -27842537.820 9 -21695489.047 9  19589706.462    19589706.136    19589706.264
       218.000         225.000
 -20037036.714 7 -15613271.453 6  20967270.723    20967271.095    20967270.331
       138.000         104.000
  -1205913.937 4   -939700.882 4  24408103.328    24408108.031    24408103.378
        18.000          10.000
  -5103842.834 4  -3977018.219 4  24090592.723    24090594.839    24090592.256
        14.000           6.000
  -8711429.199 5  -6788138.268 4  23062694.098    23062694.582    23062693.466
        49.000          17.000
 04  3  1  2 36  0.0000000  0  9G 4G13G 7G 1G27G 8G11G24G20
 -21928709.618 7 -17087303.750 6  21192772.292    21192772.197    21192772.506
       147.000          99.000
 -12687211.880 5  -9886145.223 5  22145855.658    22145854.896    22145855.927
        72.000          43.000
  -6638435.726 4  -5172818.553 4  23572416.055    23572417.785    23572415.754
        22.000          15.000
  -4328393.822 4  -3372786.994 4  23929951.648    23929953.756    23929951.554
        16.000          10.000
 -27856711.544 9 -21706533.524 9  19587009.332    19587008.956    19587009.137
       218.000         224.000
 -20109945.015 7 -15670083.105 6  20953396.866    20953397.025    20953396.400
       138.000         104.000
  -1100550.694 4   -857600.093 4  24428153.923    24428158.451    24428153.396
        19.000          10.000
  -5206930.187 4  -4057345.994 4  24070975.838    24070977.655    24070975.872
        14.000           7.000
  -8690680.413 5  -6771970.451 4  23066642.268    23066643.262    23066641.812
        49.000          18.000
 04  3  1  2 36 30.0000000  0  9G 4G13G 7G 1G27G 8G11G24G20
 -21991977.200 7 -17136603.173 6  21180732.750    21180732.807    21180733.034
       149.000         101.000
 -12638370.944 5  -9848087.389 5  22155149.734    22155149.109    22155150.011
        71.000          43.000
  -6592222.080 4  -5136808.023 4  23581210.205    23581212.232    23581209.873
        22.000          15.000
  -4258418.258 4  -3318260.659 4  23943267.675    23943269.776    23943267.535
        16.000          11.000
 -27870244.135 9 -21717078.417 9  19584434.198    19584433.845    19584433.937
       218.000         225.000
 -20182409.408 7 -15726548.860 6  20939607.165    20939607.525    20939606.849
       139.000         106.000
   -995140.450 4   -775462.701 4  24448212.536    24448218.261    24448212.653
        18.000          10.000
  -5309834.167 4  -4137530.887 4  24051394.016    24051396.091    24051393.481
        15.000           7.000
  -8669711.555 5  -6755631.151 4  23070632.629    23070633.500    23070632.277
        49.000          19.000
 04  3  1  2 37  0.0000000  0  9G 4G13G 7G 1G27G 8G11G24G20
 -22054765.147 7 -17185528.854 6  21168784.635    21168784.641    21168784.923
       148.000         101.000
 -12589531.464 5  -9810030.689 4  22164443.628    22164442.936    22164443.940
        71.000          42.000
  -6546015.959 4  -5100803.345 4  23590003.088    23590005.035    23590002.489
        20.000          14.000
  -4188580.255 4  -3263841.532 4  23956557.644    23956559.991    23956557.160
        17.000          13.000
 -27883134.400 9 -21727122.796 9  19581981.187    19581980.915    19581981.004
       217.000         226.000
 -20254426.743 7 -15782666.255 6  20925902.994    20925903.073    20925902.384
       140.000         105.000
   -889684.810 4   -693289.944 4  24468279.891    24468286.016    24468280.493
        17.000           8.000
  -5412551.067 4  -4217569.991 4  24031847.554    24031849.302    24031847.107
        16.000           7.000
  -8648520.500 5  -6739118.714 4  23074665.146    23074665.998    23074664.522
        47.000          19.000
