     2.10           OBSERVATION DATA    G (GPS)             RINEX VERSION / TYPE
teqc  2002Mar18     WCDA Operator       20040302 01:05:48UTCPGM / RUN BY / DATE
Solaris 2.7|Ultra 2|cc SC5.0|=+-|*Sparc                     COMMENT
BIT 2 OF LLI FLAGS DATA COLLECTED UNDER A/S CONDITION       COMMENT
CC2nonCC ESOC Version 6.5, 21 Mar 2012                      COMMENT
CC2nonCC executed 20151123 090128.509                       COMMENT
CC C1, P2 converted to non-CC type                          COMMENT
 average P1-C1 biases applied by CC2nonCC by PRN (ps):      COMMENT
    49          83  1603  -814   652  -551  -447   516 -1531COMMENT
   775        1649   460  -880  -283  -808   141 -5558  -931COMMENT
  -171   683         375   779  1373    84  -124   942  2124COMMENT
  -193                                                      COMMENT
dubo  WCDA-ACP   924000   Lac Du Bonnet MAN Canada          MARKER NAME
40137M001                                                   MARKER NUMBER
PGC-WCDA            GEOL. SURV. CANADA                      OBSERVER / AGENCY
386                 ROGUE SNR-8000      3.2.32.11           REC # / TYPE / VERS
98381               AOAD/M_T        SCIS                    ANT # / TYPE
  -417603.5980 -4064529.8010  4881432.1610                  APPROX POSITION XYZ
        0.1000        0.0000        0.0000                  ANTENNA: DELTA H/E/N
     1     1                                                WAVELENGTH FACT L1/2
     5    C1    P1    P2    L1    L2                        # / TYPES OF OBSERV
    30.0000                                                 INTERVAL
STATION INFORMATION EFFECTIVE FROM: 2001/01/23 20:04:00     COMMENT
                                TO: CURRENT DATE (above)    COMMENT
BIT 2 OF LLI FLAGS (+4) DATA COLLECTED UNDER 'AS' CONDITION COMMENT
L1 PHASE CENTRE 0.110m ABOVE ARP                            COMMENT
L2 PHASE CENTRE 0.128m ABOVE ARP                            COMMENT
where ARP is the Antenna Reference Point for HI measurement COMMENT
CONTACT gps@pgc.nrcan.gc.ca FOR ADDITIONAL INFORMATION      COMMENT
 SNR is mapped to RINEX snr flag value [1,4-9]              COMMENT
    SNR:  >=316 >=100 >=31.6 >=10 >=3.2    >0 bad=0         COMMENT
L1 & L2:      9     8     7     6     5     4     1         COMMENT
  2004     3     1     0     0    0.0000000     GPS         TIME OF FIRST OBS
                                                            END OF HEADER
  4  3  1  0  0  0.0000000  0  8G10G 6G22G18G21G17G26G15
  24753622.2374          0.000    24753620.8204   -1606363.01448  -1251678.35744
  23234740.7494          0.000    23234743.8544  -11026127.38448  -8591780.20046
  23910581.0884          0.000    23910581.8994   -6771985.83248  -5276859.18545
  21231864.2794          0.000    21231863.7184  -21481387.16149 -16738718.37047
  20137849.5434          0.000    20137848.4184  -27590534.41649 -21499091.09547
  24113602.0174          0.000    24113605.5404   -5362574.01548  -4178618.45844
  20531766.7874          0.000    20531767.3084  -21517252.22949 -16766662.18947
  22727065.8014          0.000    22727068.2904  -12569150.20049  -9794129.08746
  4  3  1  0  0 30.0000000  0  8G10G 6G22G18G21G17G26G15
  24773088.5554          0.000    24773087.9484   -1504061.07648  -1171962.45244
  23254431.2264          0.000    23254434.6694  -10922653.01648  -8511150.91445
  23892742.0774          0.000    23892742.3514   -6865735.25048  -5349910.56045
  21220538.6854          0.000    21220538.0254  -21540903.33249 -16785094.59347
  20133920.4934          0.000    20133919.2324  -27611182.68149 -21515180.64447
  24133004.4514          0.000    24133004.9404   -5260611.82748  -4099167.35744
  20536336.0804          0.000    20536336.8584  -21493239.85549 -16747951.25047
  22708566.5994          0.000    22708569.4024  -12666361.73449  -9869878.28546
  4  3  1  0  1  0.0000000  0  8G10G 6G22G18G21G17G26G15
  24792556.4184          0.000    24792555.7294   -1401756.79948  -1092244.73244
  23274157.7284          0.000    23274160.9134  -10818988.21548  -8430373.21345
  23874928.4444          0.000    23874929.0654   -6959342.83048  -5422851.41745
  21209273.9324          0.000    21209273.4954  -21600100.22649 -16831222.02547
  20130077.1504          0.000    20130075.7874  -27631379.20149 -21530918.17047
  24152434.8034          0.000    24152434.7234   -5158494.53748  -4019595.44544
  20541032.7104          0.000    20541033.1814  -21468560.60049 -16728720.66447
  22690096.8864          0.000    22690099.5884  -12763417.25549  -9945505.96846
  4  3  1  0  1 30.0000000  0  8G10G 6G22G18G21G17G26G15
  24812026.5024          0.000    24812026.1484   -1299445.18448  -1012521.35044
  23293920.9794          0.000    23293924.5594  -10715129.30748  -8349444.26545
  23857144.6754          0.000    23857145.3654   -7052801.90048  -5495676.52045
  21198071.0094          0.000    21198070.3754  -21658971.28649 -16877095.55847
  20126320.9214          0.000    20126319.8194  -27651116.73749 -21546298.03047
  24171898.0554          0.000           0.000    -5056217.06748  -3939898.73644
  20545856.4714          0.000    20545857.1594  -21443209.59849 -16708966.63847
  22671659.0314          0.000    22671661.9624  -12860308.69549 -10021005.82046
  4  3  1  0  2  0.0000000  0  8G10G 6G22G18G21G17G26G15
  24831497.7614          0.000    24831498.9644   -1197121.65448   -932788.58044
  23313723.6744          0.000    23313727.9154  -10611073.83648  -8268362.15246
  23839389.0854          0.000    23839388.9804   -7146105.86748  -5568380.77545
  21186931.6644          0.000    21186930.6494  -21717510.22649 -16922710.29847
  20122653.7374          0.000    20122652.4074  -27670388.89149 -21561315.27347
  24191390.5284          0.000    24191394.8494   -4953775.10848  -3860073.83744
  20550809.4384          0.000    20550810.1074  -21417182.72049 -16688685.94547
  22653254.5904          0.000    22653257.7634  -12957028.36749 -10096371.76146
  4  3  1  0  2 30.0000000  0  8G10G 6G22G18G21G17G26G15
  24850966.3914          0.000    24850962.9524   -1094803.40648   -853059.99544
  23333558.3484          0.000    23333561.2484  -10506840.22348  -8187141.23246
  23821660.3204          0.000    23821660.5114   -7239269.73548  -5640975.90845
  21175852.6444          0.000    21175852.1344  -21775732.54349 -16968078.31747
  20119072.1294          0.000    20119070.9744  -27689210.79049 -21575981.69547
  24210913.5774          0.000    24210919.1494   -4851186.08148  -3780134.28744
  20555887.8064          0.000    20555887.9734  -21390497.57049 -16667892.30847
  22634879.5164          0.000    22634882.5034  -13053590.53249 -10171614.93046
  4  3  1  0  3  0.0000000  0  8G10G 6G22G18G21G17G26G15
  24870439.1944          0.000           0.000     -992481.48548   -773328.47844
  23353428.7644          0.000    23353432.0864  -10402421.30548  -8105775.92145
  23803959.9794          0.000    23803958.6844   -7332282.81048  -5713453.49445
  21164835.2244          0.000    21164834.5254  -21833627.58549 -17013191.31947
  20115578.3474          0.000    20115577.2784  -27707570.23949 -21590287.76147
  24230466.3424          0.000    24230472.7854   -4748440.89548  -3700073.08544
  20561092.5124          0.000    20561092.8784  -21363145.20149 -16646578.76247
  22616536.0344          0.000    22616539.3974  -13149983.38649 -10246726.17746
  4  3  1  0  3 30.0000000  0  8G10G 6G22G18G21G17G26G15
  24889908.8724          0.000           0.000     -890165.93648         0.000
  23373332.0304          0.000    23373335.4454  -10297828.76148  -8024275.31345
  23786287.3064          0.000    23786286.5854   -7425153.17248  -5785819.88445
  21153878.4584          0.000    21153878.0364  -21891203.83749 -17058055.91547
  20112171.1104          0.000    20112170.0044  -27725475.88449 -21604240.22547
  24250044.6304          0.000    24250049.2154   -4645549.76348  -3619898.17444
  20566422.3624          0.000    20566423.0614  -21335136.41949 -16624753.73247
  22598224.0874          0.000    22598226.9594  -13246214.07449 -10321711.05746
  4  3  1  0  4  0.0000000  0  8G10G 6G22G18G21G17G26G15
  24909378.2274          0.000           0.000     -787843.69148   -613870.40144
  23393269.9984          0.000    23393273.5034  -10193051.20648  -7942630.53045
  23768644.2884          0.000    23768642.6064   -7517866.19548  -5858063.65245
  21142985.6354          0.000    21142985.3194  -21948446.46849 -17102660.53647
  20108853.1904          0.000    20108851.8064  -27742912.16649 -21617826.95047
  24269656.3734          0.000    24269661.5354   -4542500.14048  -3539599.78744
  20571879.3244          0.000    20571880.0344  -21306458.75849 -16602407.49747
  22579946.0454          0.000    22579949.2324  -13342266.85249 -10396557.32546
  4  3  1  0  4 30.0000000  0  8G10G 6G22G18G21G17G26G15
  24928850.2324          0.000           0.000     -685518.99948   -534136.83644
  23413242.9094          0.000    23413246.4594  -10088094.46548  -7860846.12845
  23751032.0704          0.000    23751031.2834   -7610423.90249  -5930186.43045
  21132155.8254          0.000    21132155.4654  -22005358.15349 -17147007.27247
  20105623.9234          0.000    20105622.9054  -27759881.02549 -21631049.43547
  24289294.1404          0.000    24289297.8864   -4439295.99048  -3459180.98344
  20577462.9854          0.000    20577463.7114  -21277116.69149 -16579543.54047
  22561700.8704          0.000    22561703.8934  -13438142.62749 -10471265.58646
  4  3  1  0  5  0.0000000  0  8G10G 6G22G18G21G17G26G15
  24948327.3904          0.000    24948328.9524    -583174.42048   -454387.75944
  23433251.5804          0.000    23433257.0214   -9982943.04148  -7778910.02245
  23733452.0964          0.000    23733453.0394   -7702807.24949  -6002173.31745
  21121392.5664          0.000    21121391.9164  -22061919.99549 -17191081.40847
  20102487.7944          0.000    20102486.5904  -27776363.24349 -21643892.71547
  24308966.8364          0.000    24308970.5034   -4335920.49748  -3378628.67144
  20583176.3114          0.000    20583176.8874  -21247093.52649 -16556148.87147
  22543494.0644          0.000    22543496.7354  -13533821.74449 -10545820.65846
  4  3  1  0  5 30.0000000  0  8G10G 6G22G18G21G17G26G15
  24967799.4684          0.000    24967796.3124    -480851.48948   -374655.60944
  23453289.1454          0.000    23453294.5474   -9877640.05648  -7696855.81445
  23715898.1014          0.000    23715897.5694   -7795056.01349  -6074055.36445
  21110687.7294          0.000    21110687.3994  -22118172.27049 -17234914.31747
  20099436.2344          0.000    20099434.7624  -27792398.28649 -21656387.53447
  24328663.7074          0.000    24328668.6224   -4232415.43648  -3297975.36744
  20589011.0244          0.000    20589011.5154  -21216431.42449 -16532256.34247
  22525316.7994          0.000    22525319.5124  -13629342.61249 -10620252.43546
  4  3  1  0  6  0.0000000  0  8G10G 6G22G18G21G17G26G15
  24987267.1684          0.000    24987271.8054    -378532.07148   -294926.18544
  23473361.3574          0.000    23473365.5304   -9772169.04348  -7614670.65845
  23698372.4014          0.000    23698371.7864   -7887149.72249  -6145816.60145
  21100046.2694          0.000    21100045.6604  -22174094.79549 -17278490.27247
  20096473.7954          0.000    20096472.5604  -27807965.46449 -21668517.78847
  24348387.2084          0.000    24348391.1714   -4128762.44048  -3217206.74344
  20594970.9234          0.000    20594971.3054  -21185112.32849 -16507851.85647
  22507173.3664          0.000    22507175.7914  -13724683.60349 -10694544.07946
  4  3  1  0  6 30.0000000  0  8G10G 6G22G18G21G17G26G15
  25006738.4374          0.000           0.000     -276213.79247         0.000
  23493463.5344          0.000    23493467.0734   -9666529.64848  -7532354.30245
  23680877.6464          0.000    23680877.1244   -7979084.57549  -6217454.04045
  21089468.1484          0.000    21089467.4324  -22229683.87449 -17321806.39047
  20093601.2104          0.000    20093600.0234  -27823060.68149 -21680280.30847
  24368139.3934          0.000    24368140.5524   -4024959.74548  -3136321.53444
  20601056.1384          0.000    20601056.7004  -21153135.01949 -16482934.47847
  22489066.7604          0.000    22489068.2804  -13819840.13049 -10768691.96546
  4  3  1  0  7  0.0000000  0  8G10G 6G22G18G21G17G26G15
  25026208.5634          0.000           0.000     -173894.57447         0.000
  23513598.5064          0.000    23513602.6114   -9560721.55648  -7449906.49945
  23663414.4304          0.000    23663414.1974   -8070856.68949  -6288964.65245
  21078953.8584          0.000    21078953.1704  -22284935.78149 -17364859.77647
  20090819.4464          0.000    20090818.1584  -27837679.68249 -21691671.74647
  24387921.5034          0.000           0.000    -3921005.48148  -3055318.09444
  20607266.6624          0.000    20607267.3954  -21120497.92249 -16457502.97047
  22470995.1714          0.000    22470997.3264  -13914806.96449 -10842691.98546
  4  3  1  0  7 30.0000000  0  8G10G 6G22G18G21G17G26G15
  25045679.8574          0.000           0.000      -71591.04348         0.000
  23533761.4584          0.000    23533766.1804   -9454762.52848  -7367341.08445
  23645977.8504          0.000    23645977.7864   -8162480.88349  -6360360.05445
  21068501.2574          0.000    21068500.7484  -22339865.65249 -17407662.22847
  20088125.1834          0.000    20088123.9934  -27851837.13249 -21702703.53147
  24407728.9354          0.000           0.000    -3816916.25248         0.000
  20613599.8314          0.000    20613600.3144  -21087218.34249 -16431570.80347
  22452956.8004          0.000    22452959.0844  -14009597.75149 -10916554.83246
  4  3  1  0  8  0.0000000  0  8G10G 6G22G18G21G17G26G15
  25065146.2924          0.000           0.000       30715.98748         0.000
  23553958.1774          0.000    23553962.2614   -9348635.61448  -7284644.84845
  23628574.8674          0.000    23628575.3034   -8253936.18549  -6431623.83645
  21058113.3374          0.000    21058112.7444  -22394453.13949 -17450197.88247
  20085523.2834          0.000    20085521.8414  -27865511.50949 -21713358.92047
  24427566.2084          0.000           0.000    -3712673.61348  -2892981.49144
  20620058.0964          0.000    20620058.4474  -21053278.00849 -16405123.76047
  22434956.2604          0.000    22434957.9824  -14104190.67349 -10990263.56246
  4  3  1  0  8 30.0000000  0  8G10G 6G22G18G21G17G26G15
  25084611.1204          0.000           0.000      133014.12647         0.000
  23574182.3424          0.000    23574186.0464   -9242354.61748  -7201828.54145
  23611201.6294          0.000    23611201.6224   -8345233.05949  -6502764.15245
  21047789.1284          0.000    21047788.3794  -22448708.51849 -17492474.76047
  20083010.9744          0.000    20083009.7184  -27878713.21649 -21723645.93147
  24447428.1434          0.000           0.000    -3608289.92648  -2811643.55244
  20626640.1464          0.000    20626640.3324  -21018689.76849 -16378171.85247
  22416991.2914          0.000    22416993.5344  -14198594.81349 -11063825.14046
  4  3  1  0  9  0.0000000  0  8G10G 6G22G18G21G17G26G15
  25104075.2894          0.000           0.000      235293.38347         0.000
  23594433.0824          0.000    23594437.5114   -9135931.83148  -7118901.76345
  23593856.8144          0.000    23593854.9744   -8436379.81349  -6573787.51145
  21037525.8704          0.000    21037525.0914  -22502640.24149 -17534499.45347
  20080587.2414          0.000    20080586.0054  -27891450.50549 -21733571.13747
  24467320.2274          0.000           0.000    -3503775.22948  -2730203.49044
  20633343.2104          0.000    20633343.6214  -20983464.34149 -16350723.40047
  22399061.6294          0.000    22399063.4874  -14292817.32149 -11137245.14046
  4  3  1  0  9 30.0000000  0  8G10G 6G22G18G21G17G26G15
  25123537.0074          0.000           0.000      337567.16747         0.000
  23614714.2004          0.000    23614718.2944   -9029354.76348  -7035854.76345
  23576543.4054          0.000    23576542.1424   -8527361.01449  -6644681.88545
  21027327.7274          0.000    21027326.8424  -22556233.51849 -17576260.43347
  20078254.6464          0.000    20078253.4314  -27903707.51849 -21743122.05447
  24487236.3954          0.000           0.000    -3399116.48648         0.000
  20640170.0114          0.000    20640170.0864  -20947589.26849 -16322768.71947
  22381169.7314          0.000    22381171.5684  -14386841.73049 -11210510.73846
  4  3  1  0 10  0.0000000  0  8G10G 6G22G18G21G17G26G15
  25143003.2134          0.000           0.000      439843.20348         0.000
  23635025.5304          0.000    23635029.6084   -8922618.35148  -6952683.58045
  23559262.8604          0.000    23559263.8084   -8618167.16548  -6715439.85745
  21017194.7284          0.000    21017193.9444  -22609479.18749 -17617750.56147
  20076015.5154          0.000    20076014.0594  -27915474.85049 -21752291.36947
  24507177.4104          0.000           0.000    -3294306.42847         0.000
  20647121.8504          0.000    20647122.1484  -20911057.62949 -16294302.42647
  22363317.8174          0.000    22363319.2044  -14480657.67249 -11283613.94846
  4  3  1  0 10 30.0000000  0  8G10G 6G22G18G21G17G26G15
  25162460.8824          0.000    25162459.6294     542101.66048    422450.53844
  23655363.3184          0.000    23655365.7914   -8815743.57148  -6869404.57345
  23542012.8484          0.000    23542013.4804   -8708816.84349  -6786075.88545
  21007125.1474          0.000    21007124.3514  -22662395.76749 -17658984.25847
  20073865.9774          0.000    20073864.7754  -27926770.63749 -21761093.28447
  24527148.6944          0.000           0.000    -3189365.33947         0.000
  20654194.1624          0.000    20654194.6124  -20873890.37649 -16265340.85247
  22345501.2204          0.000    22345502.9074  -14574282.13949 -11356567.92646
  4  3  1  0 11  0.0000000  0  8G10G 6G22G18G21G17G26G15
  25181915.2404          0.000           0.000      644335.85848         0.000
  23675725.6824          0.000    23675729.1254   -8708739.41548  -6786024.76845
  23524792.1134          0.000    23524790.9564   -8799314.71949  -6856593.64445
  20997117.2034          0.000    20997116.5194  -22714988.62349 -17699965.69747
  20071805.4064          0.000    20071804.4344  -27937599.43849 -21769531.35247
  24547142.4974          0.000           0.000    -3084300.16448         0.000
  20661386.2884          0.000    20661386.7594  -20836095.03649 -16235889.83347
  22327720.0994          0.000    22327722.1294  -14667718.91349 -11429375.68446
  4  3  1  0 11 30.0000000  0  8G10G 6G22G18G21G17G26G15
  25201369.3144          0.000           0.000      746571.44948         0.000
  23696117.8524          0.000    23696120.6754   -8601581.83248  -6702525.41745
  23507605.1794          0.000    23507604.5894   -8889633.45049  -6926971.81845
  20987176.1774          0.000    20987175.5094  -22767230.66449 -17740673.76947
  20069838.7494          0.000    20069837.5994  -27947933.22949 -21777583.67447
  24567164.0874          0.000           0.000    -2979085.52448         0.000
  20668702.6114          0.000    20668703.2454  -20797646.71749 -16205929.99047
  22309979.9644          0.000    22309982.2924  -14760939.76249 -11502015.30946
  4  3  1  0 12  0.0000000  0  8G10G 6G22G18G21G17G26G15
  25220820.4294          0.000           0.000      848789.61948         0.000
  23716534.6694          0.000    23716537.6214   -8494291.57448  -6618922.69845
  23490448.5954          0.000    23490447.8104   -8979790.21649  -6997223.78245
  20977298.1714          0.000    20977297.5184  -22819139.19749 -17781121.96647
  20067963.3504          0.000    20067962.1474  -27957789.57949 -21785263.96147
  24587209.6204          0.000           0.000    -2873740.77348         0.000
  20676139.6184          0.000    20676140.0744  -20758565.52349 -16175476.98747
  22292279.1454          0.000    22292281.4954  -14853960.25549 -11574498.76846
  4  3  1  0 12 30.0000000  0  8G10G 6G22G18G21G17G26G15
  25240270.1494          0.000           0.000      950991.71048         0.000
  23736976.9304          0.000    23736978.7264   -8386869.14748  -6535216.95645
  23473324.6144          0.000    23473322.4224   -9069781.87349  -7067347.10945
  20967484.3834          0.000    20967483.4534  -22870711.55449 -17821308.20347
  20066179.2124          0.000    20066177.8694  -27967164.92649 -21792569.43447
  24607280.1304          0.000           0.000    -2768264.63047         0.000
  20683696.8994          0.000    20683697.2754  -20718850.81449 -16144530.31247
  22274616.9324          0.000    22274619.6504  -14946776.49449 -11646823.13246
  4  3  1  0 13  0.0000000  0  8G10G 6G22G18G21G17G26G15
  25259713.4794          0.000           0.000     1053170.10848    820685.79344
  23757442.7164          0.000    23757444.4304   -8279323.78448  -6451415.43545
  23456229.7794          0.000    23456229.4504   -9159614.14949  -7137346.21746
  20957733.4714          0.000    20957732.5524  -22921953.60249 -17861237.05147
  20064485.6714          0.000    20064484.2954  -27976065.00349 -21799504.56247
  24627376.9664          0.000           0.000    -2662665.13547         0.000
  20691373.4724          0.000    20691373.2334  -20678511.20049 -16113096.69547
  22256992.6664          0.000    22256994.9454  -15039392.39849 -11718991.31246
  4  3  1  0 13 30.0000000  0  8G10G 6G22G18G21G17G26G15
  25279155.4954          0.000           0.000     1155343.06448    900301.07644
  23777934.8004          0.000    23777937.4654   -8171638.49648  -6367504.87145
  23439168.7274          0.000    23439167.8404   -9249267.18249  -7207205.67046
  20948048.8474          0.000    20948048.2354  -22972845.66249 -17900893.17047
  20062886.1934          0.000    20062885.0944  -27984469.48449 -21806053.50947
  24647499.3774          0.000           0.000    -2556924.01147         0.000
  20699171.5984          0.000    20699171.4734  -20637529.49949 -16081162.77347
  22239410.1664          0.000    22239413.1284  -15131787.09749 -11790987.17046
  4  3  1  0 14  0.0000000  0  8G10G 6G22G18G21G17G26G15
  25298593.4344          0.000           0.000     1257490.94848    979896.83444
  23798448.6384          0.000    23798452.6594   -8063834.88448  -6283502.09245
  23422140.2814          0.000    23422139.3644   -9338758.81149  -7276939.34846
  20938427.4234          0.000    20938426.6684  -23023406.03449 -17940290.81947
  20061377.7854          0.000    20061376.4854  -27992396.33249 -21812230.26847
  24667644.9534          0.000           0.000    -2451061.50947         0.000
  20707088.0614          0.000    20707088.2914  -20595926.54249 -16048744.74147
  22221867.0084          0.000    22221869.2594  -15223977.47649 -11862823.80846
  4  3  1  0 14 30.0000000  0  8G10G 6G22G18G21G17G26G15
  25318029.0394          0.000           0.000     1359621.44448   1059479.05844
  23818986.2324          0.000    23818990.0314   -7955907.41748  -6199402.82545
  23405142.7824          0.000    23405142.3144   -9428079.84649  -7346540.07646
  20928870.9144          0.000    20928870.2254  -23073625.71149 -17979422.98947
  20059961.9214          0.000    20059960.7724  -27999836.13849 -21818027.50447
  24687811.3804          0.000           0.000    -2345070.69047         0.000
  20715124.8224          0.000    20715124.7724  -20553695.67249 -16015837.37347
  22204364.4204          0.000    22204366.6674  -15315953.07849 -11934493.16646
  4  3  1  0 15  0.0000000  0  8G10G 6G22G18G21G17G26G15
  25337458.8944          0.000           0.000     1461730.71848   1139044.73944
  23839547.0074          0.000    23839549.3784   -7847861.95948  -6115211.61445
  23388176.1764          0.000    23388176.0994   -9517232.27249  -7416009.42146
  20919378.6984          0.000    20919377.9754  -23123507.41049 -18018291.81547
  20058638.5224          0.000    20058637.3324  -28006790.94649 -21823446.83647
  24708005.6004          0.000           0.000    -2238955.47648         0.000
  20723279.4604          0.000    20723279.5484  -20510841.88249 -15982444.62947
  22186903.2544          0.000    22186905.5574  -15407714.28949 -12005995.38446
  4  3  1  0 15 30.0000000  0  8G10G 6G22G18G21G17G26G15
  25356888.3174          0.000           0.000     1563825.59948         0.000
  23860130.7424          0.000    23860133.8534   -7739693.86148  -6030924.82245
  23371245.5394          0.000    23371244.3974   -9606207.62549  -7485340.77346
  20909952.3854          0.000    20909951.6814  -23173042.51549 -18056890.58747
  20057409.2824          0.000    20057407.9594  -28013252.08949 -21828481.51047
  24728222.2824          0.000           0.000    -2132709.47948         0.000
  20731553.4004          0.000    20731553.5444  -20467359.54649 -15948562.12247
  22169483.9474          0.000    22169486.4964  -15499251.66549 -12077323.23446
  4  3  1  0 16  0.0000000  0  8G10G 6G22G18G21G17G26G15
  25376311.8854          0.000           0.000     1665889.50548         0.000
  23880734.8894          0.000    23880736.1224   -7631421.19048  -5946556.55945
  23354345.0264          0.000    23354344.1924   -9695020.84949  -7554545.79946
  20900589.5444          0.000    20900588.7024  -23222246.68049 -18095231.48947
  20056270.5824          0.000    20056269.4394  -28019234.53549 -21833143.18647
  24748461.4804          0.000           0.000    -2026349.72947         0.000
  20739943.6544          0.000    20739943.7944  -20423266.16249 -15914203.33747
  22152105.2174          0.000    22152107.1364  -15590578.91949 -12148487.30446
  4  3  1  0 16 30.0000000  0  6G 6G22G18G21G26G15
  23901361.3314          0.000    23901363.1114   -7523024.17948  -5862091.38845
  23337478.7674          0.000    23337478.0724   -9783649.31449  -7623606.85746
  20891293.0934          0.000    20891292.4924  -23271097.04749 -18133296.71847
  20055227.6264          0.000    20055226.4004  -28024715.19249 -21837413.85347
  20748454.0444          0.000    20748454.2924  -20378542.05249 -15879353.11147
  22134771.0624          0.000    22134773.8904  -15681671.99549 -12219468.86146
  4  3  1  0 17  0.0000000  0  8G 9G 6G22G18G21G 3G26G15
  24794146.0294          0.000           0.000          -0.08958         0.000
  23922010.9174          0.000    23922012.6784   -7414513.45948  -5777537.63245
  23320647.6584          0.000    23320647.1624   -9872100.15249  -7692529.50246
  20882062.9044          0.000    20882062.5424  -23319601.40749 -18171092.32947
  20054279.0604          0.000    20054277.8724  -28029701.15249 -21841299.01447
  23604566.9674          0.000    23604569.2534          0.01358        -0.38155
  20757082.8214          0.000    20757082.8694  -20333197.45249 -15844019.51647
  22117480.0144          0.000    22117481.5364  -15772536.46749 -12290272.18046
  4  3  1  0 17 30.0000000  0  8G 9G 6G22G18G21G 3G26G15
  24773539.2784          0.000           0.000     -108289.29348         0.000
  23942676.8794          0.000    23942680.0364   -7305911.71048  -5692912.93445
  23303846.8244          0.000    23303845.3894   -9960392.70249  -7761328.80446
  20872895.2114          0.000    20872894.7594  -23367779.57049 -18208633.75847
  20053420.6064          0.000    20053419.4514  -28034211.52449 -21844813.59447
  23592694.8874          0.000    23592695.9044     -62383.30448    -48610.89345
  20765825.7714          0.000    20765825.4444  -20287254.67149 -15808219.91547
  22100228.9894          0.000    22100230.4304  -15863191.27049 -12360912.35546
  4  3  1  0 18  0.0000000  0  8G 9G 6G22G18G21G 3G26G15
  24752938.6704          0.000           0.000     -216537.09248         0.000
  23963362.7354          0.000    23963365.8394   -7197202.64448  -5608204.59245
  23287078.9384          0.000    23287078.1754  -10048506.21449  -7829988.61546
  20863793.4824          0.000    20863792.6554  -23415610.73549 -18245904.79647
  20052656.8024          0.000    20052655.5144  -28038225.85849 -21847941.64147
  23580913.1474          0.000    23580914.9124    -124291.24348    -96851.10045
  20774685.4804          0.000    20774685.1674  -20240695.53249 -15771939.95047
  22083022.0464          0.000    22083023.7464  -15953613.92949 -12431371.66246
  4  3  1  0 18 30.0000000  0  8G 9G 6G22G18G21G 3G26G15
  24732347.6584          0.000           0.000     -324743.11948   -253045.98944
  23984068.2914          0.000    23984070.8984   -7088391.67348  -5523416.84445
  23270344.7974          0.000    23270344.3984  -10136442.85049  -7898510.57846
  20854756.9174          0.000    20854755.9064  -23463097.51949 -18282907.46847
  20051987.0364          0.000    20051985.6454  -28041745.90849 -21850684.53247
  23569223.4974          0.000    23569227.3674    -185722.56448   -144719.34745
  20783661.5264          0.000    20783661.1584  -20193525.33549 -15735183.78547
  22065859.4184          0.000    22065861.8414  -16043805.48849 -12501650.87646
  4  3  1  0 19  0.0000000  0  8G 9G 6G22G18G21G 3G26G15
  24711766.1674          0.000           0.000     -432904.17248         0.000
  24004793.7284          0.000    24004796.1374   -6979481.17248  -5438551.53445
  23253644.1584          0.000    23253643.8304  -10224201.67249  -7966894.00546
  20845785.6664          0.000    20845785.0674  -23510239.35749 -18319641.36147
  20051411.5054          0.000    20051410.1044  -28044770.68749 -21853041.47947
  23557625.6594          0.000    23557628.9444    -246676.37249   -192215.44445
  20792753.3674          0.000    20792753.3194  -20145745.92849 -15697952.90847
  22048740.4014          0.000    22048743.2434  -16133763.52549 -12571748.14946
  4  3  1  0 19 30.0000000  0  8G 9G 6G22G18G21G 3G26G15
  24691190.0644          0.000           0.000     -541019.95647         0.000
  24025537.8214          0.000    24025540.6294   -6870476.86448  -5353613.13545
  23236977.5274          0.000    23236977.5484  -10311785.01549  -8035140.71346
  20836880.2954          0.000    20836879.7614  -23557038.86549 -18356108.52847
  20050929.4924          0.000    20050928.2184  -28047303.03549 -21855014.71647
  23546116.7974          0.000    23546118.3604    -307154.90049   -239341.54345
  20801960.5484          0.000    20801960.2924  -20097363.25249 -15660252.13047
  22031666.2214          0.000    22031668.8624  -16223488.99649 -12641664.14746
  4  3  1  0 20  0.0000000  0  8G 9G 6G22G18G21G 3G26G15
  24670632.0234          0.000           0.000     -649069.37148         0.000
  24046301.7934          0.000    24046304.1354   -6761363.68848  -5268589.91545
  23220346.9914          0.000    23220347.2494  -10399174.20949  -8103236.13746
  20828043.3114          0.000    20828042.5034  -23603477.95649 -18392294.86147
  20050544.8454          0.000    20050543.6724  -28049323.84949 -21856589.37247
  23534701.9454          0.000    23534703.1204    -367137.13548   -286080.91945
  20811285.1664          0.000    20811284.9774  -20048361.20449 -15622068.77547
  22014640.6394          0.000    22014642.6274  -16312961.99449 -12711383.31646
  4  3  1  0 20 30.0000000  0  8G 9G 6G22G18G21G 3G26G15
  24650073.0604          0.000           0.000     -757092.66747   -589941.62244
  24067076.1154          0.000    24067080.0064   -6652187.82948  -5183517.81745
  23203746.4074          0.000    23203746.0804  -10486412.04749  -8171213.61146
  20819266.9834          0.000    20819266.1034  -23649599.24649 -18428233.54647
  20050249.4834          0.000    20050248.1384  -28050875.83649 -21857798.71147
  23523373.9754          0.000    23523376.0724    -426665.23148   -332466.50445
  20820719.0944          0.000    20820718.7024  -19998785.07149 -15583437.92647
  21997654.1734          0.000    21997656.7154  -16402224.06349 -12780938.14546
  4  3  1  0 21  0.0000000  0  8G 9G 6G22G18G21G 3G26G15
  24629529.1764          0.000           0.000     -865050.49348   -674064.57644
  24087869.2774          0.000    24087873.5144   -6542915.34548  -5098370.45245
  23187182.8044          0.000    23187181.0104  -10573461.49549  -8239044.30946
  20810557.5864          0.000    20810556.8134  -23695366.19749 -18463896.10247
  20050050.7034          0.000    20050049.2794  -28051921.91949 -21858613.81847
  23512140.4434          0.000    23512143.7294    -485700.31248   -378467.73645
  20830268.6144          0.000    20830268.2384  -19948601.13549 -15544333.39947
  21980715.6784          0.000    21980717.8414  -16491236.87449 -12850298.74146
  4  3  1  0 21 30.0000000  0  8G 9G 6G22G18G21G 3G26G15
  24609001.7124          0.000    24609005.1614    -972933.68448   -758129.39544
  24108682.0804          0.000    24108685.6154   -6433543.75348  -5013145.83345
  23170655.1034          0.000    23170653.3324  -10660315.98549  -8306723.08046
  20801917.1554          0.000    20801916.1924  -23740772.77349 -18499277.87447
  20049948.7484          0.000    20049947.7054  -28052455.63449 -21859029.67847
  23501000.5954          0.000    23501004.3304    -544234.64348   -424078.66045
  20839934.5934          0.000    20839934.1354  -19897806.09049 -15504752.69147
  21963825.8484          0.000    21963828.7464  -16579992.29149 -12919458.71946
  4  3  1  0 22  0.0000000  0  8G 9G 6G22G18G21G 3G26G15
  24588484.6974          0.000    24588490.4394   -1080754.87748   -842145.88944
  24129510.2024          0.000    24129513.7214   -6324091.45748  -4927858.35645
  23154161.2354          0.000    23154160.5644  -10746990.55349  -8374261.65746
  20793342.2504          0.000    20793341.5574  -23785834.12949 -18534390.64547
  20049941.9384          0.000    20049940.6164  -28052492.11349 -21859058.08947
  23489953.6524          0.000    23489956.6964    -602282.55848   -469310.64945
  20849713.4724          0.000    20849713.0014  -19846417.72449 -15464709.64147
  21946982.7284          0.000    21946985.4874  -16668503.99949 -12988428.73346
  4  3  1  0 22 30.0000000  0  8G 9G 6G22G18G21G 3G26G15
  24567976.8184          0.000    24567974.3684   -1188521.79848   -926120.01544
  24150350.0254          0.000    24150353.5314   -6214572.00148  -4842518.54845
  23137699.4044          0.000    23137699.4344  -10833495.31249  -8441667.92746
  20784831.1214          0.000    20784830.3024  -23830561.06649 -18569242.80247
  20050027.6794          0.000    20050026.3794  -28052041.53849 -21858706.96947
  23478999.3904          0.000    23479001.8464    -659853.70648   -514171.25445
  20859602.3584          0.000    20859602.2334  -19794449.68049 -15424214.91147
  21930184.3424          0.000    21930186.4984  -16756781.01249 -13057215.80546
  4  3  1  0 23  0.0000000  0  8G 9G 6G22G18G21G 3G26G15
  24547486.5604          0.000    24547485.4924   -1296203.31648  -1010027.64244
  24171208.4834          0.000    24171215.4704   -6104960.08348  -4757106.71145
  23121274.9084          0.000    23121275.0014  -10919801.67049  -8508919.61746
  20776388.9694          0.000    20776387.9574  -23874925.40549 -18603812.41647
  20050211.4494          0.000    20050210.3444  -28051075.42749 -21857954.13847
  23468140.2864          0.000    23468143.1324    -716917.46248   -558636.36945
  20869606.6484          0.000    20869606.5634  -19741876.47749 -15383248.70247
  21913436.0924          0.000    21913437.8254  -16844793.66149 -13125796.94946
  4  3  1  0 23 30.0000000  0  8G 9G 6G22G18G21G 3G26G15
  24527005.3774          0.000    24527006.3844   -1403814.38248  -1093880.38044
  24192080.8774          0.000    24192085.7084   -5995276.40348  -4671638.95944
  23104886.8364          0.000    23104886.1584  -11005927.39849  -8576030.54746
  20768012.5004          0.000    20768011.3464  -23918944.67949 -18638113.15247
  20050490.0004          0.000    20050488.7484  -28049611.30049 -21856813.24147
  23457374.0234          0.000    23457378.3244    -773490.63348   -602719.25445
  20879722.3234          0.000    20879721.7964  -19688718.61349 -15341826.94347
  21896734.7784          0.000    21896736.4644  -16932557.83549 -13194184.54646
  4  3  1  0 24  0.0000000  0  8G 9G 6G22G18G21G 3G26G15
  24506541.8654          0.000    24506544.9394   -1511363.63648  -1177684.90744
  24212963.9304          0.000    24212966.2484   -5885536.19948  -4586127.15444
  23088530.1174          0.000    23088528.8284  -11091883.32449  -8643009.17246
  20759699.3104          0.000    20759698.6044  -23962630.14749 -18672153.76547
  20050861.5014          0.000    20050860.2544  -28047660.17249 -21855292.86247
  23446700.9444          0.000    23446703.9104    -829582.88048   -646427.30545
  20889946.4314          0.000    20889945.7684  -19634990.22449 -15299960.63047
  21880079.2744          0.000    21880081.8174  -17020083.23949 -13262386.11646
  4  3  1  0 24 30.0000000  0  8G 9G 6G22G18G21G 3G26G15
  24486089.3714          0.000           0.000    -1618831.61048  -1261426.03844
  24233860.6254          0.000    24233861.8084   -5775725.43148  -4500560.33444
  23072208.4344          0.000    23072206.4014  -11177652.54249  -8709842.30846
  20751452.2524          0.000    20751451.8444  -24005965.76649 -18705921.76847
  20051328.6504          0.000    20051327.4244  -28045205.17649 -21853379.86047
  23436121.6784          0.000    23436124.1994    -885176.57549   -689746.85345
  20900281.9994          0.000    20900280.8784  -19580677.53449 -15257639.01047
  21863472.3834          0.000    21863474.6094  -17107351.71249 -13330387.49146
  4  3  1  0 25  0.0000000  0  8G 9G 6G22G18G21G 3G26G15
  24465657.0614          0.000           0.000    -1726202.69448         0.000
  24254773.1074          0.000    24254776.0284   -5665834.95948  -4414931.43444
  23055925.5034          0.000    23055923.5244  -11263222.33649  -8776520.05746
  20743274.6614          0.000    20743274.1684  -24048938.84349 -18739407.28447
  20051893.9414          0.000    20051892.7194  -28042233.72649 -21851064.43747
  23425639.9944          0.000    23425642.0614    -940257.62849   -732666.88645
  20910730.2284          0.000    20910729.4534  -19525770.81849 -15214854.51747
  21846916.8544          0.000    21846919.2714  -17194349.10049 -13398177.69746
  4  3  1  0 25 30.0000000  0  8G 9G 6G22G18G21G 3G26G15
  24445241.5434          0.000    24445239.9974   -1833503.86848  -1428702.97044
  24275692.7814          0.000    24275699.5904   -5555897.80948  -4329266.16044
  23039674.3264          0.000    23039673.2014  -11348622.00149  -8843065.22446
  20735160.7274          0.000    20735160.1034  -24091578.96849 -18772633.33647
  20052552.2604          0.000    20052550.8444  -28038775.18849 -21848369.46447
  23415249.8204          0.000    23415253.1064    -994854.75649   -775209.90245
  20921285.5374          0.000    20921284.8754  -19470302.75049 -15171632.68847
  21830408.1634          0.000    21830410.1154  -17281103.24649 -13465778.31646
  4  3  1  0 26  0.0000000  0  8G 9G 6G22G18G21G 3G26G15
  24424843.0584          0.000    24424842.3084   -1940699.32148  -1512231.80044
  24296627.4584          0.000    24296631.6304   -5445883.41448  -4243540.69744
  23023462.1234          0.000    23023461.0214  -11433818.17349  -8909451.82146
  20727116.1184          0.000    20727115.4154  -24133853.41049 -18805574.43747
  20053309.3154          0.000    20053308.0924  -28034796.10449 -21845268.87247
  23404958.6344          0.000    23404961.6214   -1048933.28249   -817348.83546
  20931953.3824          0.000    20931952.7504  -19414243.01049 -15127949.82347
  21813952.9094          0.000    21813954.4104  -17367579.59449 -13533162.47546
  4  3  1  0 26 30.0000000  0  8G 9G 6G22G18G21G 3G26G15
  24404459.8214          0.000    24404463.5204   -2047801.01148  -1595687.55244
  24317573.9114          0.000    24317576.5454   -5335809.81348  -4157769.14044
  23007284.9284          0.000    23007284.0374  -11518825.40449  -8975691.20046
  20719138.3874          0.000    20719137.5844  -24175777.04549 -18838242.18047
  20054162.8794          0.000    20054161.3914  -28030311.59749 -21841774.43547
  23394764.6024          0.000    23394766.4474   -1102507.17249   -859094.55846
  20942730.2924          0.000    20942729.4824  -19357609.41349 -15083819.78547
  21797547.2104          0.000    21797549.1934  -17453790.92349 -13600340.13846
  4  3  1  0 27  0.0000000  0  8G 9G 6G22G18G21G 3G26G15
  24384096.2344          0.000    24384099.5614   -2154813.78648  -1679074.01644
  24338529.2314          0.000    24338536.6174   -5225688.25248  -4071960.14844
  22991143.5404          0.000    22991141.8104  -11603650.95849  -9041788.98946
  20711225.8744          0.000    20711225.3264  -24217357.17149 -18870642.27947
  20055110.9414          0.000    20055109.6394  -28025328.77549 -21837891.71547
  23384664.4844          0.000    23384667.9974   -1155582.62349   -900451.92946
  20953614.4884          0.000    20953613.6624  -19300412.49049 -15039250.76547
  21781190.6954          0.000    21781193.2104  -17539743.21149 -13667315.92446
  4  3  1  0 27 30.0000000  0  8G 9G 6G22G18G21G 3G26G15
  24363751.4234          0.000    24363755.9144   -2261730.05948  -1762385.31844
  24359494.7884          0.000    24359498.1274   -5115516.96148  -3986112.40944
  22975037.5344          0.000    22975035.6004  -11688290.19349  -9107741.61346
  20703379.6114          0.000    20703379.1514  -24258589.96349 -18902771.75547
  20056154.7994          0.000    20056153.6944  -28019842.91949 -21833617.01347
  23374658.2474          0.000    23374661.9144   -1208153.21048   -941415.82545
  20964606.6244          0.000    20964605.4524  -19242650.51549 -14994241.44547
  21764885.0614          0.000    21764887.6754  -17625430.24049 -13734084.99846
  4  3  1  0 28  0.0000000  0  8G 9G 6G22G18G21G 3G26G15
  24343425.1074          0.000    24343428.5634   -2368542.69348  -1845615.88744
  24380469.5314          0.000    24380469.5394   -5005294.95348  -3900225.18944
  22958967.5554          0.000    22958965.7504  -11772738.48249  -9173545.44046
  20695600.0574          0.000    20695599.4624  -24299470.89749 -18934627.02747
  20057295.4574          0.000    20057293.9764  -28013849.81249 -21828947.05047
  23364752.6614          0.000    23364755.8994   -1260213.81048   -981982.30545
  20975705.9964          0.000    20975705.1774  -19184322.15649 -14948790.76447
  21748630.9414          0.000    21748633.6564  -17710846.32649 -13800642.93746
  4  3  1  0 28 30.0000000  0  8G 9G 6G22G18G21G 3G26G15
  24323120.0494          0.000    24323117.4924   -2475244.34248  -1928759.90844
  24401454.6424          0.000    24401455.7004   -4895020.82348  -3814297.31344
  22942934.6334          0.000    22942933.3644  -11856990.73949  -9239196.51746
  20687888.6814          0.000    20687888.0874  -24339995.17249 -18966204.32047
  20058533.1194          0.000    20058531.5684  -28007344.92749 -21823878.29847
  23354944.4244          0.000    23354946.5664   -1311759.12849  -1022147.41945
  20986913.8554          0.000    20986912.6514  -19125426.02149 -14902897.68747
  21732429.7044          0.000    21732431.8424  -17795985.08249 -13866984.76746
  4  3  1  0 29  0.0000000  0  8G 9G 6G22G18G21G 3G26G15
  24302836.6174          0.000    24302838.0724   -2581839.12148  -2011820.66844
  24422445.5964          0.000    24422446.6574   -4784704.73948  -3728336.75544
  22926936.9944          0.000    22926936.6794  -11941053.89049  -9304700.22846
  20680243.5374          0.000    20680242.9484  -24380170.19749 -18997509.46847
  20059866.8984          0.000    20059865.8414  -28000334.59349 -21818415.69147
  23345232.8074          0.000    23345234.5204   -1362794.42349  -1061915.13445
  20998227.4294          0.000    20998226.7434  -19065971.73549 -14856569.67747
  21716280.3214          0.000    21716282.4084  -17880851.70049 -13933114.53146
  4  3  1  0 29 30.0000000  0  8G 9G 6G22G18G21G 3G26G15
  24282569.1194          0.000    24282572.9544   -2688337.39848  -2094806.25344
  24443444.0174          0.000    24443445.2494   -4674362.12248  -3642355.47944
  22910974.0284          0.000    22910973.6234  -12024940.96249  -9370066.72746
  20672662.5354          0.000    20672661.6664  -24420009.24649 -19028552.85847
  20061294.9424          0.000    20061293.4874  -27992832.30149 -21812569.74247
  23335615.2284          0.000    23335617.8324   -1413331.76648  -1101294.81745
  21009643.8054          0.000    21009643.7134  -19005975.74349 -14809819.53547
  21700180.0924          0.000    21700182.1184  -17965457.57249 -13999041.11446
  4  3  1  0 30  0.0000000  0  8G 9G 6G22G18G21G 3G26G15
  24262331.0894          0.000    24262335.0414   -2794699.35148  -2177685.59345
  24464453.6124          0.000    24464456.9314   -4563960.13248  -3556327.94244
  22895051.5494          0.000    22895051.1364  -12108614.78849  -9435267.04846
  20665152.1764          0.000    20665151.7264  -24459475.51249 -19059305.78147
  20062822.9454          0.000    20062821.4684  -27984801.17249 -21806311.71747
  23326100.6254          0.000    23326102.9864   -1463333.47549  -1140257.16245
  21021170.2364          0.000    21021169.7854  -18945404.37149 -14762621.08047
  21684136.6064          0.000    21684138.7044  -18049764.48249 -14064734.75346
  4  3  1  0 30 30.0000000  0  8G 9G 6G22G18G21G 3G26G15
  24242115.8914          0.000    24242117.8214   -2900922.96148  -2260457.13344
  24485472.3814          0.000    24485475.9554   -4453502.70848  -3470257.26644
  22879169.2674          0.000    22879168.9104  -12192075.81549  -9500301.56546
  20657712.5344          0.000    20657711.8474  -24498570.06749 -19089769.06147
  20064451.7244          0.000    20064450.4494  -27976242.06149 -21799642.27647
  23316687.7364          0.000    23316689.7634   -1512799.07149  -1178801.74845
  21032806.0434          0.000    21032805.2974  -18884261.10749 -14714976.98447
  21668151.0334          0.000    21668153.0764  -18133771.39849 -14130194.62346
  4  3  1  0 31  0.0000000  0  8G 9G 6G22G18G21G 3G26G15
  24221918.5144          0.000    24221923.0614   -3007053.01348  -2343155.74344
  24506491.3564          0.000           0.000    -4343040.40648  -3384182.72344
  22863318.5534          0.000    22863318.0554  -12275371.55649  -9565207.27946
  20650334.8474          0.000    20650334.1454  -24537340.85149 -19119980.02447
  20066171.9914          0.000    20066170.5174  -27967202.39749 -21792598.37747
  23307367.5044          0.000    23307370.4034   -1561774.88849  -1216964.71145
  21044539.6544          0.000    21044538.7254  -18822596.98249 -14666926.99747
  21652213.0954          0.000    21652215.3804  -18217524.29449 -14195456.55447
  4  3  1  0 31 30.0000000  0  8G 9G 6G22G18G21G 3G26G15
  24201747.7584          0.000    24201750.2844   -3113055.81348  -2425755.21445
  24527517.7644          0.000           0.000    -4232545.57748         0.000
  22847505.7884          0.000    22847504.6554  -12358471.03849  -9629960.05346
  20643024.8784          0.000    20643024.0234  -24575757.08249 -19149914.69947
  20067989.2224          0.000    20067987.8754  -27957651.48949 -21785156.09847
  23298147.1934          0.000    23298149.4614   -1610229.18949  -1254721.31945
  21056378.5244          0.000    21056377.6874  -18760384.02949 -14618449.31547
  21636330.3354          0.000    21636332.4084  -18300990.65149 -14260495.22147
  4  3  1  0 32  0.0000000  0  8G 9G 6G22G18G21G 3G26G15
  24181602.2334          0.000    24181603.9194   -3218926.79748  -2508251.99945
  24548548.6524          0.000           0.000    -4122019.41948         0.000
  22831730.2594          0.000    22831728.7724  -12441372.32749  -9694558.38646
  20635781.9424          0.000    20635781.1804  -24613817.53449 -19179572.16647
  20069904.4774          0.000    20069902.9674  -27947588.14849 -21777314.52647
  23289026.2164          0.000    23289028.6244   -1658159.11449  -1292069.27646
  21068321.5224          0.000    21068320.4974  -18697623.90449 -14569545.28447
  21620502.2134          0.000    21620504.2034  -18384167.20849 -14325308.08347
  4  3  1  0 32 30.0000000  0  8G 9G 6G22G18G21G 3G26G15
  24161484.5784          0.000    24161487.6614   -3324641.37048  -2590626.90645
  24569592.3184          0.000           0.000    -4011443.82048  -3125795.91544
  22815996.7024          0.000    22815995.9214  -12524053.38449  -9758985.11346
  20628611.1104          0.000    20628610.4734  -24651500.28949 -19208935.32047
  20071921.2714          0.000    20071919.9534  -27936989.70249 -21769055.98947
  23280009.5094          0.000    23280011.1794   -1705542.10449  -1328991.08545
  21080372.0834          0.000    21080371.1244  -18634297.91849 -14520200.33747
  21604733.7964          0.000    21604735.6404  -18467030.48949 -14389876.84647
  4  3  1  0 33  0.0000000  0  8G 9G 6G22G18G21G 3G26G15
  24141393.2314          0.000    24141395.1944   -3430220.13348  -2672895.98245
  24590640.3704          0.000           0.000    -3900845.03448  -3039615.08344
  22800299.7244          0.000    22800299.9794  -12606537.42649  -9823258.22946
  20621507.8574          0.000    20621506.9304  -24688829.04449 -19238022.65447
  20074035.4004          0.000    20074034.0664  -27925880.03549 -21760399.10047
  23271092.6434          0.000    23271094.0044   -1752400.11249  -1365503.82745
  21092525.0834          0.000    21092523.7804  -18570432.45949 -14470434.95947
  21589020.8904          0.000    21589023.0544  -18549602.07749 -14454218.33747
  4  3  1  0 33 30.0000000  0  8G 9G 6G22G18G21G 3G26G15
  24121326.6384          0.000    24121328.1664   -3535671.83648  -2755066.03545
  24611689.2694          0.000           0.000    -3790238.18348         0.000
  22784638.9074          0.000    22784638.5364  -12688835.98949  -9887387.06346
  20614469.5334          0.000    20614468.6634  -24725815.30349 -19266843.11147
  20076244.5064          0.000    20076243.0764  -27914271.04149 -21751353.12547
  23262273.6934          0.000    23262275.7254   -1798744.18749  -1401616.10245
  21104777.8434          0.000    21104776.9434  -18506042.57349 -14420260.94347
  21573361.3374          0.000    21573363.6574  -18631891.97549 -14518340.30747
  4  3  1  0 34  0.0000000  0  8G 9G 6G22G18G21G 3G26G15
  24101287.2674          0.000    24101289.6554   -3640981.86148  -2837125.71345
  24632738.3784          0.000           0.000    -3679614.17248         0.000
  22769015.3284          0.000    22769014.7334  -12770937.05649  -9951361.80846
  20607498.4534          0.000    20607497.5534  -24762447.66449 -19295387.78647
  20078550.9064          0.000    20078549.3524  -27902151.05349 -21741908.97747
  23253554.6094          0.000    23253556.7234   -1844561.56849  -1437317.96846
  21117132.2804          0.000    21117131.4524  -18441119.51349 -14369671.47147
  21557758.1664          0.000    21557760.1884  -18713886.96049 -14582232.48147
  4  3  1  0 34 30.0000000  0  8G 9G 6G22G18G21G 3G26G15
  24081276.0644          0.000    24081277.7714   -3746144.67448  -2919070.69645
  24653793.4474          0.000           0.000    -3568973.83148         0.000
  22753430.8254          0.000    22753428.8044  -12852837.59749 -10015180.32046
  20600595.2164          0.000    20600594.5544  -24798723.63249 -19323654.74247
  20080954.7854          0.000    20080953.3544  -27889517.34249 -21732064.52047
  23244936.6314          0.000    23244939.6944   -1889848.27149  -1472606.28246
  21129587.9824          0.000    21129587.1454  -18375663.74749 -14318666.87747
  21542211.8634          0.000    21542213.3504  -18795582.14749 -14645891.03047
  4  3  1  0 35  0.0000000  0  8G 9G 6G22G18G21G 3G26G15
  24061291.3664          0.000    24061294.5694   -3851159.16948  -3000900.06345
  24674849.7324          0.000           0.000    -3458321.60448         0.000
  22737883.2404          0.000    22737881.7424  -12934539.24649 -10078843.86046
  20593759.6624          0.000    20593758.8244  -24834645.44549 -19351645.72447
  20083456.3064          0.000    20083455.1774  -27876371.69149 -21721821.15447
  23236419.8954          0.000    23236422.3154   -1934605.44149  -1507481.99246
  21142144.2564          0.000    21142143.3904  -18309680.20249 -14267250.98547
  21526722.9234          0.000    21526724.8464  -18876978.04349 -14709316.37547
  4  3  1  0 35 30.0000000  0  8G 9G 6G22G18G21G 3G26G15
  24041337.7564          0.000    24041341.0154   -3956015.80248  -3082606.49045
  24695906.7194          0.000           0.000    -3347654.84347         0.000
  22722375.3904          0.000    22722373.5654  -13016035.28849 -10142347.18946
  20586992.3744          0.000    20586991.6344  -24870206.69549 -19379355.76647
  20086056.5744          0.000    20086055.4174  -27862707.87149 -21711174.01647
  23228005.1284          0.000    23228007.0024   -1978825.53949  -1541939.15046
  21154801.7354          0.000    21154800.3804  -18243165.65049 -14215421.32247
  21511292.3174          0.000    21511294.2764  -18958066.32249 -14772502.00347
  4  3  1  0 36  0.0000000  0  8G 9G 6G22G18G21G 3G26G15
  24021415.1334          0.000    24021417.0954   -4060708.44648  -3164185.12845
  24716970.5564          0.000           0.000    -3236972.89247         0.000
  22706906.3894          0.000    22706904.9994  -13097322.53049 -10205687.83246
  20580294.6314          0.000    20580293.8214  -24905404.27349 -19406782.43347
  20088755.8834          0.000    20088754.4874  -27848522.65949 -21700120.59947
  23219693.9124          0.000    23219695.9294   -2022504.21749  -1575974.41246
  21167559.8824          0.000    21167558.7724  -18176120.19849 -14163177.99247
  21495920.8444          0.000    21495923.3124  -19038841.96449 -14835443.99847
  4  3  1  0 36 30.0000000  0  8G 9G 6G22G18G21G 3G26G15
  24001520.7204          0.000    24001523.2424   -4165253.40748  -3245648.69544
  24738031.9324          0.000           0.000    -3126297.91047         0.000
  22691474.7644          0.000    22691472.9804  -13178419.55549 -10268880.24846
  20573662.4654          0.000    20573661.1794  -24940257.51449 -19433940.78347
  20091550.7334          0.000    20091549.2314  -27833835.51149 -21688676.06547
  23211481.1334          0.000    23211483.8984   -2065659.50649  -1609601.78546
  21180414.5264          0.000    21180413.2214  -18108565.73549 -14110537.98647
  21480606.1754          0.000    21480608.5414  -19119322.40649 -14898155.97547
  4  3  1  0 37  0.0000000  0  8G 9G 6G22G18G21G 3G26G15
  23981658.8524          0.000    23981659.6384   -4269629.39848  -3326980.60344
  24759091.9544          0.000           0.000    -3015614.92447         0.000
  22676081.9574          0.000    22676080.3744  -13259307.96949 -10331910.10846
  20567098.8664          0.000    20567097.8104  -24974748.41349 -19460816.80747
  20094444.5914          0.000    20094443.1344  -27818628.60249 -21676826.52047
  23203371.9104          0.000    23203374.0584   -2108272.97849  -1642806.97145
  21193369.4804          0.000    21193368.3424  -18040487.46549 -14057489.80047
  21465351.4514          0.000    21465353.4324  -19199487.81649 -14960622.44447
  4  3  1  0 37 30.0000000  0  8G 9G 6G22G18G21G 3G26G15
  23961829.6814          0.000    23961831.4344   -4373830.88248  -3408176.52844
  24780156.3354          0.000           0.000    -2904924.08047         0.000
  22660729.9394          0.000    22660727.5364  -13339984.94049 -10394775.20746
  20560604.9104          0.000    20560604.0224  -25008874.27449 -19487408.37847
  20097437.7564          0.000    20097436.4614  -27802898.86049 -21664569.57047
  23195367.1574          0.000    23195368.4174   -2150340.78649  -1675586.96645
  21206423.6684          0.000    21206422.8054  -17971886.06749 -14004034.00147
  21450157.0064          0.000    21450158.9194  -19279333.58749 -15022839.78947
  4  3  1  0 38  0.0000000  0  8G 9G 6G22G18G21G 3G26G15
  23942033.3664          0.000    23942035.3854   -4477865.88248  -3489242.74145
  24801219.2064          0.000           0.000    -2794239.45747         0.000
  22645415.5294          0.000    22645414.3474  -13420461.09549 -10457483.83146
  20554178.0874          0.000    20554177.3584  -25042646.41249 -19513724.33547
  20100528.2714          0.000    20100527.0504  -27786657.60749 -21651914.03947
  23187463.6224          0.000    23187465.2144   -2191873.01249  -1707949.68046
  21219575.2454          0.000    21219573.8344  -17902775.73849 -13950181.68847
  21435021.7794          0.000    21435023.9064  -19358869.01749 -15084815.31647
  4  3  1  0 38 30.0000000  0  8G 9G 6G22G18G21G 3G26G15
  23922267.5374          0.000    23922270.3884   -4581735.18148  -3570179.82645
  24822279.9744          0.000           0.000    -2683567.77847         0.000
  22630138.6784          0.000    22630136.9614  -13500740.06049 -10520038.81246
  20547818.1074          0.000    20547817.4904  -25076068.66049 -19539767.66947
  20103715.4884          0.000    20103714.2974  -27769908.92549 -21638863.10547
  23179660.7714          0.000    23179663.7504   -2232872.50149  -1739897.30746
  21232821.5464          0.000    21232820.2374  -17833163.41749 -13895938.23647
  21419945.5874          0.000    21419947.6324  -19438096.09749 -15146550.55947
  4  3  1  0 39  0.0000000  0  8G 9G 6G22G18G21G 3G26G15
  23902535.2204          0.000    23902538.3634   -4685423.14948  -3650975.59945
  24843341.4024          0.000           0.000    -2572900.01548         0.000
  22614901.3654          0.000    22614900.3884  -13580809.06849 -10582430.19046
  20541527.1024          0.000    20541526.4084  -25109128.59349 -19565528.68147
  20107001.6764          0.000    20107000.1664  -27752640.49149 -21625407.16947
  23171962.8174          0.000    23171965.3834   -2273326.10249  -1771419.68946
  21246165.7944          0.000    21246164.2334  -17763039.72049 -13841296.29647
  21404930.2914          0.000    21404932.3764  -19517000.12549 -15208033.93747
  4  3  1  0 39 30.0000000  0  8G 9G 6G22G18G21G 3G26G15
  23882838.9034          0.000    23882840.0974   -4788927.85448  -3731628.58744
  24864397.8554          0.000           0.000    -2462239.22347         0.000
  22599704.2094          0.000    22599703.0714  -13660668.54449 -10644658.28646
  20535304.8274          0.000    20535303.9044  -25141827.63249 -19591008.47047
  20110386.4584          0.000    20110385.0744  -27734853.18649 -21611546.92147
  23164369.4474          0.000    23164371.4094   -2313233.50349  -1802516.46946
  21259606.1994          0.000    21259605.0624  -17692408.61349 -13786258.98647
  21389976.6244          0.000    21389978.3694  -19595580.22349 -15269264.80147
  4  3  1  0 40  0.0000000  0  8G 9G 6G22G18G21G 3G26G15
  23863179.0864          0.000    23863182.4104   -4892244.48948  -3812135.00645
  24885452.7744          0.000           0.000    -2351587.50447         0.000
  22584547.8604          0.000    22584546.3774  -13740316.33849 -10706721.44446
  20529151.6264          0.000    20529150.8464  -25174163.68849 -19616205.39247
  20113870.3984          0.000    20113868.9804  -27716545.17149 -21597280.92247
  23156879.4484          0.000    23156881.8644   -2352592.25349  -1833185.76845
  21273143.2544          0.000    21273141.9934  -17621271.51349 -13730827.41247
  21375085.4784          0.000    21375087.1074  -19673832.97649 -15330240.59347
  4  3  1  0 40 30.0000000  0  8G 9G 6G22G18G21G 3G26G15
  23843551.8684          0.000    23843554.9794   -4995382.66948  -3892502.38345
  24906504.2024          0.000           0.000    -2240959.87447         0.000
  22569430.3804          0.000    22569428.2714  -13819764.98349 -10768629.42146
  20523064.9164          0.000    20523063.8774  -25206149.67849 -19641129.52447
  20117450.8434          0.000    20117449.4054  -27697729.23749 -21582619.14047
  23149492.5374          0.000    23149494.3504   -2391413.68849  -1863436.26346
  21286773.4454          0.000    21286772.0924  -17549644.20449 -13675013.80947
  21360254.5694          0.000    21360255.5444  -19751769.63949 -15390970.20247
  4  3  1  0 41  0.0000000  0  8G 9G 6G22G18G21G 3G26G15
  23823964.3164          0.000    23823965.0044   -5098316.04948  -3972710.17745
  24927557.3014          0.000           0.000    -2130336.15248         0.000
  22554353.5484          0.000    22554351.7334  -13898990.92649 -10830363.87746
  20517048.9304          0.000    20517047.9924  -25237762.35349 -19665762.76047
  20121132.0814          0.000    20121131.0114  -27678382.85249 -21567544.02247
  23142211.5824          0.000    23142213.3804   -2429674.19349  -1893249.66246
  21300500.2604          0.000    21300499.0564  -17477506.88749 -13618802.87147
  21345488.1584          0.000    21345489.4304  -19829365.36549 -15451434.35747
  4  3  1  0 41 30.0000000  0  8G 9G 6G22G18G21G 3G26G15
  23804414.4094          0.000    23804416.2084   -5201057.92148  -4052768.73045
  24948602.6124          0.000           0.000    -2019735.57347         0.000
  22539317.0854          0.000    22539315.5114  -13978010.45149 -10891937.47846
  20511101.0564          0.000    20511100.3054  -25269018.53749 -19690118.20347
  20124911.5684          0.000    20124910.2764  -27658522.69749 -21552068.56347
  23135034.3774          0.000    23135036.7494   -2467389.00249  -1922637.80346
  21314321.0574          0.000    21314319.8154  -17404879.06149 -13562209.69247
  21330785.0144          0.000    21330786.1044  -19906634.34449 -15511643.92847
  4  3  1  0 42  0.0000000  0  7G 9G22G18G21G 3G26G15
  23784902.7314          0.000    23784904.0924   -5303599.53948  -4132671.19245
  22524320.7644          0.000    22524318.4664  -14056817.48449 -10953345.50646
  20505222.0044          0.000    20505221.3204  -25299912.54049 -19714191.43547
  20128789.5754          0.000    20128788.3414  -27638143.12749 -21536188.35947
  23127962.8214          0.000    23127964.6224   -2504551.99149  -1951595.93146
  21328235.6544          0.000    21328234.0174  -17331758.25449 -13505232.36147
  21316143.8324          0.000    21316145.0754  -19983568.97749 -15571592.93047
  4  3  1  0 42 30.0000000  0  7G 9G22G18G21G 3G26G15
  23765426.0844          0.000    23765428.7714   -5405941.14248  -4212417.81645
  22509363.6634          0.000    22509362.2524  -14135414.67649 -11014590.02546
  20499411.6354          0.000    20499410.8044  -25330447.68849 -19737985.02347
  20132766.1134          0.000    20132764.7364  -27617247.47249 -21519906.01347
  23120994.8304          0.000    23120997.6704   -2541165.52349  -1980125.89846
  21342242.6224          0.000    21342241.2504  -17258150.86449 -13447875.88347
  21301567.5924          0.000    21301568.5564  -20060170.07649 -15631281.95647
  4  3  1  0 43  0.0000000  0  7G 9G22G18G21G 3G26G15
  23745988.7194          0.000    23745991.1054   -5508083.65748  -4292009.29245
  22494446.1724          0.000    22494444.2624  -14213805.84049 -11075674.00946
  20493668.4234          0.000    20493667.5414  -25360627.75949 -19761501.93647
  20136839.8324          0.000    20136838.2974  -27595839.84749 -21503224.73047
  23114132.6314          0.000    23114134.3764   -2577232.77549  -2008230.21946
  21356340.5144          0.000    21356339.5034  -17184063.97249 -13390145.80947
  21287054.0444          0.000    21287055.1164  -20136440.18049 -15690713.14547
  4  3  1  0 43 30.0000000  0  7G 9G22G18G21G 3G26G15
  23726593.1604          0.000    23726595.0624   -5610005.94948  -4371429.21445
  22479571.0514          0.000    22479569.3414  -14291972.70649 -11136583.22546
  20487996.1034          0.000    20487995.2444  -25390435.60049 -19784728.79147
  20141014.1874          0.000    20141012.8514  -27573902.47149 -21486130.65647
  23107375.9154          0.000    23107377.9924   -2612735.11749  -2035894.33846
  21370532.6034          0.000    21370531.4074  -17109483.08549 -13332030.85647
  21272606.4764          0.000    21272607.8444  -20212359.48249 -15749870.98647
  4  3  1  0 44  0.0000000  0  7G 9G22G18G21G 3G26G15
  23707236.7404          0.000    23707239.2624   -5711721.51148  -4450688.03045
  22464735.9874          0.000    22464734.6894  -14369931.41849 -11197330.23946
  20482391.5774          0.000    20482390.9534  -25419887.47549 -19807678.26347
  20145286.2524          0.000    20145285.1174  -27551452.11949 -21468636.85847
  23100724.6884          0.000    23100725.9404   -2647688.37049  -2063130.56046
  21384815.3524          0.000    21384814.3364  -17034427.67149 -13273546.09447
  21258223.6104          0.000    21258224.4804  -20287942.67649 -15808766.92047
  4  3  1  0 44 30.0000000  0  8G 9G29G22G18G21G 3G26G15
  23687925.5194          0.000    23687928.3284   -5813210.74448  -4529770.48545
  22972583.8364          0.000    22972581.9494         -0.38459         0.19156
  22449944.2194          0.000    22449942.6594  -14447665.33149 -11257902.07746
  20476857.9044          0.000    20476857.1034  -25448967.08249 -19830337.66347
  20149659.2634          0.000    20149657.8624  -27528472.91449 -21450730.96347
  23094181.1024          0.000    23094182.4174   -2682075.34149  -2089925.54146
  21399190.9574          0.000    21399189.6594  -16958884.54949 -13214681.28247
  21243908.6904          0.000    21243909.4464  -20363171.26349 -15867386.53947
  4  3  1  0 45  0.0000000  0  8G 9G29G22G18G21G 3G26G15
  23668650.7894          0.000    23668653.0124   -5914497.25248  -4608694.96345
  22989117.3114          0.000    22989115.2934      86884.45749     67702.63546
  22435189.9374          0.000    22435188.3504  -14525200.65649 -11318319.17946
  20471390.1454          0.000    20471389.1894  -25477700.93049 -19852727.63947
  20154127.5114          0.000    20154126.0554  -27504991.25249 -21432433.54747
  23087740.5204          0.000    23087741.6114   -2715921.81149  -2116299.33845
  21413652.9684          0.000    21413651.6514  -16882883.74549 -13155459.84447
  21229655.2244          0.000    21229656.4734  -20438070.38349 -15925749.49547
  4  3  1  0 45 30.0000000  0  8G 9G29G22G18G21G 3G26G15
  23649416.0644          0.000    23649420.0794   -6015566.44048  -4687450.06845
  23005702.6754          0.000    23005701.0304     174040.26049    135616.23046
  22420475.6424          0.000    22420474.0584  -14602525.58149 -11378572.33246
  20465990.0574          0.000    20465989.1764  -25506077.79149 -19874839.41547
  20158693.4214          0.000    20158691.8994  -27480996.41849 -21413736.25047
  23081404.4014          0.000    23081406.6674   -2749215.49549  -2142242.39546
  21428204.5854          0.000    21428202.6604  -16806416.72249 -13095875.07247
  21215467.6024          0.000    21215468.9584  -20512626.30649 -15983845.05147
  4  3  1  0 46  0.0000000  0  8G 9G29G22G18G21G 3G26G15
  23630229.5614          0.000    23630233.1724   -6116392.72548  -4766015.91145
  23022343.1934          0.000    23022341.1194     261486.87449    203756.44046
  22405805.1134          0.000    22405803.0984  -14679617.21749 -11438643.72946
  20460662.1674          0.000    20460661.1574  -25534075.56149 -19896655.80547
  20163361.3334          0.000    20163359.8944  -27456466.11249 -21394621.70547
  23075178.0524          0.000    23075180.3244   -2781933.30949  -2167736.66346
  21442848.1074          0.000    21442846.3524  -16729464.28149 -13035912.06047
  21201350.4914          0.000    21201351.6354  -20586814.71149 -16041654.20847
  4  3  1  0 46 30.0000000  0  8G 9G29G22G18G21G 3G26G15
  23611088.4914          0.000    23611089.4404   -6216985.51748  -4844399.83545
  23039035.6064          0.000    23039035.0494     349208.97049    272111.30946
  22391177.0374          0.000    22391175.3964  -14756487.77949 -11498542.85046
  20455404.0594          0.000    20455403.2224  -25561706.67449 -19918186.48247
  20168129.2104          0.000    20168127.7744  -27431412.89649 -21375099.69847
  23069058.9854          0.000    23069060.3664   -2814087.15649  -2192791.49546
  21457580.7784          0.000    21457579.2704  -16652042.27949 -12975583.17347
  21187300.6734          0.000    21187301.8404  -20660646.19149 -16099185.14947
  4  3  1  0 47  0.0000000  0  8G 9G29G22G18G21G 3G26G15
  23591988.8314          0.000    23591989.3374   -6317355.10148  -4922609.81245
  23055777.7104          0.000    23055775.3944     437190.34649    340668.20646
  22376589.0434          0.000    22376587.3674  -14833150.52949 -11558280.02946
  20450213.3804          0.000    20450212.4694  -25588984.87849 -19939442.17147
  20172993.2884          0.000    20172991.9264  -27405851.17849 -21355181.45447
  23063044.9254          0.000    23063045.8614   -2845689.78649  -2217416.79646
  21472400.1584          0.000    21472398.9484  -16574167.36549 -12914901.34547
  21173316.2784          0.000    21173317.4654  -20734132.36249 -16156447.03847
  4  3  1  0 47 30.0000000  0  8G 9G29G22G18G21G 3G26G15
  23572934.8674          0.000    23572936.3534   -6417485.48148  -5000633.40645
  23072571.3964          0.000    23072569.9664     525441.31149    409435.19246
  22362042.3164          0.000    22362040.9414  -14909591.82749 -11617844.65946
  20445091.6854          0.000    20445090.7384  -25615897.21849 -19960412.76647
  20177956.4594          0.000    20177955.1434  -27379767.88649 -21334856.78847
  23057139.5444          0.000    23057141.6194   -2876727.45449  -2241601.82046
  21487306.7234          0.000    21487305.5584  -16495829.68549 -12853858.92747
  21159401.0084          0.000    21159402.1874  -20807258.11149 -16213428.10247
  4  3  1  0 48  0.0000000  0  8G 9G29G22G18G21G 3G26G15
  23553927.5624          0.000    23553928.7544   -6517372.69949  -5078467.52545
  23089415.9604          0.000    23089415.5394     613959.68549    478410.53346
  22347538.0414          0.000    22347536.6764  -14985810.87849 -11677236.10246
  20440040.0794          0.000    20440039.2144  -25642443.40049 -19981098.03847
  20183019.2224          0.000    20183017.9644  -27353162.70249 -21314125.45447
  23051341.1344          0.000    23051342.5524   -2907199.18649  -2265345.88346
  21502301.3024          0.000    21502300.1634  -16417031.90349 -12792457.96847
  21145554.4394          0.000    21145555.6334  -20880021.25649 -16270126.65647
  4  3  1  0 48 30.0000000  0  8G 9G29G22G18G21G 3G26G15
  23534966.1974          0.000    23534966.0514   -6617013.70549  -5156109.80245
  23106310.9144          0.000    23106309.6484     702742.94049    547592.24446
  22333076.5794          0.000    22333074.7004  -15061807.22749 -11736454.00746
  20435058.2964          0.000    20435057.3344  -25668623.34949 -20001497.94447
  20188181.5734          0.000    20188180.1264  -27326035.69249 -21292987.50047
  23045650.6864          0.000    23045651.7374   -2937104.33049  -2288648.46746
  21517383.2034          0.000    21517381.8604  -16337777.26449 -12730701.05547
  21131777.9234          0.000    21131778.8744  -20952419.38849 -16326540.81747
  4  3  1  0 49  0.0000000  0  8G 9G29G22G18G21G 3G26G15
  23516048.8444          0.000    23516048.5374   -6716421.60048  -5233570.42445
  23123252.0314          0.000    23123250.9254     791772.12949    616965.60446
  22318654.4364          0.000    22318652.9244  -15137596.72549 -11795510.73646
  20430143.2654          0.000    20430142.4124  -25694452.78149 -20021624.73047
  20193439.4254          0.000    20193438.1374  -27298403.92449 -21271456.22347
  23040063.4714          0.000    23040065.5324   -2966458.25149  -2311521.46946
  21532548.4324          0.000    21532546.8184  -16258085.05149 -12668603.19247
  21118067.9714          0.000    21118068.8904  -21024466.93049 -16382681.78447
  4  3  1  0 49 30.0000000  0  8G 9G29G22G18G21G 3G26G15
  23497179.7394          0.000    23497181.8264   -6815574.09348  -5310832.04345
  23140243.9884          0.000    23140242.5824     881063.36649    686543.13046
  22304275.1764          0.000    22304274.2464  -15213160.04449 -11854391.20246
  20425298.1634          0.000    20425297.1944  -25719913.16949 -20041463.96247
  20198797.2854          0.000    20198796.0744  -27270248.46149 -21249516.87647
  23034586.8234          0.000    23034588.1994   -2995241.70749  -2333949.97346
  21547799.0064          0.000    21547797.6194  -16177939.57649 -12606152.13246
  21104428.3374          0.000    21104429.2614  -21096143.08049 -16438533.35647
  4  3  1  0 50  0.0000000  0  8G 9G29G22G18G21G 3G26G15
  23478362.9904          0.000    23478363.9984   -6914460.04748  -5387885.97445
  23157286.1894          0.000    23157283.8434     970622.37049    756329.31746
  22289940.0334          0.000    22289938.9744  -15288488.60249 -11913088.73946
  20420524.8154          0.000    20420523.9874  -25744996.83049 -20061009.63047
  20204256.3414          0.000    20204255.0774  -27241561.71349 -21227163.54647
  23029219.5084          0.000    23029220.8184   -3023445.84449  -2355927.06446
  21563137.6384          0.000    21563136.1124  -16097335.90249 -12543344.02246
  21090861.6364          0.000    21090862.5694  -21167437.74449 -16494087.67647
  4  3  1  0 50 30.0000000  0  8G 9G29G22G18G21G 3G26G15
  23459593.9674          0.000    23459596.0574   -7013087.73248  -5464738.65645
  23174377.2934          0.000    23174375.9354    1060434.72449    826312.91446
  22275648.6044          0.000    22275647.3484  -15363593.94049 -11971612.33246
  20415820.9234          0.000    20415820.0804  -25769715.37649 -20080270.79247
  20209813.6794          0.000    20209812.5484  -27212355.78749 -21204405.65847
  23023959.7604          0.000    23023961.4464   -3051082.05449  -2377461.67246
  21578560.0834          0.000    21578557.8854  -16016288.96149 -12480190.52046
  21077365.1564          0.000    21077365.9914  -21238360.66749 -16549352.31347
  4  3  1  0 51  0.0000000  0  8G 9G29G22G18G21G 3G26G15
  23440871.9614          0.000    23440873.9334   -7111474.05448  -5541403.23745
  23191512.4264          0.000    23191510.2654    1150477.61949    896476.12846
  22261394.5524          0.000    22261393.2904  -15438495.39649 -12029977.05546
  20411182.8664          0.000    20411181.9054  -25794088.80149 -20099263.02447
  20215466.4334          0.000    20215465.0004  -27182650.83649 -21181258.92447
  23018806.2544          0.000    23018806.6674   -3078169.54049  -2398568.70446
  21594063.4874          0.000    21594061.4204  -15934821.98349 -12416709.74046
  21063936.3354          0.000    21063937.2764  -21308929.50149 -16604340.96947
  4  3  1  0 51 30.0000000  0  8G 9G29G22G18G21G 3G26G15
  23422202.4204          0.000    23422204.4804   -7209589.06348  -5617856.41945
  23208695.7354          0.000    23208693.8304    1240775.56449    966838.11646
  22247185.5084          0.000    22247183.5554  -15513165.62249 -12088161.59446
  20406615.6354          0.000    20406614.6034  -25818090.10949 -20117965.29747
  20221219.4704          0.000    20221217.8344  -27152420.21749 -21157702.57347
  23013761.0384          0.000    23013762.3474   -3104681.03549  -2419226.95746
  21609649.7334          0.000    21609648.2744  -15852910.89649 -12352882.87746
  21050579.9354          0.000    21050581.3714  -21379115.66049 -16659031.44347
  4  3  1  0 52  0.0000000  0  8G 9G29G22G18G21G 3G26G15
  23403584.4114          0.000    23403585.8214   -7307426.29748  -5694093.15545
  23225927.0424          0.000    23225925.7394    1331329.15449   1037399.34446
  22233021.2194          0.000    22233019.1314  -15587601.02949 -12146163.15446
  20402119.4744          0.000    20402118.4504  -25841716.19749 -20136375.18347
  20227072.6474          0.000    20227071.2414  -27121661.41449 -21133734.65447
  23008825.4324          0.000    23008827.2494   -3130612.54749  -2439433.24046
  21625321.6314          0.000    21625320.0594  -15770556.15949 -12288710.33446
  21037298.1034          0.000    21037299.5744  -21448913.93349 -16713419.66047
  4  3  1  0 52 30.0000000  0  7G 9G22G18G21G 3G26G15
  23385015.8444          0.000    23385017.8424   -7405000.67648  -5770125.09545
  22218897.8104          0.000    22218895.2864  -15661819.50749 -12203995.68546
  20397691.5434          0.000    20397690.2944  -25864985.62449 -20154507.14847
  20233022.8614          0.000    20233021.3944  -27090393.06149 -21109369.68747
  23003997.7624          0.000    23003999.3264   -3155982.05649  -2459201.59846
  21641073.5024          0.000    21641071.6714  -15687778.87949 -12224208.53046
  21024086.4944          0.000    21024087.6354  -21518340.25249 -16767518.00747
  4  3  1  0 53  0.0000000  0  8G 9G31G22G18G21G 3G26G15
  23366499.8574          0.000    23366502.8284   -7502297.80948  -5845940.94945
  24926594.5234          0.000    24926592.5464         -0.61357         2.14254
  22204818.0764          0.000    22204816.1004  -15735809.39149 -12261650.08946
  20393333.5654          0.000    20393332.5144  -25887887.01449 -20172352.32447
  20239071.7574          0.000    20239070.3514  -27058604.31549 -21084599.21847
  22999279.9374          0.000    22999281.1494   -3180777.98349  -2478523.07446
  21656907.8774          0.000    21656906.1674  -15604571.08749 -12159371.28246
  21010948.2174          0.000    21010949.1114  -21587381.75949 -16821316.50547
  4  3  1  0 53 30.0000000  0  7G 9G22G18G21G 3G26G15
  23348037.7374          0.000    23348040.4644   -7599315.36048  -5921538.96545
  22190782.1054          0.000    22190779.9074  -15809571.19649 -12319126.75746
  20389045.4484          0.000    20389044.3354  -25910421.65649 -20189911.73447
  20245219.9154          0.000    20245218.6034  -27026296.67049 -21059424.40647
  22994670.0284          0.000    22994671.7794   -3205000.77649  -2497398.00446
  21672823.0894          0.000    21672820.5754  -15520937.18449 -12094201.99846
  20997883.8304          0.000    20997884.6264  -21656037.42249 -16874814.33347
  4  3  1  0 54  0.0000000  0  7G 9G22G18G21G 3G26G15
  23329631.3194          0.000    23329634.3234   -7696046.97848  -5996914.17245
  22176789.5394          0.000    22176787.8494  -15883101.23649 -12376422.83646
  20384827.6634          0.000    20384826.3744  -25932586.31849 -20207182.85247
  20251467.0964          0.000    20251465.5584  -26993467.18949 -21033842.97547
  22990169.6634          0.000    22990171.8804   -3228646.82049  -2515823.48046
  21688818.9794          0.000    21688816.7394  -15436876.82149 -12028700.36446
  20984893.1724          0.000    20984894.2304  -21724301.95349 -16928007.39247
  4  3  1  0 54 30.0000000  0  7G 9G22G18G21G 3G26G15
  23311279.2484          0.000    23311280.9674   -7792490.84548  -6072065.12245
  22162840.8344          0.000    22162839.1474  -15956400.86549 -12433539.37346
  20380679.8084          0.000    20380678.4784  -25954382.77049 -20224167.06347
  20257813.0394          0.000    20257811.2364  -26960117.76749 -21007856.39247
  22985780.4354          0.000    22985782.7654   -3251717.10949  -2533800.29446
  21704894.8104          0.000    21704893.3254  -15352395.06649 -11962870.38546
  20971977.4234          0.000    20971978.2434  -21792175.00849 -16980895.41047
  4  3  1  0 55  0.0000000  0  7G 9G22G18G21G 3G26G15
  23292981.7484          0.000    23292983.6664   -7888644.38048  -6146989.83545
  22148935.6724          0.000    22148934.1954  -16029470.27949 -12490476.52046
  20376601.9664          0.000    20376600.7494  -25975811.47249 -20240864.71247
  20264258.2954          0.000    20264256.4244  -26926249.95449 -20981465.86647
  22981499.4684          0.000    22981501.6644   -3274211.93049  -2551328.70045
  21721050.6664          0.000    21721049.3094  -15267495.48849 -11896714.87346
  20959136.2454          0.000    20959136.9334  -21859655.23649 -17033477.32747
  4  3  1  0 55 30.0000000  0  7G 9G22G18G21G 3G26G15
  23274736.1484          0.000    23274737.0054   -7984527.74149  -6221704.05345
  22135070.7854          0.000    22135069.4114  -16102332.05149 -12547251.86246
  20372589.7504          0.000    20372588.7714  -25996895.77749 -20257294.00647
  20270797.1154          0.000    20270795.4784  -26891887.23649 -20954689.70347
  22977324.2334          0.000    22977326.6764   -3296154.12349  -2568426.52645
  21737281.0414          0.000    21737279.5414  -15182204.48449 -11830254.34946
  20946365.9094          0.000    20946366.7014  -21926763.83549 -17085769.66547
  4  3  1  0 56  0.0000000  0  7G 9G22G18G21G 3G26G15
  23256549.0834          0.000    23256549.4234   -8080096.54149  -6296173.19945
  22121253.5714          0.000    22121251.2474  -16174944.74849 -12603833.12547
  20368650.6134          0.000    20368649.6154  -26017594.91449 -20273423.16047
  20277437.8844          0.000    20277436.4814  -26856989.16949 -20927496.37747
  22973262.0444          0.000    22973264.6124   -3317502.26349  -2585061.52245
  21753593.3704          0.000    21753591.7594  -15096484.22749 -11763459.31146
  20933674.3914          0.000    20933675.3584  -21993457.67949 -17137738.82847
  4  3  1  0 56 30.0000000  0  7G 9G22G18G21G 3G26G15
  23238418.0694          0.000    23238419.3074   -8175374.91749  -6370415.99245
  22107478.2444          0.000    22107476.1054  -16247335.30549 -12660241.29147
  20364779.8874          0.000    20364778.8494  -26037935.87449 -20289273.20547
  20284175.1584          0.000    20284173.6194  -26821583.38749 -20899907.43447
  22969307.0854          0.000    22969310.8044   -3338283.27749  -2601254.61745
  21769981.2684          0.000    21769980.1884  -15010365.21949 -11696353.54946
  20921056.9184          0.000    20921057.9104  -22059762.05449 -17189404.47247
  4  3  1  0 57  0.0000000  0  7G 9G22G18G21G 3G26G15
  23220343.9624          0.000    23220346.0864   -8270348.20748  -6444421.04145
  22093746.7304          0.000    22093744.6274  -16319491.66849 -12716466.97347
  20360979.3084          0.000    20360978.2794  -26057907.48549 -20304835.44447
  20291011.4974          0.000    20291010.0174  -26785658.84849 -20871914.27047
  22965461.9794          0.000    22965460.5594   -3358485.44049  -2616998.17446
  21786445.8314          0.000    21786444.7294  -14923839.19949 -11628930.68146
  20908516.4074          0.000    20908517.4534  -22125663.06849 -17240755.76247
  4  3  1  0 57 30.0000000  0  7G 9G22G18G21G 3G26G15
  23202332.3864          0.000    23202333.6914   -8365009.57849  -6518183.01945
  22080060.9754          0.000    22080059.6604  -16391409.86549 -12772507.05847
  20357249.7754          0.000    20357248.8124  -26077506.07749 -20320107.02147
  20297946.9594          0.000    20297945.3594  -26749212.89849 -20843514.81347
  22961729.3334          0.000    22961728.1294   -3378104.55349  -2632287.18947
  21802989.6334          0.000    21802988.1454  -14836905.69249 -11561190.25746
  20896053.1914          0.000    20896054.1944  -22191155.45749 -17291788.65747
  4  3  1  0 58  0.0000000  0  7G 9G22G18G21G 3G26G15
  23184377.2534          0.000    23184377.8024   -8459364.30449  -6591706.08445
  22066419.3804          0.000    22066417.4434  -16463097.88849 -12828367.79747
  20353589.5604          0.000    20353588.6334  -26096740.54949 -20335094.87847
  20304980.1264          0.000    20304978.4284  -26712253.83149 -20814715.51947
  22958105.7284          0.000    22958110.7874   -3397149.16949  -2647126.00244
  21819607.6654          0.000    21819605.6734  -14749576.39649 -11493141.42146
  20883666.9164          0.000    20883667.6204  -22256245.92549 -17342508.37547
  4  3  1  0 58 30.0000000  0  7G 9G22G18G21G 3G26G15
  23166482.2954          0.000    23166483.3224   -8553400.85049  -6664981.23346
  22052822.7584          0.000    22052821.2184  -16534547.11549 -12884042.45747
  20350000.5814          0.000    20349999.4484  -26115602.14149 -20349792.18647
  20312112.2014          0.000    20312110.5004  -26674774.74549 -20785511.01947
  22954593.2504          0.000    22954594.9154   -3415610.53149  -2661511.44545
  21836301.6254          0.000    21836300.0804  -14661846.13249 -11424780.17146
  20871359.2614          0.000    20871359.7514  -22320923.79349 -17392906.50747
  4  3  1  0 59  0.0000000  0  7G 9G22G18G21G 3G26G15
  23148647.0404          0.000    23148648.3744   -8647121.24048  -6738009.99845
  22039271.6974          0.000    22039269.2054  -16605762.20949 -12939534.66247
  20346481.0954          0.000    20346479.8404  -26134096.62349 -20364203.42947
  20319342.0234          0.000    20319340.3484  -26636781.10449 -20755905.57447
  22951190.0624          0.000    22951192.0734   -3433493.75049  -2675446.38445
  21853070.9694          0.000    21853069.1164  -14573723.53549 -11356113.21446
  20859128.7964          0.000    20859129.5104  -22385192.69549 -17442985.95947
  4  3  1  0 59 30.0000000  0  7G 9G22G18G21G 3G26G15
  23130871.4954          0.000    23130873.2474   -8740533.87248  -6810798.94445
  22025761.9064          0.000    22025759.7864  -16676754.65749 -12994853.38447
  20343029.4404          0.000    20343028.0334  -26152235.78149 -20378337.78747
  20326667.5254          0.000    20326665.8244  -26598285.28649 -20725908.81947
  22947893.4504          0.000    22947895.1554   -3450810.58649  -2688939.96645
  21869911.8424          0.000    21869910.1364  -14485223.31449 -11287151.99646
  20846974.7744          0.000    20846975.2724  -22449062.08849 -17492754.12547
  4  3  1  1  0  0.0000000  0  7G 9G22G18G21G 3G26G15
  23113158.3874          0.000    23113159.8564   -8833620.66249  -6883333.95046
  22012297.4424          0.000    22012295.1904  -16747509.03249 -13049986.60447
  20339647.9424          0.000    20339646.5284  -26170004.79849 -20392183.72747
  20334091.2084          0.000    20334089.6954  -26559272.97149 -20695509.60147
  22944708.9054          0.000    22944711.7204   -3467546.04649  -2701980.55546
  21886827.3684          0.000    21886825.4704  -14396333.86349 -11217887.46746
  20834900.2754          0.000    20834900.5894  -22512515.31449 -17542198.05947
  4  3  1  1  0 30.0000000  0  7G 9G22G18G21G 3G26G15
  23095509.2494          0.000    23095510.9514   -8926364.29249  -6955601.60946
  21998881.3954          0.000    21998879.2894  -16818010.74249 -13104922.93347
  20336339.5244          0.000    20336338.2874  -26187389.38949 -20405730.11047
  20341615.7174          0.000    20341614.0784  -26519730.94949 -20664697.62147
  22941637.5904          0.000    22941640.3164   -3483685.74249  -2714556.92546
  21903818.5384          0.000    21903816.6254  -14307044.16549 -11148311.09046
  20822907.6594          0.000    20822907.8314  -22575536.10949 -17591305.04347
  4  3  1  1  1  0.0000000  0  7G 9G22G18G21G 3G26G15
  23077921.2094          0.000    23077923.1104   -9018785.07149  -7027617.68945
  21985508.5444          0.000    21985506.2104  -16888282.87349 -13159680.37147
  20333099.8044          0.000    20333098.4424  -26204413.29349 -20418995.43047
  20349236.7974          0.000    20349235.1834  -26479682.91749 -20633491.34947
  22938676.1544          0.000    22938677.9604   -3499252.59449  -2726686.92146
  21920880.9774          0.000    21920878.4824  -14217380.92649 -11078443.63646
  20810993.3304          0.000    20810993.8494  -22638145.96449 -17640091.80047
  4  3  1  1  1 30.0000000  0  8G 9G31G22G18G21G 3G26G15
  23060399.7674          0.000    23060399.8614   -9110864.05449  -7099367.47446
  24671047.1354          0.000           0.000          -0.43257         0.000
  21972183.3514          0.000    21972181.1214  -16958308.95049 -13214246.07747
  20329931.9204          0.000    20329930.6694  -26221060.77349 -20431967.43747
  20356956.8624          0.000    20356955.2024  -26439113.86349 -20601879.08947
  22935824.7514          0.000    22935826.8254   -3514230.74349  -2738358.17946
  21938016.4914          0.000    21938014.7224  -14127331.47049 -11008275.23346
  20799160.5474          0.000    20799161.0134  -22700327.06349 -17688544.51347
  4  3  1  1  2  0.0000000  0  8G 9G31G22G18G21G 3G26G15
  23042939.9734          0.000    23042940.3754   -9202619.99949  -7170865.55146
  24656728.4604          0.000           0.000      -75253.52948         0.000
  21958900.3384          0.000    21958897.7404  -17028110.91749 -13268637.15847
  20326831.7624          0.000    20326830.4244  -26237354.09449 -20444663.45847
  20364771.8094          0.000    20364769.8654  -26398046.86949 -20569878.82247
  22933083.0684          0.000    22933084.9184   -3528642.44849  -2749588.06646
  21955221.1554          0.000    21955219.6574  -14036921.04649 -10937825.55146
  20787405.3794          0.000    20787405.5374  -22762099.68149 -17736678.99047
  4  3  1  1  2 30.0000000  0  8G 9G31G22G18G21G 3G26G15
  23025541.3744          0.000    23025542.2754   -9294047.81049  -7242107.90246
  24642484.9334          0.000           0.000     -150087.12447         0.000
  21945660.9314          0.000    21945659.2024  -17097686.34449 -13322851.71647
  20323798.6114          0.000    20323797.4984  -26253291.30549 -20457081.99447
  20372681.2594          0.000    20372679.6744  -26356480.35249 -20537489.31447
  22930449.4224          0.000    22930450.3034   -3542485.65849  -2760374.95046
  21972494.1094          0.000    21972493.0234  -13946151.04649 -10867095.68446
  20775729.3784          0.000    20775729.7794  -22823459.88549 -17784492.12147
  4  3  1  1  3  0.0000000  0  8G 9G31G22G18G21G 3G26G15
  23008208.9034          0.000    23008209.7634   -9385128.63849  -7313079.85446
  24628326.1374          0.000           0.000     -224483.60347         0.000
  21932466.8314          0.000    21932464.5774  -17167019.04049 -13376877.13647
  20320836.7464          0.000    20320835.3714  -26268856.75049 -20469210.85947
  20380689.0164          0.000    20380687.4314  -26314399.60149 -20504699.10547
  22927925.0604          0.000    22927926.4644   -3555744.61549  -2770706.58146
  21989838.0714          0.000    21989836.5494  -13855008.83349 -10796075.80146
  20764134.5674          0.000    20764134.8214  -22884389.75649 -17831969.94647
  4  3  1  1  3 30.0000000  0  8G 9G31G22G18G21G 3G26G15
  22990943.9494          0.000    22990944.9214   -9475852.04049  -7383773.32646
  24614255.6374          0.000           0.000     -298433.48447         0.000
  21919321.1424          0.000    21919319.1874  -17236101.51649 -13430707.58047
  20317946.3734          0.000    20317945.2344  -26284043.75449 -20481044.84147
  20388795.7474          0.000    20388794.1464  -26271798.03249 -20471503.06547
  22925514.4654          0.000    22925516.9744   -3568412.37549  -2780577.54746
  22007253.0444          0.000    22007251.6034  -13763490.68349 -10724762.95346
  20752623.5994          0.000    20752623.8094  -22944880.53049 -17879105.63047
  4  3  1  1  4  0.0000000  0  8G 9G31G22G18G21G 3G26G15
  22973747.9454          0.000    22973748.2734   -9566221.46749  -7454191.03346
  24600270.8064          0.000           0.000     -371941.02948         0.000
  21906221.2294          0.000    21906219.2694  -17304939.68249 -13484347.64647
  20315127.4184          0.000    20315126.0614  -26298858.59649 -20492588.82347
  20397000.3564          0.000    20396998.7444  -26228682.90549 -20437906.85047
  22923215.3694          0.000    22923217.0904   -3580494.94249  -2789992.51246
  22024737.7034          0.000    22024736.7824  -13671605.98149 -10653164.49746
  20741195.2884          0.000    20741195.6204  -23004936.44149 -17925902.44647
  4  3  1  1  4 30.0000000  0  8G 9G31G22G18G21G 3G26G15
  22956618.9574          0.000    22956620.2504   -9656232.36349  -7524329.35446
  24586365.4654          0.000           0.000     -445002.66848         0.000
  21893169.0404          0.000    21893166.9914  -17373531.70749 -13537795.92247
  20312379.3084          0.000    20312377.8424  -26313300.31149 -20503842.02547
  20405302.7664          0.000    20405301.1244  -26185053.53849 -20403909.93747
  22921028.0764          0.000    22921028.7764   -3591991.16049  -2798950.58146
  22042292.3854          0.000    22042291.4614  -13579356.67349 -10581281.95046
  20729850.1574          0.000    20729850.6534  -23064554.04249 -17972357.70947
  4  3  1  1  5  0.0000000  0  8G 9G31G22G18G21G 3G26G15
  22939560.8734          0.000    22939562.5014   -9745875.89749  -7594181.39546
  24572547.0934          0.000           0.000     -517611.01348         0.000
  21880164.0314          0.000    21880162.2834  -17441871.99749 -13591048.04047
  20309703.1264          0.000    20309701.5314  -26327363.59549 -20514800.35547
  20413703.8864          0.000    20413702.2094  -26140905.38349 -20369508.77447
  22918953.3314          0.000    22918953.8664   -3602895.70949  -2807447.61846
  22059916.9064          0.000    22059915.1964  -13486740.40549 -10509113.45446
  20718590.1844          0.000    20718590.5704  -23123726.15449 -18018465.85647
  4  3  1  1  5 30.0000000  0  8G 9G31G22G18G21G 3G26G15
  22922570.1784          0.000    22922571.6444   -9835161.74349  -7663754.69546
  24558815.0654          0.000           0.000     -589776.61048         0.000
  21867204.5754          0.000    21867202.7764  -17509972.55149 -13644113.35347
  20307096.5074          0.000    20307095.1184  -26341060.86849 -20525473.45347
  20422201.1834          0.000    20422199.4824  -26096251.96749 -20334713.89747
  22916987.7494          0.000    22916989.3184   -3613221.53649  -2815493.73346
  22077608.2544          0.000    22077606.2504  -13393773.06849 -10436671.37746
  20707413.1514          0.000    20707413.6924  -23182463.53049 -18064235.26247
  4  3  1  1  6  0.0000000  0  8G 9G31G22G18G21G 3G26G15
  22905647.0604          0.000    22905647.8524   -9924091.18049  -7733050.26846
  24545170.0074          0.000           0.000     -661502.04948         0.000
  21854290.7504          0.000    21854288.3604  -17577837.43149 -13696995.02947
  20304558.4694          0.000    20304556.9794  -26354396.95049 -20535865.07347
  20430793.7744          0.000    20430792.0884  -26051098.37749 -20299529.28047
  22915132.3664          0.000    22915134.1284   -3622972.91149  -2823092.21546
  22095364.1834          0.000    22095362.9894  -13300462.45549 -10363961.83446
  20696317.8844          0.000    20696318.3254  -23240768.68349 -18109667.89047
  4  3  1  1  6 30.0000000  0  8G 9G31G22G18G21G 3G26G15
  22888792.5894          0.000    22888793.0324  -10012663.77749  -7802067.81546
  24531600.5734          0.000           0.000     -732787.34048   -571001.06544
  21841420.9134          0.000    21841418.5724  -17645468.93849 -13749694.86047
  20302088.9414          0.000    20302087.6044  -26367374.55449 -20545977.36447
  20439480.7654          0.000    20439478.8644  -26005448.30349 -20263957.79947
  22913385.8654          0.000    22913386.4464   -3632152.56849  -2830245.18446
  22113185.4264          0.000    22113184.1684  -13206814.12749 -10290989.13946
  20685304.9034          0.000    20685305.3444  -23298642.34149 -18154764.27747
  4  3  1  1  7  0.0000000  0  8G 9G31G22G18G21G 3G26G15
  22872009.8564          0.000    22872010.4274  -10100854.90349  -7870788.13446
  24518124.1664          0.000           0.000     -803609.22148   -626186.83844
  21828599.6504          0.000    21828597.4474  -17712845.09649 -13802195.70947
  20299691.5594          0.000    20299690.1614  -26379972.35349 -20555793.73247
  20448265.7164          0.000    20448264.2674  -25959281.03949 -20227983.30347
  22911751.6984          0.000    22911752.5014   -3640739.32549  -2836936.16246
  22131073.6494          0.000    22131072.0214  -13112810.05749 -10217739.24346
  20674378.6404          0.000    20674379.1284  -23356061.05349 -18199506.14447
  4  3  1  1  7 30.0000000  0  7G 9G22G18G21G 3G26G15
  22855299.0834          0.000    22855300.0054  -10188672.05649  -7939217.03046
  21815824.6484          0.000    21815822.2154  -17779976.31349 -13854505.70347
  20297364.4554          0.000    20297362.9234  -26392201.39149 -20565322.75647
  20457147.3434          0.000    20457145.9134  -25912608.28249 -20191614.90947
  22910228.5744          0.000    22910229.3894   -3648744.30649  -2843173.80346
  22149027.0464          0.000    22149025.0714  -13018464.07849 -10144222.92846
  20663537.3154          0.000    20663537.8234  -23413033.79349 -18243900.50147
  4  3  1  1  8  0.0000000  0  7G 9G22G18G21G 3G26G15
  22838659.0924          0.000    22838660.2714  -10276113.79949  -8007353.36446
  21803096.0864          0.000    21803093.8564  -17846863.83149 -13906625.81147
  20295106.9904          0.000    20295105.4744  -26404063.49549 -20574565.88347
  20466124.5894          0.000    20466123.0104  -25865432.45049 -20154854.51047
  22908815.0044          0.000    22908817.4904   -3656169.21249  -2848959.44746
  22167045.1854          0.000    22167043.0304  -12923780.96149 -10070443.89746
  20652780.3244          0.000    20652780.8054  -23469560.06749 -18287946.96047
  4  3  1  1  8 30.0000000  0  7G 9G22G18G21G 3G26G15
  22822093.6084          0.000    22822095.6634  -10363167.35249  -8075187.21546
  21790416.2554          0.000    21790414.0044  -17913497.84649 -13958548.37847
  20292921.1674          0.000    20292919.6594  -26415549.43749 -20583515.88347
  20475199.2614          0.000    20475197.2414  -25817744.92149 -20117695.38747
  22907514.3844          0.000    22907515.8164   -3663004.83949  -2854285.91146
  22185127.8644          0.000    22185126.1364  -12828754.58849  -9996397.39746
  20642110.7284          0.000    20642111.3014  -23525628.69449 -18331636.79747
  4  3  1  1  9  0.0000000  0  7G 9G22G18G21G 3G26G15
  22805602.0314          0.000    22805602.5704  -10449832.87149  -8142718.71646
  21777784.1214          0.000    21777782.1744  -17979881.00449 -14010275.47647
  20290806.3854          0.000    20290805.0404  -26426662.13549 -20592175.03447
  20484370.4484          0.000    20484368.6704  -25769550.22349 -20080141.07547
  22906324.9114          0.000    22906326.7384   -3669254.63749  -2859155.90346
  22203274.9074          0.000    22203273.1684  -12733391.11249  -9922088.20446
  20631528.2514          0.000    20631528.5324  -23581240.76049 -18374970.85347
  4  3  1  1  9 30.0000000  0  7G 9G22G18G21G 3G26G15
  22789181.7844          0.000    22789182.7574  -10536121.68049  -8209956.67046
  21765196.6374          0.000    21765194.3534  -18046026.93749 -14061817.72547
  20288759.8244          0.000    20288758.4884  -26437416.45449 -20600554.93947
  20493635.1624          0.000    20493633.4574  -25720863.41149 -20042203.29447
  22905245.4684          0.000    22905246.4204   -3674933.14449  -2863580.71746
  22221482.3534          0.000    22221480.6154  -12637708.13249  -9847530.06046
  20621030.2894          0.000    20621030.4664  -23636408.79749 -18417958.90947
  4  3  1  1 10  0.0000000  0  7G 9G22G18G21G 3G26G15
  22772835.8904          0.000    22772836.3224  -10622015.73449  -8276887.00346
  21752657.6164          0.000    21752655.7934  -18111920.60049 -14113163.39447
  20286784.2554          0.000    20286782.7614  -26447797.18549 -20608643.77047
  20502996.4494          0.000    20502994.6094  -25671670.06249 -20003870.80147
  22904275.5924          0.000    22904276.8234   -3680025.46449  -2867548.76546
  22239753.3994          0.000    22239751.9484  -12541693.79949  -9772713.69746
  20610619.6344          0.000    20610619.9904  -23691115.75149 -18460587.65647
  4  3  1  1 10 30.0000000  0  7G 9G22G18G21G 3G26G15
  22756566.7824          0.000    22756567.1284  -10707515.79849  -8343510.34146
  21740166.1184          0.000    21740163.4774  -18177565.38449 -14164315.13547
  20284879.4084          0.000    20284877.5854  -26457808.64949 -20616444.85747
  20512452.9074          0.000    20512450.9844  -25621975.37549 -19965147.64947
  22903417.1994          0.000    22903418.2984   -3684536.14249  -2871063.57046
  22258086.3704          0.000    22258085.5044  -12445355.34049  -9697644.78546
  20600296.5394          0.000    20600296.8104  -23745363.79749 -18502858.80647
  4  3  1  1 11  0.0000000  0  7G 9G22G18G21G 3G26G15
  22740373.3504          0.000    22740373.7204  -10792610.17549  -8409817.57246
  21727722.8914          0.000    21727720.2724  -18242952.26949 -14215265.91647
  20283045.9854          0.000    20283044.2624  -26467442.61449 -20623951.78647
  20522006.3544          0.000    20522004.6934  -25571771.84349 -19926027.99347
  22902671.2714          0.000    22902672.9324   -3688456.95149  -2874118.73346
  22276481.8464          0.000    22276480.3394  -12348687.14349  -9622318.93346
  20590062.7824          0.000    20590063.1834  -23799142.49649 -18544764.20847
  4  3  1  1 11 30.0000000  0  7G 9G22G18G21G 3G26G15
  22724254.2654          0.000    22724255.8414  -10877313.35649  -8475819.92646
  21715326.2754          0.000    21715323.2634  -18308098.53149 -14266029.20347
  20281281.1114          0.000    20281279.4304  -26476717.04049 -20631178.57247
  20531653.0354          0.000    20531651.5024  -25521078.07049 -19886526.33047
  22902034.2284          0.000    22902034.7254   -3691805.78949  -2876728.21246
  22294935.6154          0.000    22294933.6834  -12251710.18449  -9546752.50746
  20579915.0684          0.000    20579915.7324  -23852467.66349 -18586316.20747
  4  3  1  1 12  0.0000000  0  8G 9G14G22G18G21G 3G26G15
  22708212.5584          0.000    22708214.0434  -10961615.52549  -8541509.76646
  25028275.0944          0.000           0.000          -0.29558         0.000
  21702976.6224          0.000    21702974.3474  -18372996.95849 -14316599.35347
  20279585.9774          0.000    20279584.2104  -26485625.19849 -20638119.95847
  20541394.3174          0.000    20541392.8594  -25469888.44949 -19846638.30447
  22901506.6304          0.000    22901507.4934   -3694576.47449  -2878887.16246
  22313449.0814          0.000    22313447.1874  -12154420.82749  -9470942.64046
  20569855.3574          0.000    20569856.1244  -23905330.75549 -18627508.17247
  4  3  1  1 12 30.0000000  0  8G 9G14G22G18G21G 3G26G15
  22692249.2474          0.000    22692249.2394  -11045500.95049  -8606874.92046
  25006591.6554          0.000           0.000     -113955.58848         0.000
  21690676.1574          0.000    21690673.6854  -18437634.48649 -14366966.19847
  20277963.0264          0.000    20277961.2894  -26494154.22649 -20644765.91647
  20551231.6704          0.000    20551230.2654  -25418190.85149 -19806354.45547
  22901092.3454          0.000    22901093.3574   -3696756.32349  -2880585.70346
  22332024.0184          0.000    22332022.3974  -12056809.32149  -9394881.75446
  20559887.1804          0.000    20559887.2904  -23957716.97349 -18668328.57247
  4  3  1  1 13  0.0000000  0  8G 9G14G22G18G21G 3G26G15
  22676364.6764          0.000    22676365.4324  -11128971.64449  -8671916.92046
  24984919.4644          0.000           0.000     -227838.24048         0.000
  21678424.9844          0.000    21678422.4684  -18502015.48549 -14417133.15247
  20276411.0944          0.000    20276409.4104  -26502309.67049 -20651120.78847
  20561164.8824          0.000    20561163.3224  -25365991.76649 -19765679.84147
  22900787.9774          0.000    22900789.6084   -3698351.04649  -2881828.31446
  22350659.0434          0.000    22350657.6244  -11958883.91549  -9318576.26346
  20550008.3104          0.000    20550008.7204  -24009629.44949 -18708779.81947
  4  3  1  1 13 30.0000000  0  8G 9G14G22G18G21G 3G26G15
  22660559.8904          0.000    22660559.5214  -11212030.25049  -8736637.81846
  24963258.7184          0.000           0.000     -341652.31448         0.000
  21666221.4114          0.000    21666218.8464  -18566145.40649 -14467104.45347
  20274929.0264          0.000    20274927.3864  -26510097.45849 -20657189.18147
  20571192.3934          0.000    20571190.7954  -25313297.80949 -19724619.61247
  22900595.5534          0.000    22900597.1024   -3699366.57149  -2882619.59746
  22369351.6634          0.000    22369350.1804  -11860653.47049  -9242033.08746
  20540218.8324          0.000    20540219.3654  -24061072.01849 -18748864.87947
  4  3  1  1 14  0.0000000  0  8G 9G14G22G18G21G 3G26G15
  22644833.4874          0.000    22644834.4964  -11294669.79649  -8801032.19646
  24941614.1974          0.000           0.000     -455392.49548   -354850.23344
  21654066.0874          0.000    21654063.6304  -18630019.77249 -14516876.60447
  20273517.6624          0.000    20273516.0524  -26517513.18649 -20662967.67047
  20581314.3364          0.000    20581312.6834  -25260105.97749 -19683171.41947
  22900512.5544          0.000    22900513.8784   -3699799.58749  -2882957.00146
  22388102.3784          0.000    22388101.1884  -11762117.06349  -9165251.47846
  20530520.1234          0.000    20530520.3774  -24112038.99349 -18788579.34147
  4  3  1  1 14 30.0000000  0  8G 9G14G22G18G21G 3G26G15
  22629187.8694          0.000    22629188.9514  -11376886.50449  -8865097.07546
  24919984.1144          0.000           0.000     -569056.72548   -443419.67044
  21641960.1444          0.000    21641957.7684  -18693637.69849 -14566448.92947
  20272177.2434          0.000    20272175.8904  -26524557.31249 -20668456.61447
  20591530.8504          0.000    20591529.1224  -25206416.94449 -19641335.80147
  22900541.0834          0.000    22900540.7564   -3699649.89149  -2882840.35146
  22406910.3594          0.000    22406908.7054  -11663277.43349  -9088233.59446
  20520912.3844          0.000    20520912.6054  -24162528.15349 -18827921.51847
  4  3  1  1 15  0.0000000  0  8G 9G14G22G18G21G 3G26G15
  22613624.6384          0.000    22613624.7524  -11458673.87849  -8928827.42446
  24898369.8104          0.000           0.000     -682639.65048   -531925.76344
  21629903.2014          0.000    21629900.8444  -18756995.31649 -14615818.41647
  20270908.0994          0.000    20270906.5554  -26531226.49549 -20673653.40247
  20601842.8794          0.000    20601840.9524  -25152228.01549 -19599110.65447
  22900681.0964          0.000    22900682.8104   -3698914.71749  -2882267.44546
  22425776.9684          0.000    22425775.7394  -11564134.03349  -9010979.02046
  20511396.7864          0.000    20511397.1084  -24212533.96749 -18866887.08147
  4  3  1  1 15 30.0000000  0  8G 9G14G22G18G21G 3G26G15
  22598140.9954          0.000    22598141.3854  -11540040.21049  -8992229.68746
  24876770.1464          0.000           0.000     -796150.93248   -620376.06444
  21617894.3404          0.000    21617891.8624  -18820103.46049 -14664993.50447
  20269708.2394          0.000    20269706.3634  -26537531.68849 -20678566.60347
  20612247.4244          0.000    20612245.5774  -25097552.00649 -19556505.96347
  22900929.7204          0.000    22900931.1764   -3697605.83349  -2881247.48446
  22444698.5744          0.000    22444696.9814  -11464701.59149  -8933499.23646
  20501971.1914          0.000    20501971.2244  -24262066.15549 -18905483.56047
  4  3  1  1 16  0.0000000  0  8G 9G14G22G18G21G 3G26G15
  22582738.3714          0.000    22582739.7914  -11620980.05549  -9055299.59146
  24855184.4564          0.000           0.000     -909586.67148         0.000
  21605933.3754          0.000    21605930.6544  -18882959.07249 -14713971.80747
  20268578.4144          0.000    20268576.5364  -26543470.49149 -20683194.26147
  20622744.9684          0.000    20622743.2134  -25042387.49549 -19513520.62047
  22901288.2854          0.000    22901289.5364   -3695721.42549  -2879779.06446
  22463675.3624          0.000    22463673.4804  -11364980.58449  -8855794.57346
  20492636.5094          0.000    20492636.4984  -24311120.39449 -18943707.57647
  4  3  1  1 16 30.0000000  0  8G 9G14G22G18G21G 3G26G15
  22567421.2454          0.000    22567421.9454  -11701475.29049  -9118023.04246
  24833617.2664          0.000    24833619.1914   -1022930.01648   -797086.93944
  21594023.2264          0.000    21594020.5244  -18945546.75349 -14762741.33647
  20267520.6754          0.000    20267518.8894  -26549028.41649 -20687525.11847
  20633337.8234          0.000    20633336.5134  -24986720.39449 -19470143.64447
  22901759.6694          0.000    22901760.2894   -3693246.96149  -2877850.87246
  22482709.0604          0.000    22482707.3024  -11264958.93449  -8777855.65646
  20483395.8494          0.000    20483395.6824  -24359679.69449 -18981545.92047
  4  3  1  1 17  0.0000000  0  8G 9G14G22G18G21G 3G26G15
  22552185.6644          0.000    22552185.3104  -11781536.58949  -9180408.38446
  24812063.3774          0.000           0.000    -1136193.23548   -885343.97544
  21582161.6654          0.000    21582159.3644  -19007879.83249 -14811312.46547
  20266533.0254          0.000    20266531.1964  -26554218.97049 -20691569.67547
  20644023.6164          0.000    20644022.4664  -24930565.48449 -19426386.54647
  22902339.4684          0.000    22902341.0624   -3690196.93949  -2875474.21446
  22501796.0754          0.000    22501794.2824  -11164653.59849  -8699695.68046
  20474247.0374          0.000    20474247.2404  -24407755.87349 -19019007.78547
  4  3  1  1 17 30.0000000  0  8G 9G14G22G18G21G 3G26G15
  22537033.1114          0.000    22537033.2004  -11861163.06549  -9242454.88846
  24790526.4314          0.000           0.000    -1249376.52148         0.000
  21570348.8594          0.000    21570346.2134  -19069959.96049 -14859686.48447
  20265614.7544          0.000    20265612.9624  -26559044.80849 -20695330.04047
  20654801.6484          0.000    20654800.1904  -24873926.24449 -19382252.04047
  22903029.3484          0.000    22903030.1514   -3686573.91649  -2872651.08446
  22520936.9594          0.000    22520935.0534  -11064069.58049  -8621318.54146
  20465190.0334          0.000    20465190.3144  -24455349.20249 -19056093.39947
  4  3  1  1 18  0.0000000  0  8G 9G14G22G18G21G 3G26G15
  22521965.4104          0.000    22521965.9824  -11940344.55349  -9304154.66046
  24769004.1164          0.000           0.000    -1362471.06348  -1061664.30544
  21558584.1514          0.000    21558581.6534  -19131779.24449 -14907857.25547
  20264767.1164          0.000    20264765.3284  -26563498.33649 -20698800.33147
  20665673.1834          0.000    20665671.3644  -24816796.42949 -19337735.28147
  22903829.1884          0.000    22903831.3004   -3682371.27149  -2869376.27746
  22540131.3274          0.000    22540129.4014  -10963202.97949  -8542721.20246
  20456226.6514          0.000    20456226.8204  -24502450.90949 -19092795.93747
  4  3  1  1 18 30.0000000  0  8G 9G14G22G18G21G 3G26G15
  22506985.7994          0.000    22506986.3244  -12019063.52149  -9365494.00946
  24747501.4854          0.000    24747504.7374   -1475460.73048  -1149708.19444
  21546872.4444          0.000    21546870.2394  -19193322.82949 -14955813.20847
  20263993.2804          0.000    20263991.3904  -26567565.58749 -20701969.58347
  20676640.6794          0.000    20676638.8924  -24759162.60949 -19292825.79847
  22904742.0894          0.000    22904743.3134   -3677575.13649  -2865639.00846
  22559380.8934          0.000    22559379.9254  -10862042.17149  -8463894.62046
  20447360.5834          0.000    20447360.4584  -24549044.55249 -19129102.60747
  4  3  1  1 19  0.0000000  0  8G 9G14G22G18G21G 3G26G15
  22492090.0834          0.000    22492090.4004  -12097339.14049  -9426487.87246
  24726017.7314          0.000    24726015.9454   -1588366.24348  -1237686.51944
  21535209.3214          0.000    21535206.8014  -19254612.80849 -15003571.55047
  20263288.3924          0.000    20263286.5454  -26571269.28349 -20704855.53547
  20687699.1534          0.000    20687697.5614  -24701048.79949 -19247542.30047
  22905762.7004          0.000    22905764.2004   -3672208.66949  -2861457.36446
  22578682.7084          0.000    22578681.0394  -10760612.68649  -8384858.67246
  20438586.9324          0.000    20438586.8674  -24595150.60249 -19165029.36147
  4  3  1  1 19 30.0000000  0  8G 9G14G22G18G21G 3G26G15
  22477280.0524          0.000    22477279.3724  -12175170.05049  -9487135.19146
  24704548.2264          0.000    24704545.8454   -1701187.65148  -1325599.25644
  21523594.3204          0.000    21523591.9074  -19315650.16149 -15051133.03447
  20262652.5454          0.000    20262650.8384  -26574611.12049 -20707459.53447
  20698848.9274          0.000    20698847.1384  -24642457.48949 -19201886.72047
  22906891.7274          0.000    22906892.8674   -3666274.10949  -2856833.03546
  22598034.1504          0.000    22598033.3554  -10658918.77049  -8305616.66546
  20429905.9684          0.000    20429906.0484  -24640768.82049 -19200575.96747
  4  3  1  1 20  0.0000000  0  8G 9G14G22G18G21G 3G26G15
  22462555.7094          0.000    22462555.6834  -12252543.20249  -9547425.79246
  24683097.0054          0.000    24683099.9104   -1813913.24748  -1413437.41344
  21512029.6824          0.000    21512026.5334  -19376424.37149 -15098489.47947
  20262087.1744          0.000    20262085.3744  -26577581.36949 -20709773.96547
  20710090.8874          0.000    20710089.1684  -24583379.97349 -19155852.27747
  22908131.5754          0.000    22908133.4264   -3659762.10349  -2851758.73846
  22617436.4784          0.000    22617435.6714  -10556953.70749  -8226163.37646
  20421320.1214          0.000    20421320.1484  -24685887.32349 -19235733.16147
  4  3  1  1 20 30.0000000  0  8G 9G14G22G18G21G 3G26G15
  22447919.5254          0.000    22447919.9814  -12329450.47749  -9607353.36546
  24661665.5404          0.000    24661669.2134   -1926536.28448  -1501195.65744
  21500515.4644          0.000    21500512.6394  -19436929.99249 -15145636.63747
  20261593.5704          0.000    20261591.6634  -26580174.91949 -20711794.86547
  20721426.2264          0.000    20721424.8054  -24523812.45149 -19109436.01847
  22909481.4954          0.000    22909483.7864   -3652668.34049  -2846231.13646
  22636892.3704          0.000    22636890.5774  -10454715.47749  -8146497.21446
  20412830.3914          0.000    20412830.6504  -24730499.28649 -19270495.64647
  4  3  1  1 21  0.0000000  0  8G 9G14G22G18G21G 3G26G15
  22433373.8334          0.000    22433373.9004  -12405893.19049  -9666918.96846
  24640252.4054          0.000           0.000    -2039059.18248  -1588875.91544
  21489051.9004          0.000    21489049.3664  -19497170.54349 -15192577.25347
  20261171.1144          0.000    20261169.1964  -26582396.04649 -20713525.55747
  20732853.8584          0.000    20732852.0334  -24463759.76049 -19062641.69647
  22910941.1104          0.000    22910943.2344   -3644997.58049  -2840253.95046
  22656397.9884          0.000    22656396.5994  -10352211.00849  -8066623.60146
  20404436.9854          0.000    20404437.0464  -24774607.18449 -19304865.34447
  4  3  1  1 21 30.0000000  0  8G 9G14G22G18G21G 3G26G15
  22418915.7254          0.000    22418916.2464  -12481868.83449  -9726120.65546
  24618860.3764          0.000    24618860.9744   -2151480.85448  -1676477.27344
  21477638.8064          0.000    21477636.0794  -19557146.01849 -15239311.33047
  20260819.0634          0.000    20260817.1894  -26584245.43849 -20714966.60847
  20744373.4134          0.000    20744371.7934  -24403223.77749 -19015470.78147
  22912510.1354          0.000    22912511.2854   -3636751.08249  -2833828.14146
  22675954.9424          0.000    22675953.4504  -10249443.95649  -7986545.38346
  20396139.7994          0.000    20396139.6604  -24818209.63749 -19338841.19547
  4  3  1  1 22  0.0000000  0  8G 9G14G22G18G21G 3G26G15
  22404546.2614          0.000    22404546.1474  -12557379.78649  -9784960.21646
  24597486.6184          0.000    24597486.6584   -2263804.69048  -1764002.39044
  21466275.5014          0.000    21466272.8164  -19616861.08449 -15285842.50047
  20260536.8984          0.000    20260535.0814  -26585728.46449 -20716122.16447
  20755983.6864          0.000    20755981.8604  -24342211.25749 -18967928.54547
  22914188.0464          0.000    22914187.9634   -3627934.78049  -2826958.32546
  22695559.7364          0.000    22695558.4974  -10146422.32049  -7906268.79146
  20387937.9114          0.000    20387937.9764  -24861310.21749 -19372426.04347
  4  3  1  1 22 30.0000000  0  8G 9G14G22G18G21G 3G26G15
  22390265.0834          0.000    22390264.4834  -12632430.03049  -9843440.81846
  24576129.5204          0.000    24576129.6504   -2376035.83948  -1851455.28144
  21454960.6614          0.000    21454957.6564  -19676322.05049 -15332175.67247
  20260322.8164          0.000    20260321.0494  -26586852.07249 -20716997.65847
  20767683.5194          0.000    20767681.4514  -24280730.23449 -18920021.23747
  22915972.5784          0.000    22915973.3134   -3618556.44449  -2819650.54946
  22715209.5754          0.000    22715207.4514  -10043155.99449  -7825801.53746
  20379831.0124          0.000    20379831.0144  -24903913.84349 -19405623.70647
  4  3  1  1 23  0.0000000  0  8G 9G14G22G18G21G 3G26G15
  22376074.0054          0.000    22376073.9244  -12707003.15649  -9901549.64646
  24554793.0074          0.000    24554794.0814   -2488159.25948  -1938824.25244
  21443696.7074          0.000    21443693.5644  -19735515.13049 -15378300.10547
  20260179.8904          0.000    20260178.1744  -26587603.05549 -20717582.78647
  20779474.2954          0.000    20779472.4944  -24218768.43149 -18871739.29447
  22917866.5424          0.000    22917867.7884   -3608603.55249  -2811895.10446
  22734909.9244          0.000    22734908.7994   -9939634.62949  -7745135.54446
  20371820.8214          0.000    20371820.8374  -24946005.65549 -19438422.54847
  4  3  1  1 23 30.0000000  0  8G 9G14G22G18G21G 3G26G15
  22361975.1534          0.000    22361975.6214  -12781090.72449  -9959280.16146
  24533478.6554          0.000    24533479.7284   -2600168.00548  -2026103.84644
  21432484.6634          0.000    21432481.7334  -19794434.41049 -15424211.18347
  20260108.8834          0.000    20260107.1034  -26587976.09149 -20717873.40847
  20791357.1544          0.000    20791355.3654  -24156321.63349 -18823079.43847
  22919870.7274          0.000    22919872.5334   -3598071.38549  -2803688.27246
  22754657.6154          0.000    22754656.3464   -9835855.68149  -7664268.84846
  20363909.9494          0.000    20363909.6454  -24987578.18149 -19470816.73947
  4  3  1  1 24  0.0000000  0  8G 9G14G22G18G21G 3G26G15
  22347970.4124          0.000    22347971.2184  -12854684.78949 -10016626.09346
  24512186.9204          0.000    24512188.4424   -2712055.17848  -2113288.71044
  21421325.6324          0.000    21421322.9774  -19853074.59949 -15469904.80547
  20260110.4394          0.000    20260108.7174  -26587966.64649 -20717865.98947
  20803333.5414          0.000    20803331.4674  -24093386.52549 -18774039.08147
  22921986.2874          0.000    22921986.9534   -3586956.05749  -2795027.00946
  22774455.3904          0.000    22774453.7534   -9731817.34249  -7583200.03146
  20356099.0544          0.000    20356098.9064  -25028624.69849 -19502801.02347
  4  3  1  1 24 30.0000000  0  8G 9G14G22G18G21G 3G26G15
  22334055.5674          0.000    22334056.0104  -12927811.55249 -10073607.90046
  24490912.6304          0.000    24490915.7904   -2823848.58448  -2200400.43944
  21410214.4734          0.000    21410211.9054  -19911464.00949 -15515403.00547
  20260179.6624          0.000    20260177.7274  -26587603.72249 -20717583.13247
  20815396.3434          0.000    20815394.6814  -24029993.59149 -18724641.97547
  22924206.7354          0.000    22924207.3684   -3575287.48449  -2785934.61546
  22794297.2804          0.000    22794295.3424   -9627551.59549  -7501954.00846
  20348382.8974          0.000    20348382.9534  -25069172.85549 -19534396.94847
  4  3  1  1 25  0.0000000  0  8G 9G14G22G18G21G 3G26G15
  22320234.3684          0.000    22320234.5814  -13000441.74749 -10130202.77746
  24469662.7924          0.000    24469665.2594   -2935519.87748  -2287417.00144
  21399156.2184          0.000    21399152.8984  -19969575.92049 -15560684.95547
  20260320.9484          0.000    20260318.9884  -26586861.01149 -20717004.34847
  20827551.9634          0.000    20827549.9184  -23966117.46149 -18674868.35847
  22926537.3624          0.000    22926538.2044   -3563040.02449  -2776391.12646
  22814185.9684          0.000    22814184.8414   -9523034.67849  -7420512.30146
  20340767.0754          0.000    20340767.0934  -25109194.30249 -19565582.45247
  4  3  1  1 25 30.0000000  0  8G 9G14G22G18G21G 3G26G15
  22306506.1184          0.000    22306507.2344  -13072582.92349 -10186416.58146
  24448434.0134          0.000    24448435.6494   -3047077.43648  -2374344.94144
  21388148.8884          0.000    21388145.7634  -20027419.94049 -15605758.16647
  20260532.3444          0.000    20260530.3304  -26585748.93649 -20716137.74747
  20839796.9044          0.000    20839795.0954  -23901769.67149 -18624727.21047
  22928974.9044          0.000    22928976.3524   -3550224.92849  -2766405.31646
  22834119.9544          0.000    22834118.0054   -9418279.97749  -7338885.28946
  20333249.9004          0.000    20333249.7254  -25148697.78549 -19596364.35947
  4  3  1  1 26  0.0000000  0  8G 9G14G22G18G21G 3G26G15
  22292872.5734          0.000    22292872.3824  -13144226.38649 -10242242.53346
  24427227.2704          0.000    24427229.6044   -3158514.36048  -2461178.86544
  21377193.2864          0.000    21377190.0924  -20084989.96049 -15650617.86947
  20260815.3074          0.000    20260813.4324  -26584262.48349 -20714979.42947
  20852132.2334          0.000    20852131.0034  -23836945.81449 -18574215.10247
  22931522.7104          0.000    22931524.3824   -3536837.42249  -2755973.47946
  22854099.3014          0.000    22854097.8994   -9313284.96849  -7257071.03546
  20325832.4284          0.000    20325832.4644  -25187675.94349 -19626736.88547
  4  3  1  1 26 30.0000000  0  8G 9G14G22G18G21G 3G26G15
  22279333.9904          0.000    22279333.4374  -13215375.68249 -10297683.45246
  24406042.7334          0.000    24406044.5074   -3269835.18748  -2547922.30144
  21366288.9664          0.000    21366286.0604  -20142291.94749 -15695268.71047
  20261168.2484          0.000    20261166.2014  -26582407.83549 -20713534.20247
  20864557.3704          0.000    20864555.4924  -23771653.96249 -18523338.32947
  22934178.6584          0.000    22934179.9224   -3522885.04149  -2745101.47346
  22874124.1964          0.000    22874123.4234   -9208058.63149  -7175076.51046
  20318514.0774          0.000    20318513.8824  -25226133.50149 -19656703.72247
  4  3  1  1 27  0.0000000  0  8G 9G14G22G18G21G 3G26G15
  22265888.1224          0.000    22265887.8244  -13286031.14449 -10352739.56346
  24384881.3114          0.000    24384885.4924   -3381041.15448  -2634576.18744
  21355435.2724          0.000    21355432.4494  -20199328.18949 -15739712.47247
  20261590.4974          0.000    20261588.5054  -26580188.35849 -20711804.67247
  20877069.9154          0.000    20877068.3424  -23705898.21949 -18472100.07347
  22936940.9264          0.000    22936942.4614   -3508371.71049  -2733792.35846
  22894191.3634          0.000    22894190.4924   -9102607.04749  -7092906.48546
  20311294.8184          0.000    20311294.7114  -25264071.80849 -19686265.96847
  4  3  1  1 27 30.0000000  0  8G 9G14G22G18G21G 3G26G15
  22252538.8784          0.000    22252538.7684  -13356182.39749 -10407402.79146
  24363744.1054          0.000    24363744.7244   -3492123.42748  -2721133.68044
  21344633.6454          0.000    21344630.7554  -20256090.87849 -15783943.04447
  20262083.6834          0.000    20262081.5864  -26577596.54149 -20709785.00047
  20889672.0954          0.000    20889670.6584  -23639672.59549 -18420495.67547
  22939809.7534          0.000    22939810.9904   -3493291.02349  -2722041.15046
  22914300.3404          0.000    22914299.1574   -8996925.58748  -7010557.34245
  20304175.9374          0.000    20304175.8384  -25301481.65449 -19715416.45747
  4  3  1  1 28  0.0000000  0  8G 9G14G22G18G21G 3G26G15
  22239287.3904          0.000    22239286.5884  -13425817.44049 -10461663.78046
  24342632.0214          0.000    24342633.0014   -3603071.02748  -2807586.28544
  21333886.2584          0.000    21333883.5184  -20312570.61249 -15827953.13847
  20262649.5084          0.000    20262647.4334  -26574623.63249 -20707468.39047
  20902365.6564          0.000    20902363.7114  -23572969.66349 -18368519.34847
  22942789.0364          0.000    22942790.2964   -3477635.26949  -2709841.82246
  22934455.6994          0.000    22934454.6054   -8891008.00548  -6928024.19745
  20297159.7344          0.000    20297159.5344  -25338352.34749 -19744146.83847
  4  3  1  1 28 30.0000000  0  8G 9G14G22G18G21G 3G26G15
  22226132.0824          0.000    22226130.9604  -13494950.73549 -10515533.78146
  24321541.4694          0.000    24321544.3924   -3713899.73548  -2893946.19544
  21323188.9744          0.000    21323186.0734  -20368783.80749 -15871755.55847
  20263284.3654          0.000    20263282.1414  -26571287.01949 -20704868.38647
  20915145.7774          0.000    20915143.9414  -23505807.81249 -18316185.43347
  22945874.6974          0.000    22945875.2984   -3461422.61149  -2697208.55146
  22954652.7634          0.000    22954650.7964   -8784874.44449  -6845322.76345
  20290242.8404          0.000    20290242.7004  -25374699.39849 -19772469.19647
  4  3  1  1 29  0.0000000  0  8G 9G14G22G18G21G 3G26G15
  22213074.9394          0.000    22213074.1314  -13563565.94349 -10569000.07846
  24300476.6824          0.000    24300478.4834   -3824593.98448  -2980201.32644
  21312545.2574          0.000    21312542.2654  -20424716.39849 -15915339.32247
  20263990.9954          0.000    20263988.6324  -26567573.34849 -20701974.57147
  20928015.8824          0.000    20928014.1504  -23438174.89849 -18263484.45047
  22949067.9384          0.000    22949068.6654   -3444640.34349  -2684131.44246
  22974892.1204          0.000    22974891.1644   -8678514.12549  -6762444.63145
  20283428.7784          0.000    20283428.7374  -25410507.76149 -19800371.81147
  4  3  1  1 29 30.0000000  0  8G 9G14G22G18G21G 3G26G15
  22200112.9634          0.000    22200113.0144  -13631680.64049 -10622076.37446
  24279434.9684          0.000    24279437.5434   -3935172.35748  -3066366.17344
  21301951.1544          0.000    21301947.8824  -20480387.98149 -15958719.70447
  20264765.6634          0.000    20264763.3104  -26563502.64849 -20698802.53947
  20940971.8014          0.000    20940970.1164  -23370092.61049 -18210433.31247
  22952365.5584          0.000    22952367.2814   -3427309.71149  -2670627.00346
  22995171.3924          0.000    22995169.8894   -8571950.07149  -6679407.73045
  20276713.8704          0.000    20276713.4954  -25445795.77449 -19827868.95747
  4  3  1  1 30  0.0000000  0  8G 9G14G22G18G21G 3G26G15
  22187250.5834          0.000    22187249.2644  -13699273.69549 -10674746.22146
  24258417.1694          0.000    24258419.8264   -4045615.16748  -3152425.37644
  21291410.4154          0.000    21291407.3634  -20535780.05049 -16001882.27347
  20265611.3974          0.000    20265609.2294  -26559057.16349 -20695338.47547
  20954016.1024          0.000    20954014.4134  -23301544.12649 -18157018.91347
  22955771.1124          0.000    22955772.1284   -3409413.77049  -2656682.05346
  23015492.2484          0.000    23015490.6104   -8465166.85049  -6596200.04945
  20270101.2454          0.000    20270101.1454  -25480543.97149 -19854945.47547
  4  3  1  1 30 30.0000000  0  8G 9G14G22G18G21G 3G26G15
  22174486.7484          0.000    22174485.4014  -13766350.05849 -10727013.43346
  24237425.7514          0.000    24237426.3644   -4155928.57348  -3238383.71344
  21280921.4404          0.000    21280918.2394  -20590899.79149 -16044832.61747
  20266527.0834          0.000    20266525.1454  -26554245.13549 -20691588.80447
  20967147.2974          0.000    20967145.4394  -23232538.79049 -18103248.52447
  22959282.6974          0.000    22959283.2124   -3390961.63249  -2642303.73846
  23035851.0354          0.000    23035850.1174   -8358175.45249  -6512830.15445
  20263590.4054          0.000    20263590.2594  -25514758.58049 -19881606.20947
  4  3  1  1 31  0.0000000  0  8G 9G14G22G18G21G 3G26G15
  22161821.4844          0.000    22161820.5914  -13832900.49449 -10778870.79746
  24216459.2694          0.000    24216461.1654   -4266104.25048  -3324234.75945
  21270485.7884          0.000    21270482.6034  -20645740.17349 -16087565.25947
  20267513.6684          0.000    20267511.5384  -26549060.14849 -20687548.51647
  20980366.4614          0.000    20980364.5474  -23163071.51749 -18049118.18247
  22962900.7614          0.000    22962901.6694   -3371947.92249  -2627487.84346
  23056249.9674          0.000    23056249.3514   -8250972.20348  -6429295.22345
  20257183.0844          0.000    20257182.5204  -25548431.38849 -19907844.77147
  4  3  1  1 31 30.0000000  0  8G 9G14G22G18G21G 3G26G15
  22149258.3264          0.000    22149257.8544  -13898924.05349 -10830317.61146
  24195519.4674          0.000    24195520.8984   -4376142.50748  -3409978.69345
  21260102.4954          0.000    21260099.1664  -20700302.46549 -16130081.19247
  20268571.1464          0.000    20268568.9134  -26543503.74349 -20683218.82547
  20993673.3184          0.000    20993671.2744  -23093145.37649 -17994630.28047
  22966624.9464          0.000    22966625.7974   -3352375.24349  -2612236.37146
  23076690.9104          0.000    23076689.6664   -8143561.28949  -6345598.42345
  20250878.4794          0.000    20250878.2234  -25581562.50749 -19933661.25447
  4  3  1  1 32  0.0000000  0  8G 9G14G22G18G21G 3G26G15
  22136793.4514          0.000    22136792.9504  -13964423.02449 -10881355.66546
  24174604.9634          0.000    24174607.4374   -4486046.08948  -3495617.69845
  21249771.8894          0.000    21249768.7024  -20754590.75349 -16172383.56347
  20269697.9944          0.000    20269695.9314  -26537581.05449 -20678603.69147
  21007065.6774          0.000    21007063.7494  -23022766.81849 -17939789.84747
  22970454.9994          0.000    22970456.7144   -3332249.65249  -2596554.05946
  23097169.3844          0.000    23097168.6024   -8035950.57949  -6261745.97245
  20244676.0924          0.000    20244675.8984  -25614155.12349 -19959058.12647
  4  3  1  1 32 30.0000000  0  8G 9G14G22G18G21G 3G26G15
  22124431.1134          0.000    22124431.3214  -14029387.15849 -10931976.98646
  24153719.6814          0.000    24153720.4434   -4595806.00048  -3581144.73944
  21239494.6364          0.000    21239491.3404  -20808597.20549 -16214466.34147
  20270896.2504          0.000    20270894.1634  -26531284.79149 -20673697.44947
  21020544.9114          0.000    21020543.2424  -22951929.82549 -17884592.19347
  22974390.7924          0.000    22974392.4624   -3311565.17149  -2580436.24046
  23117684.9094          0.000    23117683.7594   -7928135.13448  -6177733.96645
  20238578.1904          0.000    20238578.1824  -25646200.11249 -19984028.28247
  4  3  1  1 33  0.0000000  0  8G 9G14G22G18G21G 3G26G15
  22112170.1224          0.000    22112169.7684  -14093820.19949 -10982184.47346
  24132859.7764          0.000    24132862.0534   -4705427.31648  -3666563.80145
  21229269.9294          0.000    21229266.6094  -20862327.83149 -16256334.22147
  20272164.0214          0.000    20272161.8544  -26524621.88449 -20668505.53647
  21034111.1584          0.000    21034109.0184  -22880642.39049 -17829043.52947
  22978432.0994          0.000    22978433.4384   -3290329.52749  -2563888.93546
  23138238.9844          0.000    23138238.5114   -7820124.47248  -6093569.85745
  20232583.6314          0.000    20232583.2204  -25677702.65849 -20008575.74547
  4  3  1  1 33 30.0000000  0  8G 9G14G22G18G21G 3G26G15
  22100011.5834          0.000    22100011.2324  -14157716.82749 -11031973.98546
  24112026.4654          0.000    24112028.6254   -4814905.60348  -3751871.42945
  21219098.5294          0.000    21219095.0414  -20915779.49049 -16297984.76347
  20273502.2434          0.000    20273500.1384  -26517589.79449 -20663025.93747
  21047762.4754          0.000    21047760.5804  -22808903.57949 -17773143.13047
  22982578.4034          0.000    22982579.3154   -3268541.21049  -2546910.99146
  23158830.1404          0.000    23158828.6134   -7711918.75748  -6009253.75745
  20226692.8914          0.000    20226692.3554  -25708658.52649 -20032697.17447
  4  3  1  1 34  0.0000000  0  8G 9G14G22G18G21G 3G26G15
  22087953.8474          0.000    22087954.1464  -14221075.02249 -11081343.95346
  24091220.4934          0.000    24091222.4324   -4924239.77648  -3837066.73245
  21208980.2114          0.000    21208976.5404  -20968952.10949 -16339417.87747
  20274910.3864          0.000    20274908.1314  -26510189.36749 -20657259.30847
  21061499.0054          0.000    21061497.2474  -22736715.15449 -17716892.38947
  22986829.7084          0.000    22986830.3814   -3246202.19649  -2529503.93546
  23179457.8284          0.000    23179456.6754   -7603521.19248  -5924788.15045
  20220905.9434          0.000    20220905.8644  -25739066.70349 -20056391.82347
  4  3  1  1 34 30.0000000  0  8G 9G14G22G18G21G 3G26G15
  22076000.8974          0.000    22075999.9644  -14283890.51549 -11130291.00946
  24070441.9064          0.000    24070444.3784   -5033426.23248  -3922146.93545
  21198915.0584          0.000    21198911.6414  -21021843.45749 -16380631.81647
  20276389.0384          0.000    20276386.8004  -26502418.77649 -20651204.28747
  21075321.8544          0.000    21075319.9814  -22664077.23749 -17660291.39747
  22991185.2354          0.000    22991186.6764   -3223312.02249  -2511667.39346
  23200121.1724          0.000    23200120.0234   -7494932.83248  -5840173.89645
  20215224.2874          0.000    20215224.3494  -25768923.87049 -20079657.12347
  4  3  1  1 35  0.0000000  0  8G 9G14G22G18G21G 3G26G15
  22064153.1754          0.000    22064152.2944  -14346150.02049 -11178804.84746
  24049694.7474          0.000    24049697.2924   -5142452.79948  -4007102.54745
  21188905.6194          0.000    21188902.2944  -21074442.20149 -16421617.75047
  20277940.5214          0.000    20277938.2164  -26494267.59749 -20644852.79147
  21089231.9084          0.000    21089229.8364  -22590980.75949 -17603333.08247
  22995647.1024          0.000    22995648.3724   -3199861.34749  -2493394.10546
  23220822.0184          0.000    23220819.8504   -7386145.67448  -5755404.74445
  20209650.0334          0.000    20209649.9254  -25798218.25849 -20102483.90647
  4  3  1  1 35 30.0000000  0  8G 9G14G22G18G21G 3G26G15
  22052411.0424          0.000    22052410.7364  -14407854.07549 -11226885.85646
  24028977.8334          0.000    24028978.8384   -5251320.86648  -4091934.65545
  21178951.2724          0.000    21178947.9054  -21126751.23749 -16462377.96347
  20279563.3454          0.000    20279561.1114  -26485739.19049 -20638207.34647
  21103228.2184          0.000    21103226.1404  -22517430.10349 -17546020.87347
  23000215.8274          0.000    23000216.5994   -3175854.64349  -2474687.53646
  23241560.3184          0.000    23241558.6764   -7277165.78048  -5670485.36545
  20204182.3054          0.000    20204181.8114  -25826951.42349 -20124873.35447
  4  3  1  1 36  0.0000000  0  8G 9G14G22G18G21G 3G26G15
  22040770.6404          0.000    22040770.2374  -14469025.16949 -11274551.56646
  24008287.3764          0.000    24008288.7364   -5360054.10348  -4176661.70145
  21169047.5084          0.000    21169044.2384  -21178794.94149 -16502931.45747
  20281253.2354          0.000    20281251.0254  -26476858.84249 -20631287.62047
  21117305.6414          0.000    21117303.7404  -22443452.30349 -17488375.81747
  23004884.5714          0.000    23004885.2184   -3151318.27549  -2455568.26246
  23262330.1844          0.000    23262328.9404   -7168020.77448  -5585437.32845
  20198816.8664          0.000    20198816.7414  -25855146.90349 -20146843.81147
  4  3  1  1 36 30.0000000  0  8G 9G14G22G18G21G 3G26G15
  22029236.7224          0.000    22029235.9564  -14529639.09849 -11321783.12946
  23987626.1584          0.000    23987627.8334   -5468628.87848  -4261265.25745
  21159198.9024          0.000    21159195.2374  -21230551.07849 -16543260.87847
  20283014.5254          0.000    20283012.1324  -26467605.27149 -20624077.03447
  21131468.4574          0.000    21131466.4804  -22369027.03549 -17430382.08947
  23009658.1624          0.000    23009659.8454   -3126231.91249  -2436020.41146
  23283134.0014          0.000    23283132.9374   -7058691.77848  -5500245.90245
  20193557.8604          0.000    20193557.9634  -25882781.69749 -20168377.37147
  4  3  1  1 37  0.0000000  0  8G 9G14G22G18G21G 3G26G15
  22017807.9914          0.000    22017807.1704  -14589692.59949 -11368578.00046
  23966995.8084          0.000    23966996.8024   -5577043.31348  -4345743.86145
  21149404.8604          0.000    21149401.6514  -21282018.79649 -16583365.58447
  20284846.0914          0.000    20284843.8294  -26457977.74849 -20616575.02747
  21145715.6724          0.000    21145713.6504  -22294155.45949 -17372040.58347
  23014536.6334          0.000    23014537.4074   -3100596.65949  -2416044.85246
  23303973.6624          0.000    23303972.9934   -6949181.05348  -5414912.88045
  20188406.4354          0.000    20188406.2484  -25909853.88449 -20189472.53547
  4  3  1  1 37 30.0000000  0  8G 9G14G22G18G21G 3G26G15
  22006486.9154          0.000    22006486.1624  -14649186.88749 -11414937.11546
  23946395.5424          0.000    23946396.9444   -5685299.26748  -4430098.99845
  21139665.1544          0.000    21139662.0014  -21333201.00849 -16623247.83247
  20286748.6574          0.000    20286746.5064  -26447980.31749 -20608784.74747
  21160047.1654          0.000    21160045.1964  -22218842.77149 -17313355.36347
  23019517.6334          0.000    23019519.9344   -3074417.53649  -2395645.49146
  23324846.2524          0.000    23324844.1064   -6839494.83348  -5329443.10945
  20183361.2554          0.000    20183361.0274  -25936365.63449 -20210130.99447
  4  3  1  1 38  0.0000000  0  8G 9G14G22G18G21G 3G26G15
  21995269.3344          0.000    21995268.4684  -14708134.35449 -11460870.13346
  23925821.9504          0.000    23925822.9614   -5793410.00848  -4514340.95145
  21129977.1194          0.000    21129973.6724  -21384111.94649 -16662918.67547
  20288718.4224          0.000    20288716.2944  -26437628.23649 -20600718.10547
  21174459.1214          0.000    21174456.8974  -22143105.77549 -17254339.50847
  23024600.4484          0.000    23024600.6294   -3047710.93449  -2374835.10946
  23345749.4604          0.000    23345748.3984   -6729650.94748  -5243850.51645
  20178420.3924          0.000    20178420.0404  -25962330.47749 -20230363.30547
  4  3  1  1 38 30.0000000  0  8G 9G14G22G18G21G 3G26G15
  21984160.0164          0.000    21984159.8094  -14766515.57949 -11506361.90846
  23905281.2304          0.000    23905282.3914   -5901356.96348  -4598455.30245
  21120344.2424          0.000    21120340.7584  -21434734.21849 -16702364.55947
  20290758.8854          0.000    20290756.4194  -26426904.75349 -20592362.08747
  21188955.1324          0.000    21188953.3834  -22066928.70149 -17194980.72847
  23029785.8664          0.000    23029786.8664   -3020461.18849  -2353601.50246
  23366685.4694          0.000    23366684.1094   -6619634.69848  -5158123.56745
  20173586.9044          0.000    20173586.4094  -25987730.06549 -20250155.16747
  4  3  1  1 39  0.0000000  0  8G 9G14G22G18G21G 3G26G15
  21973159.1374          0.000    21973158.8604  -14824324.38749 -11551407.65346
  23884770.3944          0.000    23884770.5374   -6009134.58348  -4682437.71945
  21110766.8824          0.000    21110763.4794  -21485063.48849 -16741582.10347
  20292870.9654          0.000    20292868.4824  -26415806.04449 -20583713.68247
  21203535.4174          0.000    21203533.5034  -21990309.73849 -17135277.63347
  23035074.7504          0.000    23035075.7884   -2992666.00549  -2331942.86346
  23387653.3484          0.000    23387651.9264   -6509445.17148  -5072261.60045
  20168861.7584          0.000    20168861.4784  -26012559.12749 -20269502.47247
  4  3  1  1 39 30.0000000  0  8G 9G14G22G18G21G 3G26G15
  21962266.2104          0.000    21962265.3604  -14881566.13649 -11596011.52046
  23864291.8904          0.000    23864291.8304   -6116749.09948  -4766293.08045
  21101243.9674          0.000    21101240.5884  -21535106.90249 -16780576.92147
  20295052.6254          0.000    20295050.3184  -26404340.32549 -20574779.32547
  21218198.0334          0.000    21218196.0354  -21913258.43049 -17075237.63647
  23040467.0484          0.000    23040466.5444   -2964334.72949  -2309866.50846
  23408652.5464          0.000    23408651.2414   -6399092.99748  -4986272.91445
  20164244.5684          0.000    20164244.3424  -26036824.14449 -20288410.25347
  4  3  1  1 40  0.0000000  0  8G 9G14G22G18G21G 3G26G15
  21951483.6784          0.000    21951483.0324  -14938230.71549 -11640165.64546
  23843845.7244          0.000    23843846.4944   -6224191.28148  -4850014.12845
  21091776.9254          0.000    21091773.3034  -21584856.64849 -16819342.94147
  20297305.6174          0.000    20297303.5754  -26392500.00949 -20565553.10047
  21232943.9814          0.000    21232941.6664  -21835768.40549 -17014855.79047
  23045961.0094          0.000    23045961.9044   -2935461.39649  -2287367.77046
  23429683.0764          0.000    23429682.1404   -6288573.00748  -4900153.45445
  20159736.0894          0.000    20159735.7924  -26060516.13149 -20306871.52347
  4  3  1  1 40 30.0000000  0  8G 9G14G22G18G21G 3G26G15
  21940807.6184          0.000    21940806.4234  -14994334.41449 -11683882.73846
  23823429.4394          0.000    23823430.7774   -6331478.19548  -4933614.17645
  21082362.4004          0.000    21082358.7574  -21634330.58549 -16857894.04747
  20299626.6934          0.000    20299624.2204  -26380304.34549 -20556049.97947
  21247769.1484          0.000    21247766.5254  -21757860.29749 -16954148.16747
  23051554.3754          0.000    23051555.0484   -2906066.13549  -2264462.33746
  23450741.8934          0.000    23450741.5644   -6177906.63048  -4813919.96745
  20155333.4384          0.000    20155333.2184  -26083652.29149 -20324899.68247
  4  3  1  1 41  0.0000000  0  8G 9G14G22G18G21G 3G26G15
  21930243.5154          0.000    21930242.4684  -15049847.23749 -11727139.40246
  23803048.0004          0.000    23803048.5794   -6438580.49048  -5017070.39445
  21073005.2144          0.000    21073001.6854  -21683500.53549 -16896208.26047
  20302020.4254          0.000    20302017.9544  -26367725.49849 -20546248.26647
  21262679.0274          0.000    21262676.5824  -21679508.51949 -16893094.82247
  23057252.7864          0.000    23057253.4874   -2876123.11049  -2241130.08046
  23471834.7044          0.000    23471832.6664   -6067068.86548  -4727552.96545
  20151041.7774          0.000    20151041.7324  -26106204.05949 -20342472.47047
  4  3  1  1 41 30.0000000  0  8G 9G14G22G18G21G 3G26G15
  21919787.0564          0.000    21919786.6814  -15104793.32349 -11769954.45446
  23782697.6794          0.000    23782699.9294   -6545523.36948  -5100402.38345
  21063701.5944          0.000    21063697.9004  -21732392.70549 -16934306.03047
  20304481.6274          0.000    20304479.2844  -26354790.75849 -20536169.22047
  21277668.4014          0.000    21277666.3094  -21600740.90049 -16831717.43747
  23063049.3294          0.000    23063049.8724   -2845660.36949  -2217392.84546
  23492953.6874          0.000    23492951.0194   -5956088.93548  -4641075.09445
  20146856.6424          0.000    20146856.7364  -26128196.83049 -20359609.67647
  4  3  1  1 42  0.0000000  0  8G 9G14G22G18G21G 3G26G15
  21909444.8384          0.000    21909443.9404  -15159143.92449 -11812305.51546
  23762382.2544          0.000    23762384.2804   -6652278.82148  -5183588.35745
  21054455.3694          0.000    21054451.8544  -21780980.27149 -16972166.45647
  20307015.7864          0.000    20307013.5094  -26341473.66749 -20525792.24647
  21292740.9594          0.000    21292738.8744  -21521533.14849 -16769997.09847
  23068949.4154          0.000    23068951.3844   -2814653.28749  -2193231.45546
  23514103.0044          0.000    23514101.9694   -5844942.98348  -4554467.87945
  20142783.4274          0.000    20142783.0214  -26149602.97249 -20376289.74447
  4  3  1  1 42 30.0000000  0  8G 9G14G22G18G21G 3G26G15
  21899212.5594          0.000    21899211.4694  -15212916.76349 -11854206.37546
  23742100.2344          0.000    23742100.7244   -6758864.55548  -5266642.07145
  21045264.1724          0.000    21045260.6064  -21829282.05049 -17009804.15647
  20309618.9364          0.000    20309616.7104  -26327794.14149 -20515132.86547
  21307893.3304          0.000    21307891.5124  -21441906.33649 -16707950.21547
  23074949.6564          0.000    23074949.7774   -2783123.04149  -2168662.41945
  23535281.3274          0.000    23535279.5974   -5733653.40948  -4467748.77345
  20138818.0504          0.000    20138817.6264  -26170440.80249 -20392526.93147
  4  3  1  1 43  0.0000000  0  8G 9G14G22G18G21G 3G26G15
  21889089.3994          0.000    21889088.9904  -15266113.88949 -11895658.62946
  23721849.4494          0.000    23721850.0984   -6865283.80848  -5349566.04645
  21036125.8164          0.000    21036122.4884  -21877302.27749 -17047222.47047
  20312290.1144          0.000    20312287.8424  -26313756.87449 -20504194.70047
  21323124.1964          0.000    21323122.3374  -21361867.36049 -16645582.16347
  23081047.7274          0.000    23081048.4074   -2751075.96049  -2143690.63246
  23556486.1044          0.000    23556484.5644   -5622227.41348  -4380923.33045
  20134960.0854          0.000    20134959.9354  -26190713.66349 -20408323.87447
  4  3  1  1 43 30.0000000  0  8G 9G14G22G18G21G 3G26G15
  21879078.2894          0.000    21879078.3084  -15318717.11649 -11936648.09746
  23701633.1504          0.000    23701633.9464   -6971518.91248  -5432346.55345
  21027044.4634          0.000    21027041.1184  -21925024.54649 -17084408.62247
  20315032.1474          0.000    20315029.8684  -26299346.57149 -20492965.84247
  21338435.7284          0.000    21338433.7544  -21281401.77049 -16582881.68147
  23087247.0634          0.000    23087248.2704   -2718497.65649  -2118304.93146
  23577717.4954          0.000    23577715.5544   -5510651.63248  -4293981.17245
  20131212.8874          0.000    20131212.6384  -26210404.54649 -20423667.35947
  4  3  1  1 44  0.0000000  0  8G 9G14G22G18G21G 3G26G15
  21869179.4694          0.000    21869178.6994  -15370739.98149 -11977185.33946
  23681450.1394          0.000    23681450.1564   -7077584.23948  -5514994.76545
  21018017.1404          0.000    21018013.4924  -21972464.19849 -17121374.54147
  20317842.2484          0.000    20317839.8494  -26284579.31449 -20481458.84347
  21353825.7124          0.000    21353823.5554  -21200527.07749 -16519862.43047
  23093544.9104          0.000    23093546.0604   -2685405.78149  -2092519.05046
  23598975.5714          0.000    23598974.5884   -5398944.43448  -4206936.60945
  20127574.0414          0.000    20127573.5594  -26229528.16149 -20438568.83047
  4  3  1  1 44 30.0000000  0  8G 9G14G22G18G21G 3G26G15
  21859394.4524          0.000    21859393.2634  -15422159.45549 -12017252.40746
  23661303.1564          0.000    23661304.6594   -7183457.41948  -5597493.25045
  21009047.7324          0.000    21009044.0924  -22019599.95049 -17158103.67647
  20320724.2624          0.000    20320721.9284  -26269434.47249 -20469657.63047
  21369297.5244          0.000    21369295.5774  -21119224.29549 -16456509.59847
  23099942.7924          0.000    23099944.6814   -2651781.04249  -2066317.93446
  23620261.6694          0.000    23620261.0884   -5287087.93248  -4119775.70945
  20124046.8374          0.000    20124046.3294  -26248062.54449 -20453011.16347
  4  3  1  1 45  0.0000000  0  8G 9G14G22G18G21G 3G26G15
  21849724.0454          0.000    21849722.9704  -15472978.10649 -12056851.31846
  23641191.5964          0.000    23641192.3544   -7289141.35048  -5679844.25545
  21000135.0384          0.000    21000131.2314  -22066435.81549 -17194599.13447
  20323676.7124          0.000    20323674.3364  -26253916.68549 -20457565.82147
  21384849.0554          0.000    21384847.2394  -21037499.87549 -16392828.23947
  23106441.7944          0.000    23106442.7144   -2617630.02249  -2039706.71646
  23641573.5734          0.000    23641572.0044   -5175088.95348  -4032503.78445
  20120631.6304          0.000    20120631.0524  -26266011.08949 -20466997.01147
  4  3  1  1 45 30.0000000  0  8G 9G14G22G18G21G 3G26G15
  21840166.2464          0.000    21840165.3004  -15523204.04849 -12095988.37846
  23621114.2704          0.000    23621115.3254   -7394644.65248  -5762054.50945
  20991277.6954          0.000    20991273.9244  -22112981.39549 -17230868.40247
  20326698.8644          0.000    20326696.7074  -26238036.71449 -20445191.80747
  21400478.5274          0.000    21400476.4584  -20955366.12649 -16328827.91047
  23113038.0584          0.000    23113039.0154   -2582964.82049  -2012694.85546
  23662910.1264          0.000    23662909.1144   -5062960.49248  -3945130.91945
  20117325.5964          0.000    20117325.1314  -26283382.64849 -20480533.24847
  4  3  1  1 46  0.0000000  0  8G 9G14G22G18G21G 3G26G15
  21830721.7784          0.000    21830721.1014  -15572835.14849 -12134661.93946
  23601072.3304          0.000    23601072.5244   -7499965.87548  -5844122.87545
  20982475.6394          0.000    20982472.0924  -22159236.31049 -17266911.16847
  20329789.5704          0.000    20329787.6004  -26221794.76349 -20432535.74747
  21416185.3424          0.000    21416183.7304  -20872824.70149 -16264509.90947
  23119732.7124          0.000    23119733.4104   -2547787.26049  -1985283.76046
  23684272.0034          0.000    23684271.7774   -4950705.17248  -3857659.29145
  20114129.7814          0.000    20114129.4994  -26300176.56049 -20493619.35947
  4  3  1  1 46 30.0000000  0  8G 9G14G22G18G21G 3G26G15
  21821391.7904          0.000    21821391.2464  -15621865.91149 -12172867.70346
  23581066.4324          0.000    23581066.8074   -7605100.38348  -5926045.74945
  20973729.5344          0.000    20973725.8974  -22205196.84949 -17302724.52347
  20332950.0104          0.000    20332947.7374  -26205187.82349 -20419595.26847
  21431970.7574          0.000    21431968.5104  -20789874.20349 -16199873.16347
  23126524.3134          0.000    23126525.5154   -2512096.04249  -1957472.41546
  23705657.6594          0.000    23705654.6204   -4838322.28748  -3770088.23245
  20111044.8504          0.000    20111044.0954  -26316388.42949 -20506251.91947
  4  3  1  1 47  0.0000000  0  8G 9G14G22G18G21G 3G26G15
  21812174.2614          0.000    21812173.1374  -15670301.69349 -12210609.84246
  23561094.5744          0.000    23561096.2224   -7710053.92248  -6007827.62445
  20965038.3984          0.000    20965034.8404  -22250869.66049 -17338313.62347
  20336178.2814          0.000    20336175.9024  -26188224.05049 -20406376.78647
  21447831.6454          0.000    21447830.1064  -20706524.04349 -16134924.98747
  23133411.5724          0.000    23133411.9424   -2475900.26749  -1929267.88845
  23727066.4944          0.000    23727065.3424   -4725821.73648  -3682425.43345
  20108069.2824          0.000    20108068.5944  -26332024.53949 -20518435.85247
  4  3  1  1 47 30.0000000  0  8G 9G14G22G18G21G 3G26G15
  21803074.8274          0.000    21803073.3674  -15718119.44049 -12247870.39246
  23541160.5474          0.000    23541161.9864   -7814803.64448  -6089450.66345
  20956405.5784          0.000    20956402.2564  -22296233.46749 -17373661.95847
  20339478.2164          0.000    20339476.0734  -26170881.76649 -20392863.31847
  21463772.0134          0.000    21463770.1274  -20622754.78349 -16069650.23647
  23140399.7634          0.000    23140400.2364   -2439180.78949  -1900655.27145
  23748499.8434          0.000    23748498.8794   -4613184.97748  -3594656.51745
  20105207.6364          0.000    20105207.0904  -26347062.62049 -20530153.82147
  4  3  1  1 48  0.0000000  0  8G 9G14G22G18G21G 3G26G15
  21794091.4854          0.000    21794089.9704  -15765326.09249 -12284654.75946
  23521264.4604          0.000    23521265.5824   -7919357.12448  -6170920.75445
  20947830.3204          0.000    20947826.7904  -22341296.69449 -17408776.10647
  20342848.3194          0.000    20342846.0364  -26153170.95649 -20379062.67247
  21479790.8034          0.000    21479788.7954  -20538577.40949 -16004057.48047
  23147483.6824          0.000    23147486.2044   -2401948.34349  -1871642.97045
  23769956.9734          0.000    23769955.3724   -4500423.66448  -3506790.54245
  20102458.2594          0.000    20102457.7344  -26361510.95649 -20541412.26247
  4  3  1  1 48 30.0000000  0  8G 9G14G22G18G21G 3G26G15
  21785227.3154          0.000    21785225.6924  -15811911.42149 -12320954.98246
  23501408.8484          0.000    23501408.8134   -8023704.66548  -6252230.40545
  20939314.2694          0.000    20939310.5724  -22386050.23949 -17443648.90647
  20346290.0044          0.000    20346287.6634  -26135083.48249 -20364968.54447
  21495887.9634          0.000    21495885.7194  -20453985.99749 -15938142.09046
  23154668.4774          0.000    23154669.4584   -2364196.53449  -1842225.95245
  23791439.6894          0.000    23791437.8264   -4387531.69448  -3418822.77845
  20099822.6904          0.000    20099822.1694  -26375360.21049 -20552203.89047
  4  3  1  1 49  0.0000000  0  8G 9G14G22G18G21G 3G26G15
  21776476.7784          0.000    21776475.3324  -15857893.46949 -12356785.11146
  23481588.0404          0.000    23481588.1774   -8127864.77748  -6333394.00645
  20930852.7944          0.000    20930849.0094  -22430514.00149 -17478295.89347
  20349799.9194          0.000    20349797.7964  -26116639.82549 -20350596.85647
  21512059.9494          0.000    21512058.2994  -20369002.14449 -15871920.89846
  23161946.9194          0.000    23161947.2924   -2325947.80149  -1812421.72845
  23812943.1024          0.000    23812942.4184   -4274532.06848  -3330771.13345
  20097297.5244          0.000    20097297.1714  -26388629.68049 -20562543.74547
  4  3  1  1 49 30.0000000  0  8G 9G14G22G18G21G 3G26G15
  21767843.1664          0.000    21767842.0794  -15903263.42649 -12392138.29746
  23461804.1464          0.000    23461805.3504   -8231828.97348  -6414404.92945
  20922447.8964          0.000    20922444.2704  -22474681.00949 -17512711.67647
  20353378.9294          0.000    20353376.6164  -26097833.56149 -20335942.64247
  21528307.7984          0.000    21528305.4064  -20283620.98049 -15805390.12347
  23169321.7884          0.000    23169321.6444   -2287197.19649  -1782226.41446
  23834467.5834          0.000    23834465.2524   -4161420.58548  -3242632.37845
  20094884.1884          0.000    20094883.8674  -26401311.57749 -20572425.76447
  4  3  1  1 50  0.0000000  0  8G 9G14G22G18G21G 3G26G15
  21759324.5194          0.000    21759323.9244  -15948026.94249 -12427018.92546
  23442055.0664          0.000    23442055.0584   -8335603.61348  -6495268.17645
  20914098.3354          0.000    20914094.6454  -22518558.01749 -17546901.50847
  20357025.1364          0.000    20357022.7534  -26078672.21549 -20321011.72747
  21544628.6334          0.000    21544626.2084  -20197852.26349 -15738557.36146
  23176789.4294          0.000    23176789.5044   -2247953.97949  -1751647.26145
  23856012.5914          0.000    23856010.6264   -4048207.10848  -3154414.14145
  20092581.7414          0.000    20092581.2894  -26413412.43549 -20581855.02947
  4  3  1  1 50 30.0000000  0  8G 9G14G22G18G21G 3G26G15
  21750925.8784          0.000    21750924.5284  -15992164.29649 -12461411.63646
  23422346.0904          0.000    23422347.3484   -8439169.27248  -6575968.54645
  20905807.6594          0.000    20905803.7474  -22562126.71849 -17580851.11547
  20360742.0874          0.000    20360739.6604  -26059138.67949 -20305790.78847
  21561026.8174          0.000    21561024.3374  -20111679.94849 -15671410.10746
  23184352.5104          0.000    23184353.6724   -2208202.15349  -1720671.80645
  23877579.1714          0.000    23877576.4024   -3934876.30648  -3066104.47745
  20090392.8654          0.000    20090392.5434  -26424913.55749 -20590816.96847
  4  3  1  1 51  0.0000000  0  8G 9G14G22G18G21G 3G26G15
  21742647.9154          0.000    21742646.5084  -16035665.93849 -12495308.94746
  23402681.2544          0.000    23402681.3284   -8542516.59748  -6656498.78245
  20897576.9614          0.000    20897573.2224  -22605378.89049 -17614554.08147
  20364531.3804          0.000    20364529.2754  -26039225.52149 -20290274.07347
  21577503.0114          0.000    21577501.0364  -20025098.37149 -15603943.95846
  23192014.9174          0.000    23192015.8714   -2167936.28149  -1689295.75846
  23899168.6264          0.000    23899166.2464   -3821423.10748  -2977699.36445
  20088320.4424          0.000    20088319.7854  -26435806.33149 -20599304.86347
  4  3  1  1 51 30.0000000  0  8G 9G14G22G18G21G 3G26G15
  21734487.3834          0.000    21734485.8454  -16078549.99649 -12528725.04246
  23383053.9714          0.000    23383054.1364   -8645664.20949  -6736873.41445
  20889402.9144          0.000    20889399.2054  -22648334.04349 -17648025.58947
  20368389.3194          0.000    20368387.0704  -26018952.97449 -20274477.32847
  21594052.3184          0.000    21594050.3534  -19938129.45649 -15536175.99546
  23199771.1504          0.000    23199771.3704   -2127178.31649  -1657536.28045
  23920776.0274          0.000    23920773.6184   -3707869.96548  -2889216.44945
  20086359.4524          0.000    20086359.3164  -26446109.84849 -20607333.59947
  4  3  1  1 52  0.0000000  0  8G 9G14G22G18G21G 3G26G15
  21726442.5914          0.000    21726441.5954  -16120822.35149 -12561664.50346
  23363461.7864          0.000    23363460.9924   -8748618.11349  -6817097.08845
  20881283.8334          0.000    20881280.2124  -22690999.26649 -17681271.17847
  20372314.1154          0.000    20372311.5724  -25998328.73549 -20258406.48347
  21610673.7644          0.000    21610671.7964  -19850782.86149 -15468113.72846
  23207619.2314          0.000    23207619.7164   -2085938.03149  -1625400.96645
  23942402.0044          0.000    23942402.1954   -3594226.75748  -2800663.34745
  20084509.7294          0.000    20084509.4274  -26455831.01749 -20614908.56347
  4  3  1  1 52 30.0000000  0  8G 9G14G22G18G21G 3G26G15
  21718519.0854          0.000    21718517.4744  -16162460.58449 -12594109.81546
  23343910.7004          0.000    23343910.6964   -8851356.29649  -6897152.68445
  20873223.8694          0.000    20873220.3714  -22733353.58949 -17714274.49647
  20376309.2024          0.000    20376306.8954  -25977332.78449 -20242045.96947
  21627370.6934          0.000    21627368.5984  -19763039.91149 -15399742.59646
  23215562.8874          0.000    23215562.5914   -2044196.93849  -1592875.42345
  23964049.5874          0.000    23964049.6714   -3480475.60048  -2712026.10145
  20082774.8604          0.000    20082774.1554  -26464948.56749 -20622013.16947
  4  3  1  1 53  0.0000000  0  8G 9G14G22G18G21G 3G26G15
  21710714.7154          0.000    21710713.1554  -16203474.62549 -12626068.76146
  23324399.9274          0.000    23324401.0844   -8953888.79549  -6977048.00145
  20865221.3474          0.000    20865217.8954  -22775408.27149 -17747044.32847
  20380373.1404          0.000    20380370.8434  -25955977.19449 -20225405.20947
  21644140.8544          0.000    21644138.2304  -19674914.73849 -15331073.62946
  23223598.4584          0.000    23223598.5314   -2001968.81649  -1559970.37645
  23985713.7194          0.000    23985710.4884   -3366630.97748  -2623316.17044
  20081152.6204          0.000    20081152.1134  -26473473.26049 -20628655.79147
  4  3  1  1 53 30.0000000  0  8G 9G14G22G18G21G 3G26G15
  21703030.8374          0.000    21703030.0114  -16243852.02549 -12657531.61046
  23304928.8774          0.000    23304929.0184   -9056203.64049  -7056773.72245
  20857277.8504          0.000    20857274.3554  -22817152.05149 -17779571.89147
  20384507.5284          0.000    20384505.2074  -25934251.57249 -20208476.11847
  21660984.7004          0.000    21660982.7804  -19586398.27649 -15262099.76446
  23231727.8774          0.000    23231728.5694   -1959244.95649  -1526679.04145
  24007396.7344          0.000    24007394.2624   -3252683.60548  -2534525.98445
  20079645.5124          0.000    20079645.0294  -26481393.40149 -20634827.31447
  4  3  1  1 54  0.0000000  0  8G 9G14G22G18G21G 3G26G15
  21695468.4474          0.000    21695467.3134  -16283593.52349 -12688498.95946
  23285500.7374          0.000    23285500.0364   -9158301.88049  -7136330.64245
  20849392.8914          0.000    20849388.9614  -22858586.87649 -17811858.71047
  20388711.4764          0.000    20388709.3294  -25912158.90149 -20191261.03747
  21677902.1094          0.000    21677899.8714  -19497495.30749 -15192824.73246
  23239951.2424          0.000    23239952.1464   -1916030.01048  -1493005.03945
  24029097.4174          0.000    24029094.9964   -3138639.23248  -2445660.21645
  20078252.7804          0.000    20078252.3684  -26488711.10249 -20640529.40347
  4  3  1  1 54 30.0000000  0  8G 9G14G22G18G21G 3G26G15
  21688025.6364          0.000    21688023.7144  -16322704.85449 -12718975.26146
  23266111.5494          0.000    23266112.3704   -9260189.32649  -7215723.33345
  20841565.6694          0.000    20841561.8054  -22899719.80149 -17843910.31247
  20392983.8744          0.000    20392981.6184  -25889707.06549 -20173766.08447
  21694891.9454          0.000    21694889.8864  -19408215.07349 -15123255.74346
  23248265.3994          0.000    23248267.4484   -1872333.45848  -1458955.74345
  24050815.3234          0.000    24050815.2414   -3024507.53048  -2356726.41545
  20076973.5234          0.000    20076973.2344  -26495432.95249 -20645767.19047
  4  3  1  1 55  0.0000000  0  8G 9G14G22G18G21G 3G26G15
  21680704.4114          0.000    21680703.0354  -16361179.62149 -12748955.54546
  23246764.1554          0.000    23246764.4784   -9361859.85149  -7294946.98445
  20833796.4524          0.000    20833792.5334  -22940545.60649 -17875722.64047
  20397325.6364          0.000    20397323.1884  -25866891.43749 -20155987.67347
  21711953.5014          0.000    21711951.1264  -19318554.95449 -15053390.72946
  23256672.8324          0.000    23256674.3944   -1828152.73948  -1424529.19145
  24072550.1974          0.000    24072548.2304   -2910286.30948  -2267722.90744
  20075809.2034          0.000    20075808.6534  -26501553.55349 -20650536.46747
  4  3  1  1 55 30.0000000  0  8G 9G14G22G18G21G 3G26G15
  21673504.8004          0.000    21673503.0544  -16399013.02449 -12778436.05946
  23227460.3784          0.000    23227458.9174   -9463308.86749  -7373998.04045
  20826086.9344          0.000    20826082.9424  -22981060.63749 -17907292.79447
  20401736.9264          0.000    20401734.7014  -25843709.35049 -20137923.69347
  21729087.5674          0.000    21729085.4234  -19228513.89549 -14983228.88046
  23265173.8104          0.000    23265174.3224   -1783486.93949  -1389724.65445
  24094303.7694          0.000    24094303.4674   -2795974.80448  -2178648.99244
  20074759.4144          0.000    20074758.7554  -26507068.95449 -20654834.14747
  4  3  1  1 56  0.0000000  0  8G 9G14G22G18G21G 3G26G15
  21666425.9904          0.000    21666424.5054  -16436211.95349 -12807422.18546
  23208195.5484          0.000    23208195.1024   -9564543.48449  -7452882.01945
  20818434.9814          0.000    20818430.8514  -23021272.76149 -17938626.90247
  20406216.3964          0.000    20406214.0044  -25820169.68349 -20119581.05947
  21746292.1784          0.000    21746290.4034  -19138102.47849 -14912778.43546
  23273763.2464          0.000    23273763.8274   -1738346.90749  -1354550.57645
  24116072.1974          0.000    24116070.0024   -2681583.73548  -2089513.13444
  20073823.5764          0.000    20073823.1314  -26511987.09249 -20658666.43147
  4  3  1  1 56 30.0000000  0  8G 9G14G22G18G21G 3G26G15
  21659468.6424          0.000    21659467.3694  -16472773.70749 -12835911.80846
  23188972.6244          0.000    23188971.5914   -9665560.92949  -7531596.77745
  20810840.5234          0.000    20810836.6334  -23061180.71349 -17969724.00547
  20410763.9374          0.000    20410761.5244  -25796271.81849 -20100959.32247
  21763567.2794          0.000    21763565.6764  -19047321.68749 -14842040.17346
  23282442.6984          0.000    23282444.8994   -1692733.38349  -1319007.54745
  24137855.1054          0.000    24137855.5764   -2567114.26148  -2000316.09644
  20073001.6324          0.000    20073001.2054  -26516306.03249 -20662031.81347
  4  3  1  1 57  0.0000000  0  8G 9G14G22G18G21G 3G26G15
  21652635.0974          0.000    21652634.1064  -16508682.72449 -12863892.79846
  23169793.3934          0.000    23169793.7944   -9766345.69448  -7610130.23945
  20803307.2044          0.000    20803303.2714  -23100769.93449 -18000572.77747
  20415382.4004          0.000    20415380.2704  -25772001.67349 -20082047.50247
  21780914.9964          0.000    21780912.9274  -18956159.75649 -14771004.90946
  23291215.7524          0.000    23291216.9764   -1646634.61049  -1283086.40945
  24159654.8464          0.000    24159654.1154   -2452555.01648  -1911049.12144
  20072296.5274          0.000    20072296.1984  -26520011.25649 -20664918.97547
  4  3  1  1 57 30.0000000  0  8G 9G14G22G18G21G 3G26G15
  21645924.8334          0.000    21645923.2304  -16543948.03749 -12891372.21646
  23150657.1184          0.000    23150657.6974   -9866907.01249  -7688489.58545
  20795832.3014          0.000    20795828.4344  -23140050.07749 -18031180.65747
  20420069.4504          0.000    20420067.2124  -25747370.46749 -20062854.33847
  21798332.1404          0.000    21798330.1834  -18864629.21549 -14699682.41846
  23300077.7634          0.000    23300077.8284   -1600063.69349  -1246797.37645
  24181468.9754          0.000    24181471.1504   -2337918.87248  -1821722.25744
  20071706.3554          0.000    20071705.8994  -26523112.66049 -20667335.63347
  4  3  1  1 58  0.0000000  0  8G 9G14G22G18G21G 3G26G15
  21639337.6654          0.000    21639336.3964  -16578560.64349 -12918343.02146
  23131565.1674          0.000    23131565.2724   -9967235.94249  -7766667.85845
  20788417.5434          0.000    20788413.7044  -23179013.43249 -18061541.61447
  20424826.8174          0.000    20424824.4004  -25722370.84649 -20043374.10647
  21815821.5394          0.000    21815819.7654  -18772724.75349 -14628068.55646
  23309031.0454          0.000    23309031.5064   -1553015.31749  -1210136.28445
  24203299.5164          0.000    24203299.1404   -2223200.77648  -1732331.58144
  20071232.6884          0.000    20071232.1354  -26525602.59249 -20669275.82047
  4  3  1  1 58 30.0000000  0  8G 9G14G22G18G21G 3G26G15
  21632873.5374          0.000    21632872.3134  -16612529.25749 -12944812.01246
  23112515.4524          0.000    23112515.8284  -10067341.51149  -7844672.08645
  20781061.4224          0.000    20781057.6564  -23217669.97449 -18091663.54347
  20429652.0794          0.000    20429649.9244  -25697013.70749 -20023615.26747
  21833379.2354          0.000    21833378.0704  -18680458.69049 -14556172.94346
  23318072.3204          0.000    23318073.4564   -1505502.02149  -1173112.90345
  24225143.8434          0.000    24225143.3724   -2108413.39448  -1642886.93944
  20070873.3044          0.000    20070872.7544  -26527490.55049 -20670746.94347
  4  3  1  1 59  0.0000000  0  8G 9G14G22G18G21G 3G26G15
  21626532.5274          0.000    21626531.0694  -16645852.93949 -12970778.45847
  23093508.4274          0.000    23093508.8064  -10167222.55949  -7922501.36945
  20773763.8394          0.000    20773759.8514  -23256019.47749 -18121546.19347
  20434545.3424          0.000    20434543.1464  -25671299.96249 -20003578.53147
  21851005.2324          0.000    21851003.9544  -18587833.49549 -14483997.49046
  23327200.8154          0.000    23327201.2324   -1457526.53248  -1135729.39045
  24247000.2094          0.000    24246999.2564   -1993559.22348  -1553390.15845
  20070628.5554          0.000    20070627.9704  -26528776.27949 -20671748.78847
  4  3  1  1 59 30.0000000  0  8G 9G14G22G18G21G 3G26G15
  21620313.7134          0.000    21620312.6594  -16678529.76449 -12996240.86246
  23074545.0704          0.000    23074545.3194  -10266877.05449  -8000154.13646
  20766524.9754          0.000    20766520.7474  -23294061.18749 -18151189.02647
  20439506.3514          0.000    20439503.8384  -25645229.61949 -19983263.92347
  21868699.1634          0.000    21868696.8814  -18494851.06949 -14411543.67746
  23336418.3714          0.000    23336418.9834   -1409090.55248  -1097987.06545
  24268867.5304          0.000    24268867.3714   -1878640.29648  -1463842.94144
  20070498.7774          0.000    20070498.2344  -26529458.83049 -20672280.61747
  4  3  1  2  0  0.0000000  0  8G 9G14G22G18G21G 3G26G15
  21614221.4124          0.000    21614219.8114  -16710547.57749 -13021189.74646
  23055626.4574          0.000    23055626.2004  -10366293.40649  -8077621.32946
  20759346.3444          0.000    20759342.3054  -23331784.06849 -18180583.38947
  20444537.0254          0.000    20444534.3974  -25618792.33649 -19962663.39547
  21886463.1594          0.000    21886461.4034  -18401503.12849 -14338805.02846
  23345725.4694          0.000    23345725.7464   -1360185.87449  -1059879.50545
  24290748.6214          0.000    24290747.0684   -1763648.50748  -1374239.00444
  20070485.5654          0.000    20070485.2084  -26529527.14649 -20672333.80347
  4  3  1  2  0 30.0000000  0  8G 9G14G22G18G21G 3G26G15
  21608253.0424          0.000    21608251.3244  -16741909.72549 -13045627.73746
  23036753.4634          0.000    23036752.1954  -10465474.47849  -8154905.19546
  20752227.7624          0.000    20752223.6524  -23369191.95549 -18209732.30747
  20449636.7984          0.000    20449634.1934  -25591992.98349 -19941780.75747
  21904294.4774          0.000    21904292.7924  -18307795.81149 -14265786.34846
  23355119.8194          0.000    23355118.2994   -1310819.43749  -1021412.13245
  24312642.8004          0.000    24312641.2174   -1648590.54048  -1284583.48244
  20070588.5604          0.000    20070588.2574  -26528985.31649 -20671911.53947
  4  3  1  2  1  0.0000000  0  8G 9G14G22G18G21G 3G26G15
  21602409.2154          0.000    21602407.6024  -16772617.76749 -13069556.03946
  23017924.7634          0.000    23017922.9304  -10564421.62549  -8232006.77246
  20745168.5094          0.000    20745164.4074  -23406287.37449 -18238637.82147
  20454804.7974          0.000    20454802.2394  -25564834.87749 -19920618.58047
  21922193.4244          0.000    21922191.6954  -18213734.64949 -14192491.96146
  23364599.5884          0.000    23364601.5734   -1260996.44248   -982589.01145
  24334549.6474          0.000    24334551.6484   -1533471.53548  -1194880.40444
  20070807.3874          0.000    20070806.6404  -26527835.64949 -20671015.62947
  4  3  1  2  1 30.0000000  0  8G 9G14G22G18G21G 3G26G15
  21596690.9784          0.000    21596690.1634  -16802669.04349 -13092972.54947
  22999139.9154          0.000    22999138.7644  -10663131.95449  -8308923.82746
  20738169.4874          0.000    20738165.2984  -23443068.37149 -18267298.34447
  20460041.1574          0.000    20460038.7844  -25537316.73649 -19899175.86247
  21940160.5514          0.000    21940158.8034  -18119320.06849 -14118922.19646
  23374167.0454          0.000    23374168.8214   -1210717.63648   -943410.71145
  24356467.2884          0.000    24356467.1434   -1418292.10748  -1105130.20744
  20071142.3084          0.000    20071141.6534  -26526076.33549 -20669644.68047
  4  3  1  2  2  0.0000000  0  8G 9G14G22G18G21G 3G26G15
  21591099.1574          0.000    21591097.2014  -16832054.63449 -13115870.36346
  22980402.6334          0.000    22980401.2304  -10761596.89749  -8385649.65446
  20731231.5374          0.000    20731227.4744  -23479526.80349 -18295707.49847
  20465347.8474          0.000    20465345.5764  -25509431.61849 -19877447.17147
  21958195.6614          0.000    21958193.5904  -18024546.98049 -14045073.06246
  23383823.4884          0.000    23383824.5424   -1159977.99749   -903873.31645
  24378398.1714          0.000    24378400.1674   -1303047.08248  -1015328.85944
  20071594.5144          0.000    20071593.9114  -26523699.50749 -20667792.56047
  4  3  1  2  2 30.0000000  0  8G 9G14G22G18G21G 3G26G15
  21585633.9354          0.000    21585632.3694  -16860773.38549 -13138248.55546
  22961712.7114          0.000    22961712.5504  -10859815.03549  -8462183.17246
  20724355.2214          0.000    20724351.0154  -23515662.69249 -18323865.31947
  20470723.6694          0.000    20470721.1694  -25481180.59349 -19855433.37747
  21976297.8524          0.000    21976296.4514  -17929417.87449 -13970946.51246
  23393566.1424          0.000    23393567.7204   -1108780.02649   -863978.78545
  24400340.9664          0.000    24400340.9434   -1187739.25648   -925478.64744
  20072164.1024          0.000    20072163.7404  -26520705.06349 -20665459.19747
  4  3  1  2  3  0.0000000  0  8G 9G14G22G18G21G 3G26G15
  21580288.5554          0.000    21580287.2284  -16888864.10449 -13160137.37246
  22943062.0014          0.000    22943062.0424  -10957824.75949  -8538554.30246
  20717532.8054          0.000    20717528.5404  -23551515.29249 -18351802.41047
  20476161.8214          0.000    20476159.4344  -25452603.47649 -19833165.46047
  21994459.8154          0.000    21994457.6294  -17833974.59249 -13896575.15346
  23403386.9584          0.000    23403387.5134   -1057166.03348   -823760.08845
  24422287.5094          0.000    24422288.1924   -1072410.50348   -835612.08144
  20072843.7924          0.000    20072843.3144  -26517132.69249 -20662675.50647
  4  3  1  2  3 30.0000000  0  8G 9G14G22G18G21G 3G26G15
  21575067.2694          0.000    21575065.3244  -16916304.32649 -13181519.31647
  22924454.7654          0.000    22924454.0394  -11055603.42849  -8614745.38646
  20710768.2984          0.000    20710764.1934  -23587062.77049 -18379501.73047
  20481665.6224          0.000    20481663.3924  -25423679.33249 -19810627.12947
  22012685.4354          0.000    22012683.3974  -17738198.08549 -13821944.13446
  23413292.4234          0.000    23413292.9904   -1005117.54149   -783202.82345
  24444241.6564          0.000    24444241.3294    -957042.28748   -745714.79644
  20073638.0064          0.000    20073637.1554  -26512960.74849 -20659424.62047
  4  3  1  2  4  0.0000000  0  8G 9G14G22G18G21G 3G26G15
  21569978.0144          0.000    21569976.2434  -16943045.48149 -13202356.52547
  22905901.4324          0.000    22905901.6044  -11153102.41649  -8690718.54446
  20704070.7924          0.000    20704066.8804  -23622257.46149 -18406926.14447
  20487244.7074          0.000    20487242.2274  -25394361.18949 -19787781.79647
  22030983.0884          0.000    22030981.4474  -17642043.15049 -13747018.25146
  23423287.8834          0.000    23423288.3684    -952589.44849   -742271.82345
  24466211.1854          0.000    24466210.5174    -841589.14948   -655751.36544
  20074555.1114          0.000    20074554.0784  -26508141.33449 -20655669.22047
  4  3  1  2  4 30.0000000  0  8G 9G14G22G18G21G 3G26G15
  21565015.8824          0.000    21565014.6994  -16969123.06349 -13222676.68247
  22887394.0724          0.000    22887394.2084  -11250357.32349  -8766501.50946
  20697433.8724          0.000    20697429.8504  -23657135.70749 -18434103.99947
  20492891.7284          0.000    20492889.2134  -25364686.36949 -19764658.54147
  22049345.2844          0.000    22049343.6594  -17545548.83449 -13671827.90346
  23433367.6984          0.000    23433368.9774    -899620.95949   -700997.68145
  24488188.4634          0.000           0.000     -726089.99248   -565752.11244
  20075588.4034          0.000    20075587.5934  -26502711.03949 -20651437.82247
  4  3  1  2  5  0.0000000  0  8G 9G14G22G18G21G 3G26G15
  21560181.0954          0.000    21560179.7714  -16994526.47049 -13242471.51247
  22868935.8834          0.000    22868935.5024  -11347356.71749  -8842085.38546
  20690858.8744          0.000    20690854.8064  -23691687.16949 -18461027.21147
  20498608.1544          0.000    20498605.4474  -25334645.93549 -19741250.40947
  22067773.6634          0.000    22067771.9714  -17448708.01949 -13596367.57346
  23443532.2784          0.000    23443532.7714    -846204.66649   -659374.57245
  24510177.3554          0.000    24510178.2804    -610537.31548   -475711.11544
  20076739.7974          0.000    20076739.1744  -26496659.80849 -20646722.58447
  4  3  1  2  5 30.0000000  0  8G 9G14G22G18G21G 3G26G15
  21555473.0714          0.000    21555471.4004  -17019268.73649 -13261751.16347
  22850523.8064          0.000    22850522.7664  -11444113.47549  -8917480.18846
  20684343.3524          0.000    20684339.3894  -23725925.38949 -18487706.31847
  20504391.6064          0.000    20504388.8994  -25304254.26649 -19717568.58947
  22086265.1824          0.000    22086263.0664  -17351536.76849 -13520649.74146
  23453778.7924          0.000    23453779.7244    -792357.19148   -617415.48645
  24532173.9764          0.000    24532174.1724    -494947.55948   -385641.28644
  20078006.9274          0.000    20078006.0774  -26490001.55149 -20641534.35147
  4  3  1  2  6  0.0000000  0  8G 9G14G22G18G21G 3G26G15
  21550891.7904          0.000    21550890.0284  -17043345.70749 -13280512.41047
  22832158.5004          0.000    22832158.6374  -11540623.44249  -8992682.71646
  20677888.5634          0.000    20677884.4084  -23759847.23249 -18514138.92247
  20510242.2874          0.000    20510239.7144  -25273508.49849 -19693610.86247
  22104818.9114          0.000    22104816.6034  -17254034.21449 -13444673.73746
  23464107.8614          0.000    23464108.4134    -738078.29448   -575120.24345
  24554177.7224          0.000    24554174.9704    -379319.87148   -295541.85644
  20079389.9804          0.000    20079389.3914  -26482733.17449 -20635870.70147
  4  3  1  2  6 30.0000000  0  8G 9G14G22G18G21G 3G26G15
  21546439.3644          0.000    21546437.7074  -17066740.22949 -13298741.87647
  22813843.8974          0.000    22813843.5724  -11636868.90649  -9067679.11246
  20671496.6574          0.000    20671492.7674  -23793435.98449 -18540311.96347
  20516163.3004          0.000    20516160.9144  -25242393.15149 -19669365.10047
  22123437.9754          0.000    22123435.7694  -17156186.99949 -13368429.20046
  23474521.9004          0.000    23474522.8094    -683354.07248   -532477.99745
  24576191.3014          0.000    24576188.8324    -263640.42948   -205402.11444
  20080892.1964          0.000    20080891.8994  -26474838.40549 -20629718.95247
  4  3  1  2  7  0.0000000  0  8G 9G14G22G18G21G 3G26G15
  21542113.8404          0.000    21542112.1184  -17089472.77149 -13316455.52747
  22795575.2104          0.000    22795574.8694  -11732869.89049  -9142485.01646
  20665164.4014          0.000    20665160.4824  -23826712.46449 -18566241.64447
  20522150.3514          0.000    20522147.9534  -25210929.90449 -19644848.26547
  22142118.6834          0.000    22142116.8604  -17058018.30849 -13291934.16346
  23485015.4394          0.000    23485016.6214    -628208.67648   -489507.53345
  24598210.7014          0.000    24598209.3994    -147932.42048   -115240.04944
  20082509.9104          0.000    20082509.3784  -26466338.30449 -20623095.52647
  4  3  1  2  7 30.0000000  0  8G 9G14G22G18G21G 3G26G15
  21537916.8644          0.000    21537915.2574  -17111526.58149 -13333640.28947
  22777356.0044          0.000    22777355.0014  -11828609.32549  -9217087.11046
  20658894.3064          0.000    20658890.4094  -23859660.57849 -18591915.47747
  20528206.8304          0.000    20528204.2674  -25179103.76549 -19620048.66947
  22160863.8254          0.000    22160861.7084  -16959514.73949 -13215178.17646
  23495591.4094          0.000    23495592.4574    -572628.74548   -446198.48845
  24620238.6064          0.000           0.000      -32182.55548    -25045.42244
  20084245.6894          0.000    20084245.1084  -26457216.82149 -20615987.91147
  4  3  1  2  8  0.0000000  0  8G 9G14G22G18G21G 3G26G15
  21533846.5704          0.000    21533844.8144  -17132916.87149 -13350308.02147
  22759184.6604          0.000    22759183.0174  -11924102.24649  -9291497.12246
  20652683.9024          0.000    20652679.9954  -23892296.02949 -18617345.67747
  20534329.0764          0.000    20534326.1804  -25146931.39749 -19594979.27147
  22179669.2564          0.000    22179667.1334  -16860694.20449 -13138175.16546
  23506246.6434          0.000    23506246.0274    -516633.03848   -402565.47545
  24642269.0604          0.000    24642266.7924      83590.95148     65167.67044
  20086096.6584          0.000    20086096.1474  -26447490.13449 -20608408.69147
  4  3  1  2  8 30.0000000  0  8G 9G14G22G18G21G 3G26G15
  21529905.9424          0.000    21529904.6724  -17153623.18249 -13366442.77047
  22741063.6954          0.000    22741062.0854  -12019327.59749  -9365698.66046
  20646536.8754          0.000    20646533.0544  -23924598.85949 -18642516.71447
  20540520.7424          0.000    20540517.9644  -25114393.40249 -19569624.96947
  22198537.7424          0.000    22198535.6074  -16761540.45349 -13060912.51646
  23516985.9834          0.000    23516987.0494    -460204.50648   -358595.19145
  24664307.5894          0.000           0.000      199405.63648    155412.97844
  20088066.3884          0.000    20088065.9584  -26437138.50849 -20600342.49447
  4  3  1  2  9  0.0000000  0  8G 9G14G22G18G21G 3G26G15
  21526093.7544          0.000    21526091.9264  -17173656.62649 -13382053.22947
  22722991.5424          0.000    22722990.7454  -12114296.13949  -9439700.06846
  20640451.1604          0.000    20640447.2244  -23956580.49849 -18667437.44647
  20546779.5584          0.000    20546776.9464  -25081502.48149 -19543995.66047
  22217466.8474          0.000    22217465.2824  -16662067.47149 -12983401.10246
  23527802.4284          0.000    23527803.2774    -403357.93848   -314299.16045
  24686350.2634          0.000           0.000      315246.79348    245678.73344
  20090152.9824          0.000    20090152.2394  -26426173.99549 -20591798.71547
  4  3  1  2  9 30.0000000  0  8G 9G14G22G18G21G 3G26G15
  21522409.0754          0.000    21522407.3784  -17193021.62549 -13397142.82147
  22704967.5644          0.000    22704966.6784  -12209011.66849  -9513504.30546
  20634425.3474          0.000    20634421.3784  -23988245.99849 -18692111.87747
  20553104.8234          0.000    20553102.3574  -25048263.98149 -19518095.52047
  22236455.2964          0.000    22236453.1824  -16562282.62949 -12905646.69846
  23538697.6634          0.000    23538697.8584    -346100.94548   -269683.31945
  24708398.2914          0.000           0.000      431107.50148    335959.72244
  20092355.1784          0.000    20092354.3974  -26414601.62149 -20582781.27647
  4  3  1  2 10  0.0000000  0  8G 9G14G22G18G21G 3G26G15
  21518853.7644          0.000    21518851.7394  -17211706.07249 -13411702.10647
  22686994.4994          0.000    22686993.4564  -12303461.71949  -9587101.67546
  20628461.8774          0.000    20628458.1154  -24019583.23349 -18716530.53247
  20559497.8144          0.000    20559495.4814  -25014667.32649 -19491916.30547
  22255505.0214          0.000    22255502.8984  -16462176.92149 -12827642.27946
  23549675.0774          0.000    23549676.3254    -288424.73049   -224740.81145
  24730451.2424          0.000    24730450.4694     546996.82348    426263.07844
  20094674.9464          0.000    20094674.4324  -26402409.97549 -20573281.28247
  4  3  1  2 10 30.0000000  0  8G 9G14G22G18G21G 3G26G15
  21515427.0204          0.000    21515425.5644  -17229711.20449 -13425732.05747
  22669071.6674          0.000    22669070.8514  -12397646.79149  -9660492.58346
  20622560.7634          0.000    20622557.0374  -24050593.80649 -18740694.64147
  20565958.9974          0.000    20565956.4764  -24980714.71749 -19465459.71747
  22274614.1424          0.000    22274612.2884  -16361754.70349 -12749391.23246
  23560729.0124          0.000    23560727.9364    -230333.96848   -179475.28545
  24752509.5444          0.000           0.000      662911.08148    516585.89644
  20097112.6284          0.000    20097111.9344  -26389601.06149 -20563300.29747
  4  3  1  2 11  0.0000000  0  8G 9G14G22G18G21G 3G26G15
  21512130.7784          0.000    21512129.0004  -17247033.31049 -13439229.77747
  22651199.7744          0.000    22651199.0564  -12491562.70749  -9733673.77146
  20616722.5224          0.000    20616718.7424  -24081274.30349 -18764601.51247
  20572488.3014          0.000    20572485.4784  -24946404.03049 -19438724.09847
  22293784.5784          0.000    22293783.4274  -16261015.45649 -12670893.15146
  23571862.3664          0.000    23571863.1474    -171828.45248   -133886.58745
  24774571.8294          0.000    24774569.1144     778850.67248    606928.38644
  20099667.9954          0.000    20099667.3164  -26376172.23749 -20552836.26347
  4  3  1  2 11 30.0000000  0  8G 9G14G22G18G21G 3G26G15
  21508961.2024          0.000    21508959.6274  -17263688.77149 -13452208.04847
  22633376.6454          0.000    22633375.8194  -12585225.33149  -9806657.58946
  20610943.5664          0.000    20610939.7364  -24111641.45549 -18788264.20547
  20579082.1224          0.000    20579079.5884  -24911752.66549 -19411723.02547
  22313010.3034          0.000    22313009.1494  -16159978.17749 -12592162.83646
  23583069.8834          0.000    23583071.9814    -112928.07748    -87990.18945
  24796634.7134          0.000    24796633.2244     894796.53248    697275.76144
  20102338.2654          0.000    20102337.3964  -26362140.83449 -20541902.68847
  4  3  1  2 12  0.0000000  0  8G 9G14G22G18G21G 3G26G15
  21505923.8204          0.000    21505922.0054  -17279651.34649 -13464646.41147
  22615607.2124          0.000    22615605.7304  -12678607.79749  -9879423.07846
  20605230.0684          0.000    20605226.0304  -24141669.17649 -18811662.40647
  20585745.1344          0.000    20585742.9154  -24876735.55949 -19384436.95847
  22332298.5504          0.000    22332297.5264  -16058620.05549 -12513182.53146
  23594357.4174          0.000    23594358.6094     -53609.63248    -41768.01345
  24818702.9404          0.000    24818700.9854    1010771.95748    787646.24244
  20105127.6984          0.000    20105126.7674  -26347481.12349 -20530479.53447
  4  3  1  2 12 30.0000000  0  8G 9G14G22G18G21G 3G26G15
  21503016.5944          0.000    21503014.7354  -17294929.23549 -13476551.24047
  22597888.6964          0.000    22597887.1624  -12771717.58249  -9951976.08846
  20599578.7654          0.000    20599574.7114  -24171365.82749 -18834802.59647
  20592476.7604          0.000    20592474.2674  -24841362.05149 -19356873.16847
  22351645.7534          0.000    22351643.6974  -15956952.40249 -12433961.00246
  23605723.1184          0.000    23605724.0364       6115.52448      4771.05445
  24840776.2084          0.000    24840775.5624    1126766.34748    878031.46044
  20108034.9534          0.000    20108034.5334  -26332202.06249 -20518573.77547
  4  3  1  2 13  0.0000000  0  8G 9G14G22G18G21G 3G26G15
  21500238.5114          0.000    21500236.7794  -17309526.47149 -13487925.68747
  22580221.2884          0.000    22580219.8954  -12864558.39849 -10024319.50246
  20593989.8074          0.000    20593985.8524  -24200736.00249 -18857688.40647
  20599274.9324          0.000    20599272.2814  -24805637.07849 -19329035.52147
  22371049.5854          0.000    22371048.1584  -15854982.21049 -12354503.72846
  23617165.1474          0.000    23617165.3124      66239.72948     51621.07745
  24862852.2984          0.000    24862853.2914    1242772.62548    968425.95144
  20111059.4484          0.000    20111059.2134  -26316308.44549 -20506189.14447
  4  3  1  2 13 30.0000000  0  8G 9G14G22G18G21G 3G26G15
  21497589.0894          0.000    21497588.3124  -17323449.28049 -13498774.60947
  22562603.7024          0.000    22562602.4774  -12957135.36449 -10096457.32846
  20588461.6304          0.000    20588457.6734  -24229785.78749 -18880324.57147
  20606138.7354          0.000    20606136.0294  -24769568.22949 -19300929.91947
  22390510.2354          0.000    22390508.9194  -15752718.26649 -12274817.55046
  23628680.4174          0.000    23628680.6184     126753.58448     98774.75545
  24884928.0794          0.000    24884925.9944    1358782.29948   1058823.06544
  20114199.6944          0.000    20114199.1454  -26299807.03349 -20493330.91247
  4  3  1  2 14  0.0000000  0  8G 9G14G22G18G21G 3G26G15
  21495073.0624          0.000    21495071.9724  -17336670.58449 -13509076.90447
  22545042.5774          0.000    22545041.0424  -13049421.04649 -10168368.18446
  20583000.0164          0.000    20582995.8854  -24258488.22949 -18902690.11047
  20613073.0534          0.000    20613070.3874  -24733129.19349 -19272535.85047
  22410031.0154          0.000    22410028.6844  -15650136.81749 -12194883.96046
  23640274.3724          0.000    23640275.0284     187680.99648    146250.65045
  24907010.0574          0.000           0.000     1474819.37648   1149241.41444
  20117460.5434          0.000    20117459.7694  -26282671.65249 -20479978.67547
  4  3  1  2 14 30.0000000  0  8G 9G14G22G18G21G 3G26G15
  21492686.0924          0.000    21492684.7704  -17349213.89549 -13518850.90147
  22527532.7254          0.000    22527531.7444  -13141438.17749 -10240069.78746
  20577599.6374          0.000    20577595.6274  -24286867.10549 -18924803.56747
  20620072.7544          0.000    20620070.1424  -24696344.72649 -19243872.61947
  22429606.6174          0.000    22429604.3044  -15547264.03149 -12114723.35246
  23651942.0474          0.000    23651941.7514     248995.18748    194027.91245
  24929090.8294          0.000    24929092.2044    1590858.26448   1239661.22744
  20120837.2484          0.000    20120836.7314  -26264926.32049 -20466151.14747
  4  3  1  2 15  0.0000000  0  8G 9G14G22G18G21G 3G26G15
  21490429.7564          0.000    21490427.9064  -17361071.33649 -13528090.45547
  22510075.1184          0.000    22510073.9394  -13233178.23049 -10311555.46746
  20572262.4494          0.000    20572258.4194  -24314914.56849 -18946658.74747
  20627139.3834          0.000    20627136.7514  -24659207.89149 -19214934.81247
  22449239.5804          0.000    22449237.5854  -15444095.14349 -12034332.01946
  23663683.5154          0.000    23663684.1584     310700.66248    242110.08945
  24951174.7734          0.000           0.000     1706904.29748   1330086.78544
  20124331.3304          0.000    20124330.8914  -26246564.08449 -20451842.91247
  4  3  1  2 15 30.0000000  0  8G 9G14G22G18G21G 3G26G15
  21488304.8714          0.000    21488303.2704  -17372238.52249 -13536792.14547
  22492671.4844          0.000    22492669.8564  -13324635.56749 -10382820.83146
  20566988.8094          0.000    20566984.9064  -24342625.93149 -18968251.97447
  20634273.9604          0.000    20634271.4234  -24621715.36449 -19185719.84047
  22468928.0934          0.000    22468925.6314  -15340628.24349 -11953708.46546
  23675500.6404          0.000    23675502.5054     372798.85648    290498.28645
  24973260.0304          0.000           0.000     1822959.40148         0.000
  20127943.7964          0.000    20127943.1354  -26227581.03049 -20437050.92847
  4  3  1  2 16  0.0000000  0  8G 9G14G22G18G21G 3G26G15
  21486308.6694          0.000    21486307.2264  -17382727.04849 -13544965.01247
  22475319.0474          0.000    22475317.6794  -13415821.30049 -10453874.55346
  20561777.3514          0.000    20561773.3994  -24370012.87549 -18989592.41047
  20641473.9134          0.000    20641471.3014  -24583879.71649 -19156237.50247
  22488671.2014          0.000    22488669.1864  -15236878.02549 -11872864.15146
  23687389.8394          0.000    23687391.2544     435274.78948    339180.82445
  24995344.2814          0.000           0.000     1939009.24248         0.000
  20131672.2484          0.000    20131671.5964  -26207989.55749 -20421784.84947
  4  3  1  2 16 30.0000000  0  8G 9G14G22G18G21G 3G26G15
  21484443.8914          0.000    21484442.1014  -17392528.18749 -13552602.25447
  22458020.7184          0.000    22458019.0114  -13506725.86349 -10524709.19946
  20556628.9994          0.000    20556625.0554  -24397066.62049 -19010673.23547
  20648740.8004          0.000    20648738.3044  -24545693.23349 -19126481.78847
  22508469.1534          0.000    22508467.4504  -15132838.55949 -11791794.45846
  23699351.6174          0.000    23699353.7684     498133.86648    388161.94145
  25017426.5864          0.000           0.000     2055060.53348   1601377.37044
  20135517.6714          0.000    20135516.8714  -26187781.65449 -20406038.43647
  4  3  1  2 17  0.0000000  0  8G 9G14G22G18G21G 3G26G15
  21482710.8084          0.000    21482709.1754  -17401634.98849 -13559698.45547
  22440777.0544          0.000    22440775.7194  -13597341.66749 -10595318.84946
  20551545.7244          0.000    20551541.8774  -24423780.60849 -19031489.31447
  20656075.6494          0.000    20656072.9554  -24507149.51449 -19096447.71547
  22528323.4904          0.000    22528321.6024  -15028505.85449 -11710496.26346
  23711386.0944          0.000    23711386.6794     561380.10948    437444.71945
  25039511.8714          0.000           0.000     2171117.62748   1691811.47044
  20139481.3454          0.000    20139480.7864  -26166951.07649 -20389806.82047
  4  3  1  2 17 30.0000000  0  8G 9G14G22G18G21G 3G26G15
  21481107.2114          0.000    21481105.2354  -17410062.16649 -13566265.07447
  22423585.1304          0.000    22423583.6284  -13687682.48149 -10665714.22346
  20546524.2124          0.000    20546520.2834  -24450169.17549 -19052051.86647
  20663474.8654          0.000    20663472.1784  -24468264.26249 -19066147.52447
  22548230.2084          0.000    22548228.1734  -14923897.01349 -11628982.90046
  23723491.9814          0.000    23723492.5724     624995.61748    487015.23845
  25061595.1984          0.000           0.000     2287163.35848   1782236.69744
  20143560.9044          0.000    20143560.4074  -26145513.38949 -20373102.12847
  4  3  1  2 18  0.0000000  0  8G 9G14G22G18G21G 3G26G15
  21479634.8014          0.000    21479633.2654  -17417800.29949 -13572294.78247
  22406448.5864          0.000    22406446.2234  -13777737.97149 -10735887.26646
  20541566.0254          0.000    20541561.9254  -24476222.71049 -19072353.28947
  20670940.8854          0.000    20670938.0264  -24429029.09949 -19035574.66247
  22568190.1164          0.000    22568188.4924  -14819005.64049 -11547249.36946
  23735668.2504          0.000    23735668.6074     688986.66848    536878.37945
  25083676.1544          0.000           0.000     2403205.32148   1872659.03044
  20147757.6264          0.000    20147756.9114  -26123459.73849 -20355917.46547
  4  3  1  2 18 30.0000000  0  8G 9G14G22G18G21G 3G26G15
  21478293.1284          0.000    21478291.4744  -17424849.26849 -13577787.47947
  22389365.8164          0.000    22389364.0074  -13867506.75049 -10805836.90746
  20536672.1434          0.000    20536667.9734  -24501940.84849 -19092393.32547
  20678473.9224          0.000    20678471.2054  -24389444.17449 -19004729.26247
  22588203.3474          0.000    22588201.5944  -14713833.96649 -11465297.44546
  23747917.5814          0.000    23747917.8334     753350.75948    587032.22145
  25105754.1964          0.000           0.000     2519241.09247         0.000
  20152071.6334          0.000    20152070.7834  -26100790.25649 -20338252.93447
  4  3  1  2 19  0.0000000  0  8G 9G14G22G18G21G 3G26G15
  21477085.0004          0.000    21477083.3124  -17431199.47049 -13582735.67847
  22372339.4144          0.000    22372338.0304  -13956978.41349 -10875555.01346
  20531844.0794          0.000    20531840.0294  -24527313.74749 -19112164.36248
  20686074.9634          0.000    20686072.3624  -24349501.19449 -18973604.86147
  22608271.7314          0.000    22608270.3424  -14608375.05449 -11383121.68146
  23760237.7724          0.000    23760238.2694     818094.26848    637481.71445
  25127836.9064          0.000           0.000     2635278.49447         0.000
  20156504.1374          0.000    20156503.6934  -26077496.21249 -20320101.73447
  4  3  1  2 19 30.0000000  0  8G 9G14G22G18G21G 3G26G15
  21476009.2874          0.000    21476007.2234  -17436851.90449 -13587140.16047
  22355370.0754          0.000    22355369.2374  -14046153.24049 -10945041.83146
  20527080.8134          0.000    20527076.8264  -24552342.48049 -19131667.20848
  20693743.5834          0.000    20693741.0124  -24309201.77949 -18942202.71247
  22628393.2334          0.000    22628392.4844  -14502632.50249 -11300724.91646
  23772630.7264          0.000    23772631.4454     883212.96448    688223.54545
  25149919.5304          0.000           0.000     2751314.10848   2143912.65044
  20161055.4874          0.000    20161054.9604  -26053579.42049 -20301465.27147
  4  3  1  2 20  0.0000000  0  8G 9G14G22G18G21G 3G26G15
  21475062.2464          0.000    21475060.7524  -17441826.65049 -13591016.58847
  22338453.7084          0.000    22338451.8324  -14135050.49149 -11014312.34546
  20522379.7674          0.000    20522375.8274  -24577047.15949 -19150917.55048
  20701475.9214          0.000    20701473.4934  -24268566.93949 -18910539.19447
  22648565.6824          0.000    22648564.1284  -14396629.85249 -11218125.48346
  23785088.9504          0.000    23785089.7274     948683.40148    739239.45845
  25171996.0174          0.000           0.000     2867325.21548   2234310.77844
  20165721.0684          0.000    20165720.6684  -26029060.90049 -20282359.92647
  4  3  1  2 20 30.0000000  0  8G 9G14G22G18G21G 3G26G15
  21474247.0314          0.000    21474245.1404  -17446112.26549 -13594356.01747
  22321592.6074          0.000    22321591.1584  -14223657.16749 -11083356.43846
  20517742.5284          0.000    20517738.5934  -24601415.56849 -19169905.86448
  20709274.4974          0.000    20709271.9864  -24227585.42449 -18878605.53747
  22668788.5854          0.000    22668787.5924  -14290357.71549 -11135316.04046
  23797615.7764          0.000    23797615.3634    1014514.29448    790536.27945
  25194069.8974          0.000           0.000     2983321.78548   2324697.65544
  20170503.7084          0.000    20170502.8204  -26003929.37949 -20262776.92347
  4  3  1  2 21  0.0000000  0  7G 9G14G22G18G21G 3G15
  21473562.8144          0.000    21473560.9974  -17449707.14849 -13597157.21847
  22304787.2454          0.000    22304785.7974  -14311971.12249 -11152172.41946
  20513169.9314          0.000    20513165.8664  -24625446.17449 -19188630.99448
  20717139.2554          0.000    20717136.5034  -24186256.86549 -18846401.45747
  22689062.0994          0.000    22689060.2614  -14183816.92849 -11052297.26546
  23810209.5804          0.000    23810210.8524    1080704.31848    842112.90645
  20175402.6604          0.000    20175402.0664  -25978184.04449 -20242715.62247
  4  3  1  2 21 30.0000000  0  8G 9G14G22G18G21G 3G31G15
  21473011.4624          0.000    21473009.7744  -17452607.52849 -13599417.24347
  22288038.3684          0.000    22288036.5634  -14399987.13949 -11220756.26646
  20508662.1994          0.000    20508658.0924  -24649134.44249 -19207089.37748
  20725070.6194          0.000    20725067.6654  -24144577.76549 -18813924.23347
  22709386.8834          0.000    22709386.0904  -14077006.28849 -10969068.23446
  23822874.1024          0.000    23822873.7994    1147254.39448    893970.12245
  23654989.0764          0.000    23654987.8194          0.12858         0.71155
  20180419.4724          0.000    20180418.7164  -25951821.56549 -20222173.43247
  4  3  1  2 22  0.0000000  0  8G 9G14G22G18G21G 3G31G15
  21472590.9344          0.000    21472589.3544  -17454815.66849 -13601137.86747
  22271345.6764          0.000    22271344.2624  -14487706.46349 -11289108.93546
  20504218.7694          0.000    20504214.8324  -24672482.61149 -19225282.75848
  20733067.6994          0.000    20733064.9554  -24102551.13949 -18781176.20247
  22729763.0984          0.000    22729761.8684  -13969930.95349 -10885632.94746
  23835606.3694          0.000    23835606.0264    1214159.47848    946103.94345
  23657518.5894          0.000    23657517.8914      13297.94148     10362.61245
  20185552.8074          0.000    20185552.0154  -25924844.96949 -20201152.70047
  4  3  1  2 22 30.0000000  0  8G 9G14G22G18G21G 3G31G15
  21472301.4004          0.000    21472299.5384  -17456336.55049 -13602322.97147
  22254708.8294          0.000    22254707.4394  -14575133.24249 -11357233.63546
  20499839.9244          0.000    20499835.8444  -24695495.42649 -19243214.82148
  20741130.3474          0.000    20741127.9024  -24060182.65849 -18748161.80347
  22750188.0684          0.000    22750186.7894  -13862598.09049 -10801996.96246
  23848403.5514          0.000    23848402.7924    1281411.41748    998508.03845
  23660158.8694          0.000    23660157.8784      27173.69448     21174.84845
  20190801.8934          0.000    20190801.2584  -25897259.81749 -20179657.77347
  4  3  1  2 23  0.0000000  0  8G 9G14G22G18G21G 3G31G15
  21472143.0864          0.000    21472141.2334  -17457169.96049 -13602972.38447
  22238127.3484          0.000    22238125.8884  -14662266.09749 -11425129.30446
  20495524.5334          0.000    20495520.4724  -24718172.10849 -19260884.93048
  20749257.8044          0.000    20749255.0424  -24017472.58549 -18714881.23447
  22770661.7534          0.000    22770660.4064  -13755009.85449 -10718162.00246
  23861266.7524          0.000    23861267.5804    1349007.48748   1051180.32545
  23662910.0544          0.000    23662909.0194      41626.43948     32436.72845
  20196166.8664          0.000    20196166.3134  -25869066.60249 -20157689.02447
  4  3  1  2 23 30.0000000  0  8G 9G14G22G18G21G 3G31G15
  21472118.4934          0.000    21472116.8304  -17457297.77249 -13603071.97347
  22221606.5344          0.000    22221604.7904  -14749085.43849 -11492780.68146
  20491277.0994          0.000    20491273.1064  -24740493.98349 -19278278.59748
  20757453.3624          0.000    20757450.6914  -23974403.27449 -18681320.72747
  22791186.3044          0.000    22791185.3344  -13647150.85249 -10634116.05746
  23874198.7264          0.000    23874198.7744    1416963.14048   1104132.76745
  23665772.9984          0.000    23665773.5414      56673.17348     44161.44245
  20201650.8094          0.000    20201650.4094  -25840247.75749 -20135232.76747
  4  3  1  2 24  0.0000000  0  8G 9G14G22G18G21G 3G31G15
  21472224.8954          0.000    21472223.1964  -17456741.41849 -13602638.44047
  22205141.0114          0.000    22205138.9004  -14835611.65649 -11560203.64846
  20487092.6834          0.000    20487088.8004  -24762482.23649 -19295412.28648
  20765713.4554          0.000    20765711.0424  -23930996.44749 -18647497.22447
  22811758.6834          0.000    22811757.5964  -13539045.11549 -10549877.85146
  23887194.7454          0.000    23887193.0824    1485254.04548   1157346.46645
  23668745.7864          0.000    23668745.6184      72291.62748     56331.61245
  20207249.9304          0.000    20207249.3014  -25810825.19149 -20112306.07947
  4  3  1  2 24 30.0000000  0  8G 9G14G22G18G21G 3G31G15
  21472462.4804          0.000    21472461.4314  -17455489.38349 -13601662.82147
  22188733.8624          0.000    22188732.1404  -14921832.27949 -11627388.53646
  20482974.3694          0.000    20482970.1274  -24784124.51249 -19312276.38148
  20774039.8514          0.000    20774037.2004  -23887241.31949 -18613402.31947
  22832379.4054          0.000    22832376.7184  -13430682.82949 -10465439.72946
  23900254.8684          0.000    23900256.2994    1553888.99348   1210828.22845
  23671828.9514          0.000    23671826.4604      88491.88548     68955.17145
  20212965.9674          0.000    20212965.2194  -25780787.88949 -20088900.37847
  4  3  1  2 25  0.0000000  0  8G 9G14G22G18G21G 3G31G15
  21472831.5964          0.000    21472829.9304  -17453550.65249 -13600152.12447
  22172383.5374          0.000    22172381.5904  -15007754.67649 -11694341.00046
  20478920.0834          0.000    20478916.0284  -24805429.50149 -19328877.68648
  20782430.5724          0.000    20782427.9144  -23843147.41949 -18579043.43647
  22853046.6614          0.000    22853045.4134  -13322075.56449 -10380810.71745
  23913379.8674          0.000    23913380.5054    1622856.36348   1264569.03945
  23675019.6294          0.000    23675018.5604     105264.12848     82024.41545
  20218796.9074          0.000    20218796.1414  -25750145.26349 -20065022.99547
  4  3  1  2 25 30.0000000  0  8G 9G14G22G18G21G 3G31G15
  21473332.0764          0.000    21473330.3374  -17450921.86049 -13598103.71047
  22156090.3934          0.000    22156088.7664  -15093373.97249 -11761057.26246
  20474930.8784          0.000    20474926.7854  -24826392.95749 -19345212.86048
  20790886.5114          0.000    20790883.8774  -23798711.53349 -18544418.08447
  22873759.9704          0.000    22873758.8314  -13213221.98149 -10295989.78045
  23926566.6064          0.000    23926566.1864    1692156.80448   1318569.37645
  23678320.0734          0.000    23678318.2054     122610.93048     95541.38945
  20224743.7154          0.000    20224743.4224  -25718894.60049 -20040671.81947
  4  3  1  2 26  0.0000000  0  8G 9G14G22G18G21G 3G31G15
  21473965.5914          0.000    21473963.5704  -17447590.96049 -13595508.19947
  22139858.5094          0.000    22139856.5424  -15178677.14549 -11827527.20946
  20471009.0744          0.000    20471004.9254  -24847002.40749 -19361272.20148
  20799409.7684          0.000    20799407.3034  -23753922.08449 -18509517.22447
  22894522.7064          0.000    22894521.2684  -13104112.43249 -10210969.37445
  23939817.8884          0.000    23939818.9334    1761799.47748   1372836.40745
  23681732.9934          0.000    23681733.4554     140542.88848    109514.33245
  20230808.3764          0.000    20230807.9744  -25687024.53349 -20015838.01047
  4  3  1  2 26 30.0000000  0  8G 9G14G22G18G21G 3G31G15
  21474728.7474          0.000    21474727.0604  -17443579.62949 -13592382.48747
  22123681.6644          0.000    22123680.1214  -15263684.91849 -11893767.01246
  20467150.7254          0.000    20467146.6374  -24867279.30549 -19377072.40048
  20807996.0114          0.000    20807993.5274  -23708801.21649 -18474358.12447
  22915329.6824          0.000    22915328.8914  -12994771.64449 -10125768.78745
  23953131.8854          0.000    23953131.2884    1831759.64948   1427350.81545
  23685253.1194          0.000    23685250.2814     159037.12048    123925.38345
  20236986.7414          0.000    20236986.1154  -25654557.26649 -19990538.84647
  4  3  1  2 27  0.0000000  0  8G 9G14G22G18G21G 3G31G15
  21475625.3784          0.000    21475623.9414  -17438868.61149 -13588711.55847
  22107565.0874          0.000    22107563.5234  -15348376.28749 -11959760.24646
  20463359.0334          0.000    20463355.2324  -24887203.15549 -19392597.47548
  20816648.9704          0.000    20816646.2004  -23663329.96949 -18438925.99847
  22936183.9724          0.000    22936182.2814  -12885182.15649 -10040374.41745
  23966509.1484          0.000    23966507.9354    1902053.99448   1482125.59145
  23688882.1694          0.000    23688881.8664     178111.97948    138788.86245
  20243282.3104          0.000    20243281.6694  -25621474.16549 -19964759.80647
  4  3  1  2 27 30.0000000  0  8G 9G14G22G18G21G 3G31G15
  21476651.4214          0.000    21476649.7034  -17433478.71449 -13584511.64347
  22091505.1974          0.000    22091503.6414  -15432770.65749 -12025522.00746
  20459630.9404          0.000    20459626.9884  -24906794.41449 -19407863.37048
  20825364.4154          0.000    20825361.6724  -23617529.81649 -18403237.59147
  22957081.7484          0.000    22957079.4114  -12775367.01049  -9954804.19945
  23979944.5804          0.000    23979946.0454    1972659.07348   1537142.53345
  23692618.1584          0.000    23692618.4824     197745.42048    154087.62245
  20249690.9754          0.000    20249690.1274  -25587796.44249 -19938517.41947
  4  3  1  2 28  0.0000000  0  8G 9G14G22G18G21G 3G31G15
  21477814.5444          0.000    21477812.9444  -17427364.44749 -13579747.27947
  22075510.9224          0.000    22075509.1144  -15516821.36449 -12091015.99146
  20455974.8684          0.000    20455970.7674  -24926006.79149 -19422834.02148
  20834151.0744          0.000    20834148.3314  -23571355.08249 -18367257.29547
  22978031.0054          0.000    22978028.7834  -12665282.62449  -9869024.18445
  23993447.6714          0.000    23993449.9594    2043618.10648   1592435.28645
  23696469.5704          0.000    23696470.9924     217982.16548    169856.48345
  20256221.1704          0.000    20256220.6784  -25553478.99249 -19911776.53847
  4  3  1  2 28 30.0000000  0  8G 9G14G22G18G21G 3G31G15
  21479108.7304          0.000    21479107.0254  -17420564.19449 -13574448.37947
  22059574.7754          0.000    22059573.1284  -15600565.19649 -12156270.84646
  20452384.1534          0.000    20452379.7584  -24944877.70249 -19437538.57948
  20843001.7464          0.000    20842999.2244  -23524844.37349 -18331015.18247
  22999022.4074          0.000    22999019.8384  -12554969.71949  -9783066.10945
  24007008.4344          0.000    24007009.0844    2114889.92048   1647971.75545
  23700427.9624          0.000    23700426.7684     238782.81448    186064.75745
  20262866.0524          0.000    20262865.5544  -25518560.77249 -19884567.52247
  4  3  1  2 29  0.0000000  0  8G 9G14G22G18G21G 3G31G15
  21480528.7034          0.000    21480527.0644  -17413100.78249 -13568632.73447
  22043693.1984          0.000    22043691.3524  -15684023.77549 -12221303.44146
  20448853.9344          0.000    20448849.7034  -24963429.62249 -19451994.60648
  20851912.1314          0.000    20851909.4214  -23478021.08349 -18294529.49447
  23020053.2934          0.000    23020051.0604  -12444453.44849  -9696949.57245
  24020628.2314          0.000    24020628.8854    2186449.03748   1703732.09045
  23704488.7864          0.000    23704488.0124     260123.31148    202693.71445
  20269620.3044          0.000    20269619.5714  -25483065.28549 -19856908.70347
  4  3  1  2 29 30.0000000  0  8G 9G14G22G18G21G 3G31G15
  21482082.8734          0.000    21482080.9014  -17404936.28049 -13562270.78247
  22027873.6004          0.000    22027871.6624  -15767157.76949 -12286083.11446
  20445391.1624          0.000    20445387.1414  -24981623.56049 -19466171.67948
  20860888.7904          0.000    20860886.1264  -23430847.07649 -18257770.52147
  23041129.6564          0.000    23041128.0554  -12333697.33849  -9610646.14545
  24034306.1764          0.000    24034306.8424    2258330.81748   1759743.85845
  23708658.9764          0.000    23708658.7284     282040.67648    219772.15945
  20276491.9774          0.000    20276491.3144  -25446954.93449 -19828770.77347
  4  3  1  2 30  0.0000000  0  8G 9G14G22G18G21G 3G31G15
  21483766.4444          0.000    21483764.5244  -17396088.51549 -13555376.41947
  22012111.6094          0.000    22012110.4534  -15849983.64849 -12350622.71946
  20441994.1654          0.000    20441989.7634  -24999476.73249 -19480083.21148
  20869928.8944          0.000    20869926.1224  -23383340.56849 -18220752.46347
  23062247.1654          0.000    23062245.6114  -12222722.09849  -9524171.96145
  24048042.6104          0.000    24048042.8824    2330514.82648   1815991.12145
  23712936.7594          0.000    23712934.6044     304515.88248    237285.31145
  20283477.0234          0.000    20283476.6074  -25410248.03049 -19800167.99047
  4  3  1  2 30 30.0000000  0  8G 9G14G22G18G21G 3G31G15
  21485581.6844          0.000    21485579.8944  -17386548.56349 -13547942.69347
  21996411.3494          0.000    21996410.3634  -15932490.50449 -12414913.70846
  20438663.3074          0.000    20438659.1554  -25016979.40249 -19493721.64448
  20879034.0244          0.000    20879031.6014  -23335492.70749 -18183468.40947
  23083407.2874          0.000    23083406.0364  -12111520.75548  -9437521.58845
  24061837.2624          0.000    24061837.4874    2403007.63148   1872479.03445
  23717320.0024          0.000    23717320.8754     327556.97948    255239.36345
  20290577.4294          0.000    20290576.7444  -25372936.18949 -19771093.82547
  4  3  1  2 31  0.0000000  0  8G 9G14G22G18G21G 3G31G15
  21487531.7044          0.000    21487530.0984  -17376303.24149 -13539959.32747
  21980774.6444          0.000    21980772.9444  -16014663.93649 -12478944.88746
  20435402.0704          0.000    20435397.9014  -25034117.36149 -19507075.88248
  20888207.0984          0.000    20888204.5044  -23287290.60249 -18145908.31947
  23104614.4154          0.000    23104612.2644  -12000081.97848  -9350686.23145
  24075692.0774          0.000    24075691.4684    2475819.83848   1929215.80344
  23721816.2934          0.000    23721815.0564     351176.09648    273643.82745
  20297794.9504          0.000    20297794.2914  -25335006.68549 -19741538.37047
  4  3  1  2 31 30.0000000  0  8G 9G14G22G18G21G 3G31G15
  21489611.7494          0.000    21489609.8884  -17365371.36949 -13531440.98347
  21965197.6584          0.000    21965195.6174  -16096520.92649 -12542729.49546
  20432206.9184          0.000    20432202.6024  -25050908.13449 -19520159.58148
  20897443.1974          0.000    20897440.5594  -23238752.72249 -18108086.58747
  23125861.4254          0.000    23125858.3494  -11888426.44148  -9263681.95445
  24089606.3044          0.000    24089605.1194    2548930.28048   1986184.96345
  23726416.9434          0.000    23726415.7944     375353.70448    292483.46845
  20305126.5404          0.000    20305126.0324  -25296478.79549 -19711516.63747
  4  3  1  2 32  0.0000000  0  8G 9G14G22G18G21G 3G31G15
  21491822.3774          0.000    21491820.0314  -17353754.43849 -13522388.83447
  21949679.7304          0.000    21949678.2894  -16178061.80449 -12606267.80746
  20429077.9304          0.000    20429073.5774  -25067352.79049 -19532973.59248
  20906742.9174          0.000    20906740.3234  -23189881.24349 -18070004.92047
  23147149.8144          0.000    23147147.1964  -11776557.63849  -9176511.50645
  24103572.9394          0.000    24103573.6944    2622334.82648   2043383.29245
  23731122.4694          0.000    23731122.8144     400086.98948    311756.15745
  20312571.6924          0.000    20312571.1174  -25257354.77449 -19681030.38347
  4  3  1  2 32 30.0000000  0  8G 9G14G22G18G21G 3G31G15
  21494162.7094          0.000    21494160.8254  -17341456.18249 -13512805.77647
  21934223.5774          0.000    21934221.9174  -16259288.65649 -12669561.42546
  20426013.5974          0.000    20426009.5024  -25083454.09249 -19545520.05448
  20916105.8374          0.000    20916103.1064  -23140679.63549 -18031666.00947
  23168477.4434          0.000    23168475.4194  -11664481.26549  -9089179.29945
  24117596.9524          0.000    24117597.2864    2696027.40548   2100806.02145
  23735935.7414          0.000    23735934.0304     425371.24448    331458.10445
  20320129.6334          0.000    20320128.9784  -25217638.58349 -19650082.69347
  4  3  1  2 33  0.0000000  0  8G 9G14G22G18G21G 3G31G15
  21496635.6874          0.000    21496633.8954  -17328459.97049 -13502678.86247
  21918830.0864          0.000    21918827.8174  -16340182.85649 -12732595.81446
  20423018.3614          0.000    20423014.2464  -25099194.12049 -19557785.00348
  20925534.6764          0.000    20925532.0204  -23091131.36849 -17993056.96447
  23189847.1184          0.000    23189845.7174  -11552182.68149  -9001673.92645
  24131675.9784          0.000    24131677.0314    2770022.35248   2158464.45244
  23740854.0484          0.000    23740851.9434     451222.22148    351601.63145
  20327802.7634          0.000    20327802.4024  -25177313.86949 -19618660.83547
  4  3  1  2 33 30.0000000  0  8G 9G14G22G18G21G 3G31G15
  21499237.5644          0.000    21499236.1684  -17314784.81849 -13492022.89847
  21903496.8444          0.000    21903495.0264  -16420762.22049 -12795384.88846
  20420088.3494          0.000    20420084.0814  -25114591.19049 -19569782.69548
  20935025.3554          0.000    20935022.9614  -23041255.56449 -17954192.69547
  23211254.3104          0.000    23211252.1984  -11439682.90848  -8914011.77445
  24145810.5934          0.000    24145813.3704    2844297.80948   2216341.43644
  23745876.4254          0.000    23745875.9224     477619.90248    372171.13645
  20335588.6064          0.000    20335587.9434  -25136400.21749 -19586780.06447
  4  3  1  2 34  0.0000000  0  8G 9G14G22G18G21G 3G31G15
  21501971.2274          0.000    21501969.2054  -17300423.86749 -13480832.54747
  21888224.2624          0.000    21888221.9354  -16501018.11949 -12857921.92646
  20417225.1104          0.000    20417220.9924  -25129637.41349 -19581507.02248
  20944579.8404          0.000    20944577.1804  -22991045.20149 -17915067.73847
  23232701.5894          0.000    23232699.2224  -11326976.84048  -8826188.89545
  24159999.8964          0.000    24160001.9034    2918858.79848   2274440.90445
  23751005.5174          0.000    23751004.9514     504570.28148    393171.33945
  20343487.5994          0.000    20343486.9544  -25094891.05849 -19554435.24847
  4  3  1  2 34 30.0000000  0  8G 9G14G22G18G21G 3G31G15
  21504837.6154          0.000    21504835.9284  -17285357.08649 -13469092.20347
  21873017.8804          0.000    21873015.9894  -16580928.60449 -12920189.81046
  20414432.7404          0.000    20414428.7164  -25144311.30049 -19592941.21548
  20954202.5294          0.000    20954199.7364  -22940480.19049 -17875666.43347
  23254191.8844          0.000    23254189.9564  -11214046.22848  -8738191.02645
  24174246.6884          0.000    24174247.0864    2993722.99648   2332776.62045
  23756243.8904          0.000    23756242.1494     532092.35848    414617.06445
  20351503.4034          0.000    20351503.0604  -25052766.97149 -19521611.27047
  4  3  1  2 35  0.0000000  0  8G 9G14G22G18G21G 3G31G15
  21507831.4624          0.000    21507829.3624  -17269625.58349 -13456833.88947
  21857869.0364          0.000    21857867.8824  -16660533.23049 -12982219.36846
  20411703.7474          0.000    20411699.6424  -25158652.88949 -19604116.47448
  20963884.4214          0.000    20963881.6104  -22889601.10249 -17836020.38747
  23275715.5944          0.000    23275715.2174  -11100933.87648  -8650051.56945
  24188541.9594          0.000    24188542.2604    3068846.86748   2391314.69345
  23761581.5834          0.000    23761582.6274     560144.31848    436475.70545
  20359628.5864          0.000    20359628.3084  -25010069.08449 -19488340.18247
  4  3  1  2 35 30.0000000  0  8G 9G14G22G18G21G 3G31G15
  21510958.4624          0.000    21510956.8304  -17253190.89749 -13444027.64846
  21842786.8224          0.000    21842784.8194  -16739791.65849 -13043979.12646
  20409045.2454          0.000    20409041.1254  -25172622.90749 -19615002.19148
  20973633.3134          0.000    20973630.7164  -22838369.82449 -17796099.90547
  23297281.2964          0.000    23297278.0064  -10987603.08248  -8561741.89945
  24202894.1504          0.000    24202895.9824    3144266.65448   2450083.35945
  23767027.2514          0.000    23767027.6044     588763.50248    458776.34745
  20367870.1324          0.000    20367869.5874  -24966759.67349 -19454592.58647
  4  3  1  2 36  0.0000000  0  8G 9G14G22G18G21G 3G31G15
  21514219.7204          0.000    21514218.1944  -17236055.21749 -13430675.16747
  21827770.5914          0.000    21827768.3344  -16818704.64749 -13105469.71746
  20406457.2894          0.000    20406453.1124  -25186222.34049 -19625599.11748
  20983449.0924          0.000    20983446.3624  -22786788.46949 -17755906.64347
  23318888.6474          0.000    23318889.6294  -10874058.10548  -8473265.30545
  24217301.7554          0.000    24217303.2074    3219977.60448   2509078.89345
  23772580.5024          0.000    23772579.4544     617946.77548    481516.52945
  20376227.7624          0.000    20376226.8914  -24922841.24849 -19420370.43247
  4  3  1  2 36 30.0000000  0  8G 9G14G22G18G21G 3G31G15
  21517607.3674          0.000    21517605.7434  -17218253.70949 -13416803.86147
  21812812.8064          0.000    21812810.7544  -16897305.42349 -13166717.06347
  20403933.4414          0.000    20403929.2394  -25199485.06549 -19635933.66448
  20993324.7664          0.000    20993321.7434  -22734892.03049 -17715467.86147
  23340528.9624          0.000    23340528.2734  -10760335.53948  -8384650.34045
  24231756.8544          0.000    24231757.6084    3295942.74548   2568272.49945
  23778234.8444          0.000    23778234.8274     647658.05748    504668.20145
  20384694.1694          0.000    20384693.8214  -24878349.34849 -19385701.41247
  4  3  1  2 37  0.0000000  0  8G 9G14G22G18G21G 3G31G15
  21521122.9204          0.000    21521121.3014  -17199776.09349 -13402405.72446
  21797917.5604          0.000    21797915.2134  -16975581.56049 -13227711.41346
  20401475.8644          0.000    20401471.8144  -25212399.12649 -19645996.54048
  21003262.2704          0.000    21003259.7244  -22682669.65149 -17674775.09947
  23362205.0084          0.000    23362202.9704  -10646426.45948  -8295890.05845
  24246261.3834          0.000    24246261.2234    3372170.74148   2627670.90444
  23783991.0814          0.000    23783990.1284     677907.04548    528238.84845
  20393271.6634          0.000    20393271.0714  -24833273.88249 -19350577.66747
  4  3  1  2 37 30.0000000  0  8G 9G14G22G18G21G 3G31G15
  21524769.3034          0.000    21524767.7084  -17180615.45449 -13387475.36747
  21783085.3424          0.000    21783083.4634  -17053524.77249 -13288446.33946
  20399086.3964          0.000    20399082.0654  -25224956.85849 -19655781.77248
  21013263.4634          0.000    21013260.8604  -22630114.10149 -17633822.72247
  23383918.3514          0.000    23383916.5164  -10532326.07548  -8206980.70545
  24260819.4094          0.000    24260820.2074    3448665.74748   2687277.39744
  23789851.4584          0.000    23789851.1644     708699.48148    552232.91745
  20401961.4914          0.000    20401960.8744  -24787608.72449 -19314994.42447
  4  3  1  2 38  0.0000000  0  8G 9G14G22G18G21G 3G31G15
  21528545.6634          0.000    21528543.8594  -17160771.54849 -13372012.59147
  21768317.0074          0.000    21768314.9684  -17131132.95049 -13348920.21046
  20396765.0004          0.000    20396760.4034  -25237156.80249 -19665288.21348
  21023327.7684          0.000    21023325.1654  -22577225.46949 -17592610.80847
  23405666.5254          0.000    23405665.0364  -10418035.81048  -8117923.38945
  24275426.4084          0.000    24275427.0034    3525425.67648   2747090.32844
  23795812.8604          0.000    23795813.1114     740034.52448    576649.78245
  20410763.5314          0.000    20410762.8414  -24741353.75649 -19278951.57547
  4  3  1  2 38 30.0000000  0  8G 9G14G22G18G21G 3G31G15
  21532453.2984          0.000    21532451.2024  -17140235.72449 -13356010.65647
  21753614.6944          0.000    21753612.4404  -17208395.44549 -13409124.69347
  20394513.2114          0.000    20394508.9204  -25248988.98349 -19674508.08348
  21033457.0074          0.000    21033454.7144  -22523994.63849 -17551132.23547
  23427452.2194          0.000    23427450.9674  -10303548.63248  -8028712.62045
  24290084.5084          0.000    24290085.3154    3602457.02648   2807114.77745
  23801882.2254          0.000    23801880.0074     771920.13548    601495.66245
  20419679.0954          0.000    20419678.6384  -24694500.66449 -19242442.65547
  4  3  1  2 39  0.0000000  0  8G 9G14G22G18G21G 3G31G15
  21536487.6854          0.000    21536485.9784  -17119036.20149 -13339491.55847
  21738972.8534          0.000    21738970.8354  -17285338.72849 -13469080.45047
  20392326.5984          0.000    20392322.3064  -25260480.32649 -19683462.37348
  21043646.6394          0.000    21043643.9824  -22470449.59849 -17509408.82147
  23449270.9334          0.000    23449267.4334  -10188894.33748  -7939371.66245
  24304789.1004          0.000    24304789.6384    3679729.49148   2867327.07044
  23808048.1324          0.000    23808048.5094     804327.14448    626747.85345
  20428703.4154          0.000    20428702.5994  -24647078.04349 -19205489.94747
  4  3  1  2 39 30.0000000  0  8G 9G14G22G18G21G 3G31G15
  21540650.5484          0.000    21540649.2364  -17097158.20649 -13322443.77446
  21724394.8384          0.000    21724392.7034  -17361945.84949 -13528774.26447
  20390207.9544          0.000    20390203.5884  -25271614.36249 -19692138.22848
  21053898.4434          0.000    21053895.7254  -22416574.92149 -17467428.54847
  23471123.0674          0.000    23471120.9364  -10074059.60648  -7849890.07445
  24319541.0594          0.000    24319542.1444    3757256.15848   2927737.46344
  23814316.6774          0.000    23814316.6024     837269.65448    652417.29745
  20437838.7404          0.000    20437838.0944  -24599071.55649 -19168082.29547
  4  3  1  2 40  0.0000000  0  8G 9G14G22G18G21G 3G31G15
  21544943.6764          0.000    21544941.9504  -17074599.40549 -13304865.50346
  21709880.8384          0.000    21709879.1124  -17438212.67649 -13588202.90647
  20388157.5864          0.000    20388153.2624  -25282387.48849 -19700532.86048
  21064213.2544          0.000    21064210.8314  -22362368.03549 -17425189.41147
  23493010.0274          0.000    23493009.8884   -9959043.59748  -7760267.23445
  24334343.0844          0.000    24334342.3294    3835037.35048   2988346.15044
  23820688.1084          0.000    23820688.1104     870749.34048    678505.37445
  20447085.5384          0.000    20447084.9844  -24550478.94949 -19130217.92547
  4  3  1  2 40 30.0000000  0  8G 9G14G22G18G21G 3G31G15
  21549367.9234          0.000    21549365.7174  -17051352.43749 -13286751.00747
  21695435.0314          0.000    21695432.9524  -17514130.02349 -13647359.22447
  20386177.9414          0.000    20386173.5794  -25292791.05949 -19708639.51748
  21074593.4424          0.000    21074590.9234  -22307821.18349 -17382685.36747
  23514932.2044          0.000    23514932.0474   -9843840.49948  -7670498.62945
  24349194.1184          0.000    24349194.4154    3913078.20748   3049157.22144
  23827161.2804          0.000    23827161.7904     904772.33748    705016.79545
  20456445.4494          0.000    20456444.6994  -24501293.40449 -19091891.52247
  4  3  1  2 41  0.0000000  0  8G 9G14G22G18G21G 3G31G15
  21553920.8214          0.000    21553918.9034  -17027425.09549 -13268106.32746
  21681053.5924          0.000    21681052.1274  -17589703.62449 -13706247.69247
  20384267.3764          0.000    20384263.1244  -25302831.41149 -19716463.15148
  21085036.3214          0.000    21085033.9334  -22252941.82449 -17339922.23147
  23536889.1654          0.000    23536888.7984   -9728459.45148  -7580591.34745
  24364091.7474          0.000    24364092.9824    3991368.91048   3110162.96944
  23833737.3804          0.000    23833738.9694     939330.08148    731944.89745
  20465916.2764          0.000    20465915.6394  -24451523.08949 -19053109.45547
  4  3  1  2 41 30.0000000  0  8G 9G14G22G18G21G 3G31G15
  21558603.2344          0.000    21558601.0984  -17002819.02949 -13248932.78247
  21666737.9284          0.000    21666735.8524  -17664933.12849 -13764868.04847
  20382425.8614          0.000    20382421.7184  -25312508.81649 -19724003.97348
  21095542.6274          0.000    21095540.1744  -22197731.02549 -17296900.83047
  23558880.1594          0.000    23558879.2184   -9612903.54748  -7490547.80245
  24379036.7024          0.000    24379038.8774    4069905.82948   3171360.52944
  23840415.6944          0.000    23840415.0654     974420.04748    759287.73845
  20475498.1664          0.000    20475497.3414  -24401170.11849 -19013873.37147
  4  3  1  2 42  0.0000000  0  8G 9G14G22G18G21G 3G31G15
  21563412.0354          0.000    21563409.9554  -16977549.63449 -13229242.35747
  21652485.2534          0.000    21652483.0974  -17739832.23649 -13823230.95847
  20380650.3974          0.000    20380646.2044  -25321837.51249 -19731273.08148
  21106109.4984          0.000    21106106.8964  -22142204.32349 -17253633.27047
  23580899.0644          0.000    23580897.9954   -9497189.87848  -7400381.32645
  24394024.5534          0.000    24394022.8824    4148671.66248   3232736.49944
  23847191.0954          0.000    23847189.6424    1010025.95848    787032.60745
  20485187.8534          0.000    20485187.0584  -24350249.99549 -18974195.35047
  4  3  1  2 42 30.0000000  0  8G 9G14G22G18G21G 3G31G15
  21568347.0964          0.000    21568345.5184  -16951614.81449 -13209033.41146
  21638295.9554          0.000    21638293.7884  -17814396.36849 -13881332.82547
  20378942.3154          0.000    20378938.0684  -25330813.41249 -19738267.27648
  21116736.3654          0.000    21116733.8044  -22086358.76549 -17210117.25147
  23602948.2294          0.000    23602945.3814   -9381317.69848  -7310091.33144
  24409057.8964          0.000    24409055.1494    4227666.55948   3294291.00544
  23854065.7004          0.000    23854065.1164    1046149.29348    815180.65345
  20494986.3074          0.000    20494985.1014  -24298760.87149 -18934073.95047
  4  3  1  2 43  0.0000000  0  8G 9G14G22G18G21G 3G31G15
  21573412.5404          0.000    21573411.0984  -16924992.72949 -13188288.95646
  21624175.1764          0.000    21624173.1544  -17888601.64049 -13939155.05347
  20377305.9994          0.000    20377301.7564  -25339413.19849 -19744968.38748
  21127428.3274          0.000    21127426.2034  -22030171.63649 -17166335.06947
  23625032.6114          0.000    23625029.9244   -9265266.38648  -7219661.76944
  24424137.9284          0.000    24424138.2264    4306910.51748   3356039.47044
  23861041.6134          0.000    23861040.7644    1082811.07348    843748.30345
  20504896.5444          0.000    20504895.8114  -24246681.14249 -18893492.34347
  4  3  1  2 43 30.0000000  0  8G 9G14G22G18G21G 3G31G15
  21578605.9054          0.000    21578604.6024  -16897702.63449 -13167023.95746
  21610119.2834          0.000    21610117.0684  -17962465.50649 -13996711.25547
  20375737.6234          0.000    20375733.3024  -25347654.63849 -19751390.27748
  21138181.8694          0.000    21138179.1034  -21973662.04949 -17122301.62247
  23647147.3064          0.000    23647144.5334   -9149056.66148  -7129108.74044
  24439259.8674          0.000    24439263.4394    4386382.67548   3417965.82544
  23868117.1394          0.000    23868115.4154    1119991.19748    872719.85845
  20514915.4514          0.000    20514914.7714  -24194030.56049 -18852465.91247
  4  3  1  2 44  0.0000000  0  8G 9G14G22G18G21G 3G31G15
  21583927.6544          0.000    21583925.7204  -16869737.69949 -13145233.10846
  21596130.2454          0.000    21596128.1104  -18035979.04649 -14053994.47247
  20374239.0164          0.000    20374234.7304  -25355529.34249 -19757526.40548
  21148998.0984          0.000    21148995.2584  -21916822.68049 -17078011.20047
  23669291.7074          0.000    23669291.4444   -9032682.68248  -7038427.72844
  24454428.3184          0.000    24454427.0004    4466087.76748   3480073.70044
  23875291.5884          0.000    23875291.9644    1157695.65848    902099.97245
  20525044.5204          0.000    20525043.5264  -24140802.31449 -18810989.34347
  4  3  1  2 44 30.0000000  0  8G 9G14G22G18G21G 3G31G15
  21589376.8184          0.000    21589374.8384  -16841102.65649 -13122920.10546
  21582206.5164          0.000    21582204.6384  -18109144.85549 -14111006.74447
  20372809.7224          0.000    20372805.6584  -25363040.44049 -19763379.20348
  21159876.4424          0.000    21159873.7994  -21859657.54349 -17033466.94947
  23691467.3524          0.000    23691466.6714   -8916150.65048  -6947623.58244
  24469638.9364          0.000    24469637.7244    4546019.23348   3542357.89444
  23882564.9264          0.000    23882563.8714    1195918.98048    931884.41245
  20535282.5284          0.000    20535281.5124  -24087001.58349 -18769066.69447
  4  3  1  2 45  0.0000000  0  8G 9G14G22G18G21G 3G31G15
  21594953.7944          0.000    21594952.1754  -16811795.80749 -13100083.60646
  21568351.0294          0.000    21568348.7454  -18181958.77249 -14167744.81447
  20371450.3684          0.000    20371446.0394  -25370184.39349 -19768945.91748
  21170817.0114          0.000    21170814.5524  -21802164.40249 -16988667.11247
  23713673.3684          0.000    23713673.0784   -8799460.06348  -6856695.88544
  24484892.7524          0.000    24484889.6464    4626177.46248   3604818.87444
  23889937.3744          0.000    23889937.3884    1234662.35348    962074.06745
  20545629.6944          0.000    20545628.7704  -24032626.71749 -18726696.66547
  4  3  1  2 45 30.0000000  0  8G 9G14G22G18G21G 3G31G15
  21600657.1034          0.000    21600655.6654  -16781825.33449 -13076730.00746
  21554560.5674          0.000    21554558.4694  -18254427.01549 -14224213.51447
  20370159.6644          0.000    20370155.0434  -25376967.96749 -19774231.80648
  21181818.4234          0.000    21181815.8374  -21744351.08649 -16943617.77647
  23735907.4234          0.000    23735907.2004   -8682620.29648  -6765651.93344
  24500186.1194          0.000    24500187.4334    4706552.17848   3667448.48444
  23897408.4844          0.000    23897408.1034    1273916.39448    992661.63845
  20556084.4624          0.000    20556083.5664  -23977686.49049 -18683886.09447
  4  3  1  2 46  0.0000000  0  8G 9G14G22G18G21G 3G31G15
  21606486.2004          0.000    21606484.0784  -16751193.39249 -13052860.97846
  21540836.2114          0.000    21540834.0984  -18326549.90949 -14280413.13547
  20368936.9314          0.000    20368932.6454  -25383391.71649 -19779237.31448
  21192880.5004          0.000    21192877.8394  -21686218.68449 -16898319.80347
  23758168.6964          0.000    23758167.6734   -8565635.02648  -6674494.61545
  24515520.9724          0.000    24515522.7684    4787139.24748   3730243.63744
  23904974.1414          0.000    23904971.2764    1313678.27048   1023644.90945
  20566646.3534          0.000    20566645.2914  -23922183.32749 -18640636.87847
  4  3  1  2 46 30.0000000  0  8G 9G14G22G18G21G 3G31G15
  21612440.5834          0.000    21612438.7254  -16719903.53449 -13028479.28446
  21527177.1954          0.000    21527174.7524  -18398328.43749 -14336344.42047
  20367782.7914          0.000    20367778.5564  -25389457.19349 -19783963.66148
  21204003.1134          0.000    21204000.1314  -21627769.91549 -16852775.31147
  23780456.7734          0.000    23780453.0304   -8448508.84248  -6583227.47344
  24530897.0634          0.000    24530898.3764    4867933.85348   3793200.46744
  23912636.4404          0.000    23912636.2894    1353943.82148   1055020.66145
  20577314.7204          0.000    20577313.8424  -23866120.66649 -18596951.68447
  4  3  1  2 47  0.0000000  0  8G 9G14G22G18G21G 3G31G15
  21618521.6544          0.000    21618519.9524  -16687945.33749 -13003576.81246
  21513585.8604          0.000    21513583.8774  -18469750.17949 -14391997.67747
  20366698.9504          0.000    20366694.7894  -25395152.76349 -19788401.77648
  21215187.5064          0.000    21215185.0994  -21568994.17049 -16806976.03747
  23802773.8794          0.000    23802773.7424   -8331232.32948  -6491843.18844
  24546311.3104          0.000    24546312.9734    4948944.40748   3856325.56644
  23920396.6254          0.000    23920396.3944    1394722.61448   1086796.36045
  20588091.3874          0.000    20588090.7264  -23809488.71949 -18552822.89747
  4  3  1  2 47 30.0000000  0  8G 9G14G22G18G21G 3G31G15
  21624727.9584          0.000    21624725.7104  -16655331.25849 -12978163.26746
  21500061.0244          0.000    21500058.6144  -18540825.33249 -14447380.86347
  20365683.6044          0.000    20365679.2574  -25400488.79749 -19792559.72348
  21226432.3224          0.000    21226430.0614  -21509903.22249 -16760931.14547
  23825115.3764          0.000    23825111.0884   -8213819.09548  -6400352.36744
  24561765.3114          0.000    24561766.9344    5030156.80748   3919607.93644
  23928250.2734          0.000    23928252.4814    1436001.47448   1118961.72745
  20598973.7624          0.000    20598973.2554  -23752299.94049 -18508260.20847
  4  3  1  2 48  0.0000000  0  8G 9G14G22G18G21G 3G31G15
  21631062.3404          0.000    21631060.3064  -16622041.75949 -12952223.41746
  21486605.3024          0.000    21486603.6084  -18611532.01649 -14502476.92947
  20364740.7644          0.000    20364736.3444  -25405443.81749 -19796420.77948
  21237740.9744          0.000    21237738.4034  -21450476.54849 -16714624.65047
  23847486.3624          0.000           0.000    -8096250.75748  -6308740.73044
  24577262.9544          0.000    24577261.2444    5111589.34348   3983061.83544
  23936205.4024          0.000    23936206.4824    1477799.52648   1151531.64645
  20609966.5634          0.000    20609965.7614  -23694534.80149 -18463248.41247
  4  3  1  2 48 30.0000000  0  8G 9G14G22G18G21G 3G31G15
  21637522.6204          0.000    21637521.3684  -16588094.29149 -12925770.85646
  21473218.1114          0.000    21473215.7084  -18681885.21349 -14557297.57047
  20363867.3074          0.000    20363862.9904  -25410033.50649 -19799997.15748
  21249110.0404          0.000    21249107.3774  -21390730.51049 -16668069.29747
  23869886.8664          0.000    23869883.6134   -7978545.52048  -6217022.38744
  24592797.0334          0.000    24592795.7464    5193222.74348   4046672.26544
  23944254.9884          0.000    23944255.5384    1520098.44148   1184491.85345
  20621064.9084          0.000    20621064.4904  -23636211.00249 -18417801.28247
  4  3  1  2 49  0.0000000  0  8G 9G14G22G18G21G 3G31G15
  21644106.8064          0.000    21644105.3454  -16553494.79449 -12898810.21346
  21459896.7834          0.000    21459894.5864  -18751888.91749 -14611845.87347
  20363062.5644          0.000    20363058.3994  -25414262.10349 -19803292.18248
  21260539.2904          0.000    21260536.6864  -21330670.76049 -16621269.50047
  23892312.2004          0.000    23892309.1334   -7860710.61248  -6125203.00944
  24608369.2364          0.000    24608371.8234    5275049.68948   4110433.52844
  23952397.3044          0.000    23952396.4814    1562891.64548   1217837.20845
  20632268.5644          0.000    20632268.2514  -23577334.86049 -18371923.76647
  4  3  1  2 49 30.0000000  0  8G 9G14G22G18G21G 3G31G15
  21650816.3104          0.000    21650814.6294  -16518234.46049 -12871334.62946
  21446643.8474          0.000    21446641.8574  -18821531.99649 -14666113.15947
  20362328.8794          0.000    20362324.6544  -25418118.95649 -19806297.52348
  21272029.7554          0.000    21272027.1224  -21270287.52849 -16574217.63547
  23914761.7124          0.000    23914757.0714   -7742738.47648  -6033276.66444
  24623978.0654          0.000    24623980.4094    5357077.17148   4174351.04644
  23960636.7504          0.000    23960634.7354    1606186.96448   1251573.83845
  20643579.3004          0.000    20643578.4514  -23517897.95149 -18325609.28447
  4  3  1  2 50  0.0000000  0  8G 9G14G22G18G21G 3G31G15
  21657650.1824          0.000    21657648.5194  -16482323.94749 -12843352.41446
  21433458.2424          0.000    21433456.0924  -18890822.63349 -14720105.81847
  20361663.6984          0.000    20361659.4874  -25421612.80949 -19809019.99548
  21283579.9484          0.000    21283577.2584  -21209590.55449 -16526921.28847
  23937233.7924          0.000    23937230.4084   -7624640.49748  -5941252.28944
  24639623.1304          0.000    24639623.8394    5439292.87948   4238415.16844
  23968968.6794          0.000    23968966.8274    1649973.29748   1285693.07345
  20654994.0934          0.000    20654993.6174  -23457910.85649 -18278866.09247
  4  3  1  2 50 30.0000000  0  8G 9G14G22G18G21G 3G31G15
  21664607.9254          0.000    21664606.8884  -16445757.80649 -12814859.32246
  21420340.9784          0.000    21420338.5604  -18959752.87949 -14773817.65747
  20361069.4404          0.000    20361065.2324  -25424736.34149 -19811453.91948
  21295190.9784          0.000    21295188.6244  -21148573.61549 -16479375.62247
  23959730.6204          0.000    23959727.9194   -7506411.80148  -5849126.07744
  24655304.6174          0.000           0.000     5521701.21448   4302629.45144
  23977396.1644          0.000    23977394.3044    1694255.51548   1320198.68444
  20666515.1324          0.000    20666514.6924  -23397368.11649 -18231689.93547
  4  3  1  2 51  0.0000000  0  8G 9G14G22G18G21G 3G31G15
  21671687.8304          0.000    21671686.7064  -16408554.97149 -12785870.11346
  21407289.3544          0.000    21407287.1554  -19028339.40849 -14827261.66147
  20360542.3744          0.000    20360538.2684  -25427506.33649 -19813612.36448
  21306859.7334          0.000    21306857.7614  -21087254.64749 -16431594.61447
  23982250.8214          0.000    23982249.1444   -7388072.68248  -5756913.82444
  24671019.9534          0.000    24671020.2534    5604281.75848   4366977.96444
  23985913.1194          0.000    23985912.5644    1739014.04148   1355075.54245
  20678138.0914          0.000    20678137.5794  -23336288.83449 -18184095.69947
  4  3  1  2 51 30.0000000  0  8G 9G14G22G18G21G 3G31G15
  21678893.8154          0.000    21678892.0404  -16370688.89749 -12756364.10046
  21394309.0234          0.000    21394306.7794  -19096553.51749 -14880415.46447
  20360087.8354          0.000    20360083.6464  -25429894.69049 -19815473.42748
  21318591.0494          0.000    21318588.6094  -21025606.35349 -16383557.01347
  24004796.1914          0.000    24004793.9204   -7269597.47948  -5664595.47244
  24686772.5144          0.000    24686772.3744    5687059.41648   4431480.00544
  23994524.2244          0.000    23994523.9694    1784274.61048   1390343.50145
  20689868.2314          0.000    20689867.4714  -23274647.14549 -18136063.22547
  4  3  1  2 52  0.0000000  0  8G 9G14G22G18G21G 3G31G15
  21686229.5234          0.000    21686228.3174  -16332138.20049 -12726324.61046
  21381403.6474          0.000    21381401.0964  -19164371.26749 -14933260.41847
  20359710.5674          0.000    20359706.1774  -25431877.81349 -19817018.72648
  21330388.8914          0.000    21330386.1194  -20963606.38749 -16335245.35147
  24027371.3524          0.000    24027371.1374   -7150965.72848  -5572155.14444
  24702566.1484          0.000    24702567.1784    5770054.06948   4496151.12244
  24003236.7634          0.000    24003236.2594    1830057.89948   1426018.79545
  20701709.2784          0.000    20701708.4934  -23212421.68249 -18087575.85447
  4  3  1  2 52 30.0000000  0  8G 9G14G22G18G21G 3G31G15
  21693684.8284          0.000    21693683.1804  -16292958.86149 -12695795.26846
  21368563.5984          0.000    21368561.0764  -19231846.50949 -14985838.48847
  20359399.9814          0.000    20359395.6694  -25433510.22649 -19818290.74248
  21342243.1424          0.000    21342240.8054  -20901310.00649 -16286702.71147
  24049964.8374          0.000           0.000    -7032234.42048  -5479637.26744
  24718390.3024          0.000    24718392.4604    5853208.24848   4560946.52344
  24012038.1244          0.000    24012037.3254    1876307.07248   1462057.13045
  20713651.1024          0.000    20713650.3474  -23149668.67549 -18038677.41747
  4  3  1  2 53  0.0000000  0  8G 9G14G22G18G21G 3G31G15
  21701258.7874          0.000    21701257.0384  -16253158.76649 -12664782.21046
  21355787.5454          0.000    21355785.2584  -19298984.42749 -15038153.71247
  20359154.9944          0.000    20359150.6774  -25434797.22949 -19819293.58648
  21354153.3004          0.000    21354150.9544  -20838723.94849 -16237934.35647
  24072574.6444          0.000    24072575.2794   -6913411.92048  -5387048.37044
  24734240.9774          0.000    24734244.7504    5936512.85848   4625859.28944
  24020926.7324          0.000    24020928.9094    1923013.88948   1498452.05345
  20725691.6674          0.000    20725690.8354  -23086395.94749 -17989373.99547
  4  3  1  2 53 30.0000000  0  8G 9G14G22G18G21G 3G31G15
  21708958.3144          0.000    21708956.7864  -16212699.88149 -12633255.81246
  21343083.4454          0.000    21343081.1074  -19365744.58849 -15090174.57447
  20358983.3694          0.000    20358979.0574  -25435698.99549 -19819996.25948
  21366125.7164          0.000    21366123.4164  -20775809.18149 -16188909.87547
  24095210.1034          0.000           0.000    -6794454.74348  -5294354.36344
  24750128.1184          0.000           0.000     6020004.53648   4690917.74744
  24029910.7194          0.000    24029910.8744    1970215.82448   1535232.75045
  20737837.9424          0.000    20737837.4004  -23022565.72249 -17939636.16647
  4  3  1  2 54  0.0000000  0  8G 9G14G22G18G21G 3G31G15
  21716778.9834          0.000    21716777.8604  -16171596.83149 -12601227.47246
  21330448.6634          0.000    21330446.3664  -19432139.14249 -15141910.54747
  20358882.6464          0.000    20358878.5634  -25436228.03849 -19820408.51348
  21378157.7614          0.000    21378155.2784  -20712579.53649 -16139640.03647
  24117867.5114          0.000    24117865.5714   -6675378.92648  -5201567.97044
  24766050.2574          0.000           0.000     6103667.30548   4756109.56344
  24038983.1184          0.000    24038981.5764    2017897.44048   1572387.25945
  20750087.7154          0.000    20750087.0144  -22958192.86649 -17889475.50547
  4  3  1  2 54 30.0000000  0  7G 9G14G22G18G21G 3G15
  21724722.8794          0.000    21724721.0614  -16129854.72149 -12568701.17146
  21317883.4484          0.000    21317880.7694  -19498170.86649 -15193363.80747
  20358852.2074          0.000    20358848.0774  -25436387.46449 -19820532.74748
  21390249.1624          0.000    21390246.6204  -20649038.94949 -16090127.90047
  24140557.3414          0.000           0.000    -6556007.49248         0.000
  24781999.4054          0.000           0.000     6187494.91348         0.000
  20762439.4904          0.000    20762439.1524  -22893282.53849 -17838896.03547
  4  3  1  2 55  0.0000000  0  8G 9G14G22G18G21G 3G11G15
  21732786.0794          0.000    21732784.3424  -16087480.92449 -12535682.64646
  21305386.2824          0.000    21305383.9134  -19563844.67949 -15244538.19647
  20358891.4164          0.000    20358886.9584  -25436182.65349 -19820373.15448
  21402398.6774          0.000    21402395.9814  -20585193.71149 -16040378.36747
  24163241.8074          0.000           0.000    -6436740.28448  -5015615.93144
  24797983.0644          0.000    24797987.8484    6271478.87148   4886871.73544
  25172211.9604          0.000           0.000          -1.21258        -1.18854
  20774892.3014          0.000    20774891.7014  -22827842.32149 -17787903.66447
  4  3  1  2 55 30.0000000  0  8G 9G14G22G18G21G 3G11G15
  21740972.2414          0.000    21740970.9024  -16044463.62449 -12502162.68146
  21292959.4014          0.000    21292957.2124  -19629146.08649 -15295422.39247
  20359002.3984          0.000    20358998.0534  -25435599.60449 -19819918.82248
  21414608.0644          0.000    21414605.6954  -20521030.85049 -15990381.33647
  24185959.9684          0.000    24185957.9444   -6317361.00248  -4922593.11344
  24813997.2774          0.000    24813999.9934    6355629.46348   4952443.60344
  25153469.5584          0.000           0.000      -98493.86248         0.000
  20787448.4424          0.000    20787447.9504  -22761860.66149 -17736489.39947
  4  3  1  2 56  0.0000000  0  8G 9G14G22G18G21G 3G11G15
  21749281.8474          0.000    21749280.1954  -16000795.79449 -12468135.81146
  21280605.9094          0.000    21280603.8164  -19694065.53249 -15346008.95147
  20359187.2324          0.000    20359182.9074  -25434629.04849 -19819162.54248
  21426879.9014          0.000    21426877.2994  -20456542.37449 -15940130.58547
  24208698.9624          0.000    24208698.0724   -6197865.41548  -4829479.72144
  24830042.1864          0.000           0.000     6439952.52348         0.000
  25134766.8914          0.000           0.000     -196775.90848         0.000
  20800108.6814          0.000    20800107.8914  -22695330.38449 -17684647.63847
  4  3  1  2 56 30.0000000  0  8G 9G14G22G18G21G 3G11G15
  21757709.4344          0.000    21757708.5704  -15956505.33449 -12433623.77446
  21268320.3654          0.000    21268318.1174  -19758628.62449 -15396317.83247
  20359440.6284          0.000    20359436.2514  -25433296.91249 -19818124.51748
  21439208.9324          0.000    21439206.4074  -20391755.04849 -15889646.95747
  24231453.3684          0.000           0.000    -6078282.17748  -4736298.01644
  24846115.0134          0.000           0.000     6524419.10248         0.000
  25116100.6034          0.000           0.000     -294870.89248   -229769.55144
  20812868.2154          0.000    20812867.3404  -22628279.49249 -17632400.19947
  4  3  1  2 57  0.0000000  0  8G 9G14G22G18G21G 3G11G15
  21766258.5454          0.000    21766256.5524  -15911584.17849 -12398620.28346
  21256104.1764          0.000    21256101.5934  -19822824.63249 -15446340.67847
  20359764.5614          0.000    20359760.3934  -25431592.76849 -19816796.61248
  21451595.9274          0.000    21451593.0774  -20326659.68249 -15838923.30447
  24254227.5844          0.000           0.000    -5958603.73648         0.000
  24862217.6454          0.000    24862219.3254    6609035.87348   5149903.13244
  25097471.3924          0.000           0.000     -392766.80048   -306051.98144
  20825728.0954          0.000    20825727.2904  -22560700.20749 -17579741.03047
  4  3  1  2 57 30.0000000  0  8G 9G14G22G18G21G 3G11G15
  21774926.4994          0.000    21774924.9014  -15866034.69349 -12363127.17746
  21243957.6694          0.000    21243955.3874  -19886653.34349 -15496077.32047
  20360159.6534          0.000    20360155.5164  -25429517.13249 -19815179.23148
  21464041.5624          0.000    21464038.6654  -20261257.78449 -15787960.79547
  24277020.2034          0.000           0.000    -5838833.01248         0.000
  24878347.0004          0.000    24878350.3274    6693799.45848   5215952.64644
  25078879.1194          0.000    25078877.6254    -490461.85048   -382178.02644
  20838687.9824          0.000    20838687.2214  -22492594.85049 -17526671.91647
  4  3  1  2 58  0.0000000  0  8G 9G14G22G18G21G 3G11G15
  21783712.8474          0.000    21783711.9794  -15819860.65549 -12327147.41246
  21231881.2264          0.000    21231878.9204  -19950115.71649 -15545528.49947
  20360625.1484          0.000    20360620.9684  -25427071.43049 -19813273.49348
  21476545.0154          0.000    21476542.3494  -20195551.70949 -15736761.26947
  24299828.9414          0.000           0.000    -5718974.39548         0.000
  24894507.4164          0.000    24894509.2254    6778705.03048   5282112.80044
  25060326.5854          0.000           0.000     -587955.16848         0.000
  20851747.6564          0.000    20851747.0854  -22423967.19349 -17473195.83547
  4  3  1  2 58 30.0000000  0  8G 9G14G22G18G21G 3G11G15
  21792619.8494          0.000    21792617.7714  -15773053.53849 -12290674.33946
  21219876.7494          0.000    21219874.1844  -20013200.87849 -15594685.74747
  20361163.2614          0.000    20361158.9844  -25424244.87249 -19811070.97348
  21489108.4054          0.000    21489106.0544  -20129531.59749 -15685317.03847
  24322655.7654          0.000           0.000    -5599019.99848  -4362847.09944
  24910690.2594          0.000           0.000     6863759.80548         0.000
  25041814.4524          0.000           0.000     -685234.27448   -533948.69844
  20864907.8864          0.000    20864907.1724  -22354808.81349 -17419306.19747
  4  3  1  2 59  0.0000000  0  8G 9G14G22G18G21G 3G11G15
  21801643.7844          0.000    21801642.3274  -15725631.97849 -12253722.48946
  21207940.5284          0.000    21207938.1644  -20075924.62449 -15643561.37147
  20361770.1384          0.000    20361765.7944  -25421053.77149 -19808584.40048
  21501727.9494          0.000    21501725.2344  -20063215.02449 -15633641.79247
  24345495.1674          0.000           0.000    -5478988.78148  -4269316.37044
  24926900.6744          0.000           0.000     6948944.24548         0.000
  25023341.7144          0.000    25023340.0624    -782313.35848   -609594.65444
  20878165.5534          0.000    20878165.3804  -22285138.30149 -17365017.48847
  4  3  1  2 59 30.0000000  0  8G 9G14G22G18G21G 3G11G15
  21810790.3354          0.000    21810788.8824  -15677565.75649 -12216268.30746
  21196079.3714          0.000    21196077.0914  -20138254.47049 -15692130.06147
  20362453.0654          0.000    20362448.7484  -25417465.80249 -19805788.57848
  21514410.0854          0.000    21514407.5214  -19996570.69349 -15581711.14347
  24368357.3804          0.000           0.000    -5358851.21148         0.000
  24943141.4344          0.000           0.000     7034287.36348         0.000
  25004915.2274          0.000    25004912.3924    -879158.16648   -685058.10444
  20891526.6794          0.000    20891526.4814  -22214925.80449 -17310306.45947
  4  3  1  3  0  0.0000000  0  8G 9G14G22G18G21G 3G11G15
  21820060.9554          0.000    21820059.6364  -15628851.97449 -12178309.52946
  21184294.6844          0.000    21184292.2784  -20200184.72149 -15740387.37947
  20363212.3514          0.000    20363207.8894  -25413475.70249 -19802679.40448
  21527155.0234          0.000    21527152.8644  -19929594.41749 -15529521.84147
  24391242.5624          0.000           0.000    -5238604.86448         0.000
  24959413.4464          0.000           0.000     7119791.33548         0.000
  24986531.9544          0.000    24986529.1944    -975761.17348   -760333.14144
  20904991.6374          0.000    20904990.8314  -22144168.23749 -17255170.70447
  4  3  1  3  0 30.0000000  0  8G 9G14G22G18G21G 3G11G15
  21829438.1224          0.000    21829436.6804  -15579572.08149 -12139909.62446
  21172570.6174          0.000    21172568.1554  -20261793.95849 -15788394.55147
  20364033.0804          0.000    20364028.6514  -25409162.60249 -19799318.54348
  21539948.0334          0.000    21539945.6074  -19862366.43849 -15477136.41347
  24414128.2604          0.000           0.000    -5118331.80548  -3988285.03444
  24975698.6214          0.000           0.000     7205373.48148         0.000
  24968179.6434          0.000    24968175.9924   -1072199.51848   -835479.86644
  20918544.1264          0.000    20918543.3984  -22072947.45649 -17199674.00747
  4  3  1  3  1  0.0000000  0  8G 9G14G22G18G21G 3G11G15
  21838925.4594          0.000    21838923.7904  -15529716.97649 -12101061.48146
  21160909.6224          0.000    21160907.2584  -20323070.43749 -15836142.41347
  20364917.6814          0.000    20364913.3284  -25404515.05849 -19795697.08048
  21552791.3304          0.000    21552788.7944  -19794876.13849 -15424546.57147
  24437021.0234          0.000    24437019.1694   -4998022.96348  -3894537.92444
  24992001.2614          0.000    24992000.1234    7291041.87948   5681336.27544
  24949862.0554          0.000           0.000    -1168459.83048   -910487.90644
  20932187.1584          0.000    20932186.8394  -22001254.26949 -17143809.19947
  4  3  1  3  1 30.0000000  0  8G 9G14G22G18G21G 3G11G15
  21848549.3794          0.000    21848547.4024  -15479142.31749 -12061652.66046
  21149340.9134          0.000    21149338.0634  -20383867.19449 -15883516.46347
  20365893.5344          0.000    20365889.0544  -25399386.47249 -19791700.78048
  21565711.5264          0.000    21565709.2174  -19726978.00949 -15371638.94447
  24459949.9494          0.000           0.000    -4877534.60148  -3800650.91344
  25008345.1734          0.000           0.000     7376940.07448   5748269.75844
  24931606.8114          0.000    24931602.1254   -1264393.69248   -985241.51044
  20945947.4184          0.000    20945947.0374  -21928944.37749 -17087463.84547
  4  3  1  3  2  0.0000000  0  8G 9G14G22G18G21G 3G11G15
  21858295.8234          0.000    21858294.2824  -15427923.80249 -12021742.14246
  21137848.8324          0.000    21137846.3874  -20444257.45049 -15930573.77547
  20366946.9294          0.000    20366942.6554  -25393850.16249 -19787386.77248
  21578695.7224          0.000    21578692.9604  -19658746.50249 -15318471.53147
  24482898.0214          0.000           0.000    -4756943.09948  -3706683.50844
  25024720.2854          0.000           0.000     7462991.53148         0.000
  24913398.7494          0.000    24913395.9604   -1360072.08348  -1059796.12744
  20959810.2504          0.000    20959809.8064  -21856093.47649 -17030696.92047
  4  3  1  3  2 30.0000000  0  8G 9G14G22G18G21G 3G11G15
  21868139.5534          0.000    21868137.7654  -15376195.27149 -11981434.20846
  21126409.1664          0.000    21126406.5004  -20504372.24449 -15977416.45247
  20368053.0854          0.000    20368048.7794  -25388037.87049 -19782857.71448
  21591717.7754          0.000    21591715.5314  -19590314.10049 -15265147.59147
  24505837.7114          0.000           0.000    -4636382.41648         0.000
  25041098.3344          0.000           0.000     7549061.21248         0.000
  24895214.9934          0.000    24895212.5184   -1455624.42348  -1134252.45544
  20973750.6414          0.000    20973750.3104  -21782835.71849 -16973612.96047
  4  3  1  3  3  0.0000000  0  7G 9G14G22G18G 3G11G15
  21878104.4194          0.000    21878103.0584  -15323828.47549 -11940628.91446
  21115047.1044          0.000    21115044.7844  -20564080.77449 -16023942.56747
  20369236.4744          0.000    20369232.0814  -25381818.74049 -19778011.64748
  21604803.3984          0.000    21604800.8054  -19521551.20949 -15211566.12747
  25057504.3834          0.000           0.000     7635276.45648         0.000
  24877082.1794          0.000    24877077.2274   -1550917.83148  -1208507.03044
  20987793.3054          0.000    20987792.4764  -21709042.87249 -16916112.05047
  4  3  1  3  3 30.0000000  0  7G 9G14G22G18G 3G11G15
  21888183.0704          0.000    21888181.4814  -15270866.30549 -11899359.69946
  21103754.4264          0.000    21103752.4064  -20623423.06949 -16070183.30247
  20370489.6114          0.000    20370485.1614  -25375233.15049 -19772880.02348
  21617943.1454          0.000    21617940.7014  -19452499.38449 -15157759.51147
  25073932.1984          0.000    25073934.1134    7721593.88848   6016831.18244
  24858991.8244          0.000    24858986.8604   -1645990.79748  -1282589.86644
  21001929.4474          0.000    21001928.3444  -21634757.57549 -16858227.42047
  4  3  1  3  4  0.0000000  0  8G 9G14G22G18G 5G 3G11G15
  21898380.2184          0.000    21898378.7474  -15217279.08549 -11857603.43246
  21092538.0954          0.000    21092535.8314  -20682366.64249 -16116113.36247
  20371818.5484          0.000    20371814.0994  -25368249.23049 -19767437.99348
  21631144.0304          0.000    21631141.8464  -19383127.70049 -15103703.66347
  24956141.8734          0.000           0.000          -0.57958         0.000
  25090382.1934          0.000           0.000     7808042.12648         0.000
  24840948.7414          0.000    24840944.7614   -1740809.25448  -1356474.32544
  21016164.7424          0.000    21016163.9654  -21559950.33149 -16799936.07347
  4  3  1  3  4 30.0000000  0  8G 9G14G22G18G 5G 3G11G15
  21908691.0194          0.000    21908689.1824  -15163098.22249 -11815384.57846
  21081392.0754          0.000    21081389.7434  -20740940.10149 -16161755.01947
  20373217.7014          0.000    20373213.4414  -25360896.04949 -19761708.24148
  21644400.8054          0.000    21644398.0444  -19313465.81149 -15049421.67347
  24940641.0524          0.000           0.000      -81466.26048         0.000
  25106848.8714          0.000           0.000     7894588.90748   6151632.37544
  24822947.6274          0.000    24822950.0274   -1835399.93248  -1430181.35144
  21030493.4684          0.000    21030492.4184  -21484652.79349 -16741262.66847
  4  3  1  3  5  0.0000000  0  8G 9G14G22G18G 5G 3G11G15
  21919115.7564          0.000    21919113.7404  -15108313.10449 -11772694.87046
  21070318.9074          0.000    21070316.4624  -20799130.27549 -16207098.00447
  20374689.9724          0.000    20374685.7004  -25353160.50649 -19755680.55348
  21657714.0734          0.000    21657711.7324  -19243502.03649 -14994904.45547
  24925178.4114          0.000           0.000     -162728.61948         0.000
  25123340.5444          0.000           0.000     7981244.05448   6219155.85144
  24804992.9834          0.000    24804993.9444   -1929748.00248  -1503699.28944
  21044917.4404          0.000    21044916.2804  -21408854.32649 -16682198.93747
  4  3  1  3  5 30.0000000  0  8G 9G14G22G18G 5G 3G11G15
  21929653.0794          0.000    21929652.1264  -15052937.05049 -11729544.68646
  21059316.6584          0.000    21059314.2544  -20856947.60449 -16252150.46347
  20376232.7594          0.000    20376228.4884  -25345053.35649 -19749363.29548
  21671082.6854          0.000    21671080.3574  -19173248.35649 -14940161.34547
  24909751.4864          0.000           0.000     -243795.78148   -189969.60844
  25139849.6134          0.000    25139848.3534    8067993.41348   6286752.73844
  24787083.8324          0.000    24787080.5064   -2023862.09248  -1577034.99044
  21059434.1414          0.000    21059432.9564  -21332568.20349 -16622755.22647
  4  3  1  3  6  0.0000000  0  8G 9G14G22G18G 5G 3G11G15
  21940304.6844          0.000    21940303.7084  -14996966.15949 -11685930.99246
  21048386.6844          0.000    21048384.2594  -20914385.17049 -16296907.00347
  20377847.4204          0.000    20377843.0484  -25336568.14949 -19742751.43548
  21684507.9684          0.000    21684505.4004  -19102699.40449 -14885188.14947
  24894362.8464          0.000           0.000     -324658.53648         0.000
  25156376.0424          0.000    25156374.7944    8154840.34648   6354425.67344
  24769220.2334          0.000    24769217.8664   -2117733.62648  -1650181.67644
  21074044.4944          0.000    21074043.5184  -21255790.14449 -16562928.18247
  4  3  1  3  6 30.0000000  0  8G 9G14G22G18G 5G 3G11G15
  21951070.2334          0.000    21951068.2014  -14940391.54749 -11641846.89746
  21037531.0334          0.000    21037528.7144  -20971431.38449 -16341358.58747
  20379535.8544          0.000    20379531.6584  -25327693.44949 -19735836.08748
  21697991.4214          0.000    21697988.5374  -19031844.82449 -14829976.79747
  24879018.3794          0.000           0.000     -405302.64048         0.000
  25172921.7224          0.000           0.000     8241793.13648   6422181.09644
  24751405.4804          0.000    24751403.8404   -2211349.03248  -1723128.75444
  21088749.9474          0.000    21088749.1534  -21178511.43049 -16502711.01747
  4  3  1  3  7  0.0000000  0  8G 9G14G22G18G 5G 3G11G15
  21961949.5534          0.000    21961947.5914  -14883220.19749 -11597297.81946
  21026749.2864          0.000    21026746.8594  -21028090.63549 -16385508.63347
  20381298.0394          0.000    20381293.7394  -25318433.96749 -19728620.90648
  21711531.5584          0.000    21711528.7584  -18960689.94649 -14774531.44947
  24863711.4584          0.000           0.000     -485730.24348         0.000
  25189486.7994          0.000           0.000     8328843.83348         0.000
  24733639.5864          0.000    24733640.4994   -2304710.54348  -1795878.00544
  21103549.6534          0.000    21103548.6234  -21100739.27449 -16442109.35547
  4  3  1  3  7 30.0000000  0  7G 9G14G22G18G 3G11G15
  21972940.7004          0.000    21972938.8594  -14825462.28649 -11552291.67746
  21016039.2724          0.000    21016036.9884  -21084370.18649 -16429362.81947
  20383131.9004          0.000    20383127.5934  -25308797.38249 -19721111.87548
  21725127.4064          0.000    21725124.8244  -18889243.02449 -14718858.55047
  25206068.3294          0.000           0.000     8415981.58348         0.000
  24715921.7064          0.000    24715918.6554   -2397823.53348  -1868433.57444
  21118441.1644          0.000    21118440.2874  -21022483.54349 -16381130.87147
  4  3  1  3  8  0.0000000  0  7G 9G14G22G18G 3G11G15
  21984041.6954          0.000    21984040.1504  -14767123.09349 -11506832.58746
  21005401.5844          0.000    21005399.3644  -21140272.42849 -16472923.00547
  20385036.7624          0.000    20385032.6484  -25298786.18149 -19713310.94548
  21738777.9304          0.000    21738775.5854  -18817508.17249 -14662961.29147
  25222666.7334          0.000           0.000     8503200.39248   6625874.93444
  24698249.5574          0.000    24698249.3174   -2490688.91948  -1940796.18544
  21133423.8404          0.000    21133423.3324  -20943749.55649 -16319779.72147
  4  3  1  3  8 30.0000000  0  7G 9G14G22G18G 3G11G15
  21995255.0224          0.000    21995253.7404  -14708198.28249 -11460917.16946
  20994836.6844          0.000    20994834.4554  -21195790.29349 -16516183.68747
  20387014.6934          0.000    20387010.2974  -25288393.84249 -19705213.01448
  21752484.8564          0.000    21752481.9844  -18745479.88049 -14606835.36647
  25239279.2804          0.000           0.000     8590504.02948   6693903.81044
  24680625.8364          0.000    24680624.0374   -2583297.89348  -2012958.96244
  21148497.7774          0.000    21148497.5654  -20864533.26049 -16258052.74747
  4  3  1  3  9  0.0000000  0  7G 9G14G22G18G 3G11G15
  22006579.6654          0.000    22006578.0734  -14648687.53549 -11414545.16846
  20984345.8114          0.000    20984343.6354  -21250920.52349 -16559142.31547
  20389065.2684          0.000    20389061.1134  -25277617.42849 -19696815.81348
  21766247.5184          0.000    21766245.0754  -18673156.21849 -14550479.27147
  25255908.9544          0.000           0.000     8677892.22348   6761998.49944
  24663052.5404          0.000    24663049.4704   -2675645.10748  -2084917.79744
  21163664.5734          0.000    21163663.6504  -20784834.09049 -16195949.51047
  4  3  1  3  9 30.0000000  0  8G 9G14G22G18G 5G 3G11G15
  22018017.0254          0.000    22018016.3174  -14588581.92549 -11367709.63846
  20973931.2224          0.000    20973929.1524  -21305651.25749 -16601789.64847
  20391191.0284          0.000    20391186.8744  -25266445.16949 -19688110.14848
  21780068.5684          0.000    21780065.9394  -18600526.80249 -14493884.94347
  24787812.5274          0.000           0.000          -0.54858         0.000
  25272556.3984          0.000           0.000     8765373.54348   6830165.77244
  24645532.4664          0.000    24645530.0124   -2767716.92448  -2156662.04244
  21178924.2994          0.000    21178923.4674  -20704643.14349 -16133463.08247
  4  3  1  3 10  0.0000000  0  8G 9G14G22G18G 5G 3G11G15
  22029563.9474          0.000    22029562.1234  -14527908.95349 -11320432.01346
  20963587.2294          0.000    20963584.9144  -21360007.21449 -16644144.93947
  20393387.9494          0.000    20393383.6444  -25254902.12549 -19679115.56848
  21793942.8404          0.000    21793940.1834  -18527617.26149 -14437072.31647
  24772760.1994          0.000           0.000      -79093.14948         0.000
  25289215.8714          0.000           0.000     8852919.55148   6898383.27944
  24628060.8054          0.000    24628056.7814   -2859536.19148  -2228209.51744
  21194272.6204          0.000    21194271.7984  -20623987.96749 -16070614.91447
  4  3  1  3 10 30.0000000  0  8G 9G14G22G18G 5G 3G11G15
  22041216.8104          0.000    22041215.5554  -14466669.50849 -11272712.97946
  20953315.4864          0.000    20953312.9244  -21413986.43649 -16686206.67247
  20395655.3474          0.000    20395651.0764  -25242986.66849 -19669830.79848
  21807870.4674          0.000    21807867.8004  -18454427.20949 -14380041.11147
  24757751.8244          0.000           0.000     -157961.76548         0.000
  25305887.9604          0.000           0.000     8940528.83548         0.000
  24610635.9994          0.000    24610636.1154   -2951099.10848  -2299557.20344
  21209708.6104          0.000    21209708.1834  -20542869.46249 -16007405.72147
  4  3  1  3 11  0.0000000  0  8G 9G14G22G18G 5G 3G11G15
  22052980.3104          0.000    22052979.2374  -14404851.89949 -11224543.43846
  20943117.9974          0.000    20943115.2964  -21467574.31449 -16727963.46247
  20397996.4144          0.000    20397992.0764  -25230684.51149 -19660244.69248
  21821853.9604          0.000    21821851.7734  -18380943.07249 -14322780.74846
  24742788.3494          0.000           0.000     -236589.29547         0.000
  25322572.0854          0.000           0.000     9028212.91748         0.000
  24593266.1694          0.000    24593265.3584   -3042388.98848  -2370692.15344
  21225235.4784          0.000    21225234.6034  -20461275.78649 -15943826.26247
  4  3  1  3 11 30.0000000  0  8G 9G14G22G18G 5G 3G11G15
  22064855.3474          0.000    22064853.8044  -14342449.39249 -11175918.13446
  20932996.9064          0.000    20932994.1654  -21520761.17749 -16769407.76547
  20400412.6494          0.000    20400408.4874  -25217986.01949 -19650349.76948
  21835895.0774          0.000    21835892.6284  -18307156.45649 -14265284.69446
  24727871.5984          0.000           0.000     -314963.21147         0.000
  25339273.4534          0.000           0.000     9115977.85448         0.000
  24575947.4934          0.000    24575943.6474   -3133394.53248  -2441605.56244
  21240854.2534          0.000    21240853.0384  -20379200.08149 -15879871.15247
  4  3  1  3 12  0.0000000  0  7G 9G14G22G18G 5G11G15
  22076833.9444          0.000    22076833.0014  -14279499.34549 -11126866.17646
  20922945.8884          0.000    20922943.0784  -21573581.32049 -16810566.30247
  20402897.9524          0.000    20402893.6514  -25204926.09549 -19640173.20648
  21849986.8994          0.000    21849984.1704  -18233103.39749 -14207581.02246
  24713003.1254          0.000           0.000     -393115.63848         0.000
  24558675.7824          0.000    24558675.7944   -3224148.14948  -2512322.65544
  21256556.9144          0.000    21256556.2074  -20296679.77849 -15815569.61747
  4  3  1  3 12 30.0000000  0  8G 9G14G22G18G 5G31G11G15
  22088922.0124          0.000    22088920.0454  -14215980.67449 -11077371.13446
  20912968.7674          0.000    20912966.0954  -21626010.89649 -16851420.50547
  20405456.4384          0.000    20405452.1164  -25191481.16249 -19629696.63048
  21864133.8734          0.000    21864131.0254  -18158761.26349 -14149652.08546
  24698177.1294          0.000           0.000     -471020.19548         0.000
  24434519.9484          0.000    24434517.3204          0.18658         4.09056
  24541460.3404          0.000    24541457.8804   -3314623.85048  -2582823.15844
  21272348.6944          0.000    21272347.8954  -20213693.99349 -15750905.39247
  4  3  1  3 13  0.0000000  0  8G 9G14G22G18G 5G31G11G15
  22101120.2144          0.000    22101118.2364  -14151874.06349 -11027417.96746
  20903070.2404          0.000    20903067.8034  -21678027.56149 -16891952.95947
  20408092.5204          0.000    20408088.3384  -25177629.05449 -19618902.77348
  21878339.3804          0.000    21878337.1044  -18084108.88649 -14091481.41546
  24683406.3354          0.000           0.000     -548651.69348         0.000
  24446710.2594          0.000    24446708.8364      64061.27748     49920.89544
  24524300.8644          0.000    24524297.7774   -3404797.52648  -2653088.33144
  21288232.9714          0.000    21288232.2684  -20130223.08349 -15685863.14347
  4  3  1  3 13 30.0000000  0  8G 9G14G22G18G 5G31G11G15
  22113424.2124          0.000    22113423.2754  -14087216.75849 -10977035.68146
  20893243.7494          0.000    20893241.3484  -21729666.11449 -16932190.77047
  20410799.2314          0.000    20410795.0124  -25163404.52949 -19607818.73348
  21892597.3264          0.000    21892594.5994  -18009182.07649 -14033096.90146
  24668676.0194          0.000           0.000     -626042.42247         0.000
  24458970.4474          0.000           0.000      128490.67448    100125.41344
  24507193.0744          0.000    24507189.9854   -3494701.69848  -2723143.45044
  21304202.0194          0.000    21304201.5314  -20046304.49649 -15620472.05147
  4  3  1  3 14  0.0000000  0  8G 9G14G22G18G 5G31G11G15
  22125834.6694          0.000    22125832.7714  -14021998.25949 -10926216.09646
  20883491.7174          0.000    20883489.3894  -21780912.94749 -16972123.34347
  20413579.4144          0.000    20413574.9774  -25148794.45949 -19596434.26348
  21906910.2054          0.000    21906907.6754  -17933968.74049 -13974489.10846
  24654000.8674          0.000           0.000     -703176.14247         0.000
  24471304.1064          0.000    24471303.3074     193298.48848    150625.04844
  24490139.6964          0.000    24490136.2254   -3584321.17548  -2792976.78244
  21320258.3014          0.000    21320257.6594  -19961927.67249 -15554723.90947
  4  3  1  3 14 30.0000000  0  8G 9G14G22G18G 5G31G11G15
  22138351.9624          0.000    22138350.5114  -13956221.29049 -10874961.33946
  20873814.5044          0.000    20873812.0444  -21831767.60849 -17011750.32547
  20416433.0584          0.000    20416428.7894  -25133798.85949 -19584749.38048
  21921277.3244          0.000    21921275.0784  -17858469.67549 -13915658.68246
  24639370.8574          0.000           0.000     -780050.26247         0.000
  24483709.4784          0.000    24483707.6194     258481.90848    201417.32144
  24473140.0884          0.000    24473139.2014   -3673653.39148  -2862586.31844
  21336401.5044          0.000    21336401.0254  -19877095.07549 -15488620.60347
  4  3  1  3 15  0.0000000  0  8G 9G14G22G18G 5G31G11G15
  22150975.9644          0.000    22150974.3524  -13889880.58249 -10823267.32646
  20864213.1504          0.000    20864210.7154  -21882221.88949 -17051065.32047
  20419361.6864          0.000    20419357.5344  -25118409.53749 -19572757.69948
  21935699.9264          0.000    21935697.8614  -17782677.86849 -13856600.13346
  24624794.8054          0.000           0.000     -856653.53548         0.000
  24496185.0744          0.000    24496183.4784     324045.86848    252506.11244
  24456197.0544          0.000    24456194.4484   -3762688.34648  -2931964.15744
  21352632.0924          0.000    21352631.6314  -19791801.32149 -15422157.95847
  4  3  1  3 15 30.0000000  0  8G 9G14G22G18G 5G31G11G15
  22163704.4934          0.000    22163703.4504  -13822993.57749 -10771147.61446
  20854685.6074          0.000    20854682.8224  -21932290.43249 -17090079.75947
  20422361.9874          0.000    20422357.7414  -25102641.57649 -19560470.97948
  21950175.2544          0.000    21950172.7264  -17706609.48549 -13797326.08146
  24610263.6264          0.000           0.000     -932998.18547         0.000
  24508729.0474          0.000    24508731.4724     389972.53848    303877.55244
  24439307.5384          0.000    24439304.3774   -3851438.68648  -3001120.21844
  21368947.9454          0.000    21368947.5404  -19706063.94549 -15355349.62747
  4  3  1  3 16  0.0000000  0  8G 9G14G22G18G 5G31G11G15
  22176535.7944          0.000    22176534.5474  -13755563.07249 -10718604.36846
  20845231.2594          0.000    20845228.6434  -21981972.94049 -17128793.39047
  20425434.5604          0.000    20425430.3384  -25086494.85849 -19547889.11648
  21964703.1224          0.000    21964700.5444  -17630265.23049 -13737837.05846
  24595788.4714          0.000           0.000    -1009081.30248         0.000
  24521343.3634          0.000    24521345.6684     456259.00248    355529.37244
  24422473.2234          0.000    24422471.9264   -3939902.13648  -3070052.77744
  21385346.9164          0.000    21385346.6314  -19619885.65949 -15288197.74347
  4  3  1  3 16 30.0000000  0  8G 9G14G22G18G 5G31G11G15
  22189471.3714          0.000    22189470.1354  -13687586.40849 -10665635.55146
  20835851.4854          0.000    20835849.0764  -22031263.82549 -17167201.86247
  20428580.4084          0.000    20428576.0514  -25069964.01049 -19535007.93648
  21979284.3584          0.000    21979281.4544  -17553640.54949 -13678129.50846
  24581363.6884          0.000    24581360.1964   -1084894.43048   -845371.12044
  24534026.8474          0.000    24534027.8614     522907.41048    407463.19944
  24405694.0014          0.000    24405692.5384   -4028071.14648  -3138755.87244
  21401830.4604          0.000    21401829.9454  -19533263.69449 -15220700.13047
  4  3  1  3 17  0.0000000  0  8G 9G14G22G18G 5G31G11G15
  22202513.3234          0.000    22202511.9654  -13619052.65249 -10612232.62746
  20826548.9484          0.000    20826546.3224  -22080149.39049 -17205294.49347
  20431801.7714          0.000    20431797.5154  -25053035.43849 -19521816.84348
  21993920.7764          0.000    21993918.9374  -17476723.44549 -13618194.10046
  24566988.8284          0.000           0.000    -1160421.77948   -904223.39844
  24546779.5294          0.000    24546779.4374     589928.39948    459687.33144
  24388976.2984          0.000    24388973.5164   -4115930.05148  -3207217.40344
  21418400.4834          0.000    21418400.1844  -19446187.24549 -15152848.36747
  4  3  1  3 17 30.0000000  0  8G 9G14G22G18G 5G31G11G15
  22215656.0774          0.000    22215654.4774  -13549986.66249 -10558414.97346
  20817319.2044          0.000    20817316.6934  -22128651.23749 -17243088.11647
  20435094.5374          0.000    20435090.3704  -25035731.13349 -19508332.96548
  22008609.2584          0.000    22008606.6494  -17399536.94249 -13558048.78046
  24552663.3364          0.000           0.000    -1235682.21847   -962867.80344
  24559601.1954          0.000    24559602.7044     657297.01348    512182.33244
  24372313.1514          0.000    24372310.0864   -4203498.41848  -3275452.42745
  21435052.7434          0.000    21435051.7974  -19358680.95449 -15084661.66847
  4  3  1  3 18  0.0000000  0  8G 9G14G22G18G 5G31G11G15
  22228901.7424          0.000    22228900.2794  -13480381.60749 -10504177.26146
  20808164.4804          0.000    20808161.8924  -22176759.68949 -17280575.20047
  20438460.9194          0.000    20438456.6314  -25018041.73549 -19494549.01848
  22023350.4164          0.000    22023348.1674  -17322072.19849 -13497686.65246
  24538398.2784          0.000           0.000    -1310663.34848  -1021294.49744
  24572488.2994          0.000    24572487.3804     725019.75048    564953.31244
  24355707.2514          0.000    24355704.4034   -4290764.35848  -3343451.80845
  21451787.4774          0.000    21451787.0454  -19270737.79749 -15016134.55347
  4  3  1  3 18 30.0000000  0  8G 9G14G22G18G 5G31G11G15
  22242247.9194          0.000    22242246.7184  -13410243.81849 -10449524.43046
  20799083.7774          0.000    20799081.2644  -22224477.92949 -17317758.21847
  20441899.6734          0.000    20441895.3664  -24999970.68749 -19480467.68448
  22038143.1984          0.000    22038140.8064  -17244333.58249 -13437111.13146
  24524182.9604          0.000    24524178.6024   -1385365.81048  -1079504.03144
  24585439.7574          0.000    24585439.8344     793090.19748    617995.20545
  24339155.9874          0.000    24339154.3034   -4377729.22748  -3411216.60044
  21468604.5264          0.000    21468603.9614  -19182364.11349 -14947271.96847
  4  3  1  3 19  0.0000000  0  7G 9G14G22G18G 5G11G15
  22255699.1754          0.000    22255697.9354  -13339557.34549 -10394444.07146
  20790081.5934          0.000    20790078.8054  -22271786.90249 -17354622.34147
  20445414.7324          0.000    20445410.3874  -24981499.18449 -19466074.30248
  22052992.3184          0.000    22052989.6684  -17166303.62149 -13376308.57446
  24510024.8474          0.000    24510019.3134   -1459768.04948  -1137479.12344
  24322669.6584          0.000    24322668.4324   -4464372.09648  -3478730.46644
  21485506.5644          0.000    21485505.9104  -19093543.62149 -14878061.22447
  4  3  1  3 19 30.0000000  0  8G 9G14G22G18G 5G25G11G15
  22269249.5714          0.000    22269248.2794  -13268349.64049 -10338957.56346
  20781152.0964          0.000    20781149.6394  -22318711.27449 -17391186.77447
  20449001.1354          0.000    20448996.8904  -24962652.23449 -19451388.36348
  22067891.2764          0.000    22067888.4764  -17088008.10449 -13315299.08446
  24495919.9024          0.000           0.000    -1533891.84548         0.000
  25060528.7974          0.000           0.000          -0.91057         0.000
  24306240.9144          0.000    24306238.4904   -4550715.62548  -3546011.14944
  21502487.7724          0.000    21502487.7064  -19004304.01049 -14808523.90147
  4  3  1  3 20  0.0000000  0  8G 9G14G22G18G 5G25G11G15
  22282898.5424          0.000    22282895.7414  -13196627.40349 -10283070.10846
  20772294.7444          0.000    20772292.5174  -22365254.83149 -17427454.47147
  20452658.5284          0.000    20452654.2594  -24943433.24849 -19436412.52948
  22082839.8504          0.000    22082837.5484  -17009451.76849 -13254086.36746
  24481866.5064          0.000           0.000    -1607738.36048  -1252780.91244
  25039371.7824          0.000           0.000     -111179.95548         0.000
  24289866.1934          0.000    24289862.7484   -4636761.41948  -3613059.77845
  21519548.5854          0.000    21519547.9484  -18914651.71849 -14738665.00247
  4  3  1  3 20 30.0000000  0  8G 9G14G22G18G 5G25G11G15
  22296644.7544          0.000    22296642.9374  -13124385.88649 -10226778.02646
  20763512.3274          0.000    20763509.4274  -22411409.53949 -17463419.16847
  20456387.7714          0.000    20456383.4564  -24923835.00849 -19421141.17148
  22097839.8404          0.000    22097837.0394  -16930627.97549 -13192665.23846
  24467867.9304          0.000           0.000    -1681297.23648         0.000
  25018217.7064          0.000           0.000     -222348.16148         0.000
  24273549.8514          0.000    24273546.7624   -4722499.62348  -3679868.76944
  21536687.9924          0.000    21536687.4894  -18824582.00149 -14668480.81947
  4  3  1  3 21  0.0000000  0  8G 9G14G22G18G 5G25G11G15
  22310496.6644          0.000    22310495.9364  -13051594.73749 -10170057.67046
  20754809.4924          0.000    20754806.8644  -22457142.11349 -17499054.93647
  20460195.3634          0.000    20460191.4104  -24903824.21749 -19405548.34448
  22112896.5804          0.000    22112894.1634  -16851504.56049 -13131010.62346
  24453934.2744          0.000           0.000    -1754532.58648  -1367165.80044
  24997071.4704          0.000           0.000     -333470.31548   -259845.52044
  24257299.7424          0.000    24257297.5354   -4807894.90448  -3746410.50344
  21553913.1224          0.000    21553912.2424  -18734064.31949 -14597947.58747
  4  3  1  3 21 30.0000000  0  8G 9G14G22G18G 5G25G11G15
  22324445.9594          0.000    22324445.4104  -12978291.14549 -10112937.99146
  20746180.6084          0.000    20746178.0764  -22502486.82749 -17534388.47347
  20464075.4644          0.000    20464071.2134  -24883435.47549 -19389661.01148
  22128003.7854          0.000    22128000.8154  -16772117.17549 -13069150.32246
  24440049.6624          0.000           0.000    -1827475.87348  -1424004.68144
  24975927.0954          0.000           0.000     -444579.04448         0.000
  24241108.0804          0.000    24241104.0154   -4892979.31548  -3812710.08844
  21571216.2454          0.000    21571215.4264  -18643135.87249 -14527094.28347
  4  3  1  3 22  0.0000000  0  8G 9G14G22G18G 5G25G11G15
  22338495.0314          0.000    22338493.9494  -12904464.55449 -10055410.78146
  20737628.4574          0.000    20737625.6224  -22547429.93749 -17569409.06747
  20468030.1014          0.000    20468025.6744  -24862655.31049 -19373468.67348
  22143163.6364          0.000    22143160.4524  -16692453.36449 -13007074.63446
  24426229.3814          0.000           0.000    -1900110.95348  -1480603.27544
  24954787.7884          0.000           0.000     -555658.77048   -432979.12144
  24224979.0084          0.000    24224977.1384   -4977737.31648  -3878755.26545
  21588599.9444          0.000    21588599.1934  -18551785.94349 -14455912.54747
  4  3  1  3 22 30.0000000  0  8G 9G14G22G18G 5G25G11G15
  22352641.1764          0.000    22352639.7424  -12830123.06649  -9997482.35446
  20729151.1394          0.000    20729148.6794  -22591976.61249 -17604120.74147
  20472057.4094          0.000    20472053.3484  -24841489.07249 -19356975.50348
  22158374.5524          0.000    22158372.0554  -16612519.60049 -12944788.61446
  24412465.7414          0.000           0.000    -1972440.38848  -1536963.86444
  24933656.4164          0.000    24933657.3204    -666712.76148   -519514.57244
  24208913.4014          0.000    24208910.3514   -5062171.62248  -3944548.17945
  21606061.7184          0.000    21606060.9264  -18460022.81749 -14384408.83547
  4  3  1  3 23  0.0000000  0  8G 9G14G22G18G 5G25G11G15
  22366886.0684          0.000    22366885.8974  -12755267.06749  -9939153.01546
  20720750.2854          0.000    20720747.6484  -22636124.29349 -17638521.50047
  20476159.2754          0.000    20476155.0634  -24819934.23349 -19340179.52248
  22173636.6074          0.000    22173633.8944  -16532314.34449 -12882291.04846
  24398760.2984          0.000    24398760.6534   -2044458.63248  -1593081.91044
  24912530.3334          0.000    24912529.0014    -777736.39748   -606026.35744
  24192907.0424          0.000    24192905.9404   -5146277.86048  -4010085.41745
  21623602.5354          0.000    21623602.1174  -18367846.67449 -14312583.29047
  4  3  1  3 23 30.0000000  0  8G 9G14G22G18G 5G25G11G15
  22381228.0534          0.000    22381227.2784  -12679901.90149  -9880426.91646
  20712424.8544          0.000    20712422.1614  -22679875.29949 -17672613.17047
  20480334.4264          0.000    20480330.1934  -24797993.31849 -19323082.70748
  22188950.2004          0.000    22188947.2434  -16451841.13549 -12819584.67846
  24385114.5314          0.000    24385113.1924   -2116165.53048  -1648957.34744
  24891408.9064          0.000    24891408.6934    -888730.10348   -692514.88144
  24176964.1374          0.000    24176961.7544   -5230056.33948  -4075367.29444
  21641220.3164          0.000    21641220.2484  -18275262.54449 -14240439.84046
  4  3  1  3 24  0.0000000  0  8G 9G14G22G18G 5G25G11G15
  22395665.0984          0.000    22395664.0894  -12604030.23149  -9821306.14246
  20704174.6364          0.000    20704172.1044  -22723228.84749 -17706395.12847
  20484583.2904          0.000    20484579.1744  -24775666.32449 -19305685.05148
  22204314.2624          0.000    22204312.1234  -16371100.65949 -12756670.03746
  24371529.3304          0.000    24371528.2614   -2187557.56348  -1704587.43644
  24870293.4804          0.000    24870295.3164    -999691.43248   -778978.13944
  24161085.1844          0.000    24161081.8004   -5313504.45748  -4140391.73745
  21658915.8734          0.000    21658915.8884  -18182272.78849 -14167980.31046
  4  3  1  3 24 30.0000000  0  8G 9G14G22G18G 5G25G11G15
  22410198.9174          0.000    22410197.6574  -12527657.10749  -9761794.64746
  20695999.9674          0.000    20695997.5164  -22766187.28949 -17739869.20447
  20488904.9604          0.000    20488901.0254  -24752954.81549 -19287987.76748
  22219728.9704          0.000    22219726.7124  -16290095.27249 -12693548.99246
  24357999.1894          0.000           0.000    -2258634.11848         0.000
  24849184.8664          0.000    24849185.8434   -1110620.73848   -865416.46244
  24145268.2754          0.000    24145266.4464   -5396621.75648  -4205158.39545
  21676686.9574          0.000    21676686.9134  -18088882.49849 -14095208.67846
  4  3  1  3 25  0.0000000  0  8G 9G14G22G18G 5G25G11G15
  22424828.6444          0.000    22424826.2864  -12450778.71149  -9701889.43246
  20687901.7524          0.000    20687899.4044  -22808743.68649 -17773029.99847
  20493301.1584          0.000    20493297.1254  -24729852.57049 -19269986.01648
  22235195.2444          0.000    22235193.0934  -16208819.98049 -12630217.64246
  24344539.6404          0.000           0.000    -2329169.23948  -1814934.13344
  24828083.8364          0.000    24828085.0774   -1221509.14248   -951822.90244
  24129516.3634          0.000    24129513.3044   -5479399.75848  -4269660.68544
  21694535.9534          0.000    21694535.3844  -17995087.78149 -14022121.90046
  4  3  1  3 25 30.0000000  0  8G 9G14G22G18G 5G25G11G15
  22439551.5364          0.000    22439549.9914  -12373407.21149  -9641599.97646
  20679877.9354          0.000    20679875.4714  -22850907.24449 -17805884.70747
  20497770.2464          0.000    20497765.9474  -24706369.10549 -19251687.20948
  22250711.0014          0.000    22250708.3614  -16127285.44049 -12566684.26346
  24331138.2904          0.000           0.000    -2399603.24348  -1869817.75144
  24806988.5924          0.000    24806987.9854   -1332364.05448  -1038203.27644
  24113826.5014          0.000    24113823.3114   -5561845.52248  -4333904.08845
  21712459.3984          0.000    21712458.4444  -17900900.97449 -13948729.60746
  4  3  1  3 26  0.0000000  0  8G 9G14G22G18G 5G25G11G15
  22454368.7604          0.000    22454366.7914  -12295542.15649  -9580925.94346
  20671930.2064          0.000    20671927.6834  -22892674.55449 -17838430.65147
  20502312.0954          0.000    20502308.0354  -24682501.17649 -19233088.82548
  22266276.1764          0.000    22266273.9344  -16045489.26249 -12502947.01846
  24317796.5824          0.000           0.000    -2469712.98148  -1924448.62044
  24785900.5454          0.000    24785900.9794   -1443180.06948  -1124553.34244
  24098201.4654          0.000    24098199.9714   -5643953.53748  -4397884.27345
  21730456.9684          0.000    21730456.4084  -17806321.33649 -13875031.20646
  4  3  1  3 26 30.0000000  0  8G 9G14G22G18G 5G25G11G15
  22469283.8124          0.000    22469282.2334  -12217164.26849  -9519852.29446
  20664061.9574          0.000    20664059.3574  -22934022.88549 -17870650.10847
  20506931.1074          0.000    20506927.3204  -24658226.45549 -19214173.46648
  22281894.9334          0.000    22281892.0794  -15963410.21649 -12438989.35046
  24304521.2104          0.000    24304521.3064   -2539473.06948  -1978807.07644
  24764824.8684          0.000    24764824.2364   -1553932.96148  -1210854.21544
  24082645.8304          0.000    24082642.9944   -5725699.54948  -4461582.47345
  21748533.4884          0.000    21748533.0354  -17711329.46349 -13801011.57946
  4  3  1  3 27  0.0000000  0  8G 9G14G22G18G 5G25G11G15
  22484288.5084          0.000    22484286.2794  -12138313.28049  -9458409.97146
  20656266.2814          0.000    20656263.6844  -22974989.25649 -17902571.93347
  20511620.6994          0.000    20511616.7634  -24633582.08849 -19194970.07048
  22297560.6364          0.000    22297558.8264  -15881086.08049 -12374840.70646
  24291306.9174          0.000    24291306.2444   -2608917.82848  -2032919.86944
  24743754.2914          0.000    24743756.8024   -1664657.44448  -1297132.97444
  24067153.6614          0.000    24067150.2944   -5807117.94248  -4525025.38745
  21766680.8644          0.000    21766679.6964  -17615964.80349 -13726701.45646
  4  3  1  3 27 30.0000000  0  8G 9G14G22G18G 5G25G11G15
  22499387.0724          0.000    22499386.2904  -12058971.70149  -9396585.36146
  20648546.9904          0.000    20648544.5804  -23015552.99849 -17934180.02547
  20516385.1034          0.000    20516380.6974  -24608547.56149 -19175462.64448
  22313276.2614          0.000    22313274.2304  -15798497.73549 -12310486.18346
  24278156.2924          0.000    24278154.0034   -2678024.19148  -2086768.89444
  24722693.8594          0.000    24722691.9684   -1775330.70048  -1383371.82344
  24051726.1064          0.000    24051722.3304   -5888186.07148  -4588195.36945
  21784902.2754          0.000    21784901.5644  -17520210.01249 -13652087.35646
  4  3  1  3 28  0.0000000  0  8G 9G14G22G18G 5G25G11G15
  22514577.6194          0.000    22514577.9544  -11979139.69549  -9334378.61846
  20640905.2084          0.000    20640902.7234  -23055711.40549 -17965472.27747
  20521223.7694          0.000    20521219.4734  -24583120.05049 -19155648.99148
  22329044.4144          0.000    22329041.2844  -15715642.95049 -12245924.04446
  24265071.3914          0.000           0.000    -2746786.58948  -2140349.93844
  24701644.1304          0.000    24701645.2584   -1885948.15448  -1469567.16644
  24036367.7974          0.000    24036363.8704   -5968899.08748  -4651088.60144
  21803197.8804          0.000    21803197.9864  -17424065.33649 -13577169.46246
  4  3  1  3 28 30.0000000  0  8G 9G14G22G18G 5G25G11G15
  22529862.5294          0.000    22529861.1834  -11898821.54449  -9271793.05446
  20633340.5584          0.000    20633337.8504  -23095465.63249 -17996449.58947
  20526136.7214          0.000    20526132.4704  -24557301.23149 -19135530.42547
  22344861.2404          0.000    22344858.5584  -15632524.34149 -12181156.32546
  24252051.5714          0.000           0.000    -2815203.57948  -2193661.82244
  24680604.8414          0.000    24680606.1984   -1996509.07748  -1555718.45044
  24021077.1994          0.000    24021073.3634   -6049255.82148  -4713704.24145
  21821566.9734          0.000    21821567.0274  -17327534.57149 -13501950.72346
  4  3  1  3 29  0.0000000  0  8G 9G14G22G18G 5G25G11G15
  22545237.6754          0.000    22545236.4154  -11818024.10149  -9208834.02146
  20625851.5514          0.000    20625848.8964  -23134819.34149 -18027114.81747
  20531123.9364          0.000    20531119.5724  -24531094.88949 -19115109.89947
  22360726.4104          0.000    22360724.2754  -15549146.74749 -12116186.79446
  24239097.3004          0.000    24239095.9984   -2883276.10348  -2246705.25044
  24659576.4754          0.000    24659573.6714   -2107014.88648  -1641826.80644
  24005851.5124          0.000    24005849.0674   -6129257.95848  -4776043.54345
  21840008.4014          0.000    21840008.6874  -17230624.30049 -13426436.27346
  4  3  1  3 29 30.0000000  0  8G 9G14G22G18G 5G25G11G15
  22560703.2714          0.000    22560702.6034  -11736747.47049  -9145501.58746
  20618439.3474          0.000    20618436.6994  -23173769.62749 -18057465.68647
  20536185.0214          0.000    20536180.6794  -24504498.32449 -19094385.30547
  22376643.3074          0.000    22376641.0444  -15465508.65749 -12051014.26846
  24226209.6454          0.000    24226207.6064   -2950998.54948  -2299475.96344
  24638559.2184          0.000    24638555.9454   -2217461.09948  -1727888.72544
  23990695.6204          0.000    23990695.8224   -6208900.60048  -4838102.70345
  21858522.9244          0.000    21858522.2904  -17133334.65149 -13350626.18546
  4  3  1  3 30  0.0000000  0  8G 9G14G22G18G 5G25G11G15
  22576261.8294          0.000    22576260.6884  -11654988.14349  -9081793.01646
  20611105.4684          0.000    20611102.9554  -23212309.80149 -18087496.97347
  20541321.3994          0.000    20541317.4134  -24477505.15149 -19073351.67248
  22392609.9334          0.000    22392607.8514  -15381604.43949 -11985634.38346
  24213390.8324          0.000    24213389.2734   -3018362.28948  -2351967.13244
  24617554.8144          0.000    24617554.2314   -2327839.12948  -1813897.52544
  23975611.6804          0.000    23975611.2024   -6288175.31348  -4899875.18544
  21877108.8544          0.000    21877108.5224  -17035662.19849 -13274517.80746
  4  3  1  3 30 30.0000000  0  8G 9G14G22G18G 5G25G11G15
  22591907.6524          0.000    22591906.3664  -11572775.17749  -9017730.96646
  20603844.3764          0.000    20603842.1594  -23250466.31149 -18117229.30447
  20546528.8134          0.000    20546524.3884  -24450141.62749 -19052029.45447
  22408620.6364          0.000    22408618.8544  -15297461.31349 -11920068.33546
  24200635.6194          0.000    24200636.0704   -3085390.22748  -2404196.64244
  24596559.6674          0.000    24596557.9034   -2438172.98948  -1899871.91044
  23960590.6484          0.000    23960587.3274   -6367105.76948  -4961379.46845
  21895762.5724          0.000    21895761.7774  -16937635.99149 -13198133.77446
  4  3  1  3 31  0.0000000  0  8G 9G14G22G18G 5G25G11G15
  22607639.4194          0.000    22607638.4094  -11490098.07949  -8953307.26246
  20596659.2924          0.000    20596656.7654  -23288225.20349 -18146651.80647
  20551808.7164          0.000    20551804.3614  -24422394.32849 -19030408.18247
  22424680.7354          0.000    22424679.1154  -15213066.80249 -11854306.38946
  24187948.6214          0.000    24187947.2884   -3152065.97148  -2456151.68244
  24575574.8354          0.000    24575572.9594   -2548446.95148  -1985799.63344
  23945640.5034          0.000    23945636.3614   -6445676.38048  -5022603.25345
  21914485.8354          0.000    21914485.8854  -16839245.22549 -13121465.67046
  4  3  1  3 31 30.0000000  0  8G 9G14G22G18G 5G25G11G15
  22623462.1234          0.000    22623461.1074  -11406954.25949  -8888519.88646
  20589550.7184          0.000    20589548.1154  -23325580.86649 -18175760.10447
  20557162.8344          0.000    20557158.5224  -24394257.79449 -19008483.61447
  22440789.7094          0.000    22440787.5914  -15128416.69849 -11788345.27946
  24175327.6874          0.000    24175326.0494   -3218381.30048  -2507825.88944
  24554603.2404          0.000    24554604.7504   -2658653.23848  -2071674.60944
  23930759.2384          0.000    23930755.6264   -6523879.27848  -5083540.56745
  21933278.3204          0.000    21933278.0064  -16740487.23149 -13044511.41946
  4  3  1  3 32  0.0000000  0  8G 9G14G22G18G 5G25G11G15
  22639373.7494          0.000    22639372.2674  -11323334.52249  -8823361.66146
  20582521.2504          0.000    20582518.4664  -23362520.91849 -18204544.55847
  20562593.6584          0.000    20562589.2184  -24365719.83749 -18986246.24847
  22456948.6934          0.000    22456945.9624  -15043499.57049 -11722176.12746
  24162779.9124          0.000    24162780.8854   -3284321.69748  -2559208.01544
  24533646.9424          0.000    24533651.2134   -2768777.51748  -2157485.65444
  23915948.2824          0.000    23915945.6284   -6601700.17648  -5144180.20145
  21952143.6614          0.000    21952143.3974  -16641352.38549 -12967263.52846
  4  3  1  3 32 30.0000000  0  8G 9G14G22G18G 5G25G11G15
  22655373.7324          0.000    22655372.6674  -11239255.49749  -8757845.56246
  20575568.4364          0.000    20575565.6124  -23399059.01049 -18233015.78547
  20568097.9424          0.000    20568093.6284  -24336794.25649 -18963706.83447
  22473156.4674          0.000    22473154.0324  -14958329.89749 -11655810.16446
  24150301.2554          0.000    24150300.5284   -3349897.87748  -2610306.31344
  24512704.0154          0.000    24512703.2854   -2878831.43048  -2243241.89544
  23901209.4674          0.000    23901209.0924   -6679150.49048  -5204531.08645
  21971076.4054          0.000    21971075.8524  -16541857.34249 -12889734.95446
  4  3  1  3 33  0.0000000  0  8G 9G14G22G18G 5G25G11G15
  22671457.9584          0.000    22671456.4444  -11154729.89349  -8691981.46846
  20568689.8464          0.000    20568687.1654  -23435205.06049 -18261181.51147
  20573673.9244          0.000    20573669.8684  -24307491.16349 -18940873.25647
  22489409.5364          0.000    22489407.5434  -14872918.40149 -11589255.77046
  24137890.5424          0.000    24137889.1474   -3415116.60248  -2661126.09444
  24491773.1904          0.000    24491774.7264   -2988822.75048  -2328949.37744
  23886541.7694          0.000    23886539.8794   -6756237.29948  -5264598.72245
  21990076.1844          0.000    21990076.0974  -16442014.94049 -12811935.71246
