     2.10           OBSERVATION DATA    G (GPS)             RINEX VERSION / TYPE
teqc  2002Mar18     WCDA Operator       20040302 01:05:48UTCPGM / RUN BY / DATE
Solaris 2.7|Ultra 2|cc SC5.0|=+-|*Sparc                     COMMENT
BIT 2 OF LLI FLAGS DATA COLLECTED UNDER A/S CONDITION       COMMENT
dubo  WCDA-ACP   924000   Lac Du Bonnet MAN Canada          MARKER NAME
40137M001                                                   MARKER NUMBER
PGC-WCDA            GEOL. SURV. CANADA                      OBSERVER / AGENCY
386                 ROGUE SNR-8000      3.2.32.11           REC # / TYPE / VERS
98381               AOAD/M_T        SCIS                    ANT # / TYPE
  -417603.5980 -4064529.8010  4881432.1610                  APPROX POSITION XYZ
        0.1000        0.0000        0.0000                  ANTENNA: DELTA H/E/N
     1     1                                                WAVELENGTH FACT L1/2
     5    C1    P1    P2    L1    L2                        # / TYPES OF OBSERV
    30.0000                                                 INTERVAL
STATION INFORMATION EFFECTIVE FROM: 2001/01/23 20:04:00     COMMENT
                                TO: CURRENT DATE (above)    COMMENT
BIT 2 OF LLI FLAGS (+4) DATA COLLECTED UNDER 'AS' CONDITION COMMENT
L1 PHASE CENTRE 0.110m ABOVE ARP                            COMMENT
L2 PHASE CENTRE 0.128m ABOVE ARP                            COMMENT
where ARP is the Antenna Reference Point for HI measurement COMMENT
CONTACT gps@pgc.nrcan.gc.ca FOR ADDITIONAL INFORMATION      COMMENT
 SNR is mapped to RINEX snr flag value [1,4-9]              COMMENT
    SNR:  >=316 >=100 >=31.6 >=10 >=3.2    >0 bad=0         COMMENT
L1 & L2:      9     8     7     6     5     4     1         COMMENT
  2004     3     1     0     0    0.0000000     GPS         TIME OF FIRST OBS
                                                            END OF HEADER
 04  3  1  0  0  0.0000000  0  8G10G 6G22G18G21G17G26G15
  24753622.6964                   24753621.2794   -1606363.01448  -1251678.35744
  23234740.5544                   23234743.6594  -11026127.38448  -8591780.20046
  23910580.8834                   23910581.6944   -6771985.83248  -5276859.18545
  21231864.2374                   21231863.6764  -21481387.16149 -16738718.37047
  20137849.5944                   20137848.4694  -27590534.41649 -21499091.09547
  24113602.2594                   24113605.7824   -5362574.01548  -4178618.45844
  20531766.3754                   20531766.8964  -21517252.22949 -16766662.18947
  22727066.0654                   22727068.5544  -12569150.20049  -9794129.08746
 04  3  1  0  0 30.0000000  0  8G10G 6G22G18G21G17G26G15
  24773089.0144                   24773088.4074   -1504061.07648  -1171962.45244
  23254431.0314                   23254434.4744  -10922653.01648  -8511150.91445
  23892741.8724                   23892742.1464   -6865735.25048  -5349910.56045
  21220538.6434                   21220537.9834  -21540903.33249 -16785094.59347
  20133920.5444                   20133919.2834  -27611182.68149 -21515180.64447
  24133004.6934                   24133005.1824   -5260611.82748  -4099167.35744
  20536335.6684                   20536336.4464  -21493239.85549 -16747951.25047
  22708566.8634                   22708569.6664  -12666361.73449  -9869878.28546
 04  3  1  0  1  0.0000000  0  8G10G 6G22G18G21G17G26G15
  24792556.8774                   24792556.1884   -1401756.79948  -1092244.73244
  23274157.5334                   23274160.7184  -10818988.21548  -8430373.21345
  23874928.2394                   23874928.8604   -6959342.83048  -5422851.41745
  21209273.8904                   21209273.4534  -21600100.22649 -16831222.02547
  20130077.2014                   20130075.8384  -27631379.20149 -21530918.17047
  24152435.0454                   24152434.9654   -5158494.53748  -4019595.44544
  20541032.2984                   20541032.7694  -21468560.60049 -16728720.66447
  22690097.1504                   22690099.8524  -12763417.25549  -9945505.96846
 04  3  1  0  1 30.0000000  0  8G10G 6G22G18G21G17G26G15
  24812026.9614                   24812026.6074   -1299445.18448  -1012521.35044
  23293920.7844                   23293924.3644  -10715129.30748  -8349444.26545
  23857144.4704                   23857145.1604   -7052801.90048  -5495676.52045
  21198070.9674                   21198070.3334  -21658971.28649 -16877095.55847
  20126320.9724                   20126319.8704  -27651116.73749 -21546298.03047
  24171898.2974                                   -5056217.06748  -3939898.73644
  20545856.0594                   20545856.7474  -21443209.59849 -16708966.63847
  22671659.2954                   22671662.2264  -12860308.69549 -10021005.82046
 04  3  1  0  2  0.0000000  0  8G10G 6G22G18G21G17G26G15
  24831498.2204                   24831499.4234   -1197121.65448   -932788.58044
  23313723.4794                   23313727.7204  -10611073.83648  -8268362.15246
  23839388.8804                   23839388.7754   -7146105.86748  -5568380.77545
  21186931.6224                   21186930.6074  -21717510.22649 -16922710.29847
  20122653.7884                   20122652.4584  -27670388.89149 -21561315.27347
  24191390.7704                   24191395.0914   -4953775.10848  -3860073.83744
  20550809.0264                   20550809.6954  -21417182.72049 -16688685.94547
  22653254.8544                   22653258.0274  -12957028.36749 -10096371.76146
 04  3  1  0  2 30.0000000  0  8G10G 6G22G18G21G17G26G15
  24850966.8504                   24850963.4114   -1094803.40648   -853059.99544
  23333558.1534                   23333561.0534  -10506840.22348  -8187141.23246
  23821660.1154                   23821660.3064   -7239269.73548  -5640975.90845
  21175852.6024                   21175852.0924  -21775732.54349 -16968078.31747
  20119072.1804                   20119071.0254  -27689210.79049 -21575981.69547
  24210913.8194                   24210919.3914   -4851186.08148  -3780134.28744
  20555887.3944                   20555887.5614  -21390497.57049 -16667892.30847
  22634879.7804                   22634882.7674  -13053590.53249 -10171614.93046
 04  3  1  0  3  0.0000000  0  8G10G 6G22G18G21G17G26G15
  24870439.6534                                    -992481.48548   -773328.47844
  23353428.5694                   23353431.8914  -10402421.30548  -8105775.92145
  23803959.7744                   23803958.4794   -7332282.81048  -5713453.49445
  21164835.1824                   21164834.4834  -21833627.58549 -17013191.31947
  20115578.3984                   20115577.3294  -27707570.23949 -21590287.76147
  24230466.5844                   24230473.0274   -4748440.89548  -3700073.08544
  20561092.1004                   20561092.4664  -21363145.20149 -16646578.76247
  22616536.2984                   22616539.6614  -13149983.38649 -10246726.17746
 04  3  1  0  3 30.0000000  0  8G10G 6G22G18G21G17G26G15
  24889909.3314                                    -890165.93648
  23373331.8354                   23373335.2504  -10297828.76148  -8024275.31345
  23786287.1014                   23786286.3804   -7425153.17248  -5785819.88445
  21153878.4164                   21153877.9944  -21891203.83749 -17058055.91547
  20112171.1614                   20112170.0554  -27725475.88449 -21604240.22547
  24250044.8724                   24250049.4574   -4645549.76348  -3619898.17444
  20566421.9504                   20566422.6494  -21335136.41949 -16624753.73247
  22598224.3514                   22598227.2234  -13246214.07449 -10321711.05746
 04  3  1  0  4  0.0000000  0  8G10G 6G22G18G21G17G26G15
  24909378.6864                                    -787843.69148   -613870.40144
  23393269.8034                   23393273.3084  -10193051.20648  -7942630.53045
  23768644.0834                   23768642.4014   -7517866.19548  -5858063.65245
  21142985.5934                   21142985.2774  -21948446.46849 -17102660.53647
  20108853.2414                   20108851.8574  -27742912.16649 -21617826.95047
  24269656.6154                   24269661.7774   -4542500.14048  -3539599.78744
  20571878.9124                   20571879.6224  -21306458.75849 -16602407.49747
  22579946.3094                   22579949.4964  -13342266.85249 -10396557.32546
 04  3  1  0  4 30.0000000  0  8G10G 6G22G18G21G17G26G15
  24928850.6914                                    -685518.99948   -534136.83644
  23413242.7144                   23413246.2644  -10088094.46548  -7860846.12845
  23751031.8654                   23751031.0784   -7610423.90249  -5930186.43045
  21132155.7834                   21132155.4234  -22005358.15349 -17147007.27247
  20105623.9744                   20105622.9564  -27759881.02549 -21631049.43547
  24289294.3824                   24289298.1284   -4439295.99048  -3459180.98344
  20577462.5734                   20577463.2994  -21277116.69149 -16579543.54047
  22561701.1344                   22561704.1574  -13438142.62749 -10471265.58646
 04  3  1  0  5  0.0000000  0  8G10G 6G22G18G21G17G26G15
  24948327.8494                   24948329.4114    -583174.42048   -454387.75944
  23433251.3854                   23433256.8264   -9982943.04148  -7778910.02245
  23733451.8914                   23733452.8344   -7702807.24949  -6002173.31745
  21121392.5244                   21121391.8744  -22061919.99549 -17191081.40847
  20102487.8454                   20102486.6414  -27776363.24349 -21643892.71547
  24308967.0784                   24308970.7454   -4335920.49748  -3378628.67144
  20583175.8994                   20583176.4754  -21247093.52649 -16556148.87147
  22543494.3284                   22543496.9994  -13533821.74449 -10545820.65846
 04  3  1  0  5 30.0000000  0  8G10G 6G22G18G21G17G26G15
  24967799.9274                   24967796.7714    -480851.48948   -374655.60944
  23453288.9504                   23453294.3524   -9877640.05648  -7696855.81445
  23715897.8964                   23715897.3644   -7795056.01349  -6074055.36445
  21110687.6874                   21110687.3574  -22118172.27049 -17234914.31747
  20099436.2854                   20099434.8134  -27792398.28649 -21656387.53447
  24328663.9494                   24328668.8644   -4232415.43648  -3297975.36744
  20589010.6124                   20589011.1034  -21216431.42449 -16532256.34247
  22525317.0634                   22525319.7764  -13629342.61249 -10620252.43546
 04  3  1  0  6  0.0000000  0  8G10G 6G22G18G21G17G26G15
  24987267.6274                   24987272.2644    -378532.07148   -294926.18544
  23473361.1624                   23473365.3354   -9772169.04348  -7614670.65845
  23698372.1964                   23698371.5814   -7887149.72249  -6145816.60145
  21100046.2274                   21100045.6184  -22174094.79549 -17278490.27247
  20096473.8464                   20096472.6114  -27807965.46449 -21668517.78847
  24348387.4504                   24348391.4134   -4128762.44048  -3217206.74344
  20594970.5114                   20594970.8934  -21185112.32849 -16507851.85647
  22507173.6304                   22507176.0554  -13724683.60349 -10694544.07946
 04  3  1  0  6 30.0000000  0  8G10G 6G22G18G21G17G26G15
  25006738.8964                                    -276213.79247
  23493463.3394                   23493466.8784   -9666529.64848  -7532354.30245
  23680877.4414                   23680876.9194   -7979084.57549  -6217454.04045
  21089468.1064                   21089467.3904  -22229683.87449 -17321806.39047
  20093601.2614                   20093600.0744  -27823060.68149 -21680280.30847
  24368139.6354                   24368140.7944   -4024959.74548  -3136321.53444
  20601055.7264                   20601056.2884  -21153135.01949 -16482934.47847
  22489067.0244                   22489068.5444  -13819840.13049 -10768691.96546
 04  3  1  0  7  0.0000000  0  8G10G 6G22G18G21G17G26G15
  25026209.0224                                    -173894.57447
  23513598.3114                   23513602.4164   -9560721.55648  -7449906.49945
  23663414.2254                   23663413.9924   -8070856.68949  -6288964.65245
  21078953.8164                   21078953.1284  -22284935.78149 -17364859.77647
  20090819.4974                   20090818.2094  -27837679.68249 -21691671.74647
  24387921.7454                                   -3921005.48148  -3055318.09444
  20607266.2504                   20607266.9834  -21120497.92249 -16457502.97047
  22470995.4354                   22470997.5904  -13914806.96449 -10842691.98546
 04  3  1  0  7 30.0000000  0  8G10G 6G22G18G21G17G26G15
  25045680.3164                                     -71591.04348
  23533761.2634                   23533765.9854   -9454762.52848  -7367341.08445
  23645977.6454                   23645977.5814   -8162480.88349  -6360360.05445
  21068501.2154                   21068500.7064  -22339865.65249 -17407662.22847
  20088125.2344                   20088124.0444  -27851837.13249 -21702703.53147
  24407729.1774                                   -3816916.25248
  20613599.4194                   20613599.9024  -21087218.34249 -16431570.80347
  22452957.0644                   22452959.3484  -14009597.75149 -10916554.83246
 04  3  1  0  8  0.0000000  0  8G10G 6G22G18G21G17G26G15
  25065146.7514                                      30715.98748
  23553957.9824                   23553962.0664   -9348635.61448  -7284644.84845
  23628574.6624                   23628575.0984   -8253936.18549  -6431623.83645
  21058113.2954                   21058112.7024  -22394453.13949 -17450197.88247
  20085523.3344                   20085521.8924  -27865511.50949 -21713358.92047
  24427566.4504                                   -3712673.61348  -2892981.49144
  20620057.6844                   20620058.0354  -21053278.00849 -16405123.76047
  22434956.5244                   22434958.2464  -14104190.67349 -10990263.56246
 04  3  1  0  8 30.0000000  0  8G10G 6G22G18G21G17G26G15
  25084611.5794                                     133014.12647
  23574182.1474                   23574185.8514   -9242354.61748  -7201828.54145
  23611201.4244                   23611201.4174   -8345233.05949  -6502764.15245
  21047789.0864                   21047788.3374  -22448708.51849 -17492474.76047
  20083011.0254                   20083009.7694  -27878713.21649 -21723645.93147
  24447428.3854                                   -3608289.92648  -2811643.55244
  20626639.7344                   20626639.9204  -21018689.76849 -16378171.85247
  22416991.5554                   22416993.7984  -14198594.81349 -11063825.14046
 04  3  1  0  9  0.0000000  0  8G10G 6G22G18G21G17G26G15
  25104075.7484                                     235293.38347
  23594432.8874                   23594437.3164   -9135931.83148  -7118901.76345
  23593856.6094                   23593854.7694   -8436379.81349  -6573787.51145
  21037525.8284                   21037525.0494  -22502640.24149 -17534499.45347
  20080587.2924                   20080586.0564  -27891450.50549 -21733571.13747
  24467320.4694                                   -3503775.22948  -2730203.49044
  20633342.7984                   20633343.2094  -20983464.34149 -16350723.40047
  22399061.8934                   22399063.7514  -14292817.32149 -11137245.14046
 04  3  1  0  9 30.0000000  0  8G10G 6G22G18G21G17G26G15
  25123537.4664                                     337567.16747
  23614714.0054                   23614718.0994   -9029354.76348  -7035854.76345
  23576543.2004                   23576541.9374   -8527361.01449  -6644681.88545
  21027327.6854                   21027326.8004  -22556233.51849 -17576260.43347
  20078254.6974                   20078253.4824  -27903707.51849 -21743122.05447
  24487236.6374                                   -3399116.48648
  20640169.5994                   20640169.6744  -20947589.26849 -16322768.71947
  22381169.9954                   22381171.8324  -14386841.73049 -11210510.73846
 04  3  1  0 10  0.0000000  0  8G10G 6G22G18G21G17G26G15
  25143003.6724                                     439843.20348
  23635025.3354                   23635029.4134   -8922618.35148  -6952683.58045
  23559262.6554                   23559263.6034   -8618167.16548  -6715439.85745
  21017194.6864                   21017193.9024  -22609479.18749 -17617750.56147
  20076015.5664                   20076014.1104  -27915474.85049 -21752291.36947
  24507177.6524                                   -3294306.42847
  20647121.4384                   20647121.7364  -20911057.62949 -16294302.42647
  22363318.0814                   22363319.4684  -14480657.67249 -11283613.94846
 04  3  1  0 10 30.0000000  0  8G10G 6G22G18G21G17G26G15
  25162461.3414                   25162460.0884     542101.66048    422450.53844
  23655363.1234                   23655365.5964   -8815743.57148  -6869404.57345
  23542012.6434                   23542013.2754   -8708816.84349  -6786075.88545
  21007125.1054                   21007124.3094  -22662395.76749 -17658984.25847
  20073866.0284                   20073864.8264  -27926770.63749 -21761093.28447
  24527148.9364                                   -3189365.33947
  20654193.7504                   20654194.2004  -20873890.37649 -16265340.85247
  22345501.4844                   22345503.1714  -14574282.13949 -11356567.92646
 04  3  1  0 11  0.0000000  0  8G10G 6G22G18G21G17G26G15
  25181915.6994                                     644335.85848
  23675725.4874                   23675728.9304   -8708739.41548  -6786024.76845
  23524791.9084                   23524790.7514   -8799314.71949  -6856593.64445
  20997117.1614                   20997116.4774  -22714988.62349 -17699965.69747
  20071805.4574                   20071804.4854  -27937599.43849 -21769531.35247
  24547142.7394                                   -3084300.16448
  20661385.8764                   20661386.3474  -20836095.03649 -16235889.83347
  22327720.3634                   22327722.3934  -14667718.91349 -11429375.68446
 04  3  1  0 11 30.0000000  0  8G10G 6G22G18G21G17G26G15
  25201369.7734                                     746571.44948
  23696117.6574                   23696120.4804   -8601581.83248  -6702525.41745
  23507604.9744                   23507604.3844   -8889633.45049  -6926971.81845
  20987176.1354                   20987175.4674  -22767230.66449 -17740673.76947
  20069838.8004                   20069837.6504  -27947933.22949 -21777583.67447
  24567164.3294                                   -2979085.52448
  20668702.1994                   20668702.8334  -20797646.71749 -16205929.99047
  22309980.2284                   22309982.5564  -14760939.76249 -11502015.30946
 04  3  1  0 12  0.0000000  0  8G10G 6G22G18G21G17G26G15
  25220820.8884                                     848789.61948
  23716534.4744                   23716537.4264   -8494291.57448  -6618922.69845
  23490448.3904                   23490447.6054   -8979790.21649  -6997223.78245
  20977298.1294                   20977297.4764  -22819139.19749 -17781121.96647
  20067963.4014                   20067962.1984  -27957789.57949 -21785263.96147
  24587209.8624                                   -2873740.77348
  20676139.2064                   20676139.6624  -20758565.52349 -16175476.98747
  22292279.4094                   22292281.7594  -14853960.25549 -11574498.76846
 04  3  1  0 12 30.0000000  0  8G10G 6G22G18G21G17G26G15
  25240270.6084                                     950991.71048
  23736976.7354                   23736978.5314   -8386869.14748  -6535216.95645
  23473324.4094                   23473322.2174   -9069781.87349  -7067347.10945
  20967484.3414                   20967483.4114  -22870711.55449 -17821308.20347
  20066179.2634                   20066177.9204  -27967164.92649 -21792569.43447
  24607280.3724                                   -2768264.63047
  20683696.4874                   20683696.8634  -20718850.81449 -16144530.31247
  22274617.1964                   22274619.9144  -14946776.49449 -11646823.13246
 04  3  1  0 13  0.0000000  0  8G10G 6G22G18G21G17G26G15
  25259713.9384                                    1053170.10848    820685.79344
  23757442.5214                   23757444.2354   -8279323.78448  -6451415.43545
  23456229.5744                   23456229.2454   -9159614.14949  -7137346.21746
  20957733.4294                   20957732.5104  -22921953.60249 -17861237.05147
  20064485.7224                   20064484.3464  -27976065.00349 -21799504.56247
  24627377.2084                                   -2662665.13547
  20691373.0604                   20691372.8214  -20678511.20049 -16113096.69547
  22256992.9304                   22256995.2094  -15039392.39849 -11718991.31246
 04  3  1  0 13 30.0000000  0  8G10G 6G22G18G21G17G26G15
  25279155.9544                                    1155343.06448    900301.07644
  23777934.6054                   23777937.2704   -8171638.49648  -6367504.87145
  23439168.5224                   23439167.6354   -9249267.18249  -7207205.67046
  20948048.8054                   20948048.1934  -22972845.66249 -17900893.17047
  20062886.2444                   20062885.1454  -27984469.48449 -21806053.50947
  24647499.6194                                   -2556924.01147
  20699171.1864                   20699171.0614  -20637529.49949 -16081162.77347
  22239410.4304                   22239413.3924  -15131787.09749 -11790987.17046
 04  3  1  0 14  0.0000000  0  8G10G 6G22G18G21G17G26G15
  25298593.8934                                    1257490.94848    979896.83444
  23798448.4434                   23798452.4644   -8063834.88448  -6283502.09245
  23422140.0764                   23422139.1594   -9338758.81149  -7276939.34846
  20938427.3814                   20938426.6264  -23023406.03449 -17940290.81947
  20061377.8364                   20061376.5364  -27992396.33249 -21812230.26847
  24667645.1954                                   -2451061.50947
  20707087.6494                   20707087.8794  -20595926.54249 -16048744.74147
  22221867.2724                   22221869.5234  -15223977.47649 -11862823.80846
 04  3  1  0 14 30.0000000  0  8G10G 6G22G18G21G17G26G15
  25318029.4984                                    1359621.44448   1059479.05844
  23818986.0374                   23818989.8364   -7955907.41748  -6199402.82545
  23405142.5774                   23405142.1094   -9428079.84649  -7346540.07646
  20928870.8724                   20928870.1834  -23073625.71149 -17979422.98947
  20059961.9724                   20059960.8234  -27999836.13849 -21818027.50447
  24687811.6224                                   -2345070.69047
  20715124.4104                   20715124.3604  -20553695.67249 -16015837.37347
  22204364.6844                   22204366.9314  -15315953.07849 -11934493.16646
 04  3  1  0 15  0.0000000  0  8G10G 6G22G18G21G17G26G15
  25337459.3534                                    1461730.71848   1139044.73944
  23839546.8124                   23839549.1834   -7847861.95948  -6115211.61445
  23388175.9714                   23388175.8944   -9517232.27249  -7416009.42146
  20919378.6564                   20919377.9334  -23123507.41049 -18018291.81547
  20058638.5734                   20058637.3834  -28006790.94649 -21823446.83647
  24708005.8424                                   -2238955.47648
  20723279.0484                   20723279.1364  -20510841.88249 -15982444.62947
  22186903.5184                   22186905.8214  -15407714.28949 -12005995.38446
 04  3  1  0 15 30.0000000  0  8G10G 6G22G18G21G17G26G15
  25356888.7764                                    1563825.59948
  23860130.5474                   23860133.6584   -7739693.86148  -6030924.82245
  23371245.3344                   23371244.1924   -9606207.62549  -7485340.77346
  20909952.3434                   20909951.6394  -23173042.51549 -18056890.58747
  20057409.3334                   20057408.0104  -28013252.08949 -21828481.51047
  24728222.5244                                   -2132709.47948
  20731552.9884                   20731553.1324  -20467359.54649 -15948562.12247
  22169484.2114                   22169486.7604  -15499251.66549 -12077323.23446
 04  3  1  0 16  0.0000000  0  8G10G 6G22G18G21G17G26G15
  25376312.3444                                    1665889.50548
  23880734.6944                   23880735.9274   -7631421.19048  -5946556.55945
  23354344.8214                   23354343.9874   -9695020.84949  -7554545.79946
  20900589.5024                   20900588.6604  -23222246.68049 -18095231.48947
  20056270.6334                   20056269.4904  -28019234.53549 -21833143.18647
  24748461.7224                                   -2026349.72947
  20739943.2424                   20739943.3824  -20423266.16249 -15914203.33747
  22152105.4814                   22152107.4004  -15590578.91949 -12148487.30446
 04  3  1  0 16 30.0000000  0  6G 6G22G18G21G26G15
  23901361.1364                   23901362.9164   -7523024.17948  -5862091.38845
  23337478.5624                   23337477.8674   -9783649.31449  -7623606.85746
  20891293.0514                   20891292.4504  -23271097.04749 -18133296.71847
  20055227.6774                   20055226.4514  -28024715.19249 -21837413.85347
  20748453.6324                   20748453.8804  -20378542.05249 -15879353.11147
  22134771.3264                   22134774.1544  -15681671.99549 -12219468.86146
 04  3  1  0 17  0.0000000  0  8G 9G 6G22G18G21G 3G26G15
  24794145.8744                                          -.08958
  23922010.7224                   23922012.4834   -7414513.45948  -5777537.63245
  23320647.4534                   23320646.9574   -9872100.15249  -7692529.50246
  20882062.8624                   20882062.5004  -23319601.40749 -18171092.32947
  20054279.1114                   20054277.9234  -28029701.15249 -21841299.01447
  23604566.9424                   23604569.2284           .01358         -.38155
  20757082.4094                   20757082.4574  -20333197.45249 -15844019.51647
  22117480.2784                   22117481.8004  -15772536.46749 -12290272.18046
 04  3  1  0 17 30.0000000  0  8G 9G 6G22G18G21G 3G26G15
  24773539.1234                                    -108289.29348
  23942676.6844                   23942679.8414   -7305911.71048  -5692912.93445
  23303846.6194                   23303845.1844   -9960392.70249  -7761328.80446
  20872895.1694                   20872894.7174  -23367779.57049 -18208633.75847
  20053420.6574                   20053419.5024  -28034211.52449 -21844813.59447
  23592694.8624                   23592695.8794     -62383.30448    -48610.89345
  20765825.3594                   20765825.0324  -20287254.67149 -15808219.91547
  22100229.2534                   22100230.6944  -15863191.27049 -12360912.35546
 04  3  1  0 18  0.0000000  0  8G 9G 6G22G18G21G 3G26G15
  24752938.5154                                    -216537.09248
  23963362.5404                   23963365.6444   -7197202.64448  -5608204.59245
  23287078.7334                   23287077.9704  -10048506.21449  -7829988.61546
  20863793.4404                   20863792.6134  -23415610.73549 -18245904.79647
  20052656.8534                   20052655.5654  -28038225.85849 -21847941.64147
  23580913.1224                   23580914.8874    -124291.24348    -96851.10045
  20774685.0684                   20774684.7554  -20240695.53249 -15771939.95047
  22083022.3104                   22083024.0104  -15953613.92949 -12431371.66246
 04  3  1  0 18 30.0000000  0  8G 9G 6G22G18G21G 3G26G15
  24732347.5034                                    -324743.11948   -253045.98944
  23984068.0964                   23984070.7034   -7088391.67348  -5523416.84445
  23270344.5924                   23270344.1934  -10136442.85049  -7898510.57846
  20854756.8754                   20854755.8644  -23463097.51949 -18282907.46847
  20051987.0874                   20051985.6964  -28041745.90849 -21850684.53247
  23569223.4724                   23569227.3424    -185722.56448   -144719.34745
  20783661.1144                   20783660.7464  -20193525.33549 -15735183.78547
  22065859.6824                   22065862.1054  -16043805.48849 -12501650.87646
 04  3  1  0 19  0.0000000  0  8G 9G 6G22G18G21G 3G26G15
  24711766.0124                                    -432904.17248
  24004793.5334                   24004795.9424   -6979481.17248  -5438551.53445
  23253643.9534                   23253643.6254  -10224201.67249  -7966894.00546
  20845785.6244                   20845785.0254  -23510239.35749 -18319641.36147
  20051411.5564                   20051410.1554  -28044770.68749 -21853041.47947
  23557625.6344                   23557628.9194    -246676.37249   -192215.44445
  20792752.9554                   20792752.9074  -20145745.92849 -15697952.90847
  22048740.6654                   22048743.5074  -16133763.52549 -12571748.14946
 04  3  1  0 19 30.0000000  0  8G 9G 6G22G18G21G 3G26G15
  24691189.9094                                    -541019.95647
  24025537.6264                   24025540.4344   -6870476.86448  -5353613.13545
  23236977.3224                   23236977.3434  -10311785.01549  -8035140.71346
  20836880.2534                   20836879.7194  -23557038.86549 -18356108.52847
  20050929.5434                   20050928.2694  -28047303.03549 -21855014.71647
  23546116.7724                   23546118.3354    -307154.90049   -239341.54345
  20801960.1364                   20801959.8804  -20097363.25249 -15660252.13047
  22031666.4854                   22031669.1264  -16223488.99649 -12641664.14746
 04  3  1  0 20  0.0000000  0  8G 9G 6G22G18G21G 3G26G15
  24670631.8684                                    -649069.37148
  24046301.5984                   24046303.9404   -6761363.68848  -5268589.91545
  23220346.7864                   23220347.0444  -10399174.20949  -8103236.13746
  20828043.2694                   20828042.4614  -23603477.95649 -18392294.86147
  20050544.8964                   20050543.7234  -28049323.84949 -21856589.37247
  23534701.9204                   23534703.0954    -367137.13548   -286080.91945
  20811284.7544                   20811284.5654  -20048361.20449 -15622068.77547
  22014640.9034                   22014642.8914  -16312961.99449 -12711383.31646
 04  3  1  0 20 30.0000000  0  8G 9G 6G22G18G21G 3G26G15
  24650072.9054                                    -757092.66747   -589941.62244
  24067075.9204                   24067079.8114   -6652187.82948  -5183517.81745
  23203746.2024                   23203745.8754  -10486412.04749  -8171213.61146
  20819266.9414                   20819266.0614  -23649599.24649 -18428233.54647
  20050249.5344                   20050248.1894  -28050875.83649 -21857798.71147
  23523373.9504                   23523376.0474    -426665.23148   -332466.50445
  20820718.6824                   20820718.2904  -19998785.07149 -15583437.92647
  21997654.4374                   21997656.9794  -16402224.06349 -12780938.14546
 04  3  1  0 21  0.0000000  0  8G 9G 6G22G18G21G 3G26G15
  24629529.0214                                    -865050.49348   -674064.57644
  24087869.0824                   24087873.3194   -6542915.34548  -5098370.45245
  23187182.5994                   23187180.8054  -10573461.49549  -8239044.30946
  20810557.5444                   20810556.7714  -23695366.19749 -18463896.10247
  20050050.7544                   20050049.3304  -28051921.91949 -21858613.81847
  23512140.4184                   23512143.7044    -485700.31248   -378467.73645
  20830268.2024                   20830267.8264  -19948601.13549 -15544333.39947
  21980715.9424                   21980718.1054  -16491236.87449 -12850298.74146
 04  3  1  0 21 30.0000000  0  8G 9G 6G22G18G21G 3G26G15
  24609001.5574                   24609005.0064    -972933.68448   -758129.39544
  24108681.8854                   24108685.4204   -6433543.75348  -5013145.83345
  23170654.8984                   23170653.1274  -10660315.98549  -8306723.08046
  20801917.1134                   20801916.1504  -23740772.77349 -18499277.87447
  20049948.7994                   20049947.7564  -28052455.63449 -21859029.67847
  23501000.5704                   23501004.3054    -544234.64348   -424078.66045
  20839934.1814                   20839933.7234  -19897806.09049 -15504752.69147
  21963826.1124                   21963829.0104  -16579992.29149 -12919458.71946
 04  3  1  0 22  0.0000000  0  8G 9G 6G22G18G21G 3G26G15
  24588484.5424                   24588490.2844   -1080754.87748   -842145.88944
  24129510.0074                   24129513.5264   -6324091.45748  -4927858.35645
  23154161.0304                   23154160.3594  -10746990.55349  -8374261.65746
  20793342.2084                   20793341.5154  -23785834.12949 -18534390.64547
  20049941.9894                   20049940.6674  -28052492.11349 -21859058.08947
  23489953.6274                   23489956.6714    -602282.55848   -469310.64945
  20849713.0604                   20849712.5894  -19846417.72449 -15464709.64147
  21946982.9924                   21946985.7514  -16668503.99949 -12988428.73346
 04  3  1  0 22 30.0000000  0  8G 9G 6G22G18G21G 3G26G15
  24567976.6634                   24567974.2134   -1188521.79848   -926120.01544
  24150349.8304                   24150353.3364   -6214572.00148  -4842518.54845
  23137699.1994                   23137699.2294  -10833495.31249  -8441667.92746
  20784831.0794                   20784830.2604  -23830561.06649 -18569242.80247
  20050027.7304                   20050026.4304  -28052041.53849 -21858706.96947
  23478999.3654                   23479001.8214    -659853.70648   -514171.25445
  20859601.9464                   20859601.8214  -19794449.68049 -15424214.91147
  21930184.6064                   21930186.7624  -16756781.01249 -13057215.80546
 04  3  1  0 23  0.0000000  0  8G 9G 6G22G18G21G 3G26G15
  24547486.4054                   24547485.3374   -1296203.31648  -1010027.64244
  24171208.2884                   24171215.2754   -6104960.08348  -4757106.71145
  23121274.7034                   23121274.7964  -10919801.67049  -8508919.61746
  20776388.9274                   20776387.9154  -23874925.40549 -18603812.41647
  20050211.5004                   20050210.3954  -28051075.42749 -21857954.13847
  23468140.2614                   23468143.1074    -716917.46248   -558636.36945
  20869606.2364                   20869606.1514  -19741876.47749 -15383248.70247
  21913436.3564                   21913438.0894  -16844793.66149 -13125796.94946
 04  3  1  0 23 30.0000000  0  8G 9G 6G22G18G21G 3G26G15
  24527005.2224                   24527006.2294   -1403814.38248  -1093880.38044
  24192080.6824                   24192085.5134   -5995276.40348  -4671638.95944
  23104886.6314                   23104885.9534  -11005927.39849  -8576030.54746
  20768012.4584                   20768011.3044  -23918944.67949 -18638113.15247
  20050490.0514                   20050488.7994  -28049611.30049 -21856813.24147
  23457373.9984                   23457378.2994    -773490.63348   -602719.25445
  20879721.9114                   20879721.3844  -19688718.61349 -15341826.94347
  21896735.0424                   21896736.7284  -16932557.83549 -13194184.54646
 04  3  1  0 24  0.0000000  0  8G 9G 6G22G18G21G 3G26G15
  24506541.7104                   24506544.7844   -1511363.63648  -1177684.90744
  24212963.7354                   24212966.0534   -5885536.19948  -4586127.15444
  23088529.9124                   23088528.6234  -11091883.32449  -8643009.17246
  20759699.2684                   20759698.5624  -23962630.14749 -18672153.76547
  20050861.5524                   20050860.3054  -28047660.17249 -21855292.86247
  23446700.9194                   23446703.8854    -829582.88048   -646427.30545
  20889946.0194                   20889945.3564  -19634990.22449 -15299960.63047
  21880079.5384                   21880082.0814  -17020083.23949 -13262386.11646
 04  3  1  0 24 30.0000000  0  8G 9G 6G22G18G21G 3G26G15
  24486089.2164                                   -1618831.61048  -1261426.03844
  24233860.4304                   24233861.6134   -5775725.43148  -4500560.33444
  23072208.2294                   23072206.1964  -11177652.54249  -8709842.30846
  20751452.2104                   20751451.8024  -24005965.76649 -18705921.76847
  20051328.7014                   20051327.4754  -28045205.17649 -21853379.86047
  23436121.6534                   23436124.1744    -885176.57549   -689746.85345
  20900281.5874                   20900280.4664  -19580677.53449 -15257639.01047
  21863472.6474                   21863474.8734  -17107351.71249 -13330387.49146
 04  3  1  0 25  0.0000000  0  8G 9G 6G22G18G21G 3G26G15
  24465656.9064                                   -1726202.69448
  24254772.9124                   24254775.8334   -5665834.95948  -4414931.43444
  23055925.2984                   23055923.3194  -11263222.33649  -8776520.05746
  20743274.6194                   20743274.1264  -24048938.84349 -18739407.28447
  20051893.9924                   20051892.7704  -28042233.72649 -21851064.43747
  23425639.9694                   23425642.0364    -940257.62849   -732666.88645
  20910729.8164                   20910729.0414  -19525770.81849 -15214854.51747
  21846917.1184                   21846919.5354  -17194349.10049 -13398177.69746
 04  3  1  0 25 30.0000000  0  8G 9G 6G22G18G21G 3G26G15
  24445241.3884                   24445239.8424   -1833503.86848  -1428702.97044
  24275692.5864                   24275699.3954   -5555897.80948  -4329266.16044
  23039674.1214                   23039672.9964  -11348622.00149  -8843065.22446
  20735160.6854                   20735160.0614  -24091578.96849 -18772633.33647
  20052552.3114                   20052550.8954  -28038775.18849 -21848369.46447
  23415249.7954                   23415253.0814    -994854.75649   -775209.90245
  20921285.1254                   20921284.4634  -19470302.75049 -15171632.68847
  21830408.4274                   21830410.3794  -17281103.24649 -13465778.31646
 04  3  1  0 26  0.0000000  0  8G 9G 6G22G18G21G 3G26G15
  24424842.9034                   24424842.1534   -1940699.32148  -1512231.80044
  24296627.2634                   24296631.4354   -5445883.41448  -4243540.69744
  23023461.9184                   23023460.8164  -11433818.17349  -8909451.82146
  20727116.0764                   20727115.3734  -24133853.41049 -18805574.43747
  20053309.3664                   20053308.1434  -28034796.10449 -21845268.87247
  23404958.6094                   23404961.5964   -1048933.28249   -817348.83546
  20931952.9704                   20931952.3384  -19414243.01049 -15127949.82347
  21813953.1734                   21813954.6744  -17367579.59449 -13533162.47546
 04  3  1  0 26 30.0000000  0  8G 9G 6G22G18G21G 3G26G15
  24404459.6664                   24404463.3654   -2047801.01148  -1595687.55244
  24317573.7164                   24317576.3504   -5335809.81348  -4157769.14044
  23007284.7234                   23007283.8324  -11518825.40449  -8975691.20046
  20719138.3454                   20719137.5424  -24175777.04549 -18838242.18047
  20054162.9304                   20054161.4424  -28030311.59749 -21841774.43547
  23394764.5774                   23394766.4224   -1102507.17249   -859094.55846
  20942729.8804                   20942729.0704  -19357609.41349 -15083819.78547
  21797547.4744                   21797549.4574  -17453790.92349 -13600340.13846
 04  3  1  0 27  0.0000000  0  8G 9G 6G22G18G21G 3G26G15
  24384096.0794                   24384099.4064   -2154813.78648  -1679074.01644
  24338529.0364                   24338536.4224   -5225688.25248  -4071960.14844
  22991143.3354                   22991141.6054  -11603650.95849  -9041788.98946
  20711225.8324                   20711225.2844  -24217357.17149 -18870642.27947
  20055110.9924                   20055109.6904  -28025328.77549 -21837891.71547
  23384664.4594                   23384667.9724   -1155582.62349   -900451.92946
  20953614.0764                   20953613.2504  -19300412.49049 -15039250.76547
  21781190.9594                   21781193.4744  -17539743.21149 -13667315.92446
 04  3  1  0 27 30.0000000  0  8G 9G 6G22G18G21G 3G26G15
  24363751.2684                   24363755.7594   -2261730.05948  -1762385.31844
  24359494.5934                   24359497.9324   -5115516.96148  -3986112.40944
  22975037.3294                   22975035.3954  -11688290.19349  -9107741.61346
  20703379.5694                   20703379.1094  -24258589.96349 -18902771.75547
  20056154.8504                   20056153.7454  -28019842.91949 -21833617.01347
  23374658.2224                   23374661.8894   -1208153.21048   -941415.82545
  20964606.2124                   20964605.0404  -19242650.51549 -14994241.44547
  21764885.3254                   21764887.9394  -17625430.24049 -13734084.99846
 04  3  1  0 28  0.0000000  0  8G 9G 6G22G18G21G 3G26G15
  24343424.9524                   24343428.4084   -2368542.69348  -1845615.88744
  24380469.3364                   24380469.3444   -5005294.95348  -3900225.18944
  22958967.3504                   22958965.5454  -11772738.48249  -9173545.44046
  20695600.0154                   20695599.4204  -24299470.89749 -18934627.02747
  20057295.5084                   20057294.0274  -28013849.81249 -21828947.05047
  23364752.6364                   23364755.8744   -1260213.81048   -981982.30545
  20975705.5844                   20975704.7654  -19184322.15649 -14948790.76447
  21748631.2054                   21748633.9204  -17710846.32649 -13800642.93746
 04  3  1  0 28 30.0000000  0  8G 9G 6G22G18G21G 3G26G15
  24323119.8944                   24323117.3374   -2475244.34248  -1928759.90844
  24401454.4474                   24401455.5054   -4895020.82348  -3814297.31344
  22942934.4284                   22942933.1594  -11856990.73949  -9239196.51746
  20687888.6394                   20687888.0454  -24339995.17249 -18966204.32047
  20058533.1704                   20058531.6194  -28007344.92749 -21823878.29847
  23354944.3994                   23354946.5414   -1311759.12849  -1022147.41945
  20986913.4434                   20986912.2394  -19125426.02149 -14902897.68747
  21732429.9684                   21732432.1064  -17795985.08249 -13866984.76746
 04  3  1  0 29  0.0000000  0  8G 9G 6G22G18G21G 3G26G15
  24302836.4624                   24302837.9174   -2581839.12148  -2011820.66844
  24422445.4014                   24422446.4624   -4784704.73948  -3728336.75544
  22926936.7894                   22926936.4744  -11941053.89049  -9304700.22846
  20680243.4954                   20680242.9064  -24380170.19749 -18997509.46847
  20059866.9494                   20059865.8924  -28000334.59349 -21818415.69147
  23345232.7824                   23345234.4954   -1362794.42349  -1061915.13445
  20998227.0174                   20998226.3314  -19065971.73549 -14856569.67747
  21716280.5854                   21716282.6724  -17880851.70049 -13933114.53146
 04  3  1  0 29 30.0000000  0  8G 9G 6G22G18G21G 3G26G15
  24282568.9644                   24282572.7994   -2688337.39848  -2094806.25344
  24443443.8224                   24443445.0544   -4674362.12248  -3642355.47944
  22910973.8234                   22910973.4184  -12024940.96249  -9370066.72746
  20672662.4934                   20672661.6244  -24420009.24649 -19028552.85847
  20061294.9934                   20061293.5384  -27992832.30149 -21812569.74247
  23335615.2034                   23335617.8074   -1413331.76648  -1101294.81745
  21009643.3934                   21009643.3014  -19005975.74349 -14809819.53547
  21700180.3564                   21700182.3824  -17965457.57249 -13999041.11446
 04  3  1  0 30  0.0000000  0  8G 9G 6G22G18G21G 3G26G15
  24262330.9344                   24262334.8864   -2794699.35148  -2177685.59345
  24464453.4174                   24464456.7364   -4563960.13248  -3556327.94244
  22895051.3444                   22895050.9314  -12108614.78849  -9435267.04846
  20665152.1344                   20665151.6844  -24459475.51249 -19059305.78147
  20062822.9964                   20062821.5194  -27984801.17249 -21806311.71747
  23326100.6004                   23326102.9614   -1463333.47549  -1140257.16245
  21021169.8244                   21021169.3734  -18945404.37149 -14762621.08047
  21684136.8704                   21684138.9684  -18049764.48249 -14064734.75346
 04  3  1  0 30 30.0000000  0  8G 9G 6G22G18G21G 3G26G15
  24242115.7364                   24242117.6664   -2900922.96148  -2260457.13344
  24485472.1864                   24485475.7604   -4453502.70848  -3470257.26644
  22879169.0624                   22879168.7054  -12192075.81549  -9500301.56546
  20657712.4924                   20657711.8054  -24498570.06749 -19089769.06147
  20064451.7754                   20064450.5004  -27976242.06149 -21799642.27647
  23316687.7114                   23316689.7384   -1512799.07149  -1178801.74845
  21032805.6314                   21032804.8854  -18884261.10749 -14714976.98447
  21668151.2974                   21668153.3404  -18133771.39849 -14130194.62346
 04  3  1  0 31  0.0000000  0  8G 9G 6G22G18G21G 3G26G15
  24221918.3594                   24221922.9064   -3007053.01348  -2343155.74344
  24506491.1614                                   -4343040.40648  -3384182.72344
  22863318.3484                   22863317.8504  -12275371.55649  -9565207.27946
  20650334.8054                   20650334.1034  -24537340.85149 -19119980.02447
  20066172.0424                   20066170.5684  -27967202.39749 -21792598.37747
  23307367.4794                   23307370.3784   -1561774.88849  -1216964.71145
  21044539.2424                   21044538.3134  -18822596.98249 -14666926.99747
  21652213.3594                   21652215.6444  -18217524.29449 -14195456.55447
 04  3  1  0 31 30.0000000  0  8G 9G 6G22G18G21G 3G26G15
  24201747.6034                   24201750.1294   -3113055.81348  -2425755.21445
  24527517.5694                                   -4232545.57748
  22847505.5834                   22847504.4504  -12358471.03849  -9629960.05346
  20643024.8364                   20643023.9814  -24575757.08249 -19149914.69947
  20067989.2734                   20067987.9264  -27957651.48949 -21785156.09847
  23298147.1684                   23298149.4364   -1610229.18949  -1254721.31945
  21056378.1124                   21056377.2754  -18760384.02949 -14618449.31547
  21636330.5994                   21636332.6724  -18300990.65149 -14260495.22147
 04  3  1  0 32  0.0000000  0  8G 9G 6G22G18G21G 3G26G15
  24181602.0784                   24181603.7644   -3218926.79748  -2508251.99945
  24548548.4574                                   -4122019.41948
  22831730.0544                   22831728.5674  -12441372.32749  -9694558.38646
  20635781.9004                   20635781.1384  -24613817.53449 -19179572.16647
  20069904.5284                   20069903.0184  -27947588.14849 -21777314.52647
  23289026.1914                   23289028.5994   -1658159.11449  -1292069.27646
  21068321.1104                   21068320.0854  -18697623.90449 -14569545.28447
  21620502.4774                   21620504.4674  -18384167.20849 -14325308.08347
 04  3  1  0 32 30.0000000  0  8G 9G 6G22G18G21G 3G26G15
  24161484.4234                   24161487.5064   -3324641.37048  -2590626.90645
  24569592.1234                                   -4011443.82048  -3125795.91544
  22815996.4974                   22815995.7164  -12524053.38449  -9758985.11346
  20628611.0684                   20628610.4314  -24651500.28949 -19208935.32047
  20071921.3224                   20071920.0044  -27936989.70249 -21769055.98947
  23280009.4844                   23280011.1544   -1705542.10449  -1328991.08545
  21080371.6714                   21080370.7124  -18634297.91849 -14520200.33747
  21604734.0604                   21604735.9044  -18467030.48949 -14389876.84647
 04  3  1  0 33  0.0000000  0  8G 9G 6G22G18G21G 3G26G15
  24141393.0764                   24141395.0394   -3430220.13348  -2672895.98245
  24590640.1754                                   -3900845.03448  -3039615.08344
  22800299.5194                   22800299.7744  -12606537.42649  -9823258.22946
  20621507.8154                   20621506.8884  -24688829.04449 -19238022.65447
  20074035.4514                   20074034.1174  -27925880.03549 -21760399.10047
  23271092.6184                   23271093.9794   -1752400.11249  -1365503.82745
  21092524.6714                   21092523.3684  -18570432.45949 -14470434.95947
  21589021.1544                   21589023.3184  -18549602.07749 -14454218.33747
 04  3  1  0 33 30.0000000  0  8G 9G 6G22G18G21G 3G26G15
  24121326.4834                   24121328.0114   -3535671.83648  -2755066.03545
  24611689.0744                                   -3790238.18348
  22784638.7024                   22784638.3314  -12688835.98949  -9887387.06346
  20614469.4914                   20614468.6214  -24725815.30349 -19266843.11147
  20076244.5574                   20076243.1274  -27914271.04149 -21751353.12547
  23262273.6684                   23262275.7004   -1798744.18749  -1401616.10245
  21104777.4314                   21104776.5314  -18506042.57349 -14420260.94347
  21573361.6014                   21573363.9214  -18631891.97549 -14518340.30747
 04  3  1  0 34  0.0000000  0  8G 9G 6G22G18G21G 3G26G15
  24101287.1124                   24101289.5004   -3640981.86148  -2837125.71345
  24632738.1834                                   -3679614.17248
  22769015.1234                   22769014.5284  -12770937.05649  -9951361.80846
  20607498.4114                   20607497.5114  -24762447.66449 -19295387.78647
  20078550.9574                   20078549.4034  -27902151.05349 -21741908.97747
  23253554.5844                   23253556.6984   -1844561.56849  -1437317.96846
  21117131.8684                   21117131.0404  -18441119.51349 -14369671.47147
  21557758.4304                   21557760.4524  -18713886.96049 -14582232.48147
 04  3  1  0 34 30.0000000  0  8G 9G 6G22G18G21G 3G26G15
  24081275.9094                   24081277.6164   -3746144.67448  -2919070.69645
  24653793.2524                                   -3568973.83148
  22753430.6204                   22753428.5994  -12852837.59749 -10015180.32046
  20600595.1744                   20600594.5124  -24798723.63249 -19323654.74247
  20080954.8364                   20080953.4054  -27889517.34249 -21732064.52047
  23244936.6064                   23244939.6694   -1889848.27149  -1472606.28246
  21129587.5704                   21129586.7334  -18375663.74749 -14318666.87747
  21542212.1274                   21542213.6144  -18795582.14749 -14645891.03047
 04  3  1  0 35  0.0000000  0  8G 9G 6G22G18G21G 3G26G15
  24061291.2114                   24061294.4144   -3851159.16948  -3000900.06345
  24674849.5374                                   -3458321.60448
  22737883.0354                   22737881.5374  -12934539.24649 -10078843.86046
  20593759.6204                   20593758.7824  -24834645.44549 -19351645.72447
  20083456.3574                   20083455.2284  -27876371.69149 -21721821.15447
  23236419.8704                   23236422.2904   -1934605.44149  -1507481.99246
  21142143.8444                   21142142.9784  -18309680.20249 -14267250.98547
  21526723.1874                   21526725.1104  -18876978.04349 -14709316.37547
 04  3  1  0 35 30.0000000  0  8G 9G 6G22G18G21G 3G26G15
  24041337.6014                   24041340.8604   -3956015.80248  -3082606.49045
  24695906.5244                                   -3347654.84347
  22722375.1854                   22722373.3604  -13016035.28849 -10142347.18946
  20586992.3324                   20586991.5924  -24870206.69549 -19379355.76647
  20086056.6254                   20086055.4684  -27862707.87149 -21711174.01647
  23228005.1034                   23228006.9774   -1978825.53949  -1541939.15046
  21154801.3234                   21154799.9684  -18243165.65049 -14215421.32247
  21511292.5814                   21511294.5404  -18958066.32249 -14772502.00347
 04  3  1  0 36  0.0000000  0  8G 9G 6G22G18G21G 3G26G15
  24021414.9784                   24021416.9404   -4060708.44648  -3164185.12845
  24716970.3614                                   -3236972.89247
  22706906.1844                   22706904.7944  -13097322.53049 -10205687.83246
  20580294.5894                   20580293.7794  -24905404.27349 -19406782.43347
  20088755.9344                   20088754.5384  -27848522.65949 -21700120.59947
  23219693.8874                   23219695.9044   -2022504.21749  -1575974.41246
  21167559.4704                   21167558.3604  -18176120.19849 -14163177.99247
  21495921.1084                   21495923.5764  -19038841.96449 -14835443.99847
 04  3  1  0 36 30.0000000  0  8G 9G 6G22G18G21G 3G26G15
  24001520.5654                   24001523.0874   -4165253.40748  -3245648.69544
  24738031.7374                                   -3126297.91047
  22691474.5594                   22691472.7754  -13178419.55549 -10268880.24846
  20573662.4234                   20573661.1374  -24940257.51449 -19433940.78347
  20091550.7844                   20091549.2824  -27833835.51149 -21688676.06547
  23211481.1084                   23211483.8734   -2065659.50649  -1609601.78546
  21180414.1144                   21180412.8094  -18108565.73549 -14110537.98647
  21480606.4394                   21480608.8054  -19119322.40649 -14898155.97547
 04  3  1  0 37  0.0000000  0  8G 9G 6G22G18G21G 3G26G15
  23981658.6974                   23981659.4834   -4269629.39848  -3326980.60344
  24759091.7594                                   -3015614.92447
  22676081.7524                   22676080.1694  -13259307.96949 -10331910.10846
  20567098.8244                   20567097.7684  -24974748.41349 -19460816.80747
  20094444.6424                   20094443.1854  -27818628.60249 -21676826.52047
  23203371.8854                   23203374.0334   -2108272.97849  -1642806.97145
  21193369.0684                   21193367.9304  -18040487.46549 -14057489.80047
  21465351.7154                   21465353.6964  -19199487.81649 -14960622.44447
 04  3  1  0 37 30.0000000  0  8G 9G 6G22G18G21G 3G26G15
  23961829.5264                   23961831.2794   -4373830.88248  -3408176.52844
  24780156.1404                                   -2904924.08047
  22660729.7344                   22660727.3314  -13339984.94049 -10394775.20746
  20560604.8684                   20560603.9804  -25008874.27449 -19487408.37847
  20097437.8074                   20097436.5124  -27802898.86049 -21664569.57047
  23195367.1324                   23195368.3924   -2150340.78649  -1675586.96645
  21206423.2564                   21206422.3934  -17971886.06749 -14004034.00147
  21450157.2704                   21450159.1834  -19279333.58749 -15022839.78947
 04  3  1  0 38  0.0000000  0  8G 9G 6G22G18G21G 3G26G15
  23942033.2114                   23942035.2304   -4477865.88248  -3489242.74145
  24801219.0114                                   -2794239.45747
  22645415.3244                   22645414.1424  -13420461.09549 -10457483.83146
  20554178.0454                   20554177.3164  -25042646.41249 -19513724.33547
  20100528.3224                   20100527.1014  -27786657.60749 -21651914.03947
  23187463.5974                   23187465.1894   -2191873.01249  -1707949.68046
  21219574.8334                   21219573.4224  -17902775.73849 -13950181.68847
  21435022.0434                   21435024.1704  -19358869.01749 -15084815.31647
 04  3  1  0 38 30.0000000  0  8G 9G 6G22G18G21G 3G26G15
  23922267.3824                   23922270.2334   -4581735.18148  -3570179.82645
  24822279.7794                                   -2683567.77847
  22630138.4734                   22630136.7564  -13500740.06049 -10520038.81246
  20547818.0654                   20547817.4484  -25076068.66049 -19539767.66947
  20103715.5394                   20103714.3484  -27769908.92549 -21638863.10547
  23179660.7464                   23179663.7254   -2232872.50149  -1739897.30746
  21232821.1344                   21232819.8254  -17833163.41749 -13895938.23647
  21419945.8514                   21419947.8964  -19438096.09749 -15146550.55947
 04  3  1  0 39  0.0000000  0  8G 9G 6G22G18G21G 3G26G15
  23902535.0654                   23902538.2084   -4685423.14948  -3650975.59945
  24843341.2074                                   -2572900.01548
  22614901.1604                   22614900.1834  -13580809.06849 -10582430.19046
  20541527.0604                   20541526.3664  -25109128.59349 -19565528.68147
  20107001.7274                   20107000.2174  -27752640.49149 -21625407.16947
  23171962.7924                   23171965.3584   -2273326.10249  -1771419.68946
  21246165.3824                   21246163.8214  -17763039.72049 -13841296.29647
  21404930.5554                   21404932.6404  -19517000.12549 -15208033.93747
 04  3  1  0 39 30.0000000  0  8G 9G 6G22G18G21G 3G26G15
  23882838.7484                   23882839.9424   -4788927.85448  -3731628.58744
  24864397.6604                                   -2462239.22347
  22599704.0044                   22599702.8664  -13660668.54449 -10644658.28646
  20535304.7854                   20535303.8624  -25141827.63249 -19591008.47047
  20110386.5094                   20110385.1254  -27734853.18649 -21611546.92147
  23164369.4224                   23164371.3844   -2313233.50349  -1802516.46946
  21259605.7874                   21259604.6504  -17692408.61349 -13786258.98647
  21389976.8884                   21389978.6334  -19595580.22349 -15269264.80147
 04  3  1  0 40  0.0000000  0  8G 9G 6G22G18G21G 3G26G15
  23863178.9314                   23863182.2554   -4892244.48948  -3812135.00645
  24885452.5794                                   -2351587.50447
  22584547.6554                   22584546.1724  -13740316.33849 -10706721.44446
  20529151.5844                   20529150.8044  -25174163.68849 -19616205.39247
  20113870.4494                   20113869.0314  -27716545.17149 -21597280.92247
  23156879.4234                   23156881.8394   -2352592.25349  -1833185.76845
  21273142.8424                   21273141.5814  -17621271.51349 -13730827.41247
  21375085.7424                   21375087.3714  -19673832.97649 -15330240.59347
 04  3  1  0 40 30.0000000  0  8G 9G 6G22G18G21G 3G26G15
  23843551.7134                   23843554.8244   -4995382.66948  -3892502.38345
  24906504.0074                                   -2240959.87447
  22569430.1754                   22569428.0664  -13819764.98349 -10768629.42146
  20523064.8744                   20523063.8354  -25206149.67849 -19641129.52447
  20117450.8944                   20117449.4564  -27697729.23749 -21582619.14047
  23149492.5124                   23149494.3254   -2391413.68849  -1863436.26346
  21286773.0334                   21286771.6804  -17549644.20449 -13675013.80947
  21360254.8334                   21360255.8084  -19751769.63949 -15390970.20247
 04  3  1  0 41  0.0000000  0  8G 9G 6G22G18G21G 3G26G15
  23823964.1614                   23823964.8494   -5098316.04948  -3972710.17745
  24927557.1064                                   -2130336.15248
  22554353.3434                   22554351.5284  -13898990.92649 -10830363.87746
  20517048.8884                   20517047.9504  -25237762.35349 -19665762.76047
  20121132.1324                   20121131.0624  -27678382.85249 -21567544.02247
  23142211.5574                   23142213.3554   -2429674.19349  -1893249.66246
  21300499.8484                   21300498.6444  -17477506.88749 -13618802.87147
  21345488.4224                   21345489.6944  -19829365.36549 -15451434.35747
 04  3  1  0 41 30.0000000  0  8G 9G 6G22G18G21G 3G26G15
  23804414.2544                   23804416.0534   -5201057.92148  -4052768.73045
  24948602.4174                                   -2019735.57347
  22539316.8804                   22539315.3064  -13978010.45149 -10891937.47846
  20511101.0144                   20511100.2634  -25269018.53749 -19690118.20347
  20124911.6194                   20124910.3274  -27658522.69749 -21552068.56347
  23135034.3524                   23135036.7244   -2467389.00249  -1922637.80346
  21314320.6454                   21314319.4034  -17404879.06149 -13562209.69247
  21330785.2784                   21330786.3684  -19906634.34449 -15511643.92847
 04  3  1  0 42  0.0000000  0  7G 9G22G18G21G 3G26G15
  23784902.5764                   23784903.9374   -5303599.53948  -4132671.19245
  22524320.5594                   22524318.2614  -14056817.48449 -10953345.50646
  20505221.9624                   20505221.2784  -25299912.54049 -19714191.43547
  20128789.6264                   20128788.3924  -27638143.12749 -21536188.35947
  23127962.7964                   23127964.5974   -2504551.99149  -1951595.93146
  21328235.2424                   21328233.6054  -17331758.25449 -13505232.36147
  21316144.0964                   21316145.3394  -19983568.97749 -15571592.93047
 04  3  1  0 42 30.0000000  0  7G 9G22G18G21G 3G26G15
  23765425.9294                   23765428.6164   -5405941.14248  -4212417.81645
  22509363.4584                   22509362.0474  -14135414.67649 -11014590.02546
  20499411.5934                   20499410.7624  -25330447.68849 -19737985.02347
  20132766.1644                   20132764.7874  -27617247.47249 -21519906.01347
  23120994.8054                   23120997.6454   -2541165.52349  -1980125.89846
  21342242.2104                   21342240.8384  -17258150.86449 -13447875.88347
  21301567.8564                   21301568.8204  -20060170.07649 -15631281.95647
 04  3  1  0 43  0.0000000  0  7G 9G22G18G21G 3G26G15
  23745988.5644                   23745990.9504   -5508083.65748  -4292009.29245
  22494445.9674                   22494444.0574  -14213805.84049 -11075674.00946
  20493668.3814                   20493667.4994  -25360627.75949 -19761501.93647
  20136839.8834                   20136838.3484  -27595839.84749 -21503224.73047
  23114132.6064                   23114134.3514   -2577232.77549  -2008230.21946
  21356340.1024                   21356339.0914  -17184063.97249 -13390145.80947
  21287054.3084                   21287055.3804  -20136440.18049 -15690713.14547
 04  3  1  0 43 30.0000000  0  7G 9G22G18G21G 3G26G15
  23726593.0054                   23726594.9074   -5610005.94948  -4371429.21445
  22479570.8464                   22479569.1364  -14291972.70649 -11136583.22546
  20487996.0614                   20487995.2024  -25390435.60049 -19784728.79147
  20141014.2384                   20141012.9024  -27573902.47149 -21486130.65647
  23107375.8904                   23107377.9674   -2612735.11749  -2035894.33846
  21370532.1914                   21370530.9954  -17109483.08549 -13332030.85647
  21272606.7404                   21272608.1084  -20212359.48249 -15749870.98647
 04  3  1  0 44  0.0000000  0  7G 9G22G18G21G 3G26G15
  23707236.5854                   23707239.1074   -5711721.51148  -4450688.03045
  22464735.7824                   22464734.4844  -14369931.41849 -11197330.23946
  20482391.5354                   20482390.9114  -25419887.47549 -19807678.26347
  20145286.3034                   20145285.1684  -27551452.11949 -21468636.85847
  23100724.6634                   23100725.9154   -2647688.37049  -2063130.56046
  21384814.9404                   21384813.9244  -17034427.67149 -13273546.09447
  21258223.8744                   21258224.7444  -20287942.67649 -15808766.92047
 04  3  1  0 44 30.0000000  0  8G 9G29G22G18G21G 3G26G15
  23687925.3644                   23687928.1734   -5813210.74448  -4529770.48545
  22972583.5544                   22972581.6674          -.38459          .19156
  22449944.0144                   22449942.4544  -14447665.33149 -11257902.07746
  20476857.8624                   20476857.0614  -25448967.08249 -19830337.66347
  20149659.3144                   20149657.9134  -27528472.91449 -21450730.96347
  23094181.0774                   23094182.3924   -2682075.34149  -2089925.54146
  21399190.5454                   21399189.2474  -16958884.54949 -13214681.28247
  21243908.9544                   21243909.7104  -20363171.26349 -15867386.53947
 04  3  1  0 45  0.0000000  0  8G 9G29G22G18G21G 3G26G15
  23668650.6344                   23668652.8574   -5914497.25248  -4608694.96345
  22989117.0294                   22989115.0114      86884.45749     67702.63546
  22435189.7324                   22435188.1454  -14525200.65649 -11318319.17946
  20471390.1034                   20471389.1474  -25477700.93049 -19852727.63947
  20154127.5624                   20154126.1064  -27504991.25249 -21432433.54747
  23087740.4954                   23087741.5864   -2715921.81149  -2116299.33845
  21413652.5564                   21413651.2394  -16882883.74549 -13155459.84447
  21229655.4884                   21229656.7374  -20438070.38349 -15925749.49547
 04  3  1  0 45 30.0000000  0  8G 9G29G22G18G21G 3G26G15
  23649415.9094                   23649419.9244   -6015566.44048  -4687450.06845
  23005702.3934                   23005700.7484     174040.26049    135616.23046
  22420475.4374                   22420473.8534  -14602525.58149 -11378572.33246
  20465990.0154                   20465989.1344  -25506077.79149 -19874839.41547
  20158693.4724                   20158691.9504  -27480996.41849 -21413736.25047
  23081404.3764                   23081406.6424   -2749215.49549  -2142242.39546
  21428204.1734                   21428202.2484  -16806416.72249 -13095875.07247
  21215467.8664                   21215469.2224  -20512626.30649 -15983845.05147
 04  3  1  0 46  0.0000000  0  8G 9G29G22G18G21G 3G26G15
  23630229.4064                   23630233.0174   -6116392.72548  -4766015.91145
  23022342.9114                   23022340.8374     261486.87449    203756.44046
  22405804.9084                   22405802.8934  -14679617.21749 -11438643.72946
  20460662.1254                   20460661.1154  -25534075.56149 -19896655.80547
  20163361.3844                   20163359.9454  -27456466.11249 -21394621.70547
  23075178.0274                   23075180.2994   -2781933.30949  -2167736.66346
  21442847.6954                   21442845.9404  -16729464.28149 -13035912.06047
  21201350.7554                   21201351.8994  -20586814.71149 -16041654.20847
 04  3  1  0 46 30.0000000  0  8G 9G29G22G18G21G 3G26G15
  23611088.3364                   23611089.2854   -6216985.51748  -4844399.83545
  23039035.3244                   23039034.7674     349208.97049    272111.30946
  22391176.8324                   22391175.1914  -14756487.77949 -11498542.85046
  20455404.0174                   20455403.1804  -25561706.67449 -19918186.48247
  20168129.2614                   20168127.8254  -27431412.89649 -21375099.69847
  23069058.9604                   23069060.3414   -2814087.15649  -2192791.49546
  21457580.3664                   21457578.8584  -16652042.27949 -12975583.17347
  21187300.9374                   21187302.1044  -20660646.19149 -16099185.14947
 04  3  1  0 47  0.0000000  0  8G 9G29G22G18G21G 3G26G15
  23591988.6764                   23591989.1824   -6317355.10148  -4922609.81245
  23055777.4284                   23055775.1124     437190.34649    340668.20646
  22376588.8384                   22376587.1624  -14833150.52949 -11558280.02946
  20450213.3384                   20450212.4274  -25588984.87849 -19939442.17147
  20172993.3394                   20172991.9774  -27405851.17849 -21355181.45447
  23063044.9004                   23063045.8364   -2845689.78649  -2217416.79646
  21472399.7464                   21472398.5364  -16574167.36549 -12914901.34547
  21173316.5424                   21173317.7294  -20734132.36249 -16156447.03847
 04  3  1  0 47 30.0000000  0  8G 9G29G22G18G21G 3G26G15
  23572934.7124                   23572936.1984   -6417485.48148  -5000633.40645
  23072571.1144                   23072569.6844     525441.31149    409435.19246
  22362042.1114                   22362040.7364  -14909591.82749 -11617844.65946
  20445091.6434                   20445090.6964  -25615897.21849 -19960412.76647
  20177956.5104                   20177955.1944  -27379767.88649 -21334856.78847
  23057139.5194                   23057141.5944   -2876727.45449  -2241601.82046
  21487306.3114                   21487305.1464  -16495829.68549 -12853858.92747
  21159401.2724                   21159402.4514  -20807258.11149 -16213428.10247
 04  3  1  0 48  0.0000000  0  8G 9G29G22G18G21G 3G26G15
  23553927.4074                   23553928.5994   -6517372.69949  -5078467.52545
  23089415.6784                   23089415.2574     613959.68549    478410.53346
  22347537.8364                   22347536.4714  -14985810.87849 -11677236.10246
  20440040.0374                   20440039.1724  -25642443.40049 -19981098.03847
  20183019.2734                   20183018.0154  -27353162.70249 -21314125.45447
  23051341.1094                   23051342.5274   -2907199.18649  -2265345.88346
  21502300.8904                   21502299.7514  -16417031.90349 -12792457.96847
  21145554.7034                   21145555.8974  -20880021.25649 -16270126.65647
 04  3  1  0 48 30.0000000  0  8G 9G29G22G18G21G 3G26G15
  23534966.0424                   23534965.8964   -6617013.70549  -5156109.80245
  23106310.6324                   23106309.3664     702742.94049    547592.24446
  22333076.3744                   22333074.4954  -15061807.22749 -11736454.00746
  20435058.2544                   20435057.2924  -25668623.34949 -20001497.94447
  20188181.6244                   20188180.1774  -27326035.69249 -21292987.50047
  23045650.6614                   23045651.7124   -2937104.33049  -2288648.46746
  21517382.7914                   21517381.4484  -16337777.26449 -12730701.05547
  21131778.1874                   21131779.1384  -20952419.38849 -16326540.81747
 04  3  1  0 49  0.0000000  0  8G 9G29G22G18G21G 3G26G15
  23516048.6894                   23516048.3824   -6716421.60048  -5233570.42445
  23123251.7494                   23123250.6434     791772.12949    616965.60446
  22318654.2314                   22318652.7194  -15137596.72549 -11795510.73646
  20430143.2234                   20430142.3704  -25694452.78149 -20021624.73047
  20193439.4764                   20193438.1884  -27298403.92449 -21271456.22347
  23040063.4464                   23040065.5074   -2966458.25149  -2311521.46946
  21532548.0204                   21532546.4064  -16258085.05149 -12668603.19247
  21118068.2354                   21118069.1544  -21024466.93049 -16382681.78447
 04  3  1  0 49 30.0000000  0  8G 9G29G22G18G21G 3G26G15
  23497179.5844                   23497181.6714   -6815574.09348  -5310832.04345
  23140243.7064                   23140242.3004     881063.36649    686543.13046
  22304274.9714                   22304274.0414  -15213160.04449 -11854391.20246
  20425298.1214                   20425297.1524  -25719913.16949 -20041463.96247
  20198797.3364                   20198796.1254  -27270248.46149 -21249516.87647
  23034586.7984                   23034588.1744   -2995241.70749  -2333949.97346
  21547798.5944                   21547797.2074  -16177939.57649 -12606152.13246
  21104428.6014                   21104429.5254  -21096143.08049 -16438533.35647
 04  3  1  0 50  0.0000000  0  8G 9G29G22G18G21G 3G26G15
  23478362.8354                   23478363.8434   -6914460.04748  -5387885.97445
  23157285.9074                   23157283.5614     970622.37049    756329.31746
  22289939.8284                   22289938.7694  -15288488.60249 -11913088.73946
  20420524.7734                   20420523.9454  -25744996.83049 -20061009.63047
  20204256.3924                   20204255.1284  -27241561.71349 -21227163.54647
  23029219.4834                   23029220.7934   -3023445.84449  -2355927.06446
  21563137.2264                   21563135.7004  -16097335.90249 -12543344.02246
  21090861.9004                   21090862.8334  -21167437.74449 -16494087.67647
 04  3  1  0 50 30.0000000  0  8G 9G29G22G18G21G 3G26G15
  23459593.8124                   23459595.9024   -7013087.73248  -5464738.65645
  23174377.0114                   23174375.6534    1060434.72449    826312.91446
  22275648.3994                   22275647.1434  -15363593.94049 -11971612.33246
  20415820.8814                   20415820.0384  -25769715.37649 -20080270.79247
  20209813.7304                   20209812.5994  -27212355.78749 -21204405.65847
  23023959.7354                   23023961.4214   -3051082.05449  -2377461.67246
  21578559.6714                   21578557.4734  -16016288.96149 -12480190.52046
  21077365.4204                   21077366.2554  -21238360.66749 -16549352.31347
 04  3  1  0 51  0.0000000  0  8G 9G29G22G18G21G 3G26G15
  23440871.8064                   23440873.7784   -7111474.05448  -5541403.23745
  23191512.1444                   23191509.9834    1150477.61949    896476.12846
  22261394.3474                   22261393.0854  -15438495.39649 -12029977.05546
  20411182.8244                   20411181.8634  -25794088.80149 -20099263.02447
  20215466.4844                   20215465.0514  -27182650.83649 -21181258.92447
  23018806.2294                   23018806.6424   -3078169.54049  -2398568.70446
  21594063.0754                   21594061.0084  -15934821.98349 -12416709.74046
  21063936.5994                   21063937.5404  -21308929.50149 -16604340.96947
 04  3  1  0 51 30.0000000  0  8G 9G29G22G18G21G 3G26G15
  23422202.2654                   23422204.3254   -7209589.06348  -5617856.41945
  23208695.4534                   23208693.5484    1240775.56449    966838.11646
  22247185.3034                   22247183.3504  -15513165.62249 -12088161.59446
  20406615.5934                   20406614.5614  -25818090.10949 -20117965.29747
  20221219.5214                   20221217.8854  -27152420.21749 -21157702.57347
  23013761.0134                   23013762.3224   -3104681.03549  -2419226.95746
  21609649.3214                   21609647.8624  -15852910.89649 -12352882.87746
  21050580.1994                   21050581.6354  -21379115.66049 -16659031.44347
 04  3  1  0 52  0.0000000  0  8G 9G29G22G18G21G 3G26G15
  23403584.2564                   23403585.6664   -7307426.29748  -5694093.15545
  23225926.7604                   23225925.4574    1331329.15449   1037399.34446
  22233021.0144                   22233018.9264  -15587601.02949 -12146163.15446
  20402119.4324                   20402118.4084  -25841716.19749 -20136375.18347
  20227072.6984                   20227071.2924  -27121661.41449 -21133734.65447
  23008825.4074                   23008827.2244   -3130612.54749  -2439433.24046
  21625321.2194                   21625319.6474  -15770556.15949 -12288710.33446
  21037298.3674                   21037299.8384  -21448913.93349 -16713419.66047
 04  3  1  0 52 30.0000000  0  7G 9G22G18G21G 3G26G15
  23385015.6894                   23385017.6874   -7405000.67648  -5770125.09545
  22218897.6054                   22218895.0814  -15661819.50749 -12203995.68546
  20397691.5014                   20397690.2524  -25864985.62449 -20154507.14847
  20233022.9124                   20233021.4454  -27090393.06149 -21109369.68747
  23003997.7374                   23003999.3014   -3155982.05649  -2459201.59846
  21641073.0904                   21641071.2594  -15687778.87949 -12224208.53046
  21024086.7584                   21024087.8994  -21518340.25249 -16767518.00747
 04  3  1  0 53  0.0000000  0  8G 9G31G22G18G21G 3G26G15
  23366499.7024                   23366502.6734   -7502297.80948  -5845940.94945
  24926594.5814                   24926592.6044          -.61357         2.14254
  22204817.8714                   22204815.8954  -15735809.39149 -12261650.08946
  20393333.5234                   20393332.4724  -25887887.01449 -20172352.32447
  20239071.8084                   20239070.4024  -27058604.31549 -21084599.21847
  22999279.9124                   22999281.1244   -3180777.98349  -2478523.07446
  21656907.4654                   21656905.7554  -15604571.08749 -12159371.28246
  21010948.4814                   21010949.3754  -21587381.75949 -16821316.50547
 04  3  1  0 53 30.0000000  0  7G 9G22G18G21G 3G26G15
  23348037.5824                   23348040.3094   -7599315.36048  -5921538.96545
  22190781.9004                   22190779.7024  -15809571.19649 -12319126.75746
  20389045.4064                   20389044.2934  -25910421.65649 -20189911.73447
  20245219.9664                   20245218.6544  -27026296.67049 -21059424.40647
  22994670.0034                   22994671.7544   -3205000.77649  -2497398.00446
  21672822.6774                   21672820.1634  -15520937.18449 -12094201.99846
  20997884.0944                   20997884.8904  -21656037.42249 -16874814.33347
 04  3  1  0 54  0.0000000  0  7G 9G22G18G21G 3G26G15
  23329631.1644                   23329634.1684   -7696046.97848  -5996914.17245
  22176789.3344                   22176787.6444  -15883101.23649 -12376422.83646
  20384827.6214                   20384826.3324  -25932586.31849 -20207182.85247
  20251467.1474                   20251465.6094  -26993467.18949 -21033842.97547
  22990169.6384                   22990171.8554   -3228646.82049  -2515823.48046
  21688818.5674                   21688816.3274  -15436876.82149 -12028700.36446
  20984893.4364                   20984894.4944  -21724301.95349 -16928007.39247
 04  3  1  0 54 30.0000000  0  7G 9G22G18G21G 3G26G15
  23311279.0934                   23311280.8124   -7792490.84548  -6072065.12245
  22162840.6294                   22162838.9424  -15956400.86549 -12433539.37346
  20380679.7664                   20380678.4364  -25954382.77049 -20224167.06347
  20257813.0904                   20257811.2874  -26960117.76749 -21007856.39247
  22985780.4104                   22985782.7404   -3251717.10949  -2533800.29446
  21704894.3984                   21704892.9134  -15352395.06649 -11962870.38546
  20971977.6874                   20971978.5074  -21792175.00849 -16980895.41047
 04  3  1  0 55  0.0000000  0  7G 9G22G18G21G 3G26G15
  23292981.5934                   23292983.5114   -7888644.38048  -6146989.83545
  22148935.4674                   22148933.9904  -16029470.27949 -12490476.52046
  20376601.9244                   20376600.7074  -25975811.47249 -20240864.71247
  20264258.3464                   20264256.4754  -26926249.95449 -20981465.86647
  22981499.4434                   22981501.6394   -3274211.93049  -2551328.70045
  21721050.2544                   21721048.8974  -15267495.48849 -11896714.87346
  20959136.5094                   20959137.1974  -21859655.23649 -17033477.32747
 04  3  1  0 55 30.0000000  0  7G 9G22G18G21G 3G26G15
  23274735.9934                   23274736.8504   -7984527.74149  -6221704.05345
  22135070.5804                   22135069.2064  -16102332.05149 -12547251.86246
  20372589.7084                   20372588.7294  -25996895.77749 -20257294.00647
  20270797.1664                   20270795.5294  -26891887.23649 -20954689.70347
  22977324.2084                   22977326.6514   -3296154.12349  -2568426.52645
  21737280.6294                   21737279.1294  -15182204.48449 -11830254.34946
  20946366.1734                   20946366.9654  -21926763.83549 -17085769.66547
 04  3  1  0 56  0.0000000  0  7G 9G22G18G21G 3G26G15
  23256548.9284                   23256549.2684   -8080096.54149  -6296173.19945
  22121253.3664                   22121251.0424  -16174944.74849 -12603833.12547
  20368650.5714                   20368649.5734  -26017594.91449 -20273423.16047
  20277437.9354                   20277436.5324  -26856989.16949 -20927496.37747
  22973262.0194                   22973264.5874   -3317502.26349  -2585061.52245
  21753592.9584                   21753591.3474  -15096484.22749 -11763459.31146
  20933674.6554                   20933675.6224  -21993457.67949 -17137738.82847
 04  3  1  0 56 30.0000000  0  7G 9G22G18G21G 3G26G15
  23238417.9144                   23238419.1524   -8175374.91749  -6370415.99245
  22107478.0394                   22107475.9004  -16247335.30549 -12660241.29147
  20364779.8454                   20364778.8074  -26037935.87449 -20289273.20547
  20284175.2094                   20284173.6704  -26821583.38749 -20899907.43447
  22969307.0604                   22969310.7794   -3338283.27749  -2601254.61745
  21769980.8564                   21769979.7764  -15010365.21949 -11696353.54946
  20921057.1824                   20921058.1744  -22059762.05449 -17189404.47247
 04  3  1  0 57  0.0000000  0  7G 9G22G18G21G 3G26G15
  23220343.8074                   23220345.9314   -8270348.20748  -6444421.04145
  22093746.5254                   22093744.4224  -16319491.66849 -12716466.97347
  20360979.2664                   20360978.2374  -26057907.48549 -20304835.44447
  20291011.5484                   20291010.0684  -26785658.84849 -20871914.27047
  22965461.9544                   22965460.5344   -3358485.44049  -2616998.17446
  21786445.4194                   21786444.3174  -14923839.19949 -11628930.68146
  20908516.6714                   20908517.7174  -22125663.06849 -17240755.76247
 04  3  1  0 57 30.0000000  0  7G 9G22G18G21G 3G26G15
  23202332.2314                   23202333.5364   -8365009.57849  -6518183.01945
  22080060.7704                   22080059.4554  -16391409.86549 -12772507.05847
  20357249.7334                   20357248.7704  -26077506.07749 -20320107.02147
  20297947.0104                   20297945.4104  -26749212.89849 -20843514.81347
  22961729.3084                   22961728.1044   -3378104.55349  -2632287.18947
  21802989.2214                   21802987.7334  -14836905.69249 -11561190.25746
  20896053.4554                   20896054.4584  -22191155.45749 -17291788.65747
 04  3  1  0 58  0.0000000  0  7G 9G22G18G21G 3G26G15
  23184377.0984                   23184377.6474   -8459364.30449  -6591706.08445
  22066419.1754                   22066417.2384  -16463097.88849 -12828367.79747
  20353589.5184                   20353588.5914  -26096740.54949 -20335094.87847
  20304980.1774                   20304978.4794  -26712253.83149 -20814715.51947
  22958105.7034                   22958110.7624   -3397149.16949  -2647126.00244
  21819607.2534                   21819605.2614  -14749576.39649 -11493141.42146
  20883667.1804                   20883667.8844  -22256245.92549 -17342508.37547
 04  3  1  0 58 30.0000000  0  7G 9G22G18G21G 3G26G15
  23166482.1404                   23166483.1674   -8553400.85049  -6664981.23346
  22052822.5534                   22052821.0134  -16534547.11549 -12884042.45747
  20350000.5394                   20349999.4064  -26115602.14149 -20349792.18647
  20312112.2524                   20312110.5514  -26674774.74549 -20785511.01947
  22954593.2254                   22954594.8904   -3415610.53149  -2661511.44545
  21836301.2134                   21836299.6684  -14661846.13249 -11424780.17146
  20871359.5254                   20871360.0154  -22320923.79349 -17392906.50747
 04  3  1  0 59  0.0000000  0  7G 9G22G18G21G 3G26G15
  23148646.8854                   23148648.2194   -8647121.24048  -6738009.99845
  22039271.4924                   22039269.0004  -16605762.20949 -12939534.66247
  20346481.0534                   20346479.7984  -26134096.62349 -20364203.42947
  20319342.0744                   20319340.3994  -26636781.10449 -20755905.57447
  22951190.0374                   22951192.0484   -3433493.75049  -2675446.38445
  21853070.5574                   21853068.7044  -14573723.53549 -11356113.21446
  20859129.0604                   20859129.7744  -22385192.69549 -17442985.95947
 04  3  1  0 59 30.0000000  0  7G 9G22G18G21G 3G26G15
  23130871.3404                   23130873.0924   -8740533.87248  -6810798.94445
  22025761.7014                   22025759.5814  -16676754.65749 -12994853.38447
  20343029.3984                   20343027.9914  -26152235.78149 -20378337.78747
  20326667.5764                   20326665.8754  -26598285.28649 -20725908.81947
  22947893.4254                   22947895.1304   -3450810.58649  -2688939.96645
  21869911.4304                   21869909.7244  -14485223.31449 -11287151.99646
  20846975.0384                   20846975.5364  -22449062.08849 -17492754.12547
 04  3  1  1  0  0.0000000  0  7G 9G22G18G21G 3G26G15
  23113158.2324                   23113159.7014   -8833620.66249  -6883333.95046
  22012297.2374                   22012294.9854  -16747509.03249 -13049986.60447
  20339647.9004                   20339646.4864  -26170004.79849 -20392183.72747
  20334091.2594                   20334089.7464  -26559272.97149 -20695509.60147
  22944708.8804                   22944711.6954   -3467546.04649  -2701980.55546
  21886826.9564                   21886825.0584  -14396333.86349 -11217887.46746
  20834900.5394                   20834900.8534  -22512515.31449 -17542198.05947
 04  3  1  1  0 30.0000000  0  7G 9G22G18G21G 3G26G15
  23095509.0944                   23095510.7964   -8926364.29249  -6955601.60946
  21998881.1904                   21998879.0844  -16818010.74249 -13104922.93347
  20336339.4824                   20336338.2454  -26187389.38949 -20405730.11047
  20341615.7684                   20341614.1294  -26519730.94949 -20664697.62147
  22941637.5654                   22941640.2914   -3483685.74249  -2714556.92546
  21903818.1264                   21903816.2134  -14307044.16549 -11148311.09046
  20822907.9234                   20822908.0954  -22575536.10949 -17591305.04347
 04  3  1  1  1  0.0000000  0  7G 9G22G18G21G 3G26G15
  23077921.0544                   23077922.9554   -9018785.07149  -7027617.68945
  21985508.3394                   21985506.0054  -16888282.87349 -13159680.37147
  20333099.7624                   20333098.4004  -26204413.29349 -20418995.43047
  20349236.8484                   20349235.2344  -26479682.91749 -20633491.34947
  22938676.1294                   22938677.9354   -3499252.59449  -2726686.92146
  21920880.5654                   21920878.0704  -14217380.92649 -11078443.63646
  20810993.5944                   20810994.1134  -22638145.96449 -17640091.80047
 04  3  1  1  1 30.0000000  0  8G 9G31G22G18G21G 3G26G15
  23060399.6124                   23060399.7064   -9110864.05449  -7099367.47446
  24671047.1934                                          -.43257
  21972183.1464                   21972180.9164  -16958308.95049 -13214246.07747
  20329931.8784                   20329930.6274  -26221060.77349 -20431967.43747
  20356956.9134                   20356955.2534  -26439113.86349 -20601879.08947
  22935824.7264                   22935826.8004   -3514230.74349  -2738358.17946
  21938016.0794                   21938014.3104  -14127331.47049 -11008275.23346
  20799160.8114                   20799161.2774  -22700327.06349 -17688544.51347
 04  3  1  1  2  0.0000000  0  8G 9G31G22G18G21G 3G26G15
  23042939.8184                   23042940.2204   -9202619.99949  -7170865.55146
  24656728.5184                                     -75253.52948
  21958900.1334                   21958897.5354  -17028110.91749 -13268637.15847
  20326831.7204                   20326830.3824  -26237354.09449 -20444663.45847
  20364771.8604                   20364769.9164  -26398046.86949 -20569878.82247
  22933083.0434                   22933084.8934   -3528642.44849  -2749588.06646
  21955220.7434                   21955219.2454  -14036921.04649 -10937825.55146
  20787405.6434                   20787405.8014  -22762099.68149 -17736678.99047
 04  3  1  1  2 30.0000000  0  8G 9G31G22G18G21G 3G26G15
  23025541.2194                   23025542.1204   -9294047.81049  -7242107.90246
  24642484.9914                                    -150087.12447
  21945660.7264                   21945658.9974  -17097686.34449 -13322851.71647
  20323798.5694                   20323797.4564  -26253291.30549 -20457081.99447
  20372681.3104                   20372679.7254  -26356480.35249 -20537489.31447
  22930449.3974                   22930450.2784   -3542485.65849  -2760374.95046
  21972493.6974                   21972492.6114  -13946151.04649 -10867095.68446
  20775729.6424                   20775730.0434  -22823459.88549 -17784492.12147
 04  3  1  1  3  0.0000000  0  8G 9G31G22G18G21G 3G26G15
  23008208.7484                   23008209.6084   -9385128.63849  -7313079.85446
  24628326.1954                                    -224483.60347
  21932466.6264                   21932464.3724  -17167019.04049 -13376877.13647
  20320836.7044                   20320835.3294  -26268856.75049 -20469210.85947
  20380689.0674                   20380687.4824  -26314399.60149 -20504699.10547
  22927925.0354                   22927926.4394   -3555744.61549  -2770706.58146
  21989837.6594                   21989836.1374  -13855008.83349 -10796075.80146
  20764134.8314                   20764135.0854  -22884389.75649 -17831969.94647
 04  3  1  1  3 30.0000000  0  8G 9G31G22G18G21G 3G26G15
  22990943.7944                   22990944.7664   -9475852.04049  -7383773.32646
  24614255.6954                                    -298433.48447
  21919320.9374                   21919318.9824  -17236101.51649 -13430707.58047
  20317946.3314                   20317945.1924  -26284043.75449 -20481044.84147
  20388795.7984                   20388794.1974  -26271798.03249 -20471503.06547
  22925514.4404                   22925516.9494   -3568412.37549  -2780577.54746
  22007252.6324                   22007251.1914  -13763490.68349 -10724762.95346
  20752623.8634                   20752624.0734  -22944880.53049 -17879105.63047
 04  3  1  1  4  0.0000000  0  8G 9G31G22G18G21G 3G26G15
  22973747.7904                   22973748.1184   -9566221.46749  -7454191.03346
  24600270.8644                                    -371941.02948
  21906221.0244                   21906219.0644  -17304939.68249 -13484347.64647
  20315127.3764                   20315126.0194  -26298858.59649 -20492588.82347
  20397000.4074                   20396998.7954  -26228682.90549 -20437906.85047
  22923215.3444                   22923217.0654   -3580494.94249  -2789992.51246
  22024737.2914                   22024736.3704  -13671605.98149 -10653164.49746
  20741195.5524                   20741195.8844  -23004936.44149 -17925902.44647
 04  3  1  1  4 30.0000000  0  8G 9G31G22G18G21G 3G26G15
  22956618.8024                   22956620.0954   -9656232.36349  -7524329.35446
  24586365.5234                                    -445002.66848
  21893168.8354                   21893166.7864  -17373531.70749 -13537795.92247
  20312379.2664                   20312377.8004  -26313300.31149 -20503842.02547
  20405302.8174                   20405301.1754  -26185053.53849 -20403909.93747
  22921028.0514                   22921028.7514   -3591991.16049  -2798950.58146
  22042291.9734                   22042291.0494  -13579356.67349 -10581281.95046
  20729850.4214                   20729850.9174  -23064554.04249 -17972357.70947
 04  3  1  1  5  0.0000000  0  8G 9G31G22G18G21G 3G26G15
  22939560.7184                   22939562.3464   -9745875.89749  -7594181.39546
  24572547.1514                                    -517611.01348
  21880163.8264                   21880162.0784  -17441871.99749 -13591048.04047
  20309703.0844                   20309701.4894  -26327363.59549 -20514800.35547
  20413703.9374                   20413702.2604  -26140905.38349 -20369508.77447
  22918953.3064                   22918953.8414   -3602895.70949  -2807447.61846
  22059916.4944                   22059914.7844  -13486740.40549 -10509113.45446
  20718590.4484                   20718590.8344  -23123726.15449 -18018465.85647
 04  3  1  1  5 30.0000000  0  8G 9G31G22G18G21G 3G26G15
  22922570.0234                   22922571.4894   -9835161.74349  -7663754.69546
  24558815.1234                                    -589776.61048
  21867204.3704                   21867202.5714  -17509972.55149 -13644113.35347
  20307096.4654                   20307095.0764  -26341060.86849 -20525473.45347
  20422201.2344                   20422199.5334  -26096251.96749 -20334713.89747
  22916987.7244                   22916989.2934   -3613221.53649  -2815493.73346
  22077607.8424                   22077605.8384  -13393773.06849 -10436671.37746
  20707413.4154                   20707413.9564  -23182463.53049 -18064235.26247
 04  3  1  1  6  0.0000000  0  8G 9G31G22G18G21G 3G26G15
  22905646.9054                   22905647.6974   -9924091.18049  -7733050.26846
  24545170.0654                                    -661502.04948
  21854290.5454                   21854288.1554  -17577837.43149 -13696995.02947
  20304558.4274                   20304556.9374  -26354396.95049 -20535865.07347
  20430793.8254                   20430792.1394  -26051098.37749 -20299529.28047
  22915132.3414                   22915134.1034   -3622972.91149  -2823092.21546
  22095363.7714                   22095362.5774  -13300462.45549 -10363961.83446
  20696318.1484                   20696318.5894  -23240768.68349 -18109667.89047
 04  3  1  1  6 30.0000000  0  8G 9G31G22G18G21G 3G26G15
  22888792.4344                   22888792.8774  -10012663.77749  -7802067.81546
  24531600.6314                                    -732787.34048   -571001.06544
  21841420.7084                   21841418.3674  -17645468.93849 -13749694.86047
  20302088.8994                   20302087.5624  -26367374.55449 -20545977.36447
  20439480.8164                   20439478.9154  -26005448.30349 -20263957.79947
  22913385.8404                   22913386.4214   -3632152.56849  -2830245.18446
  22113185.0144                   22113183.7564  -13206814.12749 -10290989.13946
  20685305.1674                   20685305.6084  -23298642.34149 -18154764.27747
 04  3  1  1  7  0.0000000  0  8G 9G31G22G18G21G 3G26G15
  22872009.7014                   22872010.2724  -10100854.90349  -7870788.13446
  24518124.2244                                    -803609.22148   -626186.83844
  21828599.4454                   21828597.2424  -17712845.09649 -13802195.70947
  20299691.5174                   20299690.1194  -26379972.35349 -20555793.73247
  20448265.7674                   20448264.3184  -25959281.03949 -20227983.30347
  22911751.6734                   22911752.4764   -3640739.32549  -2836936.16246
  22131073.2374                   22131071.6094  -13112810.05749 -10217739.24346
  20674378.9044                   20674379.3924  -23356061.05349 -18199506.14447
 04  3  1  1  7 30.0000000  0  7G 9G22G18G21G 3G26G15
  22855298.9284                   22855299.8504  -10188672.05649  -7939217.03046
  21815824.4434                   21815822.0104  -17779976.31349 -13854505.70347
  20297364.4134                   20297362.8814  -26392201.39149 -20565322.75647
  20457147.3944                   20457145.9644  -25912608.28249 -20191614.90947
  22910228.5494                   22910229.3644   -3648744.30649  -2843173.80346
  22149026.6344                   22149024.6594  -13018464.07849 -10144222.92846
  20663537.5794                   20663538.0874  -23413033.79349 -18243900.50147
 04  3  1  1  8  0.0000000  0  7G 9G22G18G21G 3G26G15
  22838658.9374                   22838660.1164  -10276113.79949  -8007353.36446
  21803095.8814                   21803093.6514  -17846863.83149 -13906625.81147
  20295106.9484                   20295105.4324  -26404063.49549 -20574565.88347
  20466124.6404                   20466123.0614  -25865432.45049 -20154854.51047
  22908814.9794                   22908817.4654   -3656169.21249  -2848959.44746
  22167044.7734                   22167042.6184  -12923780.96149 -10070443.89746
  20652780.5884                   20652781.0694  -23469560.06749 -18287946.96047
 04  3  1  1  8 30.0000000  0  7G 9G22G18G21G 3G26G15
  22822093.4534                   22822095.5084  -10363167.35249  -8075187.21546
  21790416.0504                   21790413.7994  -17913497.84649 -13958548.37847
  20292921.1254                   20292919.6174  -26415549.43749 -20583515.88347
  20475199.3124                   20475197.2924  -25817744.92149 -20117695.38747
  22907514.3594                   22907515.7914   -3663004.83949  -2854285.91146
  22185127.4524                   22185125.7244  -12828754.58849  -9996397.39746
  20642110.9924                   20642111.5654  -23525628.69449 -18331636.79747
 04  3  1  1  9  0.0000000  0  7G 9G22G18G21G 3G26G15
  22805601.8764                   22805602.4154  -10449832.87149  -8142718.71646
  21777783.9164                   21777781.9694  -17979881.00449 -14010275.47647
  20290806.3434                   20290804.9984  -26426662.13549 -20592175.03447
  20484370.4994                   20484368.7214  -25769550.22349 -20080141.07547
  22906324.8864                   22906326.7134   -3669254.63749  -2859155.90346
  22203274.4954                   22203272.7564  -12733391.11249  -9922088.20446
  20631528.5154                   20631528.7964  -23581240.76049 -18374970.85347
 04  3  1  1  9 30.0000000  0  7G 9G22G18G21G 3G26G15
  22789181.6294                   22789182.6024  -10536121.68049  -8209956.67046
  21765196.4324                   21765194.1484  -18046026.93749 -14061817.72547
  20288759.7824                   20288758.4464  -26437416.45449 -20600554.93947
  20493635.2134                   20493633.5084  -25720863.41149 -20042203.29447
  22905245.4434                   22905246.3954   -3674933.14449  -2863580.71746
  22221481.9414                   22221480.2034  -12637708.13249  -9847530.06046
  20621030.5534                   20621030.7304  -23636408.79749 -18417958.90947
 04  3  1  1 10  0.0000000  0  7G 9G22G18G21G 3G26G15
  22772835.7354                   22772836.1674  -10622015.73449  -8276887.00346
  21752657.4114                   21752655.5884  -18111920.60049 -14113163.39447
  20286784.2134                   20286782.7194  -26447797.18549 -20608643.77047
  20502996.5004                   20502994.6604  -25671670.06249 -20003870.80147
  22904275.5674                   22904276.7984   -3680025.46449  -2867548.76546
  22239752.9874                   22239751.5364  -12541693.79949  -9772713.69746
  20610619.8984                   20610620.2544  -23691115.75149 -18460587.65647
 04  3  1  1 10 30.0000000  0  7G 9G22G18G21G 3G26G15
  22756566.6274                   22756566.9734  -10707515.79849  -8343510.34146
  21740165.9134                   21740163.2724  -18177565.38449 -14164315.13547
  20284879.3664                   20284877.5434  -26457808.64949 -20616444.85747
  20512452.9584                   20512451.0354  -25621975.37549 -19965147.64947
  22903417.1744                   22903418.2734   -3684536.14249  -2871063.57046
  22258085.9584                   22258085.0924  -12445355.34049  -9697644.78546
  20600296.8034                   20600297.0744  -23745363.79749 -18502858.80647
 04  3  1  1 11  0.0000000  0  7G 9G22G18G21G 3G26G15
  22740373.1954                   22740373.5654  -10792610.17549  -8409817.57246
  21727722.6864                   21727720.0674  -18242952.26949 -14215265.91647
  20283045.9434                   20283044.2204  -26467442.61449 -20623951.78647
  20522006.4054                   20522004.7444  -25571771.84349 -19926027.99347
  22902671.2464                   22902672.9074   -3688456.95149  -2874118.73346
  22276481.4344                   22276479.9274  -12348687.14349  -9622318.93346
  20590063.0464                   20590063.4474  -23799142.49649 -18544764.20847
 04  3  1  1 11 30.0000000  0  7G 9G22G18G21G 3G26G15
  22724254.1104                   22724255.6864  -10877313.35649  -8475819.92646
  21715326.0704                   21715323.0584  -18308098.53149 -14266029.20347
  20281281.0694                   20281279.3884  -26476717.04049 -20631178.57247
  20531653.0864                   20531651.5534  -25521078.07049 -19886526.33047
  22902034.2034                   22902034.7004   -3691805.78949  -2876728.21246
  22294935.2034                   22294933.2714  -12251710.18449  -9546752.50746
  20579915.3324                   20579915.9964  -23852467.66349 -18586316.20747
 04  3  1  1 12  0.0000000  0  8G 9G14G22G18G21G 3G26G15
  22708212.4034                   22708213.8884  -10961615.52549  -8541509.76646
  25028274.9564                                          -.29558
  21702976.4174                   21702974.1424  -18372996.95849 -14316599.35347
  20279585.9354                   20279584.1684  -26485625.19849 -20638119.95847
  20541394.3684                   20541392.9104  -25469888.44949 -19846638.30447
  22901506.6054                   22901507.4684   -3694576.47449  -2878887.16246
  22313448.6694                   22313446.7754  -12154420.82749  -9470942.64046
  20569855.6214                   20569856.3884  -23905330.75549 -18627508.17247
 04  3  1  1 12 30.0000000  0  8G 9G14G22G18G21G 3G26G15
  22692249.0924                   22692249.0844  -11045500.95049  -8606874.92046
  25006591.5174                                    -113955.58848
  21690675.9524                   21690673.4804  -18437634.48649 -14366966.19847
  20277962.9844                   20277961.2474  -26494154.22649 -20644765.91647
  20551231.7214                   20551230.3164  -25418190.85149 -19806354.45547
  22901092.3204                   22901093.3324   -3696756.32349  -2880585.70346
  22332023.6064                   22332021.9854  -12056809.32149  -9394881.75446
  20559887.4444                   20559887.5544  -23957716.97349 -18668328.57247
 04  3  1  1 13  0.0000000  0  8G 9G14G22G18G21G 3G26G15
  22676364.5214                   22676365.2774  -11128971.64449  -8671916.92046
  24984919.3264                                    -227838.24048
  21678424.7794                   21678422.2634  -18502015.48549 -14417133.15247
  20276411.0524                   20276409.3684  -26502309.67049 -20651120.78847
  20561164.9334                   20561163.3734  -25365991.76649 -19765679.84147
  22900787.9524                   22900789.5834   -3698351.04649  -2881828.31446
  22350658.6314                   22350657.2124  -11958883.91549  -9318576.26346
  20550008.5744                   20550008.9844  -24009629.44949 -18708779.81947
 04  3  1  1 13 30.0000000  0  8G 9G14G22G18G21G 3G26G15
  22660559.7354                   22660559.3664  -11212030.25049  -8736637.81846
  24963258.5804                                    -341652.31448
  21666221.2064                   21666218.6414  -18566145.40649 -14467104.45347
  20274928.9844                   20274927.3444  -26510097.45849 -20657189.18147
  20571192.4444                   20571190.8464  -25313297.80949 -19724619.61247
  22900595.5284                   22900597.0774   -3699366.57149  -2882619.59746
  22369351.2514                   22369349.7684  -11860653.47049  -9242033.08746
  20540219.0964                   20540219.6294  -24061072.01849 -18748864.87947
 04  3  1  1 14  0.0000000  0  8G 9G14G22G18G21G 3G26G15
  22644833.3324                   22644834.3414  -11294669.79649  -8801032.19646
  24941614.0594                                    -455392.49548   -354850.23344
  21654065.8824                   21654063.4254  -18630019.77249 -14516876.60447
  20273517.6204                   20273516.0104  -26517513.18649 -20662967.67047
  20581314.3874                   20581312.7344  -25260105.97749 -19683171.41947
  22900512.5294                   22900513.8534   -3699799.58749  -2882957.00146
  22388101.9664                   22388100.7764  -11762117.06349  -9165251.47846
  20530520.3874                   20530520.6414  -24112038.99349 -18788579.34147
 04  3  1  1 14 30.0000000  0  8G 9G14G22G18G21G 3G26G15
  22629187.7144                   22629188.7964  -11376886.50449  -8865097.07546
  24919983.9764                                    -569056.72548   -443419.67044
  21641959.9394                   21641957.5634  -18693637.69849 -14566448.92947
  20272177.2014                   20272175.8484  -26524557.31249 -20668456.61447
  20591530.9014                   20591529.1734  -25206416.94449 -19641335.80147
  22900541.0584                   22900540.7314   -3699649.89149  -2882840.35146
  22406909.9474                   22406908.2934  -11663277.43349  -9088233.59446
  20520912.6484                   20520912.8694  -24162528.15349 -18827921.51847
 04  3  1  1 15  0.0000000  0  8G 9G14G22G18G21G 3G26G15
  22613624.4834                   22613624.5974  -11458673.87849  -8928827.42446
  24898369.6724                                    -682639.65048   -531925.76344
  21629902.9964                   21629900.6394  -18756995.31649 -14615818.41647
  20270908.0574                   20270906.5134  -26531226.49549 -20673653.40247
  20601842.9304                   20601841.0034  -25152228.01549 -19599110.65447
  22900681.0714                   22900682.7854   -3698914.71749  -2882267.44546
  22425776.5564                   22425775.3274  -11564134.03349  -9010979.02046
  20511397.0504                   20511397.3724  -24212533.96749 -18866887.08147
 04  3  1  1 15 30.0000000  0  8G 9G14G22G18G21G 3G26G15
  22598140.8404                   22598141.2304  -11540040.21049  -8992229.68746
  24876770.0084                                    -796150.93248   -620376.06444
  21617894.1354                   21617891.6574  -18820103.46049 -14664993.50447
  20269708.1974                   20269706.3214  -26537531.68849 -20678566.60347
  20612247.4754                   20612245.6284  -25097552.00649 -19556505.96347
  22900929.6954                   22900931.1514   -3697605.83349  -2881247.48446
  22444698.1624                   22444696.5694  -11464701.59149  -8933499.23646
  20501971.4554                   20501971.4884  -24262066.15549 -18905483.56047
 04  3  1  1 16  0.0000000  0  8G 9G14G22G18G21G 3G26G15
  22582738.2164                   22582739.6364  -11620980.05549  -9055299.59146
  24855184.3184                                    -909586.67148
  21605933.1704                   21605930.4494  -18882959.07249 -14713971.80747
  20268578.3724                   20268576.4944  -26543470.49149 -20683194.26147
  20622745.0194                   20622743.2644  -25042387.49549 -19513520.62047
  22901288.2604                   22901289.5114   -3695721.42549  -2879779.06446
  22463674.9504                   22463673.0684  -11364980.58449  -8855794.57346
  20492636.7734                   20492636.7624  -24311120.39449 -18943707.57647
 04  3  1  1 16 30.0000000  0  8G 9G14G22G18G21G 3G26G15
  22567421.0904                   22567421.7904  -11701475.29049  -9118023.04246
  24833617.1284                   24833619.0534   -1022930.01648   -797086.93944
  21594023.0214                   21594020.3194  -18945546.75349 -14762741.33647
  20267520.6334                   20267518.8474  -26549028.41649 -20687525.11847
  20633337.8744                   20633336.5644  -24986720.39449 -19470143.64447
  22901759.6444                   22901760.2644   -3693246.96149  -2877850.87246
  22482708.6484                   22482706.8904  -11264958.93449  -8777855.65646
  20483396.1134                   20483395.9464  -24359679.69449 -18981545.92047
 04  3  1  1 17  0.0000000  0  8G 9G14G22G18G21G 3G26G15
  22552185.5094                   22552185.1554  -11781536.58949  -9180408.38446
  24812063.2394                                   -1136193.23548   -885343.97544
  21582161.4604                   21582159.1594  -19007879.83249 -14811312.46547
  20266532.9834                   20266531.1544  -26554218.97049 -20691569.67547
  20644023.6674                   20644022.5174  -24930565.48449 -19426386.54647
  22902339.4434                   22902341.0374   -3690196.93949  -2875474.21446
  22501795.6634                   22501793.8704  -11164653.59849  -8699695.68046
  20474247.3014                   20474247.5044  -24407755.87349 -19019007.78547
 04  3  1  1 17 30.0000000  0  8G 9G14G22G18G21G 3G26G15
  22537032.9564                   22537033.0454  -11861163.06549  -9242454.88846
  24790526.2934                                   -1249376.52148
  21570348.6544                   21570346.0084  -19069959.96049 -14859686.48447
  20265614.7124                   20265612.9204  -26559044.80849 -20695330.04047
  20654801.6994                   20654800.2414  -24873926.24449 -19382252.04047
  22903029.3234                   22903030.1264   -3686573.91649  -2872651.08446
  22520936.5474                   22520934.6414  -11064069.58049  -8621318.54146
  20465190.2974                   20465190.5784  -24455349.20249 -19056093.39947
 04  3  1  1 18  0.0000000  0  8G 9G14G22G18G21G 3G26G15
  22521965.2554                   22521965.8274  -11940344.55349  -9304154.66046
  24769003.9784                                   -1362471.06348  -1061664.30544
  21558583.9464                   21558581.4484  -19131779.24449 -14907857.25547
  20264767.0744                   20264765.2864  -26563498.33649 -20698800.33147
  20665673.2344                   20665671.4154  -24816796.42949 -19337735.28147
  22903829.1634                   22903831.2754   -3682371.27149  -2869376.27746
  22540130.9154                   22540128.9894  -10963202.97949  -8542721.20246
  20456226.9154                   20456227.0844  -24502450.90949 -19092795.93747
 04  3  1  1 18 30.0000000  0  8G 9G14G22G18G21G 3G26G15
  22506985.6444                   22506986.1694  -12019063.52149  -9365494.00946
  24747501.3474                   24747504.5994   -1475460.73048  -1149708.19444
  21546872.2394                   21546870.0344  -19193322.82949 -14955813.20847
  20263993.2384                   20263991.3484  -26567565.58749 -20701969.58347
  20676640.7304                   20676638.9434  -24759162.60949 -19292825.79847
  22904742.0644                   22904743.2884   -3677575.13649  -2865639.00846
  22559380.4814                   22559379.5134  -10862042.17149  -8463894.62046
  20447360.8474                   20447360.7224  -24549044.55249 -19129102.60747
 04  3  1  1 19  0.0000000  0  8G 9G14G22G18G21G 3G26G15
  22492089.9284                   22492090.2454  -12097339.14049  -9426487.87246
  24726017.5934                   24726015.8074   -1588366.24348  -1237686.51944
  21535209.1164                   21535206.5964  -19254612.80849 -15003571.55047
  20263288.3504                   20263286.5034  -26571269.28349 -20704855.53547
  20687699.2044                   20687697.6124  -24701048.79949 -19247542.30047
  22905762.6754                   22905764.1754   -3672208.66949  -2861457.36446
  22578682.2964                   22578680.6274  -10760612.68649  -8384858.67246
  20438587.1964                   20438587.1314  -24595150.60249 -19165029.36147
 04  3  1  1 19 30.0000000  0  8G 9G14G22G18G21G 3G26G15
  22477279.8974                   22477279.2174  -12175170.05049  -9487135.19146
  24704548.0884                   24704545.7074   -1701187.65148  -1325599.25644
  21523594.1154                   21523591.7024  -19315650.16149 -15051133.03447
  20262652.5034                   20262650.7964  -26574611.12049 -20707459.53447
  20698848.9784                   20698847.1894  -24642457.48949 -19201886.72047
  22906891.7024                   22906892.8424   -3666274.10949  -2856833.03546
  22598033.7384                   22598032.9434  -10658918.77049  -8305616.66546
  20429906.2324                   20429906.3124  -24640768.82049 -19200575.96747
 04  3  1  1 20  0.0000000  0  8G 9G14G22G18G21G 3G26G15
  22462555.5544                   22462555.5284  -12252543.20249  -9547425.79246
  24683096.8674                   24683099.7724   -1813913.24748  -1413437.41344
  21512029.4774                   21512026.3284  -19376424.37149 -15098489.47947
  20262087.1324                   20262085.3324  -26577581.36949 -20709773.96547
  20710090.9384                   20710089.2194  -24583379.97349 -19155852.27747
  22908131.5504                   22908133.4014   -3659762.10349  -2851758.73846
  22617436.0664                   22617435.2594  -10556953.70749  -8226163.37646
  20421320.3854                   20421320.4124  -24685887.32349 -19235733.16147
 04  3  1  1 20 30.0000000  0  8G 9G14G22G18G21G 3G26G15
  22447919.3704                   22447919.8264  -12329450.47749  -9607353.36546
  24661665.4024                   24661669.0754   -1926536.28448  -1501195.65744
  21500515.2594                   21500512.4344  -19436929.99249 -15145636.63747
  20261593.5284                   20261591.6214  -26580174.91949 -20711794.86547
  20721426.2774                   20721424.8564  -24523812.45149 -19109436.01847
  22909481.4704                   22909483.7614   -3652668.34049  -2846231.13646
  22636891.9584                   22636890.1654  -10454715.47749  -8146497.21446
  20412830.6554                   20412830.9144  -24730499.28649 -19270495.64647
 04  3  1  1 21  0.0000000  0  8G 9G14G22G18G21G 3G26G15
  22433373.6784                   22433373.7454  -12405893.19049  -9666918.96846
  24640252.2674                                   -2039059.18248  -1588875.91544
  21489051.6954                   21489049.1614  -19497170.54349 -15192577.25347
  20261171.0724                   20261169.1544  -26582396.04649 -20713525.55747
  20732853.9094                   20732852.0844  -24463759.76049 -19062641.69647
  22910941.0854                   22910943.2094   -3644997.58049  -2840253.95046
  22656397.5764                   22656396.1874  -10352211.00849  -8066623.60146
  20404437.2494                   20404437.3104  -24774607.18449 -19304865.34447
 04  3  1  1 21 30.0000000  0  8G 9G14G22G18G21G 3G26G15
  22418915.5704                   22418916.0914  -12481868.83449  -9726120.65546
  24618860.2384                   24618860.8364   -2151480.85448  -1676477.27344
  21477638.6014                   21477635.8744  -19557146.01849 -15239311.33047
  20260819.0214                   20260817.1474  -26584245.43849 -20714966.60847
  20744373.4644                   20744371.8444  -24403223.77749 -19015470.78147
  22912510.1104                   22912511.2604   -3636751.08249  -2833828.14146
  22675954.5304                   22675953.0384  -10249443.95649  -7986545.38346
  20396140.0634                   20396139.9244  -24818209.63749 -19338841.19547
 04  3  1  1 22  0.0000000  0  8G 9G14G22G18G21G 3G26G15
  22404546.1064                   22404545.9924  -12557379.78649  -9784960.21646
  24597486.4804                   24597486.5204   -2263804.69048  -1764002.39044
  21466275.2964                   21466272.6114  -19616861.08449 -15285842.50047
  20260536.8564                   20260535.0394  -26585728.46449 -20716122.16447
  20755983.7374                   20755981.9114  -24342211.25749 -18967928.54547
  22914188.0214                   22914187.9384   -3627934.78049  -2826958.32546
  22695559.3244                   22695558.0854  -10146422.32049  -7906268.79146
  20387938.1754                   20387938.2404  -24861310.21749 -19372426.04347
 04  3  1  1 22 30.0000000  0  8G 9G14G22G18G21G 3G26G15
  22390264.9284                   22390264.3284  -12632430.03049  -9843440.81846
  24576129.3824                   24576129.5124   -2376035.83948  -1851455.28144
  21454960.4564                   21454957.4514  -19676322.05049 -15332175.67247
  20260322.7744                   20260321.0074  -26586852.07249 -20716997.65847
  20767683.5704                   20767681.5024  -24280730.23449 -18920021.23747
  22915972.5534                   22915973.2884   -3618556.44449  -2819650.54946
  22715209.1634                   22715207.0394  -10043155.99449  -7825801.53746
  20379831.2764                   20379831.2784  -24903913.84349 -19405623.70647
 04  3  1  1 23  0.0000000  0  8G 9G14G22G18G21G 3G26G15
  22376073.8504                   22376073.7694  -12707003.15649  -9901549.64646
  24554792.8694                   24554793.9434   -2488159.25948  -1938824.25244
  21443696.5024                   21443693.3594  -19735515.13049 -15378300.10547
  20260179.8484                   20260178.1324  -26587603.05549 -20717582.78647
  20779474.3464                   20779472.5454  -24218768.43149 -18871739.29447
  22917866.5174                   22917867.7634   -3608603.55249  -2811895.10446
  22734909.5124                   22734908.3874   -9939634.62949  -7745135.54446
  20371821.0854                   20371821.1014  -24946005.65549 -19438422.54847
 04  3  1  1 23 30.0000000  0  8G 9G14G22G18G21G 3G26G15
  22361974.9984                   22361975.4664  -12781090.72449  -9959280.16146
  24533478.5174                   24533479.5904   -2600168.00548  -2026103.84644
  21432484.4584                   21432481.5284  -19794434.41049 -15424211.18347
  20260108.8414                   20260107.0614  -26587976.09149 -20717873.40847
  20791357.2054                   20791355.4164  -24156321.63349 -18823079.43847
  22919870.7024                   22919872.5084   -3598071.38549  -2803688.27246
  22754657.2034                   22754655.9344   -9835855.68149  -7664268.84846
  20363910.2134                   20363909.9094  -24987578.18149 -19470816.73947
 04  3  1  1 24  0.0000000  0  8G 9G14G22G18G21G 3G26G15
  22347970.2574                   22347971.0634  -12854684.78949 -10016626.09346
  24512186.7824                   24512188.3044   -2712055.17848  -2113288.71044
  21421325.4274                   21421322.7724  -19853074.59949 -15469904.80547
  20260110.3974                   20260108.6754  -26587966.64649 -20717865.98947
  20803333.5924                   20803331.5184  -24093386.52549 -18774039.08147
  22921986.2624                   22921986.9284   -3586956.05749  -2795027.00946
  22774454.9784                   22774453.3414   -9731817.34249  -7583200.03146
  20356099.3184                   20356099.1704  -25028624.69849 -19502801.02347
 04  3  1  1 24 30.0000000  0  8G 9G14G22G18G21G 3G26G15
  22334055.4124                   22334055.8554  -12927811.55249 -10073607.90046
  24490912.4924                   24490915.6524   -2823848.58448  -2200400.43944
  21410214.2684                   21410211.7004  -19911464.00949 -15515403.00547
  20260179.6204                   20260177.6854  -26587603.72249 -20717583.13247
  20815396.3944                   20815394.7324  -24029993.59149 -18724641.97547
  22924206.7104                   22924207.3434   -3575287.48449  -2785934.61546
  22794296.8684                   22794294.9304   -9627551.59549  -7501954.00846
  20348383.1614                   20348383.2174  -25069172.85549 -19534396.94847
 04  3  1  1 25  0.0000000  0  8G 9G14G22G18G21G 3G26G15
  22320234.2134                   22320234.4264  -13000441.74749 -10130202.77746
  24469662.6544                   24469665.1214   -2935519.87748  -2287417.00144
  21399156.0134                   21399152.6934  -19969575.92049 -15560684.95547
  20260320.9064                   20260318.9464  -26586861.01149 -20717004.34847
  20827552.0144                   20827549.9694  -23966117.46149 -18674868.35847
  22926537.3374                   22926538.1794   -3563040.02449  -2776391.12646
  22814185.5564                   22814184.4294   -9523034.67849  -7420512.30146
  20340767.3394                   20340767.3574  -25109194.30249 -19565582.45247
 04  3  1  1 25 30.0000000  0  8G 9G14G22G18G21G 3G26G15
  22306505.9634                   22306507.0794  -13072582.92349 -10186416.58146
  24448433.8754                   24448435.5114   -3047077.43648  -2374344.94144
  21388148.6834                   21388145.5584  -20027419.94049 -15605758.16647
  20260532.3024                   20260530.2884  -26585748.93649 -20716137.74747
  20839796.9554                   20839795.1464  -23901769.67149 -18624727.21047
  22928974.8794                   22928976.3274   -3550224.92849  -2766405.31646
  22834119.5424                   22834117.5934   -9418279.97749  -7338885.28946
  20333250.1644                   20333249.9894  -25148697.78549 -19596364.35947
 04  3  1  1 26  0.0000000  0  8G 9G14G22G18G21G 3G26G15
  22292872.4184                   22292872.2274  -13144226.38649 -10242242.53346
  24427227.1324                   24427229.4664   -3158514.36048  -2461178.86544
  21377193.0814                   21377189.8874  -20084989.96049 -15650617.86947
  20260815.2654                   20260813.3904  -26584262.48349 -20714979.42947
  20852132.2844                   20852131.0544  -23836945.81449 -18574215.10247
  22931522.6854                   22931524.3574   -3536837.42249  -2755973.47946
  22854098.8894                   22854097.4874   -9313284.96849  -7257071.03546
  20325832.6924                   20325832.7284  -25187675.94349 -19626736.88547
 04  3  1  1 26 30.0000000  0  8G 9G14G22G18G21G 3G26G15
  22279333.8354                   22279333.2824  -13215375.68249 -10297683.45246
  24406042.5954                   24406044.3694   -3269835.18748  -2547922.30144
  21366288.7614                   21366285.8554  -20142291.94749 -15695268.71047
  20261168.2064                   20261166.1594  -26582407.83549 -20713534.20247
  20864557.4214                   20864555.5434  -23771653.96249 -18523338.32947
  22934178.6334                   22934179.8974   -3522885.04149  -2745101.47346
  22874123.7844                   22874123.0114   -9208058.63149  -7175076.51046
  20318514.3414                   20318514.1464  -25226133.50149 -19656703.72247
 04  3  1  1 27  0.0000000  0  8G 9G14G22G18G21G 3G26G15
  22265887.9674                   22265887.6694  -13286031.14449 -10352739.56346
  24384881.1734                   24384885.3544   -3381041.15448  -2634576.18744
  21355435.0674                   21355432.2444  -20199328.18949 -15739712.47247
  20261590.4554                   20261588.4634  -26580188.35849 -20711804.67247
  20877069.9664                   20877068.3934  -23705898.21949 -18472100.07347
  22936940.9014                   22936942.4364   -3508371.71049  -2733792.35846
  22894190.9514                   22894190.0804   -9102607.04749  -7092906.48546
  20311295.0824                   20311294.9754  -25264071.80849 -19686265.96847
 04  3  1  1 27 30.0000000  0  8G 9G14G22G18G21G 3G26G15
  22252538.7234                   22252538.6134  -13356182.39749 -10407402.79146
  24363743.9674                   24363744.5864   -3492123.42748  -2721133.68044
  21344633.4404                   21344630.5504  -20256090.87849 -15783943.04447
  20262083.6414                   20262081.5444  -26577596.54149 -20709785.00047
  20889672.1464                   20889670.7094  -23639672.59549 -18420495.67547
  22939809.7284                   22939810.9654   -3493291.02349  -2722041.15046
  22914299.9284                   22914298.7454   -8996925.58748  -7010557.34245
  20304176.2014                   20304176.1024  -25301481.65449 -19715416.45747
 04  3  1  1 28  0.0000000  0  8G 9G14G22G18G21G 3G26G15
  22239287.2354                   22239286.4334  -13425817.44049 -10461663.78046
  24342631.8834                   24342632.8634   -3603071.02748  -2807586.28544
  21333886.0534                   21333883.3134  -20312570.61249 -15827953.13847
  20262649.4664                   20262647.3914  -26574623.63249 -20707468.39047
  20902365.7074                   20902363.7624  -23572969.66349 -18368519.34847
  22942789.0114                   22942790.2714   -3477635.26949  -2709841.82246
  22934455.2874                   22934454.1934   -8891008.00548  -6928024.19745
  20297159.9984                   20297159.7984  -25338352.34749 -19744146.83847
 04  3  1  1 28 30.0000000  0  8G 9G14G22G18G21G 3G26G15
  22226131.9274                   22226130.8054  -13494950.73549 -10515533.78146
  24321541.3314                   24321544.2544   -3713899.73548  -2893946.19544
  21323188.7694                   21323185.8684  -20368783.80749 -15871755.55847
  20263284.3234                   20263282.0994  -26571287.01949 -20704868.38647
  20915145.8284                   20915143.9924  -23505807.81249 -18316185.43347
  22945874.6724                   22945875.2734   -3461422.61149  -2697208.55146
  22954652.3514                   22954650.3844   -8784874.44449  -6845322.76345
  20290243.1044                   20290242.9644  -25374699.39849 -19772469.19647
 04  3  1  1 29  0.0000000  0  8G 9G14G22G18G21G 3G26G15
  22213074.7844                   22213073.9764  -13563565.94349 -10569000.07846
  24300476.5444                   24300478.3454   -3824593.98448  -2980201.32644
  21312545.0524                   21312542.0604  -20424716.39849 -15915339.32247
  20263990.9534                   20263988.5904  -26567573.34849 -20701974.57147
  20928015.9334                   20928014.2014  -23438174.89849 -18263484.45047
  22949067.9134                   22949068.6404   -3444640.34349  -2684131.44246
  22974891.7084                   22974890.7524   -8678514.12549  -6762444.63145
  20283429.0424                   20283429.0014  -25410507.76149 -19800371.81147
 04  3  1  1 29 30.0000000  0  8G 9G14G22G18G21G 3G26G15
  22200112.8084                   22200112.8594  -13631680.64049 -10622076.37446
  24279434.8304                   24279437.4054   -3935172.35748  -3066366.17344
  21301950.9494                   21301947.6774  -20480387.98149 -15958719.70447
  20264765.6214                   20264763.2684  -26563502.64849 -20698802.53947
  20940971.8524                   20940970.1674  -23370092.61049 -18210433.31247
  22952365.5334                   22952367.2564   -3427309.71149  -2670627.00346
  22995170.9804                   22995169.4774   -8571950.07149  -6679407.73045
  20276714.1344                   20276713.7594  -25445795.77449 -19827868.95747
 04  3  1  1 30  0.0000000  0  8G 9G14G22G18G21G 3G26G15
  22187250.4284                   22187249.1094  -13699273.69549 -10674746.22146
  24258417.0314                   24258419.6884   -4045615.16748  -3152425.37644
  21291410.2104                   21291407.1584  -20535780.05049 -16001882.27347
  20265611.3554                   20265609.1874  -26559057.16349 -20695338.47547
  20954016.1534                   20954014.4644  -23301544.12649 -18157018.91347
  22955771.0874                   22955772.1034   -3409413.77049  -2656682.05346
  23015491.8364                   23015490.1984   -8465166.85049  -6596200.04945
  20270101.5094                   20270101.4094  -25480543.97149 -19854945.47547
 04  3  1  1 30 30.0000000  0  8G 9G14G22G18G21G 3G26G15
  22174486.5934                   22174485.2464  -13766350.05849 -10727013.43346
  24237425.6134                   24237426.2264   -4155928.57348  -3238383.71344
  21280921.2354                   21280918.0344  -20590899.79149 -16044832.61747
  20266527.0414                   20266525.1034  -26554245.13549 -20691588.80447
  20967147.3484                   20967145.4904  -23232538.79049 -18103248.52447
  22959282.6724                   22959283.1874   -3390961.63249  -2642303.73846
  23035850.6234                   23035849.7054   -8358175.45249  -6512830.15445
  20263590.6694                   20263590.5234  -25514758.58049 -19881606.20947
 04  3  1  1 31  0.0000000  0  8G 9G14G22G18G21G 3G26G15
  22161821.3294                   22161820.4364  -13832900.49449 -10778870.79746
  24216459.1314                   24216461.0274   -4266104.25048  -3324234.75945
  21270485.5834                   21270482.3984  -20645740.17349 -16087565.25947
  20267513.6264                   20267511.4964  -26549060.14849 -20687548.51647
  20980366.5124                   20980364.5984  -23163071.51749 -18049118.18247
  22962900.7364                   22962901.6444   -3371947.92249  -2627487.84346
  23056249.5554                   23056248.9394   -8250972.20348  -6429295.22345
  20257183.3484                   20257182.7844  -25548431.38849 -19907844.77147
 04  3  1  1 31 30.0000000  0  8G 9G14G22G18G21G 3G26G15
  22149258.1714                   22149257.6994  -13898924.05349 -10830317.61146
  24195519.3294                   24195520.7604   -4376142.50748  -3409978.69345
  21260102.2904                   21260098.9614  -20700302.46549 -16130081.19247
  20268571.1044                   20268568.8714  -26543503.74349 -20683218.82547
  20993673.3694                   20993671.3254  -23093145.37649 -17994630.28047
  22966624.9214                   22966625.7724   -3352375.24349  -2612236.37146
  23076690.4984                   23076689.2544   -8143561.28949  -6345598.42345
  20250878.7434                   20250878.4874  -25581562.50749 -19933661.25447
 04  3  1  1 32  0.0000000  0  8G 9G14G22G18G21G 3G26G15
  22136793.2964                   22136792.7954  -13964423.02449 -10881355.66546
  24174604.8254                   24174607.2994   -4486046.08948  -3495617.69845
  21249771.6844                   21249768.4974  -20754590.75349 -16172383.56347
  20269697.9524                   20269695.8894  -26537581.05449 -20678603.69147
  21007065.7284                   21007063.8004  -23022766.81849 -17939789.84747
  22970454.9744                   22970456.6894   -3332249.65249  -2596554.05946
  23097168.9724                   23097168.1904   -8035950.57949  -6261745.97245
  20244676.3564                   20244676.1624  -25614155.12349 -19959058.12647
 04  3  1  1 32 30.0000000  0  8G 9G14G22G18G21G 3G26G15
  22124430.9584                   22124431.1664  -14029387.15849 -10931976.98646
  24153719.5434                   24153720.3054   -4595806.00048  -3581144.73944
  21239494.4314                   21239491.1354  -20808597.20549 -16214466.34147
  20270896.2084                   20270894.1214  -26531284.79149 -20673697.44947
  21020544.9624                   21020543.2934  -22951929.82549 -17884592.19347
  22974390.7674                   22974392.4374   -3311565.17149  -2580436.24046
  23117684.4974                   23117683.3474   -7928135.13448  -6177733.96645
  20238578.4544                   20238578.4464  -25646200.11249 -19984028.28247
 04  3  1  1 33  0.0000000  0  8G 9G14G22G18G21G 3G26G15
  22112169.9674                   22112169.6134  -14093820.19949 -10982184.47346
  24132859.6384                   24132861.9154   -4705427.31648  -3666563.80145
  21229269.7244                   21229266.4044  -20862327.83149 -16256334.22147
  20272163.9794                   20272161.8124  -26524621.88449 -20668505.53647
  21034111.2094                   21034109.0694  -22880642.39049 -17829043.52947
  22978432.0744                   22978433.4134   -3290329.52749  -2563888.93546
  23138238.5724                   23138238.0994   -7820124.47248  -6093569.85745
  20232583.8954                   20232583.4844  -25677702.65849 -20008575.74547
 04  3  1  1 33 30.0000000  0  8G 9G14G22G18G21G 3G26G15
  22100011.4284                   22100011.0774  -14157716.82749 -11031973.98546
  24112026.3274                   24112028.4874   -4814905.60348  -3751871.42945
  21219098.3244                   21219094.8364  -20915779.49049 -16297984.76347
  20273502.2014                   20273500.0964  -26517589.79449 -20663025.93747
  21047762.5264                   21047760.6314  -22808903.57949 -17773143.13047
  22982578.3784                   22982579.2904   -3268541.21049  -2546910.99146
  23158829.7284                   23158828.2014   -7711918.75748  -6009253.75745
  20226693.1554                   20226692.6194  -25708658.52649 -20032697.17447
 04  3  1  1 34  0.0000000  0  8G 9G14G22G18G21G 3G26G15
  22087953.6924                   22087953.9914  -14221075.02249 -11081343.95346
  24091220.3554                   24091222.2944   -4924239.77648  -3837066.73245
  21208980.0064                   21208976.3354  -20968952.10949 -16339417.87747
  20274910.3444                   20274908.0894  -26510189.36749 -20657259.30847
  21061499.0564                   21061497.2984  -22736715.15449 -17716892.38947
  22986829.6834                   22986830.3564   -3246202.19649  -2529503.93546
  23179457.4164                   23179456.2634   -7603521.19248  -5924788.15045
  20220906.2074                   20220906.1284  -25739066.70349 -20056391.82347
 04  3  1  1 34 30.0000000  0  8G 9G14G22G18G21G 3G26G15
  22076000.7424                   22075999.8094  -14283890.51549 -11130291.00946
  24070441.7684                   24070444.2404   -5033426.23248  -3922146.93545
  21198914.8534                   21198911.4364  -21021843.45749 -16380631.81647
  20276388.9964                   20276386.7584  -26502418.77649 -20651204.28747
  21075321.9054                   21075320.0324  -22664077.23749 -17660291.39747
  22991185.2104                   22991186.6514   -3223312.02249  -2511667.39346
  23200120.7604                   23200119.6114   -7494932.83248  -5840173.89645
  20215224.5514                   20215224.6134  -25768923.87049 -20079657.12347
 04  3  1  1 35  0.0000000  0  8G 9G14G22G18G21G 3G26G15
  22064153.0204                   22064152.1394  -14346150.02049 -11178804.84746
  24049694.6094                   24049697.1544   -5142452.79948  -4007102.54745
  21188905.4144                   21188902.0894  -21074442.20149 -16421617.75047
  20277940.4794                   20277938.1744  -26494267.59749 -20644852.79147
  21089231.9594                   21089229.8874  -22590980.75949 -17603333.08247
  22995647.0774                   22995648.3474   -3199861.34749  -2493394.10546
  23220821.6064                   23220819.4384   -7386145.67448  -5755404.74445
  20209650.2974                   20209650.1894  -25798218.25849 -20102483.90647
 04  3  1  1 35 30.0000000  0  8G 9G14G22G18G21G 3G26G15
  22052410.8874                   22052410.5814  -14407854.07549 -11226885.85646
  24028977.6954                   24028978.7004   -5251320.86648  -4091934.65545
  21178951.0674                   21178947.7004  -21126751.23749 -16462377.96347
  20279563.3034                   20279561.0694  -26485739.19049 -20638207.34647
  21103228.2694                   21103226.1914  -22517430.10349 -17546020.87347
  23000215.8024                   23000216.5744   -3175854.64349  -2474687.53646
  23241559.9064                   23241558.2644   -7277165.78048  -5670485.36545
  20204182.5694                   20204182.0754  -25826951.42349 -20124873.35447
 04  3  1  1 36  0.0000000  0  8G 9G14G22G18G21G 3G26G15
  22040770.4854                   22040770.0824  -14469025.16949 -11274551.56646
  24008287.2384                   24008288.5984   -5360054.10348  -4176661.70145
  21169047.3034                   21169044.0334  -21178794.94149 -16502931.45747
  20281253.1934                   20281250.9834  -26476858.84249 -20631287.62047
  21117305.6924                   21117303.7914  -22443452.30349 -17488375.81747
  23004884.5464                   23004885.1934   -3151318.27549  -2455568.26246
  23262329.7724                   23262328.5284   -7168020.77448  -5585437.32845
  20198817.1304                   20198817.0054  -25855146.90349 -20146843.81147
 04  3  1  1 36 30.0000000  0  8G 9G14G22G18G21G 3G26G15
  22029236.5674                   22029235.8014  -14529639.09849 -11321783.12946
  23987626.0204                   23987627.6954   -5468628.87848  -4261265.25745
  21159198.6974                   21159195.0324  -21230551.07849 -16543260.87847
  20283014.4834                   20283012.0904  -26467605.27149 -20624077.03447
  21131468.5084                   21131466.5314  -22369027.03549 -17430382.08947
  23009658.1374                   23009659.8204   -3126231.91249  -2436020.41146
  23283133.5894                   23283132.5254   -7058691.77848  -5500245.90245
  20193558.1244                   20193558.2274  -25882781.69749 -20168377.37147
 04  3  1  1 37  0.0000000  0  8G 9G14G22G18G21G 3G26G15
  22017807.8364                   22017807.0154  -14589692.59949 -11368578.00046
  23966995.6704                   23966996.6644   -5577043.31348  -4345743.86145
  21149404.6554                   21149401.4464  -21282018.79649 -16583365.58447
  20284846.0494                   20284843.7874  -26457977.74849 -20616575.02747
  21145715.7234                   21145713.7014  -22294155.45949 -17372040.58347
  23014536.6084                   23014537.3824   -3100596.65949  -2416044.85246
  23303973.2504                   23303972.5814   -6949181.05348  -5414912.88045
  20188406.6994                   20188406.5124  -25909853.88449 -20189472.53547
 04  3  1  1 37 30.0000000  0  8G 9G14G22G18G21G 3G26G15
  22006486.7604                   22006486.0074  -14649186.88749 -11414937.11546
  23946395.4044                   23946396.8064   -5685299.26748  -4430098.99845
  21139664.9494                   21139661.7964  -21333201.00849 -16623247.83247
  20286748.6154                   20286746.4644  -26447980.31749 -20608784.74747
  21160047.2164                   21160045.2474  -22218842.77149 -17313355.36347
  23019517.6084                   23019519.9094   -3074417.53649  -2395645.49146
  23324845.8404                   23324843.6944   -6839494.83348  -5329443.10945
  20183361.5194                   20183361.2914  -25936365.63449 -20210130.99447
 04  3  1  1 38  0.0000000  0  8G 9G14G22G18G21G 3G26G15
  21995269.1794                   21995268.3134  -14708134.35449 -11460870.13346
  23925821.8124                   23925822.8234   -5793410.00848  -4514340.95145
  21129976.9144                   21129973.4674  -21384111.94649 -16662918.67547
  20288718.3804                   20288716.2524  -26437628.23649 -20600718.10547
  21174459.1724                   21174456.9484  -22143105.77549 -17254339.50847
  23024600.4234                   23024600.6044   -3047710.93449  -2374835.10946
  23345749.0484                   23345747.9864   -6729650.94748  -5243850.51645
  20178420.6564                   20178420.3044  -25962330.47749 -20230363.30547
 04  3  1  1 38 30.0000000  0  8G 9G14G22G18G21G 3G26G15
  21984159.8614                   21984159.6544  -14766515.57949 -11506361.90846
  23905281.0924                   23905282.2534   -5901356.96348  -4598455.30245
  21120344.0374                   21120340.5534  -21434734.21849 -16702364.55947
  20290758.8434                   20290756.3774  -26426904.75349 -20592362.08747
  21188955.1834                   21188953.4344  -22066928.70149 -17194980.72847
  23029785.8414                   23029786.8414   -3020461.18849  -2353601.50246
  23366685.0574                   23366683.6974   -6619634.69848  -5158123.56745
  20173587.1684                   20173586.6734  -25987730.06549 -20250155.16747
 04  3  1  1 39  0.0000000  0  8G 9G14G22G18G21G 3G26G15
  21973158.9824                   21973158.7054  -14824324.38749 -11551407.65346
  23884770.2564                   23884770.3994   -6009134.58348  -4682437.71945
  21110766.6774                   21110763.2744  -21485063.48849 -16741582.10347
  20292870.9234                   20292868.4404  -26415806.04449 -20583713.68247
  21203535.4684                   21203533.5544  -21990309.73849 -17135277.63347
  23035074.7254                   23035075.7634   -2992666.00549  -2331942.86346
  23387652.9364                   23387651.5144   -6509445.17148  -5072261.60045
  20168862.0224                   20168861.7424  -26012559.12749 -20269502.47247
 04  3  1  1 39 30.0000000  0  8G 9G14G22G18G21G 3G26G15
  21962266.0554                   21962265.2054  -14881566.13649 -11596011.52046
  23864291.7524                   23864291.6924   -6116749.09948  -4766293.08045
  21101243.7624                   21101240.3834  -21535106.90249 -16780576.92147
  20295052.5834                   20295050.2764  -26404340.32549 -20574779.32547
  21218198.0844                   21218196.0864  -21913258.43049 -17075237.63647
  23040467.0234                   23040466.5194   -2964334.72949  -2309866.50846
  23408652.1344                   23408650.8294   -6399092.99748  -4986272.91445
  20164244.8324                   20164244.6064  -26036824.14449 -20288410.25347
 04  3  1  1 40  0.0000000  0  8G 9G14G22G18G21G 3G26G15
  21951483.5234                   21951482.8774  -14938230.71549 -11640165.64546
  23843845.5864                   23843846.3564   -6224191.28148  -4850014.12845
  21091776.7204                   21091773.0984  -21584856.64849 -16819342.94147
  20297305.5754                   20297303.5334  -26392500.00949 -20565553.10047
  21232944.0324                   21232941.7174  -21835768.40549 -17014855.79047
  23045960.9844                   23045961.8794   -2935461.39649  -2287367.77046
  23429682.6644                   23429681.7284   -6288573.00748  -4900153.45445
  20159736.3534                   20159736.0564  -26060516.13149 -20306871.52347
 04  3  1  1 40 30.0000000  0  8G 9G14G22G18G21G 3G26G15
  21940807.4634                   21940806.2684  -14994334.41449 -11683882.73846
  23823429.3014                   23823430.6394   -6331478.19548  -4933614.17645
  21082362.1954                   21082358.5524  -21634330.58549 -16857894.04747
  20299626.6514                   20299624.1784  -26380304.34549 -20556049.97947
  21247769.1994                   21247766.5764  -21757860.29749 -16954148.16747
  23051554.3504                   23051555.0234   -2906066.13549  -2264462.33746
  23450741.4814                   23450741.1524   -6177906.63048  -4813919.96745
  20155333.7024                   20155333.4824  -26083652.29149 -20324899.68247
 04  3  1  1 41  0.0000000  0  8G 9G14G22G18G21G 3G26G15
  21930243.3604                   21930242.3134  -15049847.23749 -11727139.40246
  23803047.8624                   23803048.4414   -6438580.49048  -5017070.39445
  21073005.0094                   21073001.4804  -21683500.53549 -16896208.26047
  20302020.3834                   20302017.9124  -26367725.49849 -20546248.26647
  21262679.0784                   21262676.6334  -21679508.51949 -16893094.82247
  23057252.7614                   23057253.4624   -2876123.11049  -2241130.08046
  23471834.2924                   23471832.2544   -6067068.86548  -4727552.96545
  20151042.0414                   20151041.9964  -26106204.05949 -20342472.47047
 04  3  1  1 41 30.0000000  0  8G 9G14G22G18G21G 3G26G15
  21919786.9014                   21919786.5264  -15104793.32349 -11769954.45446
  23782697.5414                   23782699.7914   -6545523.36948  -5100402.38345
  21063701.3894                   21063697.6954  -21732392.70549 -16934306.03047
  20304481.5854                   20304479.2424  -26354790.75849 -20536169.22047
  21277668.4524                   21277666.3604  -21600740.90049 -16831717.43747
  23063049.3044                   23063049.8474   -2845660.36949  -2217392.84546
  23492953.2754                   23492950.6074   -5956088.93548  -4641075.09445
  20146856.9064                   20146857.0004  -26128196.83049 -20359609.67647
 04  3  1  1 42  0.0000000  0  8G 9G14G22G18G21G 3G26G15
  21909444.6834                   21909443.7854  -15159143.92449 -11812305.51546
  23762382.1164                   23762384.1424   -6652278.82148  -5183588.35745
  21054455.1644                   21054451.6494  -21780980.27149 -16972166.45647
  20307015.7444                   20307013.4674  -26341473.66749 -20525792.24647
  21292741.0104                   21292738.9254  -21521533.14849 -16769997.09847
  23068949.3904                   23068951.3594   -2814653.28749  -2193231.45546
  23514102.5924                   23514101.5574   -5844942.98348  -4554467.87945
  20142783.6914                   20142783.2854  -26149602.97249 -20376289.74447
 04  3  1  1 42 30.0000000  0  8G 9G14G22G18G21G 3G26G15
  21899212.4044                   21899211.3144  -15212916.76349 -11854206.37546
  23742100.0964                   23742100.5864   -6758864.55548  -5266642.07145
  21045263.9674                   21045260.4014  -21829282.05049 -17009804.15647
  20309618.8944                   20309616.6684  -26327794.14149 -20515132.86547
  21307893.3814                   21307891.5634  -21441906.33649 -16707950.21547
  23074949.6314                   23074949.7524   -2783123.04149  -2168662.41945
  23535280.9154                   23535279.1854   -5733653.40948  -4467748.77345
  20138818.3144                   20138817.8904  -26170440.80249 -20392526.93147
 04  3  1  1 43  0.0000000  0  8G 9G14G22G18G21G 3G26G15
  21889089.2444                   21889088.8354  -15266113.88949 -11895658.62946
  23721849.3114                   23721849.9604   -6865283.80848  -5349566.04645
  21036125.6114                   21036122.2834  -21877302.27749 -17047222.47047
  20312290.0724                   20312287.8004  -26313756.87449 -20504194.70047
  21323124.2474                   21323122.3884  -21361867.36049 -16645582.16347
  23081047.7024                   23081048.3824   -2751075.96049  -2143690.63246
  23556485.6924                   23556484.1524   -5622227.41348  -4380923.33045
  20134960.3494                   20134960.1994  -26190713.66349 -20408323.87447
 04  3  1  1 43 30.0000000  0  8G 9G14G22G18G21G 3G26G15
  21879078.1344                   21879078.1534  -15318717.11649 -11936648.09746
  23701633.0124                   23701633.8084   -6971518.91248  -5432346.55345
  21027044.2584                   21027040.9134  -21925024.54649 -17084408.62247
  20315032.1054                   20315029.8264  -26299346.57149 -20492965.84247
  21338435.7794                   21338433.8054  -21281401.77049 -16582881.68147
  23087247.0384                   23087248.2454   -2718497.65649  -2118304.93146
  23577717.0834                   23577715.1424   -5510651.63248  -4293981.17245
  20131213.1514                   20131212.9024  -26210404.54649 -20423667.35947
 04  3  1  1 44  0.0000000  0  8G 9G14G22G18G21G 3G26G15
  21869179.3144                   21869178.5444  -15370739.98149 -11977185.33946
  23681450.0014                   23681450.0184   -7077584.23948  -5514994.76545
  21018016.9354                   21018013.2874  -21972464.19849 -17121374.54147
  20317842.2064                   20317839.8074  -26284579.31449 -20481458.84347
  21353825.7634                   21353823.6064  -21200527.07749 -16519862.43047
  23093544.8854                   23093546.0354   -2685405.78149  -2092519.05046
  23598975.1594                   23598974.1764   -5398944.43448  -4206936.60945
  20127574.3054                   20127573.8234  -26229528.16149 -20438568.83047
 04  3  1  1 44 30.0000000  0  8G 9G14G22G18G21G 3G26G15
  21859394.2974                   21859393.1084  -15422159.45549 -12017252.40746
  23661303.0184                   23661304.5214   -7183457.41948  -5597493.25045
  21009047.5274                   21009043.8874  -22019599.95049 -17158103.67647
  20320724.2204                   20320721.8864  -26269434.47249 -20469657.63047
  21369297.5754                   21369295.6284  -21119224.29549 -16456509.59847
  23099942.7674                   23099944.6564   -2651781.04249  -2066317.93446
  23620261.2574                   23620260.6764   -5287087.93248  -4119775.70945
  20124047.1014                   20124046.5934  -26248062.54449 -20453011.16347
 04  3  1  1 45  0.0000000  0  8G 9G14G22G18G21G 3G26G15
  21849723.8904                   21849722.8154  -15472978.10649 -12056851.31846
  23641191.4584                   23641192.2164   -7289141.35048  -5679844.25545
  21000134.8334                   21000131.0264  -22066435.81549 -17194599.13447
  20323676.6704                   20323674.2944  -26253916.68549 -20457565.82147
  21384849.1064                   21384847.2904  -21037499.87549 -16392828.23947
  23106441.7694                   23106442.6894   -2617630.02249  -2039706.71646
  23641573.1614                   23641571.5924   -5175088.95348  -4032503.78445
  20120631.8944                   20120631.3164  -26266011.08949 -20466997.01147
 04  3  1  1 45 30.0000000  0  8G 9G14G22G18G21G 3G26G15
  21840166.0914                   21840165.1454  -15523204.04849 -12095988.37846
  23621114.1324                   23621115.1874   -7394644.65248  -5762054.50945
  20991277.4904                   20991273.7194  -22112981.39549 -17230868.40247
  20326698.8224                   20326696.6654  -26238036.71449 -20445191.80747
  21400478.5784                   21400476.5094  -20955366.12649 -16328827.91047
  23113038.0334                   23113038.9904   -2582964.82049  -2012694.85546
  23662909.7144                   23662908.7024   -5062960.49248  -3945130.91945
  20117325.8604                   20117325.3954  -26283382.64849 -20480533.24847
 04  3  1  1 46  0.0000000  0  8G 9G14G22G18G21G 3G26G15
  21830721.6234                   21830720.9464  -15572835.14849 -12134661.93946
  23601072.1924                   23601072.3864   -7499965.87548  -5844122.87545
  20982475.4344                   20982471.8874  -22159236.31049 -17266911.16847
  20329789.5284                   20329787.5584  -26221794.76349 -20432535.74747
  21416185.3934                   21416183.7814  -20872824.70149 -16264509.90947
  23119732.6874                   23119733.3854   -2547787.26049  -1985283.76046
  23684271.5914                   23684271.3654   -4950705.17248  -3857659.29145
  20114130.0454                   20114129.7634  -26300176.56049 -20493619.35947
 04  3  1  1 46 30.0000000  0  8G 9G14G22G18G21G 3G26G15
  21821391.6354                   21821391.0914  -15621865.91149 -12172867.70346
  23581066.2944                   23581066.6694   -7605100.38348  -5926045.74945
  20973729.3294                   20973725.6924  -22205196.84949 -17302724.52347
  20332949.9684                   20332947.6954  -26205187.82349 -20419595.26847
  21431970.8084                   21431968.5614  -20789874.20349 -16199873.16347
  23126524.2884                   23126525.4904   -2512096.04249  -1957472.41546
  23705657.2474                   23705654.2084   -4838322.28748  -3770088.23245
  20111045.1144                   20111044.3594  -26316388.42949 -20506251.91947
 04  3  1  1 47  0.0000000  0  8G 9G14G22G18G21G 3G26G15
  21812174.1064                   21812172.9824  -15670301.69349 -12210609.84246
  23561094.4364                   23561096.0844   -7710053.92248  -6007827.62445
  20965038.1934                   20965034.6354  -22250869.66049 -17338313.62347
  20336178.2394                   20336175.8604  -26188224.05049 -20406376.78647
  21447831.6964                   21447830.1574  -20706524.04349 -16134924.98747
  23133411.5474                   23133411.9174   -2475900.26749  -1929267.88845
  23727066.0824                   23727064.9304   -4725821.73648  -3682425.43345
  20108069.5464                   20108068.8584  -26332024.53949 -20518435.85247
 04  3  1  1 47 30.0000000  0  8G 9G14G22G18G21G 3G26G15
  21803074.6724                   21803073.2124  -15718119.44049 -12247870.39246
  23541160.4094                   23541161.8484   -7814803.64448  -6089450.66345
  20956405.3734                   20956402.0514  -22296233.46749 -17373661.95847
  20339478.1744                   20339476.0314  -26170881.76649 -20392863.31847
  21463772.0644                   21463770.1784  -20622754.78349 -16069650.23647
  23140399.7384                   23140400.2114   -2439180.78949  -1900655.27145
  23748499.4314                   23748498.4674   -4613184.97748  -3594656.51745
  20105207.9004                   20105207.3544  -26347062.62049 -20530153.82147
 04  3  1  1 48  0.0000000  0  8G 9G14G22G18G21G 3G26G15
  21794091.3304                   21794089.8154  -15765326.09249 -12284654.75946
  23521264.3224                   23521265.4444   -7919357.12448  -6170920.75445
  20947830.1154                   20947826.5854  -22341296.69449 -17408776.10647
  20342848.2774                   20342845.9944  -26153170.95649 -20379062.67247
  21479790.8544                   21479788.8464  -20538577.40949 -16004057.48047
  23147483.6574                   23147486.1794   -2401948.34349  -1871642.97045
  23769956.5614                   23769954.9604   -4500423.66448  -3506790.54245
  20102458.5234                   20102457.9984  -26361510.95649 -20541412.26247
 04  3  1  1 48 30.0000000  0  8G 9G14G22G18G21G 3G26G15
  21785227.1604                   21785225.5374  -15811911.42149 -12320954.98246
  23501408.7104                   23501408.6754   -8023704.66548  -6252230.40545
  20939314.0644                   20939310.3674  -22386050.23949 -17443648.90647
  20346289.9624                   20346287.6214  -26135083.48249 -20364968.54447
  21495888.0144                   21495885.7704  -20453985.99749 -15938142.09046
  23154668.4524                   23154669.4334   -2364196.53449  -1842225.95245
  23791439.2774                   23791437.4144   -4387531.69448  -3418822.77845
  20099822.9544                   20099822.4334  -26375360.21049 -20552203.89047
 04  3  1  1 49  0.0000000  0  8G 9G14G22G18G21G 3G26G15
  21776476.6234                   21776475.1774  -15857893.46949 -12356785.11146
  23481587.9024                   23481588.0394   -8127864.77748  -6333394.00645
  20930852.5894                   20930848.8044  -22430514.00149 -17478295.89347
  20349799.8774                   20349797.7544  -26116639.82549 -20350596.85647
  21512060.0004                   21512058.3504  -20369002.14449 -15871920.89846
  23161946.8944                   23161947.2674   -2325947.80149  -1812421.72845
  23812942.6904                   23812942.0064   -4274532.06848  -3330771.13345
  20097297.7884                   20097297.4354  -26388629.68049 -20562543.74547
 04  3  1  1 49 30.0000000  0  8G 9G14G22G18G21G 3G26G15
  21767843.0114                   21767841.9244  -15903263.42649 -12392138.29746
  23461804.0084                   23461805.2124   -8231828.97348  -6414404.92945
  20922447.6914                   20922444.0654  -22474681.00949 -17512711.67647
  20353378.8874                   20353376.5744  -26097833.56149 -20335942.64247
  21528307.8494                   21528305.4574  -20283620.98049 -15805390.12347
  23169321.7634                   23169321.6194   -2287197.19649  -1782226.41446
  23834467.1714                   23834464.8404   -4161420.58548  -3242632.37845
  20094884.4524                   20094884.1314  -26401311.57749 -20572425.76447
 04  3  1  1 50  0.0000000  0  8G 9G14G22G18G21G 3G26G15
  21759324.3644                   21759323.7694  -15948026.94249 -12427018.92546
  23442054.9284                   23442054.9204   -8335603.61348  -6495268.17645
  20914098.1304                   20914094.4404  -22518558.01749 -17546901.50847
  20357025.0944                   20357022.7114  -26078672.21549 -20321011.72747
  21544628.6844                   21544626.2594  -20197852.26349 -15738557.36146
  23176789.4044                   23176789.4794   -2247953.97949  -1751647.26145
  23856012.1794                   23856010.2144   -4048207.10848  -3154414.14145
  20092582.0054                   20092581.5534  -26413412.43549 -20581855.02947
 04  3  1  1 50 30.0000000  0  8G 9G14G22G18G21G 3G26G15
  21750925.7234                   21750924.3734  -15992164.29649 -12461411.63646
  23422345.9524                   23422347.2104   -8439169.27248  -6575968.54645
  20905807.4544                   20905803.5424  -22562126.71849 -17580851.11547
  20360742.0454                   20360739.6184  -26059138.67949 -20305790.78847
  21561026.8684                   21561024.3884  -20111679.94849 -15671410.10746
  23184352.4854                   23184353.6474   -2208202.15349  -1720671.80645
  23877578.7594                   23877575.9904   -3934876.30648  -3066104.47745
  20090393.1294                   20090392.8074  -26424913.55749 -20590816.96847
 04  3  1  1 51  0.0000000  0  8G 9G14G22G18G21G 3G26G15
  21742647.7604                   21742646.3534  -16035665.93849 -12495308.94746
  23402681.1164                   23402681.1904   -8542516.59748  -6656498.78245
  20897576.7564                   20897573.0174  -22605378.89049 -17614554.08147
  20364531.3384                   20364529.2334  -26039225.52149 -20290274.07347
  21577503.0624                   21577501.0874  -20025098.37149 -15603943.95846
  23192014.8924                   23192015.8464   -2167936.28149  -1689295.75846
  23899168.2144                   23899165.8344   -3821423.10748  -2977699.36445
  20088320.7064                   20088320.0494  -26435806.33149 -20599304.86347
 04  3  1  1 51 30.0000000  0  8G 9G14G22G18G21G 3G26G15
  21734487.2284                   21734485.6904  -16078549.99649 -12528725.04246
  23383053.8334                   23383053.9984   -8645664.20949  -6736873.41445
  20889402.7094                   20889399.0004  -22648334.04349 -17648025.58947
  20368389.2774                   20368387.0284  -26018952.97449 -20274477.32847
  21594052.3694                   21594050.4044  -19938129.45649 -15536175.99546
  23199771.1254                   23199771.3454   -2127178.31649  -1657536.28045
  23920775.6154                   23920773.2064   -3707869.96548  -2889216.44945
  20086359.7164                   20086359.5804  -26446109.84849 -20607333.59947
 04  3  1  1 52  0.0000000  0  8G 9G14G22G18G21G 3G26G15
  21726442.4364                   21726441.4404  -16120822.35149 -12561664.50346
  23363461.6484                   23363460.8544   -8748618.11349  -6817097.08845
  20881283.6284                   20881280.0074  -22690999.26649 -17681271.17847
  20372314.0734                   20372311.5304  -25998328.73549 -20258406.48347
  21610673.8154                   21610671.8474  -19850782.86149 -15468113.72846
  23207619.2064                   23207619.6914   -2085938.03149  -1625400.96645
  23942401.5924                   23942401.7834   -3594226.75748  -2800663.34745
  20084509.9934                   20084509.6914  -26455831.01749 -20614908.56347
 04  3  1  1 52 30.0000000  0  8G 9G14G22G18G21G 3G26G15
  21718518.9304                   21718517.3194  -16162460.58449 -12594109.81546
  23343910.5624                   23343910.5584   -8851356.29649  -6897152.68445
  20873223.6644                   20873220.1664  -22733353.58949 -17714274.49647
  20376309.1604                   20376306.8534  -25977332.78449 -20242045.96947
  21627370.7444                   21627368.6494  -19763039.91149 -15399742.59646
  23215562.8624                   23215562.5664   -2044196.93849  -1592875.42345
  23964049.1754                   23964049.2594   -3480475.60048  -2712026.10145
  20082775.1244                   20082774.4194  -26464948.56749 -20622013.16947
 04  3  1  1 53  0.0000000  0  8G 9G14G22G18G21G 3G26G15
  21710714.5604                   21710713.0004  -16203474.62549 -12626068.76146
  23324399.7894                   23324400.9464   -8953888.79549  -6977048.00145
  20865221.1424                   20865217.6904  -22775408.27149 -17747044.32847
  20380373.0984                   20380370.8014  -25955977.19449 -20225405.20947
  21644140.9054                   21644138.2814  -19674914.73849 -15331073.62946
  23223598.4334                   23223598.5064   -2001968.81649  -1559970.37645
  23985713.3074                   23985710.0764   -3366630.97748  -2623316.17044
  20081152.8844                   20081152.3774  -26473473.26049 -20628655.79147
 04  3  1  1 53 30.0000000  0  8G 9G14G22G18G21G 3G26G15
  21703030.6824                   21703029.8564  -16243852.02549 -12657531.61046
  23304928.7394                   23304928.8804   -9056203.64049  -7056773.72245
  20857277.6454                   20857274.1504  -22817152.05149 -17779571.89147
  20384507.4864                   20384505.1654  -25934251.57249 -20208476.11847
  21660984.7514                   21660982.8314  -19586398.27649 -15262099.76446
  23231727.8524                   23231728.5444   -1959244.95649  -1526679.04145
  24007396.3224                   24007393.8504   -3252683.60548  -2534525.98445
  20079645.7764                   20079645.2934  -26481393.40149 -20634827.31447
 04  3  1  1 54  0.0000000  0  8G 9G14G22G18G21G 3G26G15
  21695468.2924                   21695467.1584  -16283593.52349 -12688498.95946
  23285500.5994                   23285499.8984   -9158301.88049  -7136330.64245
  20849392.6864                   20849388.7564  -22858586.87649 -17811858.71047
  20388711.4344                   20388709.2874  -25912158.90149 -20191261.03747
  21677902.1604                   21677899.9224  -19497495.30749 -15192824.73246
  23239951.2174                   23239952.1214   -1916030.01048  -1493005.03945
  24029097.0054                   24029094.5844   -3138639.23248  -2445660.21645
  20078253.0444                   20078252.6324  -26488711.10249 -20640529.40347
 04  3  1  1 54 30.0000000  0  8G 9G14G22G18G21G 3G26G15
  21688025.4814                   21688023.5594  -16322704.85449 -12718975.26146
  23266111.4114                   23266112.2324   -9260189.32649  -7215723.33345
  20841565.4644                   20841561.6004  -22899719.80149 -17843910.31247
  20392983.8324                   20392981.5764  -25889707.06549 -20173766.08447
  21694891.9964                   21694889.9374  -19408215.07349 -15123255.74346
  23248265.3744                   23248267.4234   -1872333.45848  -1458955.74345
  24050814.9114                   24050814.8294   -3024507.53048  -2356726.41545
  20076973.7874                   20076973.4984  -26495432.95249 -20645767.19047
 04  3  1  1 55  0.0000000  0  8G 9G14G22G18G21G 3G26G15
  21680704.2564                   21680702.8804  -16361179.62149 -12748955.54546
  23246764.0174                   23246764.3404   -9361859.85149  -7294946.98445
  20833796.2474                   20833792.3284  -22940545.60649 -17875722.64047
  20397325.5944                   20397323.1464  -25866891.43749 -20155987.67347
  21711953.5524                   21711951.1774  -19318554.95449 -15053390.72946
  23256672.8074                   23256674.3694   -1828152.73948  -1424529.19145
  24072549.7854                   24072547.8184   -2910286.30948  -2267722.90744
  20075809.4674                   20075808.9174  -26501553.55349 -20650536.46747
 04  3  1  1 55 30.0000000  0  8G 9G14G22G18G21G 3G26G15
  21673504.6454                   21673502.8994  -16399013.02449 -12778436.05946
  23227460.2404                   23227458.7794   -9463308.86749  -7373998.04045
  20826086.7294                   20826082.7374  -22981060.63749 -17907292.79447
  20401736.8844                   20401734.6594  -25843709.35049 -20137923.69347
  21729087.6184                   21729085.4744  -19228513.89549 -14983228.88046
  23265173.7854                   23265174.2974   -1783486.93949  -1389724.65445
  24094303.3574                   24094303.0554   -2795974.80448  -2178648.99244
  20074759.6784                   20074759.0194  -26507068.95449 -20654834.14747
 04  3  1  1 56  0.0000000  0  8G 9G14G22G18G21G 3G26G15
  21666425.8354                   21666424.3504  -16436211.95349 -12807422.18546
  23208195.4104                   23208194.9644   -9564543.48449  -7452882.01945
  20818434.7764                   20818430.6464  -23021272.76149 -17938626.90247
  20406216.3544                   20406213.9624  -25820169.68349 -20119581.05947
  21746292.2294                   21746290.4544  -19138102.47849 -14912778.43546
  23273763.2214                   23273763.8024   -1738346.90749  -1354550.57645
  24116071.7854                   24116069.5904   -2681583.73548  -2089513.13444
  20073823.8404                   20073823.3954  -26511987.09249 -20658666.43147
 04  3  1  1 56 30.0000000  0  8G 9G14G22G18G21G 3G26G15
  21659468.4874                   21659467.2144  -16472773.70749 -12835911.80846
  23188972.4864                   23188971.4534   -9665560.92949  -7531596.77745
  20810840.3184                   20810836.4284  -23061180.71349 -17969724.00547
  20410763.8954                   20410761.4824  -25796271.81849 -20100959.32247
  21763567.3304                   21763565.7274  -19047321.68749 -14842040.17346
  23282442.6734                   23282444.8744   -1692733.38349  -1319007.54745
  24137854.6934                   24137855.1644   -2567114.26148  -2000316.09644
  20073001.8964                   20073001.4694  -26516306.03249 -20662031.81347
 04  3  1  1 57  0.0000000  0  8G 9G14G22G18G21G 3G26G15
  21652634.9424                   21652633.9514  -16508682.72449 -12863892.79846
  23169793.2554                   23169793.6564   -9766345.69448  -7610130.23945
  20803306.9994                   20803303.0664  -23100769.93449 -18000572.77747
  20415382.3584                   20415380.2284  -25772001.67349 -20082047.50247
  21780915.0474                   21780912.9784  -18956159.75649 -14771004.90946
  23291215.7274                   23291216.9514   -1646634.61049  -1283086.40945
  24159654.4344                   24159653.7034   -2452555.01648  -1911049.12144
  20072296.7914                   20072296.4624  -26520011.25649 -20664918.97547
 04  3  1  1 57 30.0000000  0  8G 9G14G22G18G21G 3G26G15
  21645924.6784                   21645923.0754  -16543948.03749 -12891372.21646
  23150656.9804                   23150657.5594   -9866907.01249  -7688489.58545
  20795832.0964                   20795828.2294  -23140050.07749 -18031180.65747
  20420069.4084                   20420067.1704  -25747370.46749 -20062854.33847
  21798332.1914                   21798330.2344  -18864629.21549 -14699682.41846
  23300077.7384                   23300077.8034   -1600063.69349  -1246797.37645
  24181468.5634                   24181470.7384   -2337918.87248  -1821722.25744
  20071706.6194                   20071706.1634  -26523112.66049 -20667335.63347
 04  3  1  1 58  0.0000000  0  8G 9G14G22G18G21G 3G26G15
  21639337.5104                   21639336.2414  -16578560.64349 -12918343.02146
  23131565.0294                   23131565.1344   -9967235.94249  -7766667.85845
  20788417.3384                   20788413.4994  -23179013.43249 -18061541.61447
  20424826.7754                   20424824.3584  -25722370.84649 -20043374.10647
  21815821.5904                   21815819.8164  -18772724.75349 -14628068.55646
  23309031.0204                   23309031.4814   -1553015.31749  -1210136.28445
  24203299.1044                   24203298.7284   -2223200.77648  -1732331.58144
  20071232.9524                   20071232.3994  -26525602.59249 -20669275.82047
 04  3  1  1 58 30.0000000  0  8G 9G14G22G18G21G 3G26G15
  21632873.3824                   21632872.1584  -16612529.25749 -12944812.01246
  23112515.3144                   23112515.6904  -10067341.51149  -7844672.08645
  20781061.2174                   20781057.4514  -23217669.97449 -18091663.54347
  20429652.0374                   20429649.8824  -25697013.70749 -20023615.26747
  21833379.2864                   21833378.1214  -18680458.69049 -14556172.94346
  23318072.2954                   23318073.4314   -1505502.02149  -1173112.90345
  24225143.4314                   24225142.9604   -2108413.39448  -1642886.93944
  20070873.5684                   20070873.0184  -26527490.55049 -20670746.94347
 04  3  1  1 59  0.0000000  0  8G 9G14G22G18G21G 3G26G15
  21626532.3724                   21626530.9144  -16645852.93949 -12970778.45847
  23093508.2894                   23093508.6684  -10167222.55949  -7922501.36945
  20773763.6344                   20773759.6464  -23256019.47749 -18121546.19347
  20434545.3004                   20434543.1044  -25671299.96249 -20003578.53147
  21851005.2834                   21851004.0054  -18587833.49549 -14483997.49046
  23327200.7904                   23327201.2074   -1457526.53248  -1135729.39045
  24246999.7974                   24246998.8444   -1993559.22348  -1553390.15845
  20070628.8194                   20070628.2344  -26528776.27949 -20671748.78847
 04  3  1  1 59 30.0000000  0  8G 9G14G22G18G21G 3G26G15
  21620313.5584                   21620312.5044  -16678529.76449 -12996240.86246
  23074544.9324                   23074545.1814  -10266877.05449  -8000154.13646
  20766524.7704                   20766520.5424  -23294061.18749 -18151189.02647
  20439506.3094                   20439503.7964  -25645229.61949 -19983263.92347
  21868699.2144                   21868696.9324  -18494851.06949 -14411543.67746
  23336418.3464                   23336418.9584   -1409090.55248  -1097987.06545
  24268867.1184                   24268866.9594   -1878640.29648  -1463842.94144
  20070499.0414                   20070498.4984  -26529458.83049 -20672280.61747
 04  3  1  2  0  0.0000000  0  8G 9G14G22G18G21G 3G26G15
  21614221.2574                   21614219.6564  -16710547.57749 -13021189.74646
  23055626.3194                   23055626.0624  -10366293.40649  -8077621.32946
  20759346.1394                   20759342.1004  -23331784.06849 -18180583.38947
  20444536.9834                   20444534.3554  -25618792.33649 -19962663.39547
  21886463.2104                   21886461.4544  -18401503.12849 -14338805.02846
  23345725.4444                   23345725.7214   -1360185.87449  -1059879.50545
  24290748.2094                   24290746.6564   -1763648.50748  -1374239.00444
  20070485.8294                   20070485.4724  -26529527.14649 -20672333.80347
 04  3  1  2  0 30.0000000  0  8G 9G14G22G18G21G 3G26G15
  21608252.8874                   21608251.1694  -16741909.72549 -13045627.73746
  23036753.3254                   23036752.0574  -10465474.47849  -8154905.19546
  20752227.5574                   20752223.4474  -23369191.95549 -18209732.30747
  20449636.7564                   20449634.1514  -25591992.98349 -19941780.75747
  21904294.5284                   21904292.8434  -18307795.81149 -14265786.34846
  23355119.7944                   23355118.2744   -1310819.43749  -1021412.13245
  24312642.3884                   24312640.8054   -1648590.54048  -1284583.48244
  20070588.8244                   20070588.5214  -26528985.31649 -20671911.53947
 04  3  1  2  1  0.0000000  0  8G 9G14G22G18G21G 3G26G15
  21602409.0604                   21602407.4474  -16772617.76749 -13069556.03946
  23017924.6254                   23017922.7924  -10564421.62549  -8232006.77246
  20745168.3044                   20745164.2024  -23406287.37449 -18238637.82147
  20454804.7554                   20454802.1974  -25564834.87749 -19920618.58047
  21922193.4754                   21922191.7464  -18213734.64949 -14192491.96146
  23364599.5634                   23364601.5484   -1260996.44248   -982589.01145
  24334549.2354                   24334551.2364   -1533471.53548  -1194880.40444
  20070807.6514                   20070806.9044  -26527835.64949 -20671015.62947
 04  3  1  2  1 30.0000000  0  8G 9G14G22G18G21G 3G26G15
  21596690.8234                   21596690.0084  -16802669.04349 -13092972.54947
  22999139.7774                   22999138.6264  -10663131.95449  -8308923.82746
  20738169.2824                   20738165.0934  -23443068.37149 -18267298.34447
  20460041.1154                   20460038.7424  -25537316.73649 -19899175.86247
  21940160.6024                   21940158.8544  -18119320.06849 -14118922.19646
  23374167.0204                   23374168.7964   -1210717.63648   -943410.71145
  24356466.8764                   24356466.7314   -1418292.10748  -1105130.20744
  20071142.5724                   20071141.9174  -26526076.33549 -20669644.68047
 04  3  1  2  2  0.0000000  0  8G 9G14G22G18G21G 3G26G15
  21591099.0024                   21591097.0464  -16832054.63449 -13115870.36346
  22980402.4954                   22980401.0924  -10761596.89749  -8385649.65446
  20731231.3324                   20731227.2694  -23479526.80349 -18295707.49847
  20465347.8054                   20465345.5344  -25509431.61849 -19877447.17147
  21958195.7124                   21958193.6414  -18024546.98049 -14045073.06246
  23383823.4634                   23383824.5174   -1159977.99749   -903873.31645
  24378397.7594                   24378399.7554   -1303047.08248  -1015328.85944
  20071594.7784                   20071594.1754  -26523699.50749 -20667792.56047
 04  3  1  2  2 30.0000000  0  8G 9G14G22G18G21G 3G26G15
  21585633.7804                   21585632.2144  -16860773.38549 -13138248.55546
  22961712.5734                   22961712.4124  -10859815.03549  -8462183.17246
  20724355.0164                   20724350.8104  -23515662.69249 -18323865.31947
  20470723.6274                   20470721.1274  -25481180.59349 -19855433.37747
  21976297.9034                   21976296.5024  -17929417.87449 -13970946.51246
  23393566.1174                   23393567.6954   -1108780.02649   -863978.78545
  24400340.5544                   24400340.5314   -1187739.25648   -925478.64744
  20072164.3664                   20072164.0044  -26520705.06349 -20665459.19747
 04  3  1  2  3  0.0000000  0  8G 9G14G22G18G21G 3G26G15
  21580288.4004                   21580287.0734  -16888864.10449 -13160137.37246
  22943061.8634                   22943061.9044  -10957824.75949  -8538554.30246
  20717532.6004                   20717528.3354  -23551515.29249 -18351802.41047
  20476161.7794                   20476159.3924  -25452603.47649 -19833165.46047
  21994459.8664                   21994457.6804  -17833974.59249 -13896575.15346
  23403386.9334                   23403387.4884   -1057166.03348   -823760.08845
  24422287.0974                   24422287.7804   -1072410.50348   -835612.08144
  20072844.0564                   20072843.5784  -26517132.69249 -20662675.50647
 04  3  1  2  3 30.0000000  0  8G 9G14G22G18G21G 3G26G15
  21575067.1144                   21575065.1694  -16916304.32649 -13181519.31647
  22924454.6274                   22924453.9014  -11055603.42849  -8614745.38646
  20710768.0934                   20710763.9884  -23587062.77049 -18379501.73047
  20481665.5804                   20481663.3504  -25423679.33249 -19810627.12947
  22012685.4864                   22012683.4484  -17738198.08549 -13821944.13446
  23413292.3984                   23413292.9654   -1005117.54149   -783202.82345
  24444241.2444                   24444240.9174    -957042.28748   -745714.79644
  20073638.2704                   20073637.4194  -26512960.74849 -20659424.62047
 04  3  1  2  4  0.0000000  0  8G 9G14G22G18G21G 3G26G15
  21569977.8594                   21569976.0884  -16943045.48149 -13202356.52547
  22905901.2944                   22905901.4664  -11153102.41649  -8690718.54446
  20704070.5874                   20704066.6754  -23622257.46149 -18406926.14447
  20487244.6654                   20487242.1854  -25394361.18949 -19787781.79647
  22030983.1394                   22030981.4984  -17642043.15049 -13747018.25146
  23423287.8584                   23423288.3434    -952589.44849   -742271.82345
  24466210.7734                   24466210.1054    -841589.14948   -655751.36544
  20074555.3754                   20074554.3424  -26508141.33449 -20655669.22047
 04  3  1  2  4 30.0000000  0  8G 9G14G22G18G21G 3G26G15
  21565015.7274                   21565014.5444  -16969123.06349 -13222676.68247
  22887393.9344                   22887394.0704  -11250357.32349  -8766501.50946
  20697433.6674                   20697429.6454  -23657135.70749 -18434103.99947
  20492891.6864                   20492889.1714  -25364686.36949 -19764658.54147
  22049345.3354                   22049343.7104  -17545548.83449 -13671827.90346
  23433367.6734                   23433368.9524    -899620.95949   -700997.68145
  24488188.0514                                    -726089.99248   -565752.11244
  20075588.6674                   20075587.8574  -26502711.03949 -20651437.82247
 04  3  1  2  5  0.0000000  0  8G 9G14G22G18G21G 3G26G15
  21560180.9404                   21560179.6164  -16994526.47049 -13242471.51247
  22868935.7454                   22868935.3644  -11347356.71749  -8842085.38546
  20690858.6694                   20690854.6014  -23691687.16949 -18461027.21147
  20498608.1124                   20498605.4054  -25334645.93549 -19741250.40947
  22067773.7144                   22067772.0224  -17448708.01949 -13596367.57346
  23443532.2534                   23443532.7464    -846204.66649   -659374.57245
  24510176.9434                   24510177.8684    -610537.31548   -475711.11544
  20076740.0614                   20076739.4384  -26496659.80849 -20646722.58447
 04  3  1  2  5 30.0000000  0  8G 9G14G22G18G21G 3G26G15
  21555472.9164                   21555471.2454  -17019268.73649 -13261751.16347
  22850523.6684                   22850522.6284  -11444113.47549  -8917480.18846
  20684343.1474                   20684339.1844  -23725925.38949 -18487706.31847
  20504391.5644                   20504388.8574  -25304254.26649 -19717568.58947
  22086265.2334                   22086263.1174  -17351536.76849 -13520649.74146
  23453778.7674                   23453779.6994    -792357.19148   -617415.48645
  24532173.5644                   24532173.7604    -494947.55948   -385641.28644
  20078007.1914                   20078006.3414  -26490001.55149 -20641534.35147
 04  3  1  2  6  0.0000000  0  8G 9G14G22G18G21G 3G26G15
  21550891.6354                   21550889.8734  -17043345.70749 -13280512.41047
  22832158.3624                   22832158.4994  -11540623.44249  -8992682.71646
  20677888.3584                   20677884.2034  -23759847.23249 -18514138.92247
  20510242.2454                   20510239.6724  -25273508.49849 -19693610.86247
  22104818.9624                   22104816.6544  -17254034.21449 -13444673.73746
  23464107.8364                   23464108.3884    -738078.29448   -575120.24345
  24554177.3104                   24554174.5584    -379319.87148   -295541.85644
  20079390.2444                   20079389.6554  -26482733.17449 -20635870.70147
 04  3  1  2  6 30.0000000  0  8G 9G14G22G18G21G 3G26G15
  21546439.2094                   21546437.5524  -17066740.22949 -13298741.87647
  22813843.7594                   22813843.4344  -11636868.90649  -9067679.11246
  20671496.4524                   20671492.5624  -23793435.98449 -18540311.96347
  20516163.2584                   20516160.8724  -25242393.15149 -19669365.10047
  22123438.0264                   22123435.8204  -17156186.99949 -13368429.20046
  23474521.8754                   23474522.7844    -683354.07248   -532477.99745
  24576190.8894                   24576188.4204    -263640.42948   -205402.11444
  20080892.4604                   20080892.1634  -26474838.40549 -20629718.95247
 04  3  1  2  7  0.0000000  0  8G 9G14G22G18G21G 3G26G15
  21542113.6854                   21542111.9634  -17089472.77149 -13316455.52747
  22795575.0724                   22795574.7314  -11732869.89049  -9142485.01646
  20665164.1964                   20665160.2774  -23826712.46449 -18566241.64447
  20522150.3094                   20522147.9114  -25210929.90449 -19644848.26547
  22142118.7344                   22142116.9114  -17058018.30849 -13291934.16346
  23485015.4144                   23485016.5964    -628208.67648   -489507.53345
  24598210.2894                   24598208.9874    -147932.42048   -115240.04944
  20082510.1744                   20082509.6424  -26466338.30449 -20623095.52647
 04  3  1  2  7 30.0000000  0  8G 9G14G22G18G21G 3G26G15
  21537916.7094                   21537915.1024  -17111526.58149 -13333640.28947
  22777355.8664                   22777354.8634  -11828609.32549  -9217087.11046
  20658894.1014                   20658890.2044  -23859660.57849 -18591915.47747
  20528206.7884                   20528204.2254  -25179103.76549 -19620048.66947
  22160863.8764                   22160861.7594  -16959514.73949 -13215178.17646
  23495591.3844                   23495592.4324    -572628.74548   -446198.48845
  24620238.1944                                     -32182.55548    -25045.42244
  20084245.9534                   20084245.3724  -26457216.82149 -20615987.91147
 04  3  1  2  8  0.0000000  0  8G 9G14G22G18G21G 3G26G15
  21533846.4154                   21533844.6594  -17132916.87149 -13350308.02147
  22759184.5224                   22759182.8794  -11924102.24649  -9291497.12246
  20652683.6974                   20652679.7904  -23892296.02949 -18617345.67747
  20534329.0344                   20534326.1384  -25146931.39749 -19594979.27147
  22179669.3074                   22179667.1844  -16860694.20449 -13138175.16546
  23506246.6184                   23506246.0024    -516633.03848   -402565.47545
  24642268.6484                   24642266.3804      83590.95148     65167.67044
  20086096.9224                   20086096.4114  -26447490.13449 -20608408.69147
 04  3  1  2  8 30.0000000  0  8G 9G14G22G18G21G 3G26G15
  21529905.7874                   21529904.5174  -17153623.18249 -13366442.77047
  22741063.5574                   22741061.9474  -12019327.59749  -9365698.66046
  20646536.6704                   20646532.8494  -23924598.85949 -18642516.71447
  20540520.7004                   20540517.9224  -25114393.40249 -19569624.96947
  22198537.7934                   22198535.6584  -16761540.45349 -13060912.51646
  23516985.9584                   23516987.0244    -460204.50648   -358595.19145
  24664307.1774                                     199405.63648    155412.97844
  20088066.6524                   20088066.2224  -26437138.50849 -20600342.49447
 04  3  1  2  9  0.0000000  0  8G 9G14G22G18G21G 3G26G15
  21526093.5994                   21526091.7714  -17173656.62649 -13382053.22947
  22722991.4044                   22722990.6074  -12114296.13949  -9439700.06846
  20640450.9554                   20640447.0194  -23956580.49849 -18667437.44647
  20546779.5164                   20546776.9044  -25081502.48149 -19543995.66047
  22217466.8984                   22217465.3334  -16662067.47149 -12983401.10246
  23527802.4034                   23527803.2524    -403357.93848   -314299.16045
  24686349.8514                                     315246.79348    245678.73344
  20090153.2464                   20090152.5034  -26426173.99549 -20591798.71547
 04  3  1  2  9 30.0000000  0  8G 9G14G22G18G21G 3G26G15
  21522408.9204                   21522407.2234  -17193021.62549 -13397142.82147
  22704967.4264                   22704966.5404  -12209011.66849  -9513504.30546
  20634425.1424                   20634421.1734  -23988245.99849 -18692111.87747
  20553104.7814                   20553102.3154  -25048263.98149 -19518095.52047
  22236455.3474                   22236453.2334  -16562282.62949 -12905646.69846
  23538697.6384                   23538697.8334    -346100.94548   -269683.31945
  24708397.8794                                     431107.50148    335959.72244
  20092355.4424                   20092354.6614  -26414601.62149 -20582781.27647
 04  3  1  2 10  0.0000000  0  8G 9G14G22G18G21G 3G26G15
  21518853.6094                   21518851.5844  -17211706.07249 -13411702.10647
  22686994.3614                   22686993.3184  -12303461.71949  -9587101.67546
  20628461.6724                   20628457.9104  -24019583.23349 -18716530.53247
  20559497.7724                   20559495.4394  -25014667.32649 -19491916.30547
  22255505.0724                   22255502.9494  -16462176.92149 -12827642.27946
  23549675.0524                   23549676.3004    -288424.73049   -224740.81145
  24730450.8304                   24730450.0574     546996.82348    426263.07844
  20094675.2104                   20094674.6964  -26402409.97549 -20573281.28247
 04  3  1  2 10 30.0000000  0  8G 9G14G22G18G21G 3G26G15
  21515426.8654                   21515425.4094  -17229711.20449 -13425732.05747
  22669071.5294                   22669070.7134  -12397646.79149  -9660492.58346
  20622560.5584                   20622556.8324  -24050593.80649 -18740694.64147
  20565958.9554                   20565956.4344  -24980714.71749 -19465459.71747
  22274614.1934                   22274612.3394  -16361754.70349 -12749391.23246
  23560728.9874                   23560727.9114    -230333.96848   -179475.28545
  24752509.1324                                     662911.08148    516585.89644
  20097112.8924                   20097112.1984  -26389601.06149 -20563300.29747
 04  3  1  2 11  0.0000000  0  8G 9G14G22G18G21G 3G26G15
  21512130.6234                   21512128.8454  -17247033.31049 -13439229.77747
  22651199.6364                   22651198.9184  -12491562.70749  -9733673.77146
  20616722.3174                   20616718.5374  -24081274.30349 -18764601.51247
  20572488.2594                   20572485.4364  -24946404.03049 -19438724.09847
  22293784.6294                   22293783.4784  -16261015.45649 -12670893.15146
  23571862.3414                   23571863.1224    -171828.45248   -133886.58745
  24774571.4174                   24774568.7024     778850.67248    606928.38644
  20099668.2594                   20099667.5804  -26376172.23749 -20552836.26347
 04  3  1  2 11 30.0000000  0  8G 9G14G22G18G21G 3G26G15
  21508961.0474                   21508959.4724  -17263688.77149 -13452208.04847
  22633376.5074                   22633375.6814  -12585225.33149  -9806657.58946
  20610943.3614                   20610939.5314  -24111641.45549 -18788264.20547
  20579082.0804                   20579079.5464  -24911752.66549 -19411723.02547
  22313010.3544                   22313009.2004  -16159978.17749 -12592162.83646
  23583069.8584                   23583071.9564    -112928.07748    -87990.18945
  24796634.3014                   24796632.8124     894796.53248    697275.76144
  20102338.5294                   20102337.6604  -26362140.83449 -20541902.68847
 04  3  1  2 12  0.0000000  0  8G 9G14G22G18G21G 3G26G15
  21505923.6654                   21505921.8504  -17279651.34649 -13464646.41147
  22615607.0744                   22615605.5924  -12678607.79749  -9879423.07846
  20605229.8634                   20605225.8254  -24141669.17649 -18811662.40647
  20585745.0924                   20585742.8734  -24876735.55949 -19384436.95847
  22332298.6014                   22332297.5774  -16058620.05549 -12513182.53146
  23594357.3924                   23594358.5844     -53609.63248    -41768.01345
  24818702.5284                   24818700.5734    1010771.95748    787646.24244
  20105127.9624                   20105127.0314  -26347481.12349 -20530479.53447
 04  3  1  2 12 30.0000000  0  8G 9G14G22G18G21G 3G26G15
  21503016.4394                   21503014.5804  -17294929.23549 -13476551.24047
  22597888.5584                   22597887.0244  -12771717.58249  -9951976.08846
  20599578.5604                   20599574.5064  -24171365.82749 -18834802.59647
  20592476.7184                   20592474.2254  -24841362.05149 -19356873.16847
  22351645.8044                   22351643.7484  -15956952.40249 -12433961.00246
  23605723.0934                   23605724.0114       6115.52448      4771.05445
  24840775.7964                   24840775.1504    1126766.34748    878031.46044
  20108035.2174                   20108034.7974  -26332202.06249 -20518573.77547
 04  3  1  2 13  0.0000000  0  8G 9G14G22G18G21G 3G26G15
  21500238.3564                   21500236.6244  -17309526.47149 -13487925.68747
  22580221.1504                   22580219.7574  -12864558.39849 -10024319.50246
  20593989.6024                   20593985.6474  -24200736.00249 -18857688.40647
  20599274.8904                   20599272.2394  -24805637.07849 -19329035.52147
  22371049.6364                   22371048.2094  -15854982.21049 -12354503.72846
  23617165.1224                   23617165.2874      66239.72948     51621.07745
  24862851.8864                   24862852.8794    1242772.62548    968425.95144
  20111059.7124                   20111059.4774  -26316308.44549 -20506189.14447
 04  3  1  2 13 30.0000000  0  8G 9G14G22G18G21G 3G26G15
  21497588.9344                   21497588.1574  -17323449.28049 -13498774.60947
  22562603.5644                   22562602.3394  -12957135.36449 -10096457.32846
  20588461.4254                   20588457.4684  -24229785.78749 -18880324.57147
  20606138.6934                   20606135.9874  -24769568.22949 -19300929.91947
  22390510.2864                   22390508.9704  -15752718.26649 -12274817.55046
  23628680.3924                   23628680.5934     126753.58448     98774.75545
  24884927.6674                   24884925.5824    1358782.29948   1058823.06544
  20114199.9584                   20114199.4094  -26299807.03349 -20493330.91247
 04  3  1  2 14  0.0000000  0  8G 9G14G22G18G21G 3G26G15
  21495072.9074                   21495071.8174  -17336670.58449 -13509076.90447
  22545042.4394                   22545040.9044  -13049421.04649 -10168368.18446
  20582999.8114                   20582995.6804  -24258488.22949 -18902690.11047
  20613073.0114                   20613070.3454  -24733129.19349 -19272535.85047
  22410031.0664                   22410028.7354  -15650136.81749 -12194883.96046
  23640274.3474                   23640275.0034     187680.99648    146250.65045
  24907009.6454                                    1474819.37648   1149241.41444
  20117460.8074                   20117460.0334  -26282671.65249 -20479978.67547
 04  3  1  2 14 30.0000000  0  8G 9G14G22G18G21G 3G26G15
  21492685.9374                   21492684.6154  -17349213.89549 -13518850.90147
  22527532.5874                   22527531.6064  -13141438.17749 -10240069.78746
  20577599.4324                   20577595.4224  -24286867.10549 -18924803.56747
  20620072.7124                   20620070.1004  -24696344.72649 -19243872.61947
  22429606.6684                   22429604.3554  -15547264.03149 -12114723.35246
  23651942.0224                   23651941.7264     248995.18748    194027.91245
  24929090.4174                   24929091.7924    1590858.26448   1239661.22744
  20120837.5124                   20120836.9954  -26264926.32049 -20466151.14747
 04  3  1  2 15  0.0000000  0  8G 9G14G22G18G21G 3G26G15
  21490429.6014                   21490427.7514  -17361071.33649 -13528090.45547
  22510074.9804                   22510073.8014  -13233178.23049 -10311555.46746
  20572262.2444                   20572258.2144  -24314914.56849 -18946658.74747
  20627139.3414                   20627136.7094  -24659207.89149 -19214934.81247
  22449239.6314                   22449237.6364  -15444095.14349 -12034332.01946
  23663683.4904                   23663684.1334     310700.66248    242110.08945
  24951174.3614                                    1706904.29748   1330086.78544
  20124331.5944                   20124331.1554  -26246564.08449 -20451842.91247
 04  3  1  2 15 30.0000000  0  8G 9G14G22G18G21G 3G26G15
  21488304.7164                   21488303.1154  -17372238.52249 -13536792.14547
  22492671.3464                   22492669.7184  -13324635.56749 -10382820.83146
  20566988.6044                   20566984.7014  -24342625.93149 -18968251.97447
  20634273.9184                   20634271.3814  -24621715.36449 -19185719.84047
  22468928.1444                   22468925.6824  -15340628.24349 -11953708.46546
  23675500.6154                   23675502.4804     372798.85648    290498.28645
  24973259.6184                                    1822959.40148
  20127944.0604                   20127943.3994  -26227581.03049 -20437050.92847
 04  3  1  2 16  0.0000000  0  8G 9G14G22G18G21G 3G26G15
  21486308.5144                   21486307.0714  -17382727.04849 -13544965.01247
  22475318.9094                   22475317.5414  -13415821.30049 -10453874.55346
  20561777.1464                   20561773.1944  -24370012.87549 -18989592.41047
  20641473.8714                   20641471.2594  -24583879.71649 -19156237.50247
  22488671.2524                   22488669.2374  -15236878.02549 -11872864.15146
  23687389.8144                   23687391.2294     435274.78948    339180.82445
  24995343.8694                                    1939009.24248
  20131672.5124                   20131671.8604  -26207989.55749 -20421784.84947
 04  3  1  2 16 30.0000000  0  8G 9G14G22G18G21G 3G26G15
  21484443.7364                   21484441.9464  -17392528.18749 -13552602.25447
  22458020.5804                   22458018.8734  -13506725.86349 -10524709.19946
  20556628.7944                   20556624.8504  -24397066.62049 -19010673.23547
  20648740.7584                   20648738.2624  -24545693.23349 -19126481.78847
  22508469.2044                   22508467.5014  -15132838.55949 -11791794.45846
  23699351.5924                   23699353.7434     498133.86648    388161.94145
  25017426.1744                                    2055060.53348   1601377.37044
  20135517.9354                   20135517.1354  -26187781.65449 -20406038.43647
 04  3  1  2 17  0.0000000  0  8G 9G14G22G18G21G 3G26G15
  21482710.6534                   21482709.0204  -17401634.98849 -13559698.45547
  22440776.9164                   22440775.5814  -13597341.66749 -10595318.84946
  20551545.5194                   20551541.6724  -24423780.60849 -19031489.31447
  20656075.6074                   20656072.9134  -24507149.51449 -19096447.71547
  22528323.5414                   22528321.6534  -15028505.85449 -11710496.26346
  23711386.0694                   23711386.6544     561380.10948    437444.71945
  25039511.4594                                    2171117.62748   1691811.47044
  20139481.6094                   20139481.0504  -26166951.07649 -20389806.82047
 04  3  1  2 17 30.0000000  0  8G 9G14G22G18G21G 3G26G15
  21481107.0564                   21481105.0804  -17410062.16649 -13566265.07447
  22423584.9924                   22423583.4904  -13687682.48149 -10665714.22346
  20546524.0074                   20546520.0784  -24450169.17549 -19052051.86647
  20663474.8234                   20663472.1364  -24468264.26249 -19066147.52447
  22548230.2594                   22548228.2244  -14923897.01349 -11628982.90046
  23723491.9564                   23723492.5474     624995.61748    487015.23845
  25061594.7864                                    2287163.35848   1782236.69744
  20143561.1684                   20143560.6714  -26145513.38949 -20373102.12847
 04  3  1  2 18  0.0000000  0  8G 9G14G22G18G21G 3G26G15
  21479634.6464                   21479633.1104  -17417800.29949 -13572294.78247
  22406448.4484                   22406446.0854  -13777737.97149 -10735887.26646
  20541565.8204                   20541561.7204  -24476222.71049 -19072353.28947
  20670940.8434                   20670937.9844  -24429029.09949 -19035574.66247
  22568190.1674                   22568188.5434  -14819005.64049 -11547249.36946
  23735668.2254                   23735668.5824     688986.66848    536878.37945
  25083675.7424                                    2403205.32148   1872659.03044
  20147757.8904                   20147757.1754  -26123459.73849 -20355917.46547
 04  3  1  2 18 30.0000000  0  8G 9G14G22G18G21G 3G26G15
  21478292.9734                   21478291.3194  -17424849.26849 -13577787.47947
  22389365.6784                   22389363.8694  -13867506.75049 -10805836.90746
  20536671.9384                   20536667.7684  -24501940.84849 -19092393.32547
  20678473.8804                   20678471.1634  -24389444.17449 -19004729.26247
  22588203.3984                   22588201.6454  -14713833.96649 -11465297.44546
  23747917.5564                   23747917.8084     753350.75948    587032.22145
  25105753.7844                                    2519241.09247
  20152071.8974                   20152071.0474  -26100790.25649 -20338252.93447
 04  3  1  2 19  0.0000000  0  8G 9G14G22G18G21G 3G26G15
  21477084.8454                   21477083.1574  -17431199.47049 -13582735.67847
  22372339.2764                   22372337.8924  -13956978.41349 -10875555.01346
  20531843.8744                   20531839.8244  -24527313.74749 -19112164.36248
  20686074.9214                   20686072.3204  -24349501.19449 -18973604.86147
  22608271.7824                   22608270.3934  -14608375.05449 -11383121.68146
  23760237.7474                   23760238.2444     818094.26848    637481.71445
  25127836.4944                                    2635278.49447
  20156504.4014                   20156503.9574  -26077496.21249 -20320101.73447
 04  3  1  2 19 30.0000000  0  8G 9G14G22G18G21G 3G26G15
  21476009.1324                   21476007.0684  -17436851.90449 -13587140.16047
  22355369.9374                   22355369.0994  -14046153.24049 -10945041.83146
  20527080.6084                   20527076.6214  -24552342.48049 -19131667.20848
  20693743.5414                   20693740.9704  -24309201.77949 -18942202.71247
  22628393.2844                   22628392.5354  -14502632.50249 -11300724.91646
  23772630.7014                   23772631.4204     883212.96448    688223.54545
  25149919.1184                                    2751314.10848   2143912.65044
  20161055.7514                   20161055.2244  -26053579.42049 -20301465.27147
 04  3  1  2 20  0.0000000  0  8G 9G14G22G18G21G 3G26G15
  21475062.0914                   21475060.5974  -17441826.65049 -13591016.58847
  22338453.5704                   22338451.6944  -14135050.49149 -11014312.34546
  20522379.5624                   20522375.6224  -24577047.15949 -19150917.55048
  20701475.8794                   20701473.4514  -24268566.93949 -18910539.19447
  22648565.7334                   22648564.1794  -14396629.85249 -11218125.48346
  23785088.9254                   23785089.7024     948683.40148    739239.45845
  25171995.6054                                    2867325.21548   2234310.77844
  20165721.3324                   20165720.9324  -26029060.90049 -20282359.92647
 04  3  1  2 20 30.0000000  0  8G 9G14G22G18G21G 3G26G15
  21474246.8764                   21474244.9854  -17446112.26549 -13594356.01747
  22321592.4694                   22321591.0204  -14223657.16749 -11083356.43846
  20517742.3234                   20517738.3884  -24601415.56849 -19169905.86448
  20709274.4554                   20709271.9444  -24227585.42449 -18878605.53747
  22668788.6364                   22668787.6434  -14290357.71549 -11135316.04046
  23797615.7514                   23797615.3384    1014514.29448    790536.27945
  25194069.4854                                    2983321.78548   2324697.65544
  20170503.9724                   20170503.0844  -26003929.37949 -20262776.92347
 04  3  1  2 21  0.0000000  0  7G 9G14G22G18G21G 3G15
  21473562.6594                   21473560.8424  -17449707.14849 -13597157.21847
  22304787.1074                   22304785.6594  -14311971.12249 -11152172.41946
  20513169.7264                   20513165.6614  -24625446.17449 -19188630.99448
  20717139.2134                   20717136.4614  -24186256.86549 -18846401.45747
  22689062.1504                   22689060.3124  -14183816.92849 -11052297.26546
  23810209.5554                   23810210.8274    1080704.31848    842112.90645
  20175402.9244                   20175402.3304  -25978184.04449 -20242715.62247
 04  3  1  2 21 30.0000000  0  8G 9G14G22G18G21G 3G31G15
  21473011.3074                   21473009.6194  -17452607.52849 -13599417.24347
  22288038.2304                   22288036.4254  -14399987.13949 -11220756.26646
  20508661.9944                   20508657.8874  -24649134.44249 -19207089.37748
  20725070.5774                   20725067.6234  -24144577.76549 -18813924.23347
  22709386.9344                   22709386.1414  -14077006.28849 -10969068.23446
  23822874.0774                   23822873.7744    1147254.39448    893970.12245
  23654989.1344                   23654987.8774           .12858          .71155
  20180419.7364                   20180418.9804  -25951821.56549 -20222173.43247
 04  3  1  2 22  0.0000000  0  8G 9G14G22G18G21G 3G31G15
  21472590.7794                   21472589.1994  -17454815.66849 -13601137.86747
  22271345.5384                   22271344.1244  -14487706.46349 -11289108.93546
  20504218.5644                   20504214.6274  -24672482.61149 -19225282.75848
  20733067.6574                   20733064.9134  -24102551.13949 -18781176.20247
  22729763.1494                   22729761.9194  -13969930.95349 -10885632.94746
  23835606.3444                   23835606.0014    1214159.47848    946103.94345
  23657518.6474                   23657517.9494      13297.94148     10362.61245
  20185553.0714                   20185552.2794  -25924844.96949 -20201152.70047
 04  3  1  2 22 30.0000000  0  8G 9G14G22G18G21G 3G31G15
  21472301.2454                   21472299.3834  -17456336.55049 -13602322.97147
  22254708.6914                   22254707.3014  -14575133.24249 -11357233.63546
  20499839.7194                   20499835.6394  -24695495.42649 -19243214.82148
  20741130.3054                   20741127.8604  -24060182.65849 -18748161.80347
  22750188.1194                   22750186.8404  -13862598.09049 -10801996.96246
  23848403.5264                   23848402.7674    1281411.41748    998508.03845
  23660158.9274                   23660157.9364      27173.69448     21174.84845
  20190802.1574                   20190801.5224  -25897259.81749 -20179657.77347
 04  3  1  2 23  0.0000000  0  8G 9G14G22G18G21G 3G31G15
  21472142.9314                   21472141.0784  -17457169.96049 -13602972.38447
  22238127.2104                   22238125.7504  -14662266.09749 -11425129.30446
  20495524.3284                   20495520.2674  -24718172.10849 -19260884.93048
  20749257.7624                   20749255.0004  -24017472.58549 -18714881.23447
  22770661.8044                   22770660.4574  -13755009.85449 -10718162.00246
  23861266.7274                   23861267.5554    1349007.48748   1051180.32545
  23662910.1124                   23662909.0774      41626.43948     32436.72845
  20196167.1304                   20196166.5774  -25869066.60249 -20157689.02447
 04  3  1  2 23 30.0000000  0  8G 9G14G22G18G21G 3G31G15
  21472118.3384                   21472116.6754  -17457297.77249 -13603071.97347
  22221606.3964                   22221604.6524  -14749085.43849 -11492780.68146
  20491276.8944                   20491272.9014  -24740493.98349 -19278278.59748
  20757453.3204                   20757450.6494  -23974403.27449 -18681320.72747
  22791186.3554                   22791185.3854  -13647150.85249 -10634116.05746
  23874198.7014                   23874198.7494    1416963.14048   1104132.76745
  23665773.0564                   23665773.5994      56673.17348     44161.44245
  20201651.0734                   20201650.6734  -25840247.75749 -20135232.76747
 04  3  1  2 24  0.0000000  0  8G 9G14G22G18G21G 3G31G15
  21472224.7404                   21472223.0414  -17456741.41849 -13602638.44047
  22205140.8734                   22205138.7624  -14835611.65649 -11560203.64846
  20487092.4784                   20487088.5954  -24762482.23649 -19295412.28648
  20765713.4134                   20765711.0004  -23930996.44749 -18647497.22447
  22811758.7344                   22811757.6474  -13539045.11549 -10549877.85146
  23887194.7204                   23887193.0574    1485254.04548   1157346.46645
  23668745.8444                   23668745.6764      72291.62748     56331.61245
  20207250.1944                   20207249.5654  -25810825.19149 -20112306.07947
 04  3  1  2 24 30.0000000  0  8G 9G14G22G18G21G 3G31G15
  21472462.3254                   21472461.2764  -17455489.38349 -13601662.82147
  22188733.7244                   22188732.0024  -14921832.27949 -11627388.53646
  20482974.1644                   20482969.9224  -24784124.51249 -19312276.38148
  20774039.8094                   20774037.1584  -23887241.31949 -18613402.31947
  22832379.4564                   22832376.7694  -13430682.82949 -10465439.72946
  23900254.8434                   23900256.2744    1553888.99348   1210828.22845
  23671829.0094                   23671826.5184      88491.88548     68955.17145
  20212966.2314                   20212965.4834  -25780787.88949 -20088900.37847
 04  3  1  2 25  0.0000000  0  8G 9G14G22G18G21G 3G31G15
  21472831.4414                   21472829.7754  -17453550.65249 -13600152.12447
  22172383.3994                   22172381.4524  -15007754.67649 -11694341.00046
  20478919.8784                   20478915.8234  -24805429.50149 -19328877.68648
  20782430.5304                   20782427.8724  -23843147.41949 -18579043.43647
  22853046.7124                   22853045.4644  -13322075.56449 -10380810.71745
  23913379.8424                   23913380.4804    1622856.36348   1264569.03945
  23675019.6874                   23675018.6184     105264.12848     82024.41545
  20218797.1714                   20218796.4054  -25750145.26349 -20065022.99547
 04  3  1  2 25 30.0000000  0  8G 9G14G22G18G21G 3G31G15
  21473331.9214                   21473330.1824  -17450921.86049 -13598103.71047
  22156090.2554                   22156088.6284  -15093373.97249 -11761057.26246
  20474930.6734                   20474926.5804  -24826392.95749 -19345212.86048
  20790886.4694                   20790883.8354  -23798711.53349 -18544418.08447
  22873760.0214                   22873758.8824  -13213221.98149 -10295989.78045
  23926566.5814                   23926566.1614    1692156.80448   1318569.37645
  23678320.1314                   23678318.2634     122610.93048     95541.38945
  20224743.9794                   20224743.6864  -25718894.60049 -20040671.81947
 04  3  1  2 26  0.0000000  0  8G 9G14G22G18G21G 3G31G15
  21473965.4364                   21473963.4154  -17447590.96049 -13595508.19947
  22139858.3714                   22139856.4044  -15178677.14549 -11827527.20946
  20471008.8694                   20471004.7204  -24847002.40749 -19361272.20148
  20799409.7264                   20799407.2614  -23753922.08449 -18509517.22447
  22894522.7574                   22894521.3194  -13104112.43249 -10210969.37445
  23939817.8634                   23939818.9084    1761799.47748   1372836.40745
  23681733.0514                   23681733.5134     140542.88848    109514.33245
  20230808.6404                   20230808.2384  -25687024.53349 -20015838.01047
 04  3  1  2 26 30.0000000  0  8G 9G14G22G18G21G 3G31G15
  21474728.5924                   21474726.9054  -17443579.62949 -13592382.48747
  22123681.5264                   22123679.9834  -15263684.91849 -11893767.01246
  20467150.5204                   20467146.4324  -24867279.30549 -19377072.40048
  20807995.9694                   20807993.4854  -23708801.21649 -18474358.12447
  22915329.7334                   22915328.9424  -12994771.64449 -10125768.78745
  23953131.8604                   23953131.2634    1831759.64948   1427350.81545
  23685253.1774                   23685250.3394     159037.12048    123925.38345
  20236987.0054                   20236986.3794  -25654557.26649 -19990538.84647
 04  3  1  2 27  0.0000000  0  8G 9G14G22G18G21G 3G31G15
  21475625.2234                   21475623.7864  -17438868.61149 -13588711.55847
  22107564.9494                   22107563.3854  -15348376.28749 -11959760.24646
  20463358.8284                   20463355.0274  -24887203.15549 -19392597.47548
  20816648.9284                   20816646.1584  -23663329.96949 -18438925.99847
  22936184.0234                   22936182.3324  -12885182.15649 -10040374.41745
  23966509.1234                   23966507.9104    1902053.99448   1482125.59145
  23688882.2274                   23688881.9244     178111.97948    138788.86245
  20243282.5744                   20243281.9334  -25621474.16549 -19964759.80647
 04  3  1  2 27 30.0000000  0  8G 9G14G22G18G21G 3G31G15
  21476651.2664                   21476649.5484  -17433478.71449 -13584511.64347
  22091505.0594                   22091503.5034  -15432770.65749 -12025522.00746
  20459630.7354                   20459626.7834  -24906794.41449 -19407863.37048
  20825364.3734                   20825361.6304  -23617529.81649 -18403237.59147
  22957081.7994                   22957079.4624  -12775367.01049  -9954804.19945
  23979944.5554                   23979946.0204    1972659.07348   1537142.53345
  23692618.2164                   23692618.5404     197745.42048    154087.62245
  20249691.2394                   20249690.3914  -25587796.44249 -19938517.41947
 04  3  1  2 28  0.0000000  0  8G 9G14G22G18G21G 3G31G15
  21477814.3894                   21477812.7894  -17427364.44749 -13579747.27947
  22075510.7844                   22075508.9764  -15516821.36449 -12091015.99146
  20455974.6634                   20455970.5624  -24926006.79149 -19422834.02148
  20834151.0324                   20834148.2894  -23571355.08249 -18367257.29547
  22978031.0564                   22978028.8344  -12665282.62449  -9869024.18445
  23993447.6464                   23993449.9344    2043618.10648   1592435.28645
  23696469.6284                   23696471.0504     217982.16548    169856.48345
  20256221.4344                   20256220.9424  -25553478.99249 -19911776.53847
 04  3  1  2 28 30.0000000  0  8G 9G14G22G18G21G 3G31G15
  21479108.5754                   21479106.8704  -17420564.19449 -13574448.37947
  22059574.6374                   22059572.9904  -15600565.19649 -12156270.84646
  20452383.9484                   20452379.5534  -24944877.70249 -19437538.57948
  20843001.7044                   20842999.1824  -23524844.37349 -18331015.18247
  22999022.4584                   22999019.8894  -12554969.71949  -9783066.10945
  24007008.4094                   24007009.0594    2114889.92048   1647971.75545
  23700428.0204                   23700426.8264     238782.81448    186064.75745
  20262866.3164                   20262865.8184  -25518560.77249 -19884567.52247
 04  3  1  2 29  0.0000000  0  8G 9G14G22G18G21G 3G31G15
  21480528.5484                   21480526.9094  -17413100.78249 -13568632.73447
  22043693.0604                   22043691.2144  -15684023.77549 -12221303.44146
  20448853.7294                   20448849.4984  -24963429.62249 -19451994.60648
  20851912.0894                   20851909.3794  -23478021.08349 -18294529.49447
  23020053.3444                   23020051.1114  -12444453.44849  -9696949.57245
  24020628.2064                   24020628.8604    2186449.03748   1703732.09045
  23704488.8444                   23704488.0704     260123.31148    202693.71445
  20269620.5684                   20269619.8354  -25483065.28549 -19856908.70347
 04  3  1  2 29 30.0000000  0  8G 9G14G22G18G21G 3G31G15
  21482082.7184                   21482080.7464  -17404936.28049 -13562270.78247
  22027873.4624                   22027871.5244  -15767157.76949 -12286083.11446
  20445390.9574                   20445386.9364  -24981623.56049 -19466171.67948
  20860888.7484                   20860886.0844  -23430847.07649 -18257770.52147
  23041129.7074                   23041128.1064  -12333697.33849  -9610646.14545
  24034306.1514                   24034306.8174    2258330.81748   1759743.85845
  23708659.0344                   23708658.7864     282040.67648    219772.15945
  20276492.2414                   20276491.5784  -25446954.93449 -19828770.77347
 04  3  1  2 30  0.0000000  0  8G 9G14G22G18G21G 3G31G15
  21483766.2894                   21483764.3694  -17396088.51549 -13555376.41947
  22012111.4714                   22012110.3154  -15849983.64849 -12350622.71946
  20441993.9604                   20441989.5584  -24999476.73249 -19480083.21148
  20869928.8524                   20869926.0804  -23383340.56849 -18220752.46347
  23062247.2164                   23062245.6624  -12222722.09849  -9524171.96145
  24048042.5854                   24048042.8574    2330514.82648   1815991.12145
  23712936.8174                   23712934.6624     304515.88248    237285.31145
  20283477.2874                   20283476.8714  -25410248.03049 -19800167.99047
 04  3  1  2 30 30.0000000  0  8G 9G14G22G18G21G 3G31G15
  21485581.5294                   21485579.7394  -17386548.56349 -13547942.69347
  21996411.2114                   21996410.2254  -15932490.50449 -12414913.70846
  20438663.1024                   20438658.9504  -25016979.40249 -19493721.64448
  20879033.9824                   20879031.5594  -23335492.70749 -18183468.40947
  23083407.3384                   23083406.0874  -12111520.75548  -9437521.58845
  24061837.2374                   24061837.4624    2403007.63148   1872479.03445
  23717320.0604                   23717320.9334     327556.97948    255239.36345
  20290577.6934                   20290577.0084  -25372936.18949 -19771093.82547
 04  3  1  2 31  0.0000000  0  8G 9G14G22G18G21G 3G31G15
  21487531.5494                   21487529.9434  -17376303.24149 -13539959.32747
  21980774.5064                   21980772.8064  -16014663.93649 -12478944.88746
  20435401.8654                   20435397.6964  -25034117.36149 -19507075.88248
  20888207.0564                   20888204.4624  -23287290.60249 -18145908.31947
  23104614.4664                   23104612.3154  -12000081.97848  -9350686.23145
  24075692.0524                   24075691.4434    2475819.83848   1929215.80344
  23721816.3514                   23721815.1144     351176.09648    273643.82745
  20297795.2144                   20297794.5554  -25335006.68549 -19741538.37047
 04  3  1  2 31 30.0000000  0  8G 9G14G22G18G21G 3G31G15
  21489611.5944                   21489609.7334  -17365371.36949 -13531440.98347
  21965197.5204                   21965195.4794  -16096520.92649 -12542729.49546
  20432206.7134                   20432202.3974  -25050908.13449 -19520159.58148
  20897443.1554                   20897440.5174  -23238752.72249 -18108086.58747
  23125861.4764                   23125858.4004  -11888426.44148  -9263681.95445
  24089606.2794                   24089605.0944    2548930.28048   1986184.96345
  23726417.0014                   23726415.8524     375353.70448    292483.46845
  20305126.8044                   20305126.2964  -25296478.79549 -19711516.63747
 04  3  1  2 32  0.0000000  0  8G 9G14G22G18G21G 3G31G15
  21491822.2224                   21491819.8764  -17353754.43849 -13522388.83447
  21949679.5924                   21949678.1514  -16178061.80449 -12606267.80746
  20429077.7254                   20429073.3724  -25067352.79049 -19532973.59248
  20906742.8754                   20906740.2814  -23189881.24349 -18070004.92047
  23147149.8654                   23147147.2474  -11776557.63849  -9176511.50645
  24103572.9144                   24103573.6694    2622334.82648   2043383.29245
  23731122.5274                   23731122.8724     400086.98948    311756.15745
  20312571.9564                   20312571.3814  -25257354.77449 -19681030.38347
 04  3  1  2 32 30.0000000  0  8G 9G14G22G18G21G 3G31G15
  21494162.5544                   21494160.6704  -17341456.18249 -13512805.77647
  21934223.4394                   21934221.7794  -16259288.65649 -12669561.42546
  20426013.3924                   20426009.2974  -25083454.09249 -19545520.05448
  20916105.7954                   20916103.0644  -23140679.63549 -18031666.00947
  23168477.4944                   23168475.4704  -11664481.26549  -9089179.29945
  24117596.9274                   24117597.2614    2696027.40548   2100806.02145
  23735935.7994                   23735934.0884     425371.24448    331458.10445
  20320129.8974                   20320129.2424  -25217638.58349 -19650082.69347
 04  3  1  2 33  0.0000000  0  8G 9G14G22G18G21G 3G31G15
  21496635.5324                   21496633.7404  -17328459.97049 -13502678.86247
  21918829.9484                   21918827.6794  -16340182.85649 -12732595.81446
  20423018.1564                   20423014.0414  -25099194.12049 -19557785.00348
  20925534.6344                   20925531.9784  -23091131.36849 -17993056.96447
  23189847.1694                   23189845.7684  -11552182.68149  -9001673.92645
  24131675.9534                   24131677.0064    2770022.35248   2158464.45244
  23740854.1064                   23740852.0014     451222.22148    351601.63145
  20327803.0274                   20327802.6664  -25177313.86949 -19618660.83547
 04  3  1  2 33 30.0000000  0  8G 9G14G22G18G21G 3G31G15
  21499237.4094                   21499236.0134  -17314784.81849 -13492022.89847
  21903496.7064                   21903494.8884  -16420762.22049 -12795384.88846
  20420088.1444                   20420083.8764  -25114591.19049 -19569782.69548
  20935025.3134                   20935022.9194  -23041255.56449 -17954192.69547
  23211254.3614                   23211252.2494  -11439682.90848  -8914011.77445
  24145810.5684                   24145813.3454    2844297.80948   2216341.43644
  23745876.4834                   23745875.9804     477619.90248    372171.13645
  20335588.8704                   20335588.2074  -25136400.21749 -19586780.06447
 04  3  1  2 34  0.0000000  0  8G 9G14G22G18G21G 3G31G15
  21501971.0724                   21501969.0504  -17300423.86749 -13480832.54747
  21888224.1244                   21888221.7974  -16501018.11949 -12857921.92646
  20417224.9054                   20417220.7874  -25129637.41349 -19581507.02248
  20944579.7984                   20944577.1384  -22991045.20149 -17915067.73847
  23232701.6404                   23232699.2734  -11326976.84048  -8826188.89545
  24159999.8714                   24160001.8784    2918858.79848   2274440.90445
  23751005.5754                   23751005.0094     504570.28148    393171.33945
  20343487.8634                   20343487.2184  -25094891.05849 -19554435.24847
 04  3  1  2 34 30.0000000  0  8G 9G14G22G18G21G 3G31G15
  21504837.4604                   21504835.7734  -17285357.08649 -13469092.20347
  21873017.7424                   21873015.8514  -16580928.60449 -12920189.81046
  20414432.5354                   20414428.5114  -25144311.30049 -19592941.21548
  20954202.4874                   20954199.6944  -22940480.19049 -17875666.43347
  23254191.9354                   23254190.0074  -11214046.22848  -8738191.02645
  24174246.6634                   24174247.0614    2993722.99648   2332776.62045
  23756243.9484                   23756242.2074     532092.35848    414617.06445
  20351503.6674                   20351503.3244  -25052766.97149 -19521611.27047
 04  3  1  2 35  0.0000000  0  8G 9G14G22G18G21G 3G31G15
  21507831.3074                   21507829.2074  -17269625.58349 -13456833.88947
  21857868.8984                   21857867.7444  -16660533.23049 -12982219.36846
  20411703.5424                   20411699.4374  -25158652.88949 -19604116.47448
  20963884.3794                   20963881.5684  -22889601.10249 -17836020.38747
  23275715.6454                   23275715.2684  -11100933.87648  -8650051.56945
  24188541.9344                   24188542.2354    3068846.86748   2391314.69345
  23761581.6414                   23761582.6854     560144.31848    436475.70545
  20359628.8504                   20359628.5724  -25010069.08449 -19488340.18247
 04  3  1  2 35 30.0000000  0  8G 9G14G22G18G21G 3G31G15
  21510958.3074                   21510956.6754  -17253190.89749 -13444027.64846
  21842786.6844                   21842784.6814  -16739791.65849 -13043979.12646
  20409045.0404                   20409040.9204  -25172622.90749 -19615002.19148
  20973633.2714                   20973630.6744  -22838369.82449 -17796099.90547
  23297281.3474                   23297278.0574  -10987603.08248  -8561741.89945
  24202894.1254                   24202895.9574    3144266.65448   2450083.35945
  23767027.3094                   23767027.6624     588763.50248    458776.34745
  20367870.3964                   20367869.8514  -24966759.67349 -19454592.58647
 04  3  1  2 36  0.0000000  0  8G 9G14G22G18G21G 3G31G15
  21514219.5654                   21514218.0394  -17236055.21749 -13430675.16747
  21827770.4534                   21827768.1964  -16818704.64749 -13105469.71746
  20406457.0844                   20406452.9074  -25186222.34049 -19625599.11748
  20983449.0504                   20983446.3204  -22786788.46949 -17755906.64347
  23318888.6984                   23318889.6804  -10874058.10548  -8473265.30545
  24217301.7304                   24217303.1824    3219977.60448   2509078.89345
  23772580.5604                   23772579.5124     617946.77548    481516.52945
  20376228.0264                   20376227.1554  -24922841.24849 -19420370.43247
 04  3  1  2 36 30.0000000  0  8G 9G14G22G18G21G 3G31G15
  21517607.2124                   21517605.5884  -17218253.70949 -13416803.86147
  21812812.6684                   21812810.6164  -16897305.42349 -13166717.06347
  20403933.2364                   20403929.0344  -25199485.06549 -19635933.66448
  20993324.7244                   20993321.7014  -22734892.03049 -17715467.86147
  23340529.0134                   23340528.3244  -10760335.53948  -8384650.34045
  24231756.8294                   24231757.5834    3295942.74548   2568272.49945
  23778234.9024                   23778234.8854     647658.05748    504668.20145
  20384694.4334                   20384694.0854  -24878349.34849 -19385701.41247
 04  3  1  2 37  0.0000000  0  8G 9G14G22G18G21G 3G31G15
  21521122.7654                   21521121.1464  -17199776.09349 -13402405.72446
  21797917.4224                   21797915.0754  -16975581.56049 -13227711.41346
  20401475.6594                   20401471.6094  -25212399.12649 -19645996.54048
  21003262.2284                   21003259.6824  -22682669.65149 -17674775.09947
  23362205.0594                   23362203.0214  -10646426.45948  -8295890.05845
  24246261.3584                   24246261.1984    3372170.74148   2627670.90444
  23783991.1394                   23783990.1864     677907.04548    528238.84845
  20393271.9274                   20393271.3354  -24833273.88249 -19350577.66747
 04  3  1  2 37 30.0000000  0  8G 9G14G22G18G21G 3G31G15
  21524769.1484                   21524767.5534  -17180615.45449 -13387475.36747
  21783085.2044                   21783083.3254  -17053524.77249 -13288446.33946
  20399086.1914                   20399081.8604  -25224956.85849 -19655781.77248
  21013263.4214                   21013260.8184  -22630114.10149 -17633822.72247
  23383918.4024                   23383916.5674  -10532326.07548  -8206980.70545
  24260819.3844                   24260820.1824    3448665.74748   2687277.39744
  23789851.5164                   23789851.2224     708699.48148    552232.91745
  20401961.7554                   20401961.1384  -24787608.72449 -19314994.42447
 04  3  1  2 38  0.0000000  0  8G 9G14G22G18G21G 3G31G15
  21528545.5084                   21528543.7044  -17160771.54849 -13372012.59147
  21768316.8694                   21768314.8304  -17131132.95049 -13348920.21046
  20396764.7954                   20396760.1984  -25237156.80249 -19665288.21348
  21023327.7264                   21023325.1234  -22577225.46949 -17592610.80847
  23405666.5764                   23405665.0874  -10418035.81048  -8117923.38945
  24275426.3834                   24275426.9784    3525425.67648   2747090.32844
  23795812.9184                   23795813.1694     740034.52448    576649.78245
  20410763.7954                   20410763.1054  -24741353.75649 -19278951.57547
 04  3  1  2 38 30.0000000  0  8G 9G14G22G18G21G 3G31G15
  21532453.1434                   21532451.0474  -17140235.72449 -13356010.65647
  21753614.5564                   21753612.3024  -17208395.44549 -13409124.69347
  20394513.0064                   20394508.7154  -25248988.98349 -19674508.08348
  21033456.9654                   21033454.6724  -22523994.63849 -17551132.23547
  23427452.2704                   23427451.0184  -10303548.63248  -8028712.62045
  24290084.4834                   24290085.2904    3602457.02648   2807114.77745
  23801882.2834                   23801880.0654     771920.13548    601495.66245
  20419679.3594                   20419678.9024  -24694500.66449 -19242442.65547
 04  3  1  2 39  0.0000000  0  8G 9G14G22G18G21G 3G31G15
  21536487.5304                   21536485.8234  -17119036.20149 -13339491.55847
  21738972.7154                   21738970.6974  -17285338.72849 -13469080.45047
  20392326.3934                   20392322.1014  -25260480.32649 -19683462.37348
  21043646.5974                   21043643.9404  -22470449.59849 -17509408.82147
  23449270.9844                   23449267.4844  -10188894.33748  -7939371.66245
  24304789.0754                   24304789.6134    3679729.49148   2867327.07044
  23808048.1904                   23808048.5674     804327.14448    626747.85345
  20428703.6794                   20428702.8634  -24647078.04349 -19205489.94747
 04  3  1  2 39 30.0000000  0  8G 9G14G22G18G21G 3G31G15
  21540650.3934                   21540649.0814  -17097158.20649 -13322443.77446
  21724394.7004                   21724392.5654  -17361945.84949 -13528774.26447
  20390207.7494                   20390203.3834  -25271614.36249 -19692138.22848
  21053898.4014                   21053895.6834  -22416574.92149 -17467428.54847
  23471123.1184                   23471120.9874  -10074059.60648  -7849890.07445
  24319541.0344                   24319542.1194    3757256.15848   2927737.46344
  23814316.7354                   23814316.6604     837269.65448    652417.29745
  20437839.0044                   20437838.3584  -24599071.55649 -19168082.29547
 04  3  1  2 40  0.0000000  0  8G 9G14G22G18G21G 3G31G15
  21544943.5214                   21544941.7954  -17074599.40549 -13304865.50346
  21709880.7004                   21709878.9744  -17438212.67649 -13588202.90647
  20388157.3814                   20388153.0574  -25282387.48849 -19700532.86048
  21064213.2124                   21064210.7894  -22362368.03549 -17425189.41147
  23493010.0784                   23493009.9394   -9959043.59748  -7760267.23445
  24334343.0594                   24334342.3044    3835037.35048   2988346.15044
  23820688.1664                   23820688.1684     870749.34048    678505.37445
  20447085.8024                   20447085.2484  -24550478.94949 -19130217.92547
 04  3  1  2 40 30.0000000  0  8G 9G14G22G18G21G 3G31G15
  21549367.7684                   21549365.5624  -17051352.43749 -13286751.00747
  21695434.8934                   21695432.8144  -17514130.02349 -13647359.22447
  20386177.7364                   20386173.3744  -25292791.05949 -19708639.51748
  21074593.4004                   21074590.8814  -22307821.18349 -17382685.36747
  23514932.2554                   23514932.0984   -9843840.49948  -7670498.62945
  24349194.0934                   24349194.3904    3913078.20748   3049157.22144
  23827161.3384                   23827161.8484     904772.33748    705016.79545
  20456445.7134                   20456444.9634  -24501293.40449 -19091891.52247
 04  3  1  2 41  0.0000000  0  8G 9G14G22G18G21G 3G31G15
  21553920.6664                   21553918.7484  -17027425.09549 -13268106.32746
  21681053.4544                   21681051.9894  -17589703.62449 -13706247.69247
  20384267.1714                   20384262.9194  -25302831.41149 -19716463.15148
  21085036.2794                   21085033.8914  -22252941.82449 -17339922.23147
  23536889.2164                   23536888.8494   -9728459.45148  -7580591.34745
  24364091.7224                   24364092.9574    3991368.91048   3110162.96944
  23833737.4384                   23833739.0274     939330.08148    731944.89745
  20465916.5404                   20465915.9034  -24451523.08949 -19053109.45547
 04  3  1  2 41 30.0000000  0  8G 9G14G22G18G21G 3G31G15
  21558603.0794                   21558600.9434  -17002819.02949 -13248932.78247
  21666737.7904                   21666735.7144  -17664933.12849 -13764868.04847
  20382425.6564                   20382421.5134  -25312508.81649 -19724003.97348
  21095542.5854                   21095540.1324  -22197731.02549 -17296900.83047
  23558880.2104                   23558879.2694   -9612903.54748  -7490547.80245
  24379036.6774                   24379038.8524    4069905.82948   3171360.52944
  23840415.7524                   23840415.1234     974420.04748    759287.73845
  20475498.4304                   20475497.6054  -24401170.11849 -19013873.37147
 04  3  1  2 42  0.0000000  0  8G 9G14G22G18G21G 3G31G15
  21563411.8804                   21563409.8004  -16977549.63449 -13229242.35747
  21652485.1154                   21652482.9594  -17739832.23649 -13823230.95847
  20380650.1924                   20380645.9994  -25321837.51249 -19731273.08148
  21106109.4564                   21106106.8544  -22142204.32349 -17253633.27047
  23580899.1154                   23580898.0464   -9497189.87848  -7400381.32645
  24394024.5284                   24394022.8574    4148671.66248   3232736.49944
  23847191.1534                   23847189.7004    1010025.95848    787032.60745
  20485188.1174                   20485187.3224  -24350249.99549 -18974195.35047
 04  3  1  2 42 30.0000000  0  8G 9G14G22G18G21G 3G31G15
  21568346.9414                   21568345.3634  -16951614.81449 -13209033.41146
  21638295.8174                   21638293.6504  -17814396.36849 -13881332.82547
  20378942.1104                   20378937.8634  -25330813.41249 -19738267.27648
  21116736.3234                   21116733.7624  -22086358.76549 -17210117.25147
  23602948.2804                   23602945.4324   -9381317.69848  -7310091.33144
  24409057.8714                   24409055.1244    4227666.55948   3294291.00544
  23854065.7584                   23854065.1744    1046149.29348    815180.65345
  20494986.5714                   20494985.3654  -24298760.87149 -18934073.95047
 04  3  1  2 43  0.0000000  0  8G 9G14G22G18G21G 3G31G15
  21573412.3854                   21573410.9434  -16924992.72949 -13188288.95646
  21624175.0384                   21624173.0164  -17888601.64049 -13939155.05347
  20377305.7944                   20377301.5514  -25339413.19849 -19744968.38748
  21127428.2854                   21127426.1614  -22030171.63649 -17166335.06947
  23625032.6624                   23625029.9754   -9265266.38648  -7219661.76944
  24424137.9034                   24424138.2014    4306910.51748   3356039.47044
  23861041.6714                   23861040.8224    1082811.07348    843748.30345
  20504896.8084                   20504896.0754  -24246681.14249 -18893492.34347
 04  3  1  2 43 30.0000000  0  8G 9G14G22G18G21G 3G31G15
  21578605.7504                   21578604.4474  -16897702.63449 -13167023.95746
  21610119.1454                   21610116.9304  -17962465.50649 -13996711.25547
  20375737.4184                   20375733.0974  -25347654.63849 -19751390.27748
  21138181.8274                   21138179.0614  -21973662.04949 -17122301.62247
  23647147.3574                   23647144.5844   -9149056.66148  -7129108.74044
  24439259.8424                   24439263.4144    4386382.67548   3417965.82544
  23868117.1974                   23868115.4734    1119991.19748    872719.85845
  20514915.7154                   20514915.0354  -24194030.56049 -18852465.91247
 04  3  1  2 44  0.0000000  0  8G 9G14G22G18G21G 3G31G15
  21583927.4994                   21583925.5654  -16869737.69949 -13145233.10846
  21596130.1074                   21596127.9724  -18035979.04649 -14053994.47247
  20374238.8114                   20374234.5254  -25355529.34249 -19757526.40548
  21148998.0564                   21148995.2164  -21916822.68049 -17078011.20047
  23669291.7584                   23669291.4954   -9032682.68248  -7038427.72844
  24454428.2934                   24454426.9754    4466087.76748   3480073.70044
  23875291.6464                   23875292.0224    1157695.65848    902099.97245
  20525044.7844                   20525043.7904  -24140802.31449 -18810989.34347
 04  3  1  2 44 30.0000000  0  8G 9G14G22G18G21G 3G31G15
  21589376.6634                   21589374.6834  -16841102.65649 -13122920.10546
  21582206.3784                   21582204.5004  -18109144.85549 -14111006.74447
  20372809.5174                   20372805.4534  -25363040.44049 -19763379.20348
  21159876.4004                   21159873.7574  -21859657.54349 -17033466.94947
  23691467.4034                   23691466.7224   -8916150.65048  -6947623.58244
  24469638.9114                   24469637.6994    4546019.23348   3542357.89444
  23882564.9844                   23882563.9294    1195918.98048    931884.41245
  20535282.7924                   20535281.7764  -24087001.58349 -18769066.69447
 04  3  1  2 45  0.0000000  0  8G 9G14G22G18G21G 3G31G15
  21594953.6394                   21594952.0204  -16811795.80749 -13100083.60646
  21568350.8914                   21568348.6074  -18181958.77249 -14167744.81447
  20371450.1634                   20371445.8344  -25370184.39349 -19768945.91748
  21170816.9694                   21170814.5104  -21802164.40249 -16988667.11247
  23713673.4194                   23713673.1294   -8799460.06348  -6856695.88544
  24484892.7274                   24484889.6214    4626177.46248   3604818.87444
  23889937.4324                   23889937.4464    1234662.35348    962074.06745
  20545629.9584                   20545629.0344  -24032626.71749 -18726696.66547
 04  3  1  2 45 30.0000000  0  8G 9G14G22G18G21G 3G31G15
  21600656.9484                   21600655.5104  -16781825.33449 -13076730.00746
  21554560.4294                   21554558.3314  -18254427.01549 -14224213.51447
  20370159.4594                   20370154.8384  -25376967.96749 -19774231.80648
  21181818.3814                   21181815.7954  -21744351.08649 -16943617.77647
  23735907.4744                   23735907.2514   -8682620.29648  -6765651.93344
  24500186.0944                   24500187.4084    4706552.17848   3667448.48444
  23897408.5424                   23897408.1614    1273916.39448    992661.63845
  20556084.7264                   20556083.8304  -23977686.49049 -18683886.09447
 04  3  1  2 46  0.0000000  0  8G 9G14G22G18G21G 3G31G15
  21606486.0454                   21606483.9234  -16751193.39249 -13052860.97846
  21540836.0734                   21540833.9604  -18326549.90949 -14280413.13547
  20368936.7264                   20368932.4404  -25383391.71649 -19779237.31448
  21192880.4584                   21192877.7974  -21686218.68449 -16898319.80347
  23758168.7474                   23758167.7244   -8565635.02648  -6674494.61545
  24515520.9474                   24515522.7434    4787139.24748   3730243.63744
  23904974.1994                   23904971.3344    1313678.27048   1023644.90945
  20566646.6174                   20566645.5554  -23922183.32749 -18640636.87847
 04  3  1  2 46 30.0000000  0  8G 9G14G22G18G21G 3G31G15
  21612440.4284                   21612438.5704  -16719903.53449 -13028479.28446
  21527177.0574                   21527174.6144  -18398328.43749 -14336344.42047
  20367782.5864                   20367778.3514  -25389457.19349 -19783963.66148
  21204003.0714                   21204000.0894  -21627769.91549 -16852775.31147
  23780456.8244                   23780453.0814   -8448508.84248  -6583227.47344
  24530897.0384                   24530898.3514    4867933.85348   3793200.46744
  23912636.4984                   23912636.3474    1353943.82148   1055020.66145
  20577314.9844                   20577314.1064  -23866120.66649 -18596951.68447
 04  3  1  2 47  0.0000000  0  8G 9G14G22G18G21G 3G31G15
  21618521.4994                   21618519.7974  -16687945.33749 -13003576.81246
  21513585.7224                   21513583.7394  -18469750.17949 -14391997.67747
  20366698.7454                   20366694.5844  -25395152.76349 -19788401.77648
  21215187.4644                   21215185.0574  -21568994.17049 -16806976.03747
  23802773.9304                   23802773.7934   -8331232.32948  -6491843.18844
  24546311.2854                   24546312.9484    4948944.40748   3856325.56644
  23920396.6834                   23920396.4524    1394722.61448   1086796.36045
  20588091.6514                   20588090.9904  -23809488.71949 -18552822.89747
 04  3  1  2 47 30.0000000  0  8G 9G14G22G18G21G 3G31G15
  21624727.8034                   21624725.5554  -16655331.25849 -12978163.26746
  21500060.8864                   21500058.4764  -18540825.33249 -14447380.86347
  20365683.3994                   20365679.0524  -25400488.79749 -19792559.72348
  21226432.2804                   21226430.0194  -21509903.22249 -16760931.14547
  23825115.4274                   23825111.1394   -8213819.09548  -6400352.36744
  24561765.2864                   24561766.9094    5030156.80748   3919607.93644
  23928250.3314                   23928252.5394    1436001.47448   1118961.72745
  20598974.0264                   20598973.5194  -23752299.94049 -18508260.20847
 04  3  1  2 48  0.0000000  0  8G 9G14G22G18G21G 3G31G15
  21631062.1854                   21631060.1514  -16622041.75949 -12952223.41746
  21486605.1644                   21486603.4704  -18611532.01649 -14502476.92947
  20364740.5594                   20364736.1394  -25405443.81749 -19796420.77948
  21237740.9324                   21237738.3614  -21450476.54849 -16714624.65047
  23847486.4134                                   -8096250.75748  -6308740.73044
  24577262.9294                   24577261.2194    5111589.34348   3983061.83544
  23936205.4604                   23936206.5404    1477799.52648   1151531.64645
  20609966.8274                   20609966.0254  -23694534.80149 -18463248.41247
 04  3  1  2 48 30.0000000  0  8G 9G14G22G18G21G 3G31G15
  21637522.4654                   21637521.2134  -16588094.29149 -12925770.85646
  21473217.9734                   21473215.5704  -18681885.21349 -14557297.57047
  20363867.1024                   20363862.7854  -25410033.50649 -19799997.15748
  21249109.9984                   21249107.3354  -21390730.51049 -16668069.29747
  23869886.9174                   23869883.6644   -7978545.52048  -6217022.38744
  24592797.0084                   24592795.7214    5193222.74348   4046672.26544
  23944255.0464                   23944255.5964    1520098.44148   1184491.85345
  20621065.1724                   20621064.7544  -23636211.00249 -18417801.28247
 04  3  1  2 49  0.0000000  0  8G 9G14G22G18G21G 3G31G15
  21644106.6514                   21644105.1904  -16553494.79449 -12898810.21346
  21459896.6454                   21459894.4484  -18751888.91749 -14611845.87347
  20363062.3594                   20363058.1944  -25414262.10349 -19803292.18248
  21260539.2484                   21260536.6444  -21330670.76049 -16621269.50047
  23892312.2514                   23892309.1844   -7860710.61248  -6125203.00944
  24608369.2114                   24608371.7984    5275049.68948   4110433.52844
  23952397.3624                   23952396.5394    1562891.64548   1217837.20845
  20632268.8284                   20632268.5154  -23577334.86049 -18371923.76647
 04  3  1  2 49 30.0000000  0  8G 9G14G22G18G21G 3G31G15
  21650816.1554                   21650814.4744  -16518234.46049 -12871334.62946
  21446643.7094                   21446641.7194  -18821531.99649 -14666113.15947
  20362328.6744                   20362324.4494  -25418118.95649 -19806297.52348
  21272029.7134                   21272027.0804  -21270287.52849 -16574217.63547
  23914761.7634                   23914757.1224   -7742738.47648  -6033276.66444
  24623978.0404                   24623980.3844    5357077.17148   4174351.04644
  23960636.8084                   23960634.7934    1606186.96448   1251573.83845
  20643579.5644                   20643578.7154  -23517897.95149 -18325609.28447
 04  3  1  2 50  0.0000000  0  8G 9G14G22G18G21G 3G31G15
  21657650.0274                   21657648.3644  -16482323.94749 -12843352.41446
  21433458.1044                   21433455.9544  -18890822.63349 -14720105.81847
  20361663.4934                   20361659.2824  -25421612.80949 -19809019.99548
  21283579.9064                   21283577.2164  -21209590.55449 -16526921.28847
  23937233.8434                   23937230.4594   -7624640.49748  -5941252.28944
  24639623.1054                   24639623.8144    5439292.87948   4238415.16844
  23968968.7374                   23968966.8854    1649973.29748   1285693.07345
  20654994.3574                   20654993.8814  -23457910.85649 -18278866.09247
 04  3  1  2 50 30.0000000  0  8G 9G14G22G18G21G 3G31G15
  21664607.7704                   21664606.7334  -16445757.80649 -12814859.32246
  21420340.8404                   21420338.4224  -18959752.87949 -14773817.65747
  20361069.2354                   20361065.0274  -25424736.34149 -19811453.91948
  21295190.9364                   21295188.5824  -21148573.61549 -16479375.62247
  23959730.6714                   23959727.9704   -7506411.80148  -5849126.07744
  24655304.5924                                    5521701.21448   4302629.45144
  23977396.2224                   23977394.3624    1694255.51548   1320198.68444
  20666515.3964                   20666514.9564  -23397368.11649 -18231689.93547
 04  3  1  2 51  0.0000000  0  8G 9G14G22G18G21G 3G31G15
  21671687.6754                   21671686.5514  -16408554.97149 -12785870.11346
  21407289.2164                   21407287.0174  -19028339.40849 -14827261.66147
  20360542.1694                   20360538.0634  -25427506.33649 -19813612.36448
  21306859.6914                   21306857.7194  -21087254.64749 -16431594.61447
  23982250.8724                   23982249.1954   -7388072.68248  -5756913.82444
  24671019.9284                   24671020.2284    5604281.75848   4366977.96444
  23985913.1774                   23985912.6224    1739014.04148   1355075.54245
  20678138.3554                   20678137.8434  -23336288.83449 -18184095.69947
 04  3  1  2 51 30.0000000  0  8G 9G14G22G18G21G 3G31G15
  21678893.6604                   21678891.8854  -16370688.89749 -12756364.10046
  21394308.8854                   21394306.6414  -19096553.51749 -14880415.46447
  20360087.6304                   20360083.4414  -25429894.69049 -19815473.42748
  21318591.0074                   21318588.5674  -21025606.35349 -16383557.01347
  24004796.2424                   24004793.9714   -7269597.47948  -5664595.47244
  24686772.4894                   24686772.3494    5687059.41648   4431480.00544
  23994524.2824                   23994524.0274    1784274.61048   1390343.50145
  20689868.4954                   20689867.7354  -23274647.14549 -18136063.22547
 04  3  1  2 52  0.0000000  0  8G 9G14G22G18G21G 3G31G15
  21686229.3684                   21686228.1624  -16332138.20049 -12726324.61046
  21381403.5094                   21381400.9584  -19164371.26749 -14933260.41847
  20359710.3624                   20359705.9724  -25431877.81349 -19817018.72648
  21330388.8494                   21330386.0774  -20963606.38749 -16335245.35147
  24027371.4034                   24027371.1884   -7150965.72848  -5572155.14444
  24702566.1234                   24702567.1534    5770054.06948   4496151.12244
  24003236.8214                   24003236.3174    1830057.89948   1426018.79545
  20701709.5424                   20701708.7574  -23212421.68249 -18087575.85447
 04  3  1  2 52 30.0000000  0  8G 9G14G22G18G21G 3G31G15
  21693684.6734                   21693683.0254  -16292958.86149 -12695795.26846
  21368563.4604                   21368560.9384  -19231846.50949 -14985838.48847
  20359399.7764                   20359395.4644  -25433510.22649 -19818290.74248
  21342243.1004                   21342240.7634  -20901310.00649 -16286702.71147
  24049964.8884                                   -7032234.42048  -5479637.26744
  24718390.2774                   24718392.4354    5853208.24848   4560946.52344
  24012038.1824                   24012037.3834    1876307.07248   1462057.13045
  20713651.3664                   20713650.6114  -23149668.67549 -18038677.41747
 04  3  1  2 53  0.0000000  0  8G 9G14G22G18G21G 3G31G15
  21701258.6324                   21701256.8834  -16253158.76649 -12664782.21046
  21355787.4074                   21355785.1204  -19298984.42749 -15038153.71247
  20359154.7894                   20359150.4724  -25434797.22949 -19819293.58648
  21354153.2584                   21354150.9124  -20838723.94849 -16237934.35647
  24072574.6954                   24072575.3304   -6913411.92048  -5387048.37044
  24734240.9524                   24734244.7254    5936512.85848   4625859.28944
  24020926.7904                   24020928.9674    1923013.88948   1498452.05345
  20725691.9314                   20725691.0994  -23086395.94749 -17989373.99547
 04  3  1  2 53 30.0000000  0  8G 9G14G22G18G21G 3G31G15
  21708958.1594                   21708956.6314  -16212699.88149 -12633255.81246
  21343083.3074                   21343080.9694  -19365744.58849 -15090174.57447
  20358983.1644                   20358978.8524  -25435698.99549 -19819996.25948
  21366125.6744                   21366123.3744  -20775809.18149 -16188909.87547
  24095210.1544                                   -6794454.74348  -5294354.36344
  24750128.0934                                    6020004.53648   4690917.74744
  24029910.7774                   24029910.9324    1970215.82448   1535232.75045
  20737838.2064                   20737837.6644  -23022565.72249 -17939636.16647
 04  3  1  2 54  0.0000000  0  8G 9G14G22G18G21G 3G31G15
  21716778.8284                   21716777.7054  -16171596.83149 -12601227.47246
  21330448.5254                   21330446.2284  -19432139.14249 -15141910.54747
  20358882.4414                   20358878.3584  -25436228.03849 -19820408.51348
  21378157.7194                   21378155.2364  -20712579.53649 -16139640.03647
  24117867.5624                   24117865.6224   -6675378.92648  -5201567.97044
  24766050.2324                                    6103667.30548   4756109.56344
  24038983.1764                   24038981.6344    2017897.44048   1572387.25945
  20750087.9794                   20750087.2784  -22958192.86649 -17889475.50547
 04  3  1  2 54 30.0000000  0  7G 9G14G22G18G21G 3G15
  21724722.7244                   21724720.9064  -16129854.72149 -12568701.17146
  21317883.3104                   21317880.6314  -19498170.86649 -15193363.80747
  20358852.0024                   20358847.8724  -25436387.46449 -19820532.74748
  21390249.1204                   21390246.5784  -20649038.94949 -16090127.90047
  24140557.3924                                   -6556007.49248
  24781999.3804                                    6187494.91348
  20762439.7544                   20762439.4164  -22893282.53849 -17838896.03547
 04  3  1  2 55  0.0000000  0  8G 9G14G22G18G21G 3G11G15
  21732785.9244                   21732784.1874  -16087480.92449 -12535682.64646
  21305386.1444                   21305383.7754  -19563844.67949 -15244538.19647
  20358891.2114                   20358886.7534  -25436182.65349 -19820373.15448
  21402398.6354                   21402395.9394  -20585193.71149 -16040378.36747
  24163241.8584                                   -6436740.28448  -5015615.93144
  24797983.0394                   24797987.8234    6271478.87148   4886871.73544
  25172211.7284                                         -1.21258        -1.18854
  20774892.5654                   20774891.9654  -22827842.32149 -17787903.66447
 04  3  1  2 55 30.0000000  0  8G 9G14G22G18G21G 3G11G15
  21740972.0864                   21740970.7474  -16044463.62449 -12502162.68146
  21292959.2634                   21292957.0744  -19629146.08649 -15295422.39247
  20359002.1934                   20358997.8484  -25435599.60449 -19819918.82248
  21414608.0224                   21414605.6534  -20521030.85049 -15990381.33647
  24185960.0194                   24185957.9954   -6317361.00248  -4922593.11344
  24813997.2524                   24813999.9684    6355629.46348   4952443.60344
  25153469.3264                                     -98493.86248
  20787448.7064                   20787448.2144  -22761860.66149 -17736489.39947
 04  3  1  2 56  0.0000000  0  8G 9G14G22G18G21G 3G11G15
  21749281.6924                   21749280.0404  -16000795.79449 -12468135.81146
  21280605.7714                   21280603.6784  -19694065.53249 -15346008.95147
  20359187.0274                   20359182.7024  -25434629.04849 -19819162.54248
  21426879.8594                   21426877.2574  -20456542.37449 -15940130.58547
  24208699.0134                   24208698.1234   -6197865.41548  -4829479.72144
  24830042.1614                                    6439952.52348
  25134766.6594                                    -196775.90848
  20800108.9454                   20800108.1554  -22695330.38449 -17684647.63847
 04  3  1  2 56 30.0000000  0  8G 9G14G22G18G21G 3G11G15
  21757709.2794                   21757708.4154  -15956505.33449 -12433623.77446
  21268320.2274                   21268317.9794  -19758628.62449 -15396317.83247
  20359440.4234                   20359436.0464  -25433296.91249 -19818124.51748
  21439208.8904                   21439206.3654  -20391755.04849 -15889646.95747
  24231453.4194                                   -6078282.17748  -4736298.01644
  24846114.9884                                    6524419.10248
  25116100.3714                                    -294870.89248   -229769.55144
  20812868.4794                   20812867.6044  -22628279.49249 -17632400.19947
 04  3  1  2 57  0.0000000  0  8G 9G14G22G18G21G 3G11G15
  21766258.3904                   21766256.3974  -15911584.17849 -12398620.28346
  21256104.0384                   21256101.4554  -19822824.63249 -15446340.67847
  20359764.3564                   20359760.1884  -25431592.76849 -19816796.61248
  21451595.8854                   21451593.0354  -20326659.68249 -15838923.30447
  24254227.6354                                   -5958603.73648
  24862217.6204                   24862219.3004    6609035.87348   5149903.13244
  25097471.1604                                    -392766.80048   -306051.98144
  20825728.3594                   20825727.5544  -22560700.20749 -17579741.03047
 04  3  1  2 57 30.0000000  0  8G 9G14G22G18G21G 3G11G15
  21774926.3444                   21774924.7464  -15866034.69349 -12363127.17746
  21243957.5314                   21243955.2494  -19886653.34349 -15496077.32047
  20360159.4484                   20360155.3114  -25429517.13249 -19815179.23148
  21464041.5204                   21464038.6234  -20261257.78449 -15787960.79547
  24277020.2544                                   -5838833.01248
  24878346.9754                   24878350.3024    6693799.45848   5215952.64644
  25078878.8874                   25078877.3934    -490461.85048   -382178.02644
  20838688.2464                   20838687.4854  -22492594.85049 -17526671.91647
 04  3  1  2 58  0.0000000  0  8G 9G14G22G18G21G 3G11G15
  21783712.6924                   21783711.8244  -15819860.65549 -12327147.41246
  21231881.0884                   21231878.7824  -19950115.71649 -15545528.49947
  20360624.9434                   20360620.7634  -25427071.43049 -19813273.49348
  21476544.9734                   21476542.3074  -20195551.70949 -15736761.26947
  24299828.9924                                   -5718974.39548
  24894507.3914                   24894509.2004    6778705.03048   5282112.80044
  25060326.3534                                    -587955.16848
  20851747.9204                   20851747.3494  -22423967.19349 -17473195.83547
 04  3  1  2 58 30.0000000  0  8G 9G14G22G18G21G 3G11G15
  21792619.6944                   21792617.6164  -15773053.53849 -12290674.33946
  21219876.6114                   21219874.0464  -20013200.87849 -15594685.74747
  20361163.0564                   20361158.7794  -25424244.87249 -19811070.97348
  21489108.3634                   21489106.0124  -20129531.59749 -15685317.03847
  24322655.8164                                   -5599019.99848  -4362847.09944
  24910690.2344                                    6863759.80548
  25041814.2204                                    -685234.27448   -533948.69844
  20864908.1504                   20864907.4364  -22354808.81349 -17419306.19747
 04  3  1  2 59  0.0000000  0  8G 9G14G22G18G21G 3G11G15
  21801643.6294                   21801642.1724  -15725631.97849 -12253722.48946
  21207940.3904                   21207938.0264  -20075924.62449 -15643561.37147
  20361769.9334                   20361765.5894  -25421053.77149 -19808584.40048
  21501727.9074                   21501725.1924  -20063215.02449 -15633641.79247
  24345495.2184                                   -5478988.78148  -4269316.37044
  24926900.6494                                    6948944.24548
  25023341.4824                   25023339.8304    -782313.35848   -609594.65444
  20878165.8174                   20878165.6444  -22285138.30149 -17365017.48847
 04  3  1  2 59 30.0000000  0  8G 9G14G22G18G21G 3G11G15
  21810790.1804                   21810788.7274  -15677565.75649 -12216268.30746
  21196079.2334                   21196076.9534  -20138254.47049 -15692130.06147
  20362452.8604                   20362448.5434  -25417465.80249 -19805788.57848
  21514410.0434                   21514407.4794  -19996570.69349 -15581711.14347
  24368357.4314                                   -5358851.21148
  24943141.4094                                    7034287.36348
  25004914.9954                   25004912.1604    -879158.16648   -685058.10444
  20891526.9434                   20891526.7454  -22214925.80449 -17310306.45947
 04  3  1  3  0  0.0000000  0  8G 9G14G22G18G21G 3G11G15
  21820060.8004                   21820059.4814  -15628851.97449 -12178309.52946
  21184294.5464                   21184292.1404  -20200184.72149 -15740387.37947
  20363212.1464                   20363207.6844  -25413475.70249 -19802679.40448
  21527154.9814                   21527152.8224  -19929594.41749 -15529521.84147
  24391242.6134                                   -5238604.86448
  24959413.4214                                    7119791.33548
  24986531.7224                   24986528.9624    -975761.17348   -760333.14144
  20904991.9014                   20904991.0954  -22144168.23749 -17255170.70447
 04  3  1  3  0 30.0000000  0  8G 9G14G22G18G21G 3G11G15
  21829437.9674                   21829436.5254  -15579572.08149 -12139909.62446
  21172570.4794                   21172568.0174  -20261793.95849 -15788394.55147
  20364032.8754                   20364028.4464  -25409162.60249 -19799318.54348
  21539947.9914                   21539945.5654  -19862366.43849 -15477136.41347
  24414128.3114                                   -5118331.80548  -3988285.03444
  24975698.5964                                    7205373.48148
  24968179.4114                   24968175.7604   -1072199.51848   -835479.86644
  20918544.3904                   20918543.6624  -22072947.45649 -17199674.00747
 04  3  1  3  1  0.0000000  0  8G 9G14G22G18G21G 3G11G15
  21838925.3044                   21838923.6354  -15529716.97649 -12101061.48146
  21160909.4844                   21160907.1204  -20323070.43749 -15836142.41347
  20364917.4764                   20364913.1234  -25404515.05849 -19795697.08048
  21552791.2884                   21552788.7524  -19794876.13849 -15424546.57147
  24437021.0744                   24437019.2204   -4998022.96348  -3894537.92444
  24992001.2364                   24992000.0984    7291041.87948   5681336.27544
  24949861.8234                                   -1168459.83048   -910487.90644
  20932187.4224                   20932187.1034  -22001254.26949 -17143809.19947
 04  3  1  3  1 30.0000000  0  8G 9G14G22G18G21G 3G11G15
  21848549.2244                   21848547.2474  -15479142.31749 -12061652.66046
  21149340.7754                   21149337.9254  -20383867.19449 -15883516.46347
  20365893.3294                   20365888.8494  -25399386.47249 -19791700.78048
  21565711.4844                   21565709.1754  -19726978.00949 -15371638.94447
  24459950.0004                                   -4877534.60148  -3800650.91344
  25008345.1484                                    7376940.07448   5748269.75844
  24931606.5794                   24931601.8934   -1264393.69248   -985241.51044
  20945947.6824                   20945947.3014  -21928944.37749 -17087463.84547
 04  3  1  3  2  0.0000000  0  8G 9G14G22G18G21G 3G11G15
  21858295.6684                   21858294.1274  -15427923.80249 -12021742.14246
  21137848.6944                   21137846.2494  -20444257.45049 -15930573.77547
  20366946.7244                   20366942.4504  -25393850.16249 -19787386.77248
  21578695.6804                   21578692.9184  -19658746.50249 -15318471.53147
  24482898.0724                                   -4756943.09948  -3706683.50844
  25024720.2604                                    7462991.53148
  24913398.5174                   24913395.7284   -1360072.08348  -1059796.12744
  20959810.5144                   20959810.0704  -21856093.47649 -17030696.92047
 04  3  1  3  2 30.0000000  0  8G 9G14G22G18G21G 3G11G15
  21868139.3984                   21868137.6104  -15376195.27149 -11981434.20846
  21126409.0284                   21126406.3624  -20504372.24449 -15977416.45247
  20368052.8804                   20368048.5744  -25388037.87049 -19782857.71448
  21591717.7334                   21591715.4894  -19590314.10049 -15265147.59147
  24505837.7624                                   -4636382.41648
  25041098.3094                                    7549061.21248
  24895214.7614                   24895212.2864   -1455624.42348  -1134252.45544
  20973750.9054                   20973750.5744  -21782835.71849 -16973612.96047
 04  3  1  3  3  0.0000000  0  7G 9G14G22G18G 3G11G15
  21878104.2644                   21878102.9034  -15323828.47549 -11940628.91446
  21115046.9664                   21115044.6464  -20564080.77449 -16023942.56747
  20369236.2694                   20369231.8764  -25381818.74049 -19778011.64748
  21604803.3564                   21604800.7634  -19521551.20949 -15211566.12747
  25057504.3584                                    7635276.45648
  24877081.9474                   24877076.9954   -1550917.83148  -1208507.03044
  20987793.5694                   20987792.7404  -21709042.87249 -16916112.05047
 04  3  1  3  3 30.0000000  0  7G 9G14G22G18G 3G11G15
  21888182.9154                   21888181.3264  -15270866.30549 -11899359.69946
  21103754.2884                   21103752.2684  -20623423.06949 -16070183.30247
  20370489.4064                   20370484.9564  -25375233.15049 -19772880.02348
  21617943.1034                   21617940.6594  -19452499.38449 -15157759.51147
  25073932.1734                   25073934.0884    7721593.88848   6016831.18244
  24858991.5924                   24858986.6284   -1645990.79748  -1282589.86644
  21001929.7114                   21001928.6084  -21634757.57549 -16858227.42047
 04  3  1  3  4  0.0000000  0  8G 9G14G22G18G 5G 3G11G15
  21898380.0634                   21898378.5924  -15217279.08549 -11857603.43246
  21092537.9574                   21092535.6934  -20682366.64249 -16116113.36247
  20371818.3434                   20371813.8944  -25368249.23049 -19767437.99348
  21631143.9884                   21631141.8044  -19383127.70049 -15103703.66347
  24956142.1174                                          -.57958
  25090382.1684                                    7808042.12648
  24840948.5094                   24840944.5294   -1740809.25448  -1356474.32544
  21016165.0064                   21016164.2294  -21559950.33149 -16799936.07347
 04  3  1  3  4 30.0000000  0  8G 9G14G22G18G 5G 3G11G15
  21908690.8644                   21908689.0274  -15163098.22249 -11815384.57846
  21081391.9374                   21081389.6054  -20740940.10149 -16161755.01947
  20373217.4964                   20373213.2364  -25360896.04949 -19761708.24148
  21644400.7634                   21644398.0024  -19313465.81149 -15049421.67347
  24940641.2964                                     -81466.26048
  25106848.8464                                    7894588.90748   6151632.37544
  24822947.3954                   24822949.7954   -1835399.93248  -1430181.35144
  21030493.7324                   21030492.6824  -21484652.79349 -16741262.66847
 04  3  1  3  5  0.0000000  0  8G 9G14G22G18G 5G 3G11G15
  21919115.6014                   21919113.5854  -15108313.10449 -11772694.87046
  21070318.7694                   21070316.3244  -20799130.27549 -16207098.00447
  20374689.7674                   20374685.4954  -25353160.50649 -19755680.55348
  21657714.0314                   21657711.6904  -19243502.03649 -14994904.45547
  24925178.6554                                    -162728.61948
  25123340.5194                                    7981244.05448   6219155.85144
  24804992.7514                   24804993.7124   -1929748.00248  -1503699.28944
  21044917.7044                   21044916.5444  -21408854.32649 -16682198.93747
 04  3  1  3  5 30.0000000  0  8G 9G14G22G18G 5G 3G11G15
  21929652.9244                   21929651.9714  -15052937.05049 -11729544.68646
  21059316.5204                   21059314.1164  -20856947.60449 -16252150.46347
  20376232.5544                   20376228.2834  -25345053.35649 -19749363.29548
  21671082.6434                   21671080.3154  -19173248.35649 -14940161.34547
  24909751.7304                                    -243795.78148   -189969.60844
  25139849.5884                   25139848.3284    8067993.41348   6286752.73844
  24787083.6004                   24787080.2744   -2023862.09248  -1577034.99044
  21059434.4054                   21059433.2204  -21332568.20349 -16622755.22647
 04  3  1  3  6  0.0000000  0  8G 9G14G22G18G 5G 3G11G15
  21940304.5294                   21940303.5534  -14996966.15949 -11685930.99246
  21048386.5464                   21048384.1214  -20914385.17049 -16296907.00347
  20377847.2154                   20377842.8434  -25336568.14949 -19742751.43548
  21684507.9264                   21684505.3584  -19102699.40449 -14885188.14947
  24894363.0904                                    -324658.53648
  25156376.0174                   25156374.7694    8154840.34648   6354425.67344
  24769220.0014                   24769217.6344   -2117733.62648  -1650181.67644
  21074044.7584                   21074043.7824  -21255790.14449 -16562928.18247
 04  3  1  3  6 30.0000000  0  8G 9G14G22G18G 5G 3G11G15
  21951070.0784                   21951068.0464  -14940391.54749 -11641846.89746
  21037530.8954                   21037528.5764  -20971431.38449 -16341358.58747
  20379535.6494                   20379531.4534  -25327693.44949 -19735836.08748
  21697991.3794                   21697988.4954  -19031844.82449 -14829976.79747
  24879018.6234                                    -405302.64048
  25172921.6974                                    8241793.13648   6422181.09644
  24751405.2484                   24751403.6084   -2211349.03248  -1723128.75444
  21088750.2114                   21088749.4174  -21178511.43049 -16502711.01747
 04  3  1  3  7  0.0000000  0  8G 9G14G22G18G 5G 3G11G15
  21961949.3984                   21961947.4364  -14883220.19749 -11597297.81946
  21026749.1484                   21026746.7214  -21028090.63549 -16385508.63347
  20381297.8344                   20381293.5344  -25318433.96749 -19728620.90648
  21711531.5164                   21711528.7164  -18960689.94649 -14774531.44947
  24863711.7024                                    -485730.24348
  25189486.7744                                    8328843.83348
  24733639.3544                   24733640.2674   -2304710.54348  -1795878.00544
  21103549.9174                   21103548.8874  -21100739.27449 -16442109.35547
 04  3  1  3  7 30.0000000  0  7G 9G14G22G18G 3G11G15
  21972940.5454                   21972938.7044  -14825462.28649 -11552291.67746
  21016039.1344                   21016036.8504  -21084370.18649 -16429362.81947
  20383131.6954                   20383127.3884  -25308797.38249 -19721111.87548
  21725127.3644                   21725124.7824  -18889243.02449 -14718858.55047
  25206068.3044                                    8415981.58348
  24715921.4744                   24715918.4234   -2397823.53348  -1868433.57444
  21118441.4284                   21118440.5514  -21022483.54349 -16381130.87147
 04  3  1  3  8  0.0000000  0  7G 9G14G22G18G 3G11G15
  21984041.5404                   21984039.9954  -14767123.09349 -11506832.58746
  21005401.4464                   21005399.2264  -21140272.42849 -16472923.00547
  20385036.5574                   20385032.4434  -25298786.18149 -19713310.94548
  21738777.8884                   21738775.5434  -18817508.17249 -14662961.29147
  25222666.7084                                    8503200.39248   6625874.93444
  24698249.3254                   24698249.0854   -2490688.91948  -1940796.18544
  21133424.1044                   21133423.5964  -20943749.55649 -16319779.72147
 04  3  1  3  8 30.0000000  0  7G 9G14G22G18G 3G11G15
  21995254.8674                   21995253.5854  -14708198.28249 -11460917.16946
  20994836.5464                   20994834.3174  -21195790.29349 -16516183.68747
  20387014.4884                   20387010.0924  -25288393.84249 -19705213.01448
  21752484.8144                   21752481.9424  -18745479.88049 -14606835.36647
  25239279.2554                                    8590504.02948   6693903.81044
  24680625.6044                   24680623.8054   -2583297.89348  -2012958.96244
  21148498.0414                   21148497.8294  -20864533.26049 -16258052.74747
 04  3  1  3  9  0.0000000  0  7G 9G14G22G18G 3G11G15
  22006579.5104                   22006577.9184  -14648687.53549 -11414545.16846
  20984345.6734                   20984343.4974  -21250920.52349 -16559142.31547
  20389065.0634                   20389060.9084  -25277617.42849 -19696815.81348
  21766247.4764                   21766245.0334  -18673156.21849 -14550479.27147
  25255908.9294                                    8677892.22348   6761998.49944
  24663052.3084                   24663049.2384   -2675645.10748  -2084917.79744
  21163664.8374                   21163663.9144  -20784834.09049 -16195949.51047
 04  3  1  3  9 30.0000000  0  8G 9G14G22G18G 5G 3G11G15
  22018016.8704                   22018016.1624  -14588581.92549 -11367709.63846
  20973931.0844                   20973929.0144  -21305651.25749 -16601789.64847
  20391190.8234                   20391186.6694  -25266445.16949 -19688110.14848
  21780068.5264                   21780065.8974  -18600526.80249 -14493884.94347
  24787812.7714                                          -.54858
  25272556.3734                                    8765373.54348   6830165.77244
  24645532.2344                   24645529.7804   -2767716.92448  -2156662.04244
  21178924.5634                   21178923.7314  -20704643.14349 -16133463.08247
 04  3  1  3 10  0.0000000  0  8G 9G14G22G18G 5G 3G11G15
  22029563.7924                   22029561.9684  -14527908.95349 -11320432.01346
  20963587.0914                   20963584.7764  -21360007.21449 -16644144.93947
  20393387.7444                   20393383.4394  -25254902.12549 -19679115.56848
  21793942.7984                   21793940.1414  -18527617.26149 -14437072.31647
  24772760.4434                                     -79093.14948
  25289215.8464                                    8852919.55148   6898383.27944
  24628060.5734                   24628056.5494   -2859536.19148  -2228209.51744
  21194272.8844                   21194272.0624  -20623987.96749 -16070614.91447
 04  3  1  3 10 30.0000000  0  8G 9G14G22G18G 5G 3G11G15
  22041216.6554                   22041215.4004  -14466669.50849 -11272712.97946
  20953315.3484                   20953312.7864  -21413986.43649 -16686206.67247
  20395655.1424                   20395650.8714  -25242986.66849 -19669830.79848
  21807870.4254                   21807867.7584  -18454427.20949 -14380041.11147
  24757752.0684                                    -157961.76548
  25305887.9354                                    8940528.83548
  24610635.7674                   24610635.8834   -2951099.10848  -2299557.20344
  21209708.8744                   21209708.4474  -20542869.46249 -16007405.72147
 04  3  1  3 11  0.0000000  0  8G 9G14G22G18G 5G 3G11G15
  22052980.1554                   22052979.0824  -14404851.89949 -11224543.43846
  20943117.8594                   20943115.1584  -21467574.31449 -16727963.46247
  20397996.2094                   20397991.8714  -25230684.51149 -19660244.69248
  21821853.9184                   21821851.7314  -18380943.07249 -14322780.74846
  24742788.5934                                    -236589.29547
  25322572.0604                                    9028212.91748
  24593265.9374                   24593265.1264   -3042388.98848  -2370692.15344
  21225235.7424                   21225234.8674  -20461275.78649 -15943826.26247
 04  3  1  3 11 30.0000000  0  8G 9G14G22G18G 5G 3G11G15
  22064855.1924                   22064853.6494  -14342449.39249 -11175918.13446
  20932996.7684                   20932994.0274  -21520761.17749 -16769407.76547
  20400412.4444                   20400408.2824  -25217986.01949 -19650349.76948
  21835895.0354                   21835892.5864  -18307156.45649 -14265284.69446
  24727871.8424                                    -314963.21147
  25339273.4284                                    9115977.85448
  24575947.2614                   24575943.4154   -3133394.53248  -2441605.56244
  21240854.5174                   21240853.3024  -20379200.08149 -15879871.15247
 04  3  1  3 12  0.0000000  0  7G 9G14G22G18G 5G11G15
  22076833.7894                   22076832.8464  -14279499.34549 -11126866.17646
  20922945.7504                   20922942.9404  -21573581.32049 -16810566.30247
  20402897.7474                   20402893.4464  -25204926.09549 -19640173.20648
  21849986.8574                   21849984.1284  -18233103.39749 -14207581.02246
  24713003.3694                                    -393115.63848
  24558675.5504                   24558675.5624   -3224148.14948  -2512322.65544
  21256557.1784                   21256556.4714  -20296679.77849 -15815569.61747
 04  3  1  3 12 30.0000000  0  8G 9G14G22G18G 5G31G11G15
  22088921.8574                   22088919.8904  -14215980.67449 -11077371.13446
  20912968.6294                   20912965.9574  -21626010.89649 -16851420.50547
  20405456.2334                   20405451.9114  -25191481.16249 -19629696.63048
  21864133.8314                   21864130.9834  -18158761.26349 -14149652.08546
  24698177.3734                                    -471020.19548
  24434520.0064                   24434517.3784           .18658         4.09056
  24541460.1084                   24541457.6484   -3314623.85048  -2582823.15844
  21272348.9584                   21272348.1594  -20213693.99349 -15750905.39247
 04  3  1  3 13  0.0000000  0  8G 9G14G22G18G 5G31G11G15
  22101120.0594                   22101118.0814  -14151874.06349 -11027417.96746
  20903070.1024                   20903067.6654  -21678027.56149 -16891952.95947
  20408092.3154                   20408088.1334  -25177629.05449 -19618902.77348
  21878339.3384                   21878337.0624  -18084108.88649 -14091481.41546
  24683406.5794                                    -548651.69348
  24446710.3174                   24446708.8944      64061.27748     49920.89544
  24524300.6324                   24524297.5454   -3404797.52648  -2653088.33144
  21288233.2354                   21288232.5324  -20130223.08349 -15685863.14347
 04  3  1  3 13 30.0000000  0  8G 9G14G22G18G 5G31G11G15
  22113424.0574                   22113423.1204  -14087216.75849 -10977035.68146
  20893243.6114                   20893241.2104  -21729666.11449 -16932190.77047
  20410799.0264                   20410794.8074  -25163404.52949 -19607818.73348
  21892597.2844                   21892594.5574  -18009182.07649 -14033096.90146
  24668676.2634                                    -626042.42247
  24458970.5054                                     128490.67448    100125.41344
  24507192.8424                   24507189.7534   -3494701.69848  -2723143.45044
  21304202.2834                   21304201.7954  -20046304.49649 -15620472.05147
 04  3  1  3 14  0.0000000  0  8G 9G14G22G18G 5G31G11G15
  22125834.5144                   22125832.6164  -14021998.25949 -10926216.09646
  20883491.5794                   20883489.2514  -21780912.94749 -16972123.34347
  20413579.2094                   20413574.7724  -25148794.45949 -19596434.26348
  21906910.1634                   21906907.6334  -17933968.74049 -13974489.10846
  24654001.1114                                    -703176.14247
  24471304.1644                   24471303.3654     193298.48848    150625.04844
  24490139.4644                   24490135.9934   -3584321.17548  -2792976.78244
  21320258.5654                   21320257.9234  -19961927.67249 -15554723.90947
 04  3  1  3 14 30.0000000  0  8G 9G14G22G18G 5G31G11G15
  22138351.8074                   22138350.3564  -13956221.29049 -10874961.33946
  20873814.3664                   20873811.9064  -21831767.60849 -17011750.32547
  20416432.8534                   20416428.5844  -25133798.85949 -19584749.38048
  21921277.2824                   21921275.0364  -17858469.67549 -13915658.68246
  24639371.1014                                    -780050.26247
  24483709.5364                   24483707.6774     258481.90848    201417.32144
  24473139.8564                   24473138.9694   -3673653.39148  -2862586.31844
  21336401.7684                   21336401.2894  -19877095.07549 -15488620.60347
 04  3  1  3 15  0.0000000  0  8G 9G14G22G18G 5G31G11G15
  22150975.8094                   22150974.1974  -13889880.58249 -10823267.32646
  20864213.0124                   20864210.5774  -21882221.88949 -17051065.32047
  20419361.4814                   20419357.3294  -25118409.53749 -19572757.69948
  21935699.8844                   21935697.8194  -17782677.86849 -13856600.13346
  24624795.0494                                    -856653.53548
  24496185.1324                   24496183.5364     324045.86848    252506.11244
  24456196.8224                   24456194.2164   -3762688.34648  -2931964.15744
  21352632.3564                   21352631.8954  -19791801.32149 -15422157.95847
 04  3  1  3 15 30.0000000  0  8G 9G14G22G18G 5G31G11G15
  22163704.3384                   22163703.2954  -13822993.57749 -10771147.61446
  20854685.4694                   20854682.6844  -21932290.43249 -17090079.75947
  20422361.7824                   20422357.5364  -25102641.57649 -19560470.97948
  21950175.2124                   21950172.6844  -17706609.48549 -13797326.08146
  24610263.8704                                    -932998.18547
  24508729.1054                   24508731.5304     389972.53848    303877.55244
  24439307.3064                   24439304.1454   -3851438.68648  -3001120.21844
  21368948.2094                   21368947.8044  -19706063.94549 -15355349.62747
 04  3  1  3 16  0.0000000  0  8G 9G14G22G18G 5G31G11G15
  22176535.6394                   22176534.3924  -13755563.07249 -10718604.36846
  20845231.1214                   20845228.5054  -21981972.94049 -17128793.39047
  20425434.3554                   20425430.1334  -25086494.85849 -19547889.11648
  21964703.0804                   21964700.5024  -17630265.23049 -13737837.05846
  24595788.7154                                   -1009081.30248
  24521343.4214                   24521345.7264     456259.00248    355529.37244
  24422472.9914                   24422471.6944   -3939902.13648  -3070052.77744
  21385347.1804                   21385346.8954  -19619885.65949 -15288197.74347
 04  3  1  3 16 30.0000000  0  8G 9G14G22G18G 5G31G11G15
  22189471.2164                   22189469.9804  -13687586.40849 -10665635.55146
  20835851.3474                   20835848.9384  -22031263.82549 -17167201.86247
  20428580.2034                   20428575.8464  -25069964.01049 -19535007.93648
  21979284.3164                   21979281.4124  -17553640.54949 -13678129.50846
  24581363.9324                   24581360.4404   -1084894.43048   -845371.12044
  24534026.9054                   24534027.9194     522907.41048    407463.19944
  24405693.7694                   24405692.3064   -4028071.14648  -3138755.87244
  21401830.7244                   21401830.2094  -19533263.69449 -15220700.13047
 04  3  1  3 17  0.0000000  0  8G 9G14G22G18G 5G31G11G15
  22202513.1684                   22202511.8104  -13619052.65249 -10612232.62746
  20826548.8104                   20826546.1844  -22080149.39049 -17205294.49347
  20431801.5664                   20431797.3104  -25053035.43849 -19521816.84348
  21993920.7344                   21993918.8954  -17476723.44549 -13618194.10046
  24566989.0724                                   -1160421.77948   -904223.39844
  24546779.5874                   24546779.4954     589928.39948    459687.33144
  24388976.0664                   24388973.2844   -4115930.05148  -3207217.40344
  21418400.7474                   21418400.4484  -19446187.24549 -15152848.36747
 04  3  1  3 17 30.0000000  0  8G 9G14G22G18G 5G31G11G15
  22215655.9224                   22215654.3224  -13549986.66249 -10558414.97346
  20817319.0664                   20817316.5554  -22128651.23749 -17243088.11647
  20435094.3324                   20435090.1654  -25035731.13349 -19508332.96548
  22008609.2164                   22008606.6074  -17399536.94249 -13558048.78046
  24552663.5804                                   -1235682.21847   -962867.80344
  24559601.2534                   24559602.7624     657297.01348    512182.33244
  24372312.9194                   24372309.8544   -4203498.41848  -3275452.42745
  21435053.0074                   21435052.0614  -19358680.95449 -15084661.66847
 04  3  1  3 18  0.0000000  0  8G 9G14G22G18G 5G31G11G15
  22228901.5874                   22228900.1244  -13480381.60749 -10504177.26146
  20808164.3424                   20808161.7544  -22176759.68949 -17280575.20047
  20438460.7144                   20438456.4264  -25018041.73549 -19494549.01848
  22023350.3744                   22023348.1254  -17322072.19849 -13497686.65246
  24538398.5224                                   -1310663.34848  -1021294.49744
  24572488.3574                   24572487.4384     725019.75048    564953.31244
  24355707.0194                   24355704.1714   -4290764.35848  -3343451.80845
  21451787.7414                   21451787.3094  -19270737.79749 -15016134.55347
 04  3  1  3 18 30.0000000  0  8G 9G14G22G18G 5G31G11G15
  22242247.7644                   22242246.5634  -13410243.81849 -10449524.43046
  20799083.6394                   20799081.1264  -22224477.92949 -17317758.21847
  20441899.4684                   20441895.1614  -24999970.68749 -19480467.68448
  22038143.1564                   22038140.7644  -17244333.58249 -13437111.13146
  24524183.2044                   24524178.8464   -1385365.81048  -1079504.03144
  24585439.8154                   24585439.8924     793090.19748    617995.20545
  24339155.7554                   24339154.0714   -4377729.22748  -3411216.60044
  21468604.7904                   21468604.2254  -19182364.11349 -14947271.96847
 04  3  1  3 19  0.0000000  0  7G 9G14G22G18G 5G11G15
  22255699.0204                   22255697.7804  -13339557.34549 -10394444.07146
  20790081.4554                   20790078.6674  -22271786.90249 -17354622.34147
  20445414.5274                   20445410.1824  -24981499.18449 -19466074.30248
  22052992.2764                   22052989.6264  -17166303.62149 -13376308.57446
  24510025.0914                   24510019.5574   -1459768.04948  -1137479.12344
  24322669.4264                   24322668.2004   -4464372.09648  -3478730.46644
  21485506.8284                   21485506.1744  -19093543.62149 -14878061.22447
 04  3  1  3 19 30.0000000  0  8G 9G14G22G18G 5G25G11G15
  22269249.4164                   22269248.1244  -13268349.64049 -10338957.56346
  20781151.9584                   20781149.5014  -22318711.27449 -17391186.77447
  20449000.9304                   20448996.6854  -24962652.23449 -19451388.36348
  22067891.2344                   22067888.4344  -17088008.10449 -13315299.08446
  24495920.1464                                   -1533891.84548
  25060528.5634                                          -.91057
  24306240.6824                   24306238.2584   -4550715.62548  -3546011.14944
  21502488.0364                   21502487.9704  -19004304.01049 -14808523.90147
 04  3  1  3 20  0.0000000  0  8G 9G14G22G18G 5G25G11G15
  22282898.3874                   22282895.5864  -13196627.40349 -10283070.10846
  20772294.6064                   20772292.3794  -22365254.83149 -17427454.47147
  20452658.3234                   20452654.0544  -24943433.24849 -19436412.52948
  22082839.8084                   22082837.5064  -17009451.76849 -13254086.36746
  24481866.7504                                   -1607738.36048  -1252780.91244
  25039371.5484                                    -111179.95548
  24289865.9614                   24289862.5164   -4636761.41948  -3613059.77845
  21519548.8494                   21519548.2124  -18914651.71849 -14738665.00247
 04  3  1  3 20 30.0000000  0  8G 9G14G22G18G 5G25G11G15
  22296644.5994                   22296642.7824  -13124385.88649 -10226778.02646
  20763512.1894                   20763509.2894  -22411409.53949 -17463419.16847
  20456387.5664                   20456383.2514  -24923835.00849 -19421141.17148
  22097839.7984                   22097836.9974  -16930627.97549 -13192665.23846
  24467868.1744                                   -1681297.23648
  25018217.4724                                    -222348.16148
  24273549.6194                   24273546.5304   -4722499.62348  -3679868.76944
  21536688.2564                   21536687.7534  -18824582.00149 -14668480.81947
 04  3  1  3 21  0.0000000  0  8G 9G14G22G18G 5G25G11G15
  22310496.5094                   22310495.7814  -13051594.73749 -10170057.67046
  20754809.3544                   20754806.7264  -22457142.11349 -17499054.93647
  20460195.1584                   20460191.2054  -24903824.21749 -19405548.34448
  22112896.5384                   22112894.1214  -16851504.56049 -13131010.62346
  24453934.5184                                   -1754532.58648  -1367165.80044
  24997071.2364                                    -333470.31548   -259845.52044
  24257299.5104                   24257297.3034   -4807894.90448  -3746410.50344
  21553913.3864                   21553912.5064  -18734064.31949 -14597947.58747
 04  3  1  3 21 30.0000000  0  8G 9G14G22G18G 5G25G11G15
  22324445.8044                   22324445.2554  -12978291.14549 -10112937.99146
  20746180.4704                   20746177.9384  -22502486.82749 -17534388.47347
  20464075.2594                   20464071.0084  -24883435.47549 -19389661.01148
  22128003.7434                   22128000.7734  -16772117.17549 -13069150.32246
  24440049.9064                                   -1827475.87348  -1424004.68144
  24975926.8614                                    -444579.04448
  24241107.8484                   24241103.7834   -4892979.31548  -3812710.08844
  21571216.5094                   21571215.6904  -18643135.87249 -14527094.28347
 04  3  1  3 22  0.0000000  0  8G 9G14G22G18G 5G25G11G15
  22338494.8764                   22338493.7944  -12904464.55449 -10055410.78146
  20737628.3194                   20737625.4844  -22547429.93749 -17569409.06747
  20468029.8964                   20468025.4694  -24862655.31049 -19373468.67348
  22143163.5944                   22143160.4104  -16692453.36449 -13007074.63446
  24426229.6254                                   -1900110.95348  -1480603.27544
  24954787.5544                                    -555658.77048   -432979.12144
  24224978.7764                   24224976.9064   -4977737.31648  -3878755.26545
  21588600.2084                   21588599.4574  -18551785.94349 -14455912.54747
 04  3  1  3 22 30.0000000  0  8G 9G14G22G18G 5G25G11G15
  22352641.0214                   22352639.5874  -12830123.06649  -9997482.35446
  20729151.0014                   20729148.5414  -22591976.61249 -17604120.74147
  20472057.2044                   20472053.1434  -24841489.07249 -19356975.50348
  22158374.5104                   22158372.0134  -16612519.60049 -12944788.61446
  24412465.9854                                   -1972440.38848  -1536963.86444
  24933656.1824                   24933657.0864    -666712.76148   -519514.57244
  24208913.1694                   24208910.1194   -5062171.62248  -3944548.17945
  21606061.9824                   21606061.1904  -18460022.81749 -14384408.83547
 04  3  1  3 23  0.0000000  0  8G 9G14G22G18G 5G25G11G15
  22366885.9134                   22366885.7424  -12755267.06749  -9939153.01546
  20720750.1474                   20720747.5104  -22636124.29349 -17638521.50047
  20476159.0704                   20476154.8584  -24819934.23349 -19340179.52248
  22173636.5654                   22173633.8524  -16532314.34449 -12882291.04846
  24398760.5424                   24398760.8974   -2044458.63248  -1593081.91044
  24912530.0994                   24912528.7674    -777736.39748   -606026.35744
  24192906.8104                   24192905.7084   -5146277.86048  -4010085.41745
  21623602.7994                   21623602.3814  -18367846.67449 -14312583.29047
 04  3  1  3 23 30.0000000  0  8G 9G14G22G18G 5G25G11G15
  22381227.8984                   22381227.1234  -12679901.90149  -9880426.91646
  20712424.7164                   20712422.0234  -22679875.29949 -17672613.17047
  20480334.2214                   20480329.9884  -24797993.31849 -19323082.70748
  22188950.1584                   22188947.2014  -16451841.13549 -12819584.67846
  24385114.7754                   24385113.4364   -2116165.53048  -1648957.34744
  24891408.6724                   24891408.4594    -888730.10348   -692514.88144
  24176963.9054                   24176961.5224   -5230056.33948  -4075367.29444
  21641220.5804                   21641220.5124  -18275262.54449 -14240439.84046
 04  3  1  3 24  0.0000000  0  8G 9G14G22G18G 5G25G11G15
  22395664.9434                   22395663.9344  -12604030.23149  -9821306.14246
  20704174.4984                   20704171.9664  -22723228.84749 -17706395.12847
  20484583.0854                   20484578.9694  -24775666.32449 -19305685.05148
  22204314.2204                   22204312.0814  -16371100.65949 -12756670.03746
  24371529.5744                   24371528.5054   -2187557.56348  -1704587.43644
  24870293.2464                   24870295.0824    -999691.43248   -778978.13944
  24161084.9524                   24161081.5684   -5313504.45748  -4140391.73745
  21658916.1374                   21658916.1524  -18182272.78849 -14167980.31046
 04  3  1  3 24 30.0000000  0  8G 9G14G22G18G 5G25G11G15
  22410198.7624                   22410197.5024  -12527657.10749  -9761794.64746
  20695999.8294                   20695997.3784  -22766187.28949 -17739869.20447
  20488904.7554                   20488900.8204  -24752954.81549 -19287987.76748
  22219728.9284                   22219726.6704  -16290095.27249 -12693548.99246
  24357999.4334                                   -2258634.11848
  24849184.6324                   24849185.6094   -1110620.73848   -865416.46244
  24145268.0434                   24145266.2144   -5396621.75648  -4205158.39545
  21676687.2214                   21676687.1774  -18088882.49849 -14095208.67846
 04  3  1  3 25  0.0000000  0  8G 9G14G22G18G 5G25G11G15
  22424828.4894                   22424826.1314  -12450778.71149  -9701889.43246
  20687901.6144                   20687899.2664  -22808743.68649 -17773029.99847
  20493300.9534                   20493296.9204  -24729852.57049 -19269986.01648
  22235195.2024                   22235193.0514  -16208819.98049 -12630217.64246
  24344539.8844                                   -2329169.23948  -1814934.13344
  24828083.6024                   24828084.8434   -1221509.14248   -951822.90244
  24129516.1314                   24129513.0724   -5479399.75848  -4269660.68544
  21694536.2174                   21694535.6484  -17995087.78149 -14022121.90046
 04  3  1  3 25 30.0000000  0  8G 9G14G22G18G 5G25G11G15
  22439551.3814                   22439549.8364  -12373407.21149  -9641599.97646
  20679877.7974                   20679875.3334  -22850907.24449 -17805884.70747
  20497770.0414                   20497765.7424  -24706369.10549 -19251687.20948
  22250710.9594                   22250708.3194  -16127285.44049 -12566684.26346
  24331138.5344                                   -2399603.24348  -1869817.75144
  24806988.3584                   24806987.7514   -1332364.05448  -1038203.27644
  24113826.2694                   24113823.0794   -5561845.52248  -4333904.08845
  21712459.6624                   21712458.7084  -17900900.97449 -13948729.60746
 04  3  1  3 26  0.0000000  0  8G 9G14G22G18G 5G25G11G15
  22454368.6054                   22454366.6364  -12295542.15649  -9580925.94346
  20671930.0684                   20671927.5454  -22892674.55449 -17838430.65147
  20502311.8904                   20502307.8304  -24682501.17649 -19233088.82548
  22266276.1344                   22266273.8924  -16045489.26249 -12502947.01846
  24317796.8264                                   -2469712.98148  -1924448.62044
  24785900.3114                   24785900.7454   -1443180.06948  -1124553.34244
  24098201.2334                   24098199.7394   -5643953.53748  -4397884.27345
  21730457.2324                   21730456.6724  -17806321.33649 -13875031.20646
 04  3  1  3 26 30.0000000  0  8G 9G14G22G18G 5G25G11G15
  22469283.6574                   22469282.0784  -12217164.26849  -9519852.29446
  20664061.8194                   20664059.2194  -22934022.88549 -17870650.10847
  20506930.9024                   20506927.1154  -24658226.45549 -19214173.46648
  22281894.8914                   22281892.0374  -15963410.21649 -12438989.35046
  24304521.4544                   24304521.5504   -2539473.06948  -1978807.07644
  24764824.6344                   24764824.0024   -1553932.96148  -1210854.21544
  24082645.5984                   24082642.7624   -5725699.54948  -4461582.47345
  21748533.7524                   21748533.2994  -17711329.46349 -13801011.57946
 04  3  1  3 27  0.0000000  0  8G 9G14G22G18G 5G25G11G15
  22484288.3534                   22484286.1244  -12138313.28049  -9458409.97146
  20656266.1434                   20656263.5464  -22974989.25649 -17902571.93347
  20511620.4944                   20511616.5584  -24633582.08849 -19194970.07048
  22297560.5944                   22297558.7844  -15881086.08049 -12374840.70646
  24291307.1614                   24291306.4884   -2608917.82848  -2032919.86944
  24743754.0574                   24743756.5684   -1664657.44448  -1297132.97444
  24067153.4294                   24067150.0624   -5807117.94248  -4525025.38745
  21766681.1284                   21766679.9604  -17615964.80349 -13726701.45646
 04  3  1  3 27 30.0000000  0  8G 9G14G22G18G 5G25G11G15
  22499386.9174                   22499386.1354  -12058971.70149  -9396585.36146
  20648546.8524                   20648544.4424  -23015552.99849 -17934180.02547
  20516384.8984                   20516380.4924  -24608547.56149 -19175462.64448
  22313276.2194                   22313274.1884  -15798497.73549 -12310486.18346
  24278156.5364                   24278154.2474   -2678024.19148  -2086768.89444
  24722693.6254                   24722691.7344   -1775330.70048  -1383371.82344
  24051725.8744                   24051722.0984   -5888186.07148  -4588195.36945
  21784902.5394                   21784901.8284  -17520210.01249 -13652087.35646
 04  3  1  3 28  0.0000000  0  8G 9G14G22G18G 5G25G11G15
  22514577.4644                   22514577.7994  -11979139.69549  -9334378.61846
  20640905.0704                   20640902.5854  -23055711.40549 -17965472.27747
  20521223.5644                   20521219.2684  -24583120.05049 -19155648.99148
  22329044.3724                   22329041.2424  -15715642.95049 -12245924.04446
  24265071.6354                                   -2746786.58948  -2140349.93844
  24701643.8964                   24701645.0244   -1885948.15448  -1469567.16644
  24036367.5654                   24036363.6384   -5968899.08748  -4651088.60144
  21803198.1444                   21803198.2504  -17424065.33649 -13577169.46246
 04  3  1  3 28 30.0000000  0  8G 9G14G22G18G 5G25G11G15
  22529862.3744                   22529861.0284  -11898821.54449  -9271793.05446
  20633340.4204                   20633337.7124  -23095465.63249 -17996449.58947
  20526136.5164                   20526132.2654  -24557301.23149 -19135530.42547
  22344861.1984                   22344858.5164  -15632524.34149 -12181156.32546
  24252051.8154                                   -2815203.57948  -2193661.82244
  24680604.6074                   24680605.9644   -1996509.07748  -1555718.45044
  24021076.9674                   24021073.1314   -6049255.82148  -4713704.24145
  21821567.2374                   21821567.2914  -17327534.57149 -13501950.72346
 04  3  1  3 29  0.0000000  0  8G 9G14G22G18G 5G25G11G15
  22545237.5204                   22545236.2604  -11818024.10149  -9208834.02146
  20625851.4134                   20625848.7584  -23134819.34149 -18027114.81747
  20531123.7314                   20531119.3674  -24531094.88949 -19115109.89947
  22360726.3684                   22360724.2334  -15549146.74749 -12116186.79446
  24239097.5444                   24239096.2424   -2883276.10348  -2246705.25044
  24659576.2414                   24659573.4374   -2107014.88648  -1641826.80644
  24005851.2804                   24005848.8354   -6129257.95848  -4776043.54345
  21840008.6654                   21840008.9514  -17230624.30049 -13426436.27346
 04  3  1  3 29 30.0000000  0  8G 9G14G22G18G 5G25G11G15
  22560703.1164                   22560702.4484  -11736747.47049  -9145501.58746
  20618439.2094                   20618436.5614  -23173769.62749 -18057465.68647
  20536184.8164                   20536180.4744  -24504498.32449 -19094385.30547
  22376643.2654                   22376641.0024  -15465508.65749 -12051014.26846
  24226209.8894                   24226207.8504   -2950998.54948  -2299475.96344
  24638558.9844                   24638555.7114   -2217461.09948  -1727888.72544
  23990695.3884                   23990695.5904   -6208900.60048  -4838102.70345
  21858523.1884                   21858522.5544  -17133334.65149 -13350626.18546
 04  3  1  3 30  0.0000000  0  8G 9G14G22G18G 5G25G11G15
  22576261.6744                   22576260.5334  -11654988.14349  -9081793.01646
  20611105.3304                   20611102.8174  -23212309.80149 -18087496.97347
  20541321.1944                   20541317.2084  -24477505.15149 -19073351.67248
  22392609.8914                   22392607.8094  -15381604.43949 -11985634.38346
  24213391.0764                   24213389.5174   -3018362.28948  -2351967.13244
  24617554.5804                   24617553.9974   -2327839.12948  -1813897.52544
  23975611.4484                   23975610.9704   -6288175.31348  -4899875.18544
  21877109.1184                   21877108.7864  -17035662.19849 -13274517.80746
 04  3  1  3 30 30.0000000  0  8G 9G14G22G18G 5G25G11G15
  22591907.4974                   22591906.2114  -11572775.17749  -9017730.96646
  20603844.2384                   20603842.0214  -23250466.31149 -18117229.30447
  20546528.6084                   20546524.1834  -24450141.62749 -19052029.45447
  22408620.5944                   22408618.8124  -15297461.31349 -11920068.33546
  24200635.8634                   24200636.3144   -3085390.22748  -2404196.64244
  24596559.4334                   24596557.6694   -2438172.98948  -1899871.91044
  23960590.4164                   23960587.0954   -6367105.76948  -4961379.46845
  21895762.8364                   21895762.0414  -16937635.99149 -13198133.77446
 04  3  1  3 31  0.0000000  0  8G 9G14G22G18G 5G25G11G15
  22607639.2644                   22607638.2544  -11490098.07949  -8953307.26246
  20596659.1544                   20596656.6274  -23288225.20349 -18146651.80647
  20551808.5114                   20551804.1564  -24422394.32849 -19030408.18247
  22424680.6934                   22424679.0734  -15213066.80249 -11854306.38946
  24187948.8654                   24187947.5324   -3152065.97148  -2456151.68244
  24575574.6014                   24575572.7254   -2548446.95148  -1985799.63344
  23945640.2714                   23945636.1294   -6445676.38048  -5022603.25345
  21914486.0994                   21914486.1494  -16839245.22549 -13121465.67046
 04  3  1  3 31 30.0000000  0  8G 9G14G22G18G 5G25G11G15
  22623461.9684                   22623460.9524  -11406954.25949  -8888519.88646
  20589550.5804                   20589547.9774  -23325580.86649 -18175760.10447
  20557162.6294                   20557158.3174  -24394257.79449 -19008483.61447
  22440789.6674                   22440787.5494  -15128416.69849 -11788345.27946
  24175327.9314                   24175326.2934   -3218381.30048  -2507825.88944
  24554603.0064                   24554604.5164   -2658653.23848  -2071674.60944
  23930759.0064                   23930755.3944   -6523879.27848  -5083540.56745
  21933278.5844                   21933278.2704  -16740487.23149 -13044511.41946
 04  3  1  3 32  0.0000000  0  8G 9G14G22G18G 5G25G11G15
  22639373.5944                   22639372.1124  -11323334.52249  -8823361.66146
  20582521.1124                   20582518.3284  -23362520.91849 -18204544.55847
  20562593.4534                   20562589.0134  -24365719.83749 -18986246.24847
  22456948.6514                   22456945.9204  -15043499.57049 -11722176.12746
  24162780.1564                   24162781.1294   -3284321.69748  -2559208.01544
  24533646.7084                   24533650.9794   -2768777.51748  -2157485.65444
  23915948.0504                   23915945.3964   -6601700.17648  -5144180.20145
  21952143.9254                   21952143.6614  -16641352.38549 -12967263.52846
 04  3  1  3 32 30.0000000  0  8G 9G14G22G18G 5G25G11G15
  22655373.5774                   22655372.5124  -11239255.49749  -8757845.56246
  20575568.2984                   20575565.4744  -23399059.01049 -18233015.78547
  20568097.7374                   20568093.4234  -24336794.25649 -18963706.83447
  22473156.4254                   22473153.9904  -14958329.89749 -11655810.16446
  24150301.4994                   24150300.7724   -3349897.87748  -2610306.31344
  24512703.7814                   24512703.0514   -2878831.43048  -2243241.89544
  23901209.2354                   23901208.8604   -6679150.49048  -5204531.08645
  21971076.6694                   21971076.1164  -16541857.34249 -12889734.95446
 04  3  1  3 33  0.0000000  0  8G 9G14G22G18G 5G25G11G15
  22671457.8034                   22671456.2894  -11154729.89349  -8691981.46846
  20568689.7084                   20568687.0274  -23435205.06049 -18261181.51147
  20573673.7194                   20573669.6634  -24307491.16349 -18940873.25647
  22489409.4944                   22489407.5014  -14872918.40149 -11589255.77046
  24137890.7864                   24137889.3914   -3415116.60248  -2661126.09444
  24491772.9564                   24491774.4924   -2988822.75048  -2328949.37744
  23886541.5374                   23886539.6474   -6756237.29948  -5264598.72245
  21990076.4484                   21990076.3614  -16442014.94049 -12811935.71246
 04  3  1  3 33 30.0000000  0  8G 9G14G22G18G 5G25G11G15
  22687628.0774                   22687626.8174  -11069757.59349  -8625769.30846
  20561886.4324                   20561883.9374  -23470955.87649 -18289039.28247
  20579322.5624                   20579318.2284  -24277807.25349 -18917742.93947
  22505708.2984                   22505706.1414  -14787263.35949 -11522511.60046
  24125547.9764                   24125548.5524   -3479972.24348  -2711662.93544
  24470853.7614                   24470855.5334   -3098746.16948  -2414603.92944
  23871942.9274                   23871940.0064   -6832955.92848  -5324379.44945
  22009141.6064                   22009141.8654  -16341824.85349 -12733865.55346
 04  3  1  3 34  0.0000000  0  8G 9G14G22G18G 5G25G11G15
  22703885.8664                   22703884.4204  -10984323.15849  -8559197.02546
  20555162.5354                   20555159.6584  -23506292.70549 -18316574.46347
  20585047.1854                   20585042.9974  -24247724.40349 -18894301.76247
  22522057.8584                   22522055.7654  -14701347.38449 -11455564.09946
  24113280.3554                   24113279.5354   -3544443.51348  -2761900.29044
  24449952.2644                   24449953.3844   -3208580.98348  -2500189.43844
  23857418.5534                   23857417.1234   -6909285.93448  -5383857.35845
  22028276.3754                   22028276.6604  -16241271.26049 -12655512.14446
 04  3  1  3 34 30.0000000  0  8G 9G14G22G18G 5G25G11G15
  22720228.3574                   22720227.6944  -10898443.02449  -8492277.43646
  20548513.9994                   20548511.1364  -23541228.98649 -18343797.50847
  20590844.9554                   20590840.7214  -24217255.95849 -18870560.11947
  22538454.1894                   22538452.0834  -14615184.67049 -11388424.36446
  24101083.4384                   24101081.5154   -3608541.41048  -2811846.63844
  24429066.8514                   24429069.8564   -3318338.81048  -2585714.91944
  23842965.0674                   23842962.0544   -6985238.18348  -5443040.89945
  22047477.8264                   22047477.7914  -16140370.37649 -12576888.11446
