     2.10           OBSERVATION DATA    G (GPS)             RINEX VERSION / TYPE
teqc  2002Mar18     WCDA Operator       20040302 00:07:36UTCPGM / RUN BY / DATE
Solaris 2.7|Ultra 2|cc SC5.0|=+-|*Sparc                     COMMENT
teqc  2002Mar18     WCDA Operator       20040302 00:07:27UTCCOMMENT
teqc  2002Mar18     WCDA Operator       20040302 00:07:12UTCCOMMENT
teqc  2002Mar18     WCDA Operator       20040301 01:04:03UTCCOMMENT
BIT 2 OF LLI FLAGS DATA COLLECTED UNDER A/S CONDITION       COMMENT
holb  WCDA-ACP   927005   Holberg BC Canada                 MARKER NAME
40130M001                                                   MARKER NUMBER
PGC-WCDA            GEOL. SURV. CANADA                      OBSERVER / AGENCY
30199               LEICA CRS1000       9.00 4.42 1.26 1.20 REC # / TYPE / VERS
00724          00023LEIAT504        SCIS                    ANT # / TYPE
 -2503040.4240 -3188233.3250  4908701.5430                  APPROX POSITION XYZ
        0.1000        0.0000        0.0000                  ANTENNA: DELTA H/E/N
     1     1                                                WAVELENGTH FACT L1/2
     7    C1    P1    P2    L1    L2    S1    S2            # / TYPES OF OBSERV
    30.0000                                                 INTERVAL
STATION INFORMATION EFFECTIVE FROM: 2002/05/15 15:27:00     COMMENT
                                TO: CURRENT DATE (above)    COMMENT
BIT 2 OF LLI FLAGS (+4) DATA COLLECTED UNDER 'AS' CONDITION COMMENT
L1 PHASE CENTRE 0.110m ABOVE ARP                            COMMENT
L2 PHASE CENTRE 0.128m ABOVE ARP                            COMMENT
where ARP is the Antenna Reference Point for HI measurement COMMENT
SCIGN dome installed on antenna                             COMMENT
No RF skirt used;                                           COMMENT
CONTACT gps@pgc.nrcan.gc.ca FOR ADDITIONAL INFORMATION      COMMENT
 SNR is mapped to RINEX snr flag value [2-9]                COMMENT
  L1 & L2: 25-27 dBHz = 2, ..., 49-55 dBHz = 9              COMMENT
  2004     3     1     0     0    0.0000000     GPS         TIME OF FIRST OBS
                                                            END OF HEADER
 04  3  1  0  0  0.0000000  0  9G26G29G15G21G18G22G16G 6G 3
  22071551.6714                   22071544.8634  115986853.62847  90379368.57146
        44.0004         41.0004
  23273348.2044                   23273341.6514  122302309.22246  95300506.70746
        41.0004         39.0004
  21076363.4264                   21076356.0254  110757101.66448  86304233.51948
        48.0004         46.0004
  20312952.2774                   20312942.8164  106745352.81248  83178199.79848
        48.0004         47.0004
  20539513.0284                   20539504.0954  107935964.47248  84105962.42148
        48.0004         47.0004
  22319728.3244                   22319719.4794  117291032.80248  91395613.51447
        45.0004         43.0004
  22933349.1774                   22933342.2184  120515563.46447  93908186.24146
        43.0004         41.0004
  23700176.9264                   23700172.3074  124545247.16746  97048212.76445
        39.0004         37.0004
  22486016.6574                   22486009.9774  118164849.57847  92076498.36947
        43.0004         42.0004
 04  3  1  0  0 30.0000000  0  9G26G29G15G21G18G22G16G 6G 3
  22074830.5154                   22074823.7204  116004084.07147  90392794.88047
        44.0004         42.0004
  23281760.5144                   23281753.9484  122346516.14947  95334953.65546
        42.0004         39.0004
  21063862.4844                   21063855.0834  110691408.89748  86253044.37548
        48.0004         46.0004
  20317670.6324                   20317661.1694  106770147.99848  83197520.72648
        48.0004         47.0004
  20533007.1024                   20532998.1544  107901775.65748  84079321.80848
        48.0004         47.0004
  22302616.2234                   22302607.3634  117201108.54148  91325542.75847
        46.0004         43.0004
  22945191.6434                   22945184.7124  120577795.85447  93956678.95946
        43.0004         40.0004
  23720541.3284                   23720536.7064  124652262.51345  97131601.26345
        38.0004         37.0004
  22470895.5724                   22470888.9224  118085387.80647  92014580.11047
        44.0004         42.0004
 04  3  1  0  1  0.0000000  0  9G26G29G15G21G18G22G16G 6G 3
  22078298.4074                   22078291.6244  116022307.96447  90406995.30846
        44.0004         41.0004
  23290331.8254                   23290325.2454  122391558.68846  95370051.74846
        41.0004         39.0004
  21051475.7624                   21051468.3484  110626316.48148  86202323.07948
        48.0004         46.0004
  20322520.2594                   20322510.8104  106795632.95848  83217379.13448
        48.0004         47.0004
  20526655.4094                   20526646.4474  107868397.34948  84053312.75448
        48.0004         47.0004
  22285621.2784                   22285612.4064  117111799.87748  91255951.68847
        46.0004         43.0004
  22957176.4994                   22957169.5834  120640776.44847  94005754.68946
        43.0004         40.0004
  23740996.1624                   23740991.5514  124759752.95345  97215359.93445
        38.0004         37.0004
  22455901.5274                   22455894.8624  118006593.68848  91953182.13047
        45.0004         42.0004
 04  3  1  0  1 30.0000000  0  9G26G29G15G21G18G22G16G 6G 3
  22081837.0374                   22081830.2554  116040903.59047  90421485.40947
        44.0004         42.0004
  23298943.6524                   23298937.0704  122436814.14546  95405315.73146
        41.0004         39.0004
  21039085.3104                   21039077.8824  110561204.40748  86151586.44348
        48.0004         46.0004
  20327382.8954                   20327373.4344  106821186.22348  83237290.76348
        47.0004         48.0004
  20520339.7854                   20520330.8244  107835208.64848  84027451.45648
        48.0004         47.0004
  22268625.5514                   22268616.6384  117022486.98448  91186357.29947
        46.0004         43.0004
  22969185.0304                   22969178.1294  120703881.51647  94054927.43146
        43.0004         40.0004
  23761422.9034                   23761418.3194  124867095.63846  97299003.44545
        39.0004         37.0004
  22440916.7274                   22440910.0374  117927848.22548  91891822.08747
        45.0004         42.0004
 04  3  1  0  2  0.0000000  0  9G26G29G15G21G18G22G16G 6G 3
  22085505.4244                   22085498.6404  116060180.96747  90436506.70847
        43.0004         42.0004
  23307654.8224                   23307648.2404  122482591.46746  95440986.32746
        41.0004         39.0004
  21026750.4724                   21026743.0304  110496384.58448  86101077.53548
        48.0004         46.0004
  20332317.5324                   20332308.0844  106847117.91248  83257497.26748
        48.0004         47.0004
  20514119.4654                   20514110.5024  107802520.70648  84001980.34348
        48.0004         47.0004
  22251688.4404                   22251679.5244  116933482.17348  91117002.95847
        46.0004         43.0004
  22981275.8874                   22981268.9874  120767419.15047  94104437.22146
        42.0004         40.0004
  23781880.1634                   23781875.5934  124974598.89345  97382772.12445
        38.0004         36.0004
  22426000.7224                   22425994.0314  117849464.27647  91830743.72547
        44.0004         42.0004
 04  3  1  0  2 30.0000000  0  9G26G29G15G21G18G22G16G 6G 3
  22089333.9124                   22089327.1274  116080299.81247  90452183.72246
        44.0004         41.0004
  23316495.5384                   23316488.9684  122529049.74046  95477187.57046
        41.0004         39.0004
  21014501.9984                   21014494.5434  110432018.54048  86050922.21848
        48.0004         46.0004
  20337354.6374                   20337345.1884  106873588.07749  83278123.36848
        49.0004         47.0004
  20508025.0254                   20508016.0634  107770494.33448  83977024.75748
        48.0004         47.0004
  22234840.8624                   22234831.9464  116844947.80448  91048015.19447
        46.0004         44.0004
  22993479.1074                   22993472.2074  120831547.25247  94154407.11746
        43.0004         40.0004
  23802398.2924                   23802393.7344  125082421.76045  97466789.79445
        38.0004         37.0004
  22411184.5054                   22411177.8004  117771604.71848  91770073.98447
        45.0004         42.0004
 04  3  1  0  3  0.0000000  0  9G26G29G15G21G18G22G16G 6G 3
  22093321.1364                   22093314.3504  116101252.68647  90468510.60947
        44.0004         42.0004
  23325464.2624                   23325457.6964  122576180.58046  95513912.88546
        41.0004         39.0004
  21002338.7454                   21002331.2784  110368100.33949  86001115.86648
        49.0004         46.0004
  20342492.9614                   20342483.4994  106900590.15348  83299163.95548
        48.0004         47.0004
  20502055.2034                   20502046.2414  107739122.77148  83952579.39648
        48.0004         48.0004
  22218081.7354                   22218072.8074  116756878.12648  90979389.50847
        46.0004         43.0004
  23005792.8774                   23005785.9894  120896256.30447  94204829.68546
        42.0004         40.0004
  23822975.4034                   23822970.8444  125190554.77245  97551049.18244
        38.0004         35.0004
  22396467.1774                   22396460.4324  117694264.82348  91709809.20047
        45.0004         42.0004
 04  3  1  0  3 30.0000000  0  9G26G29G15G21G18G22G16G 6G 3
  22097379.2374                   22097372.4504  116122578.09047  90485127.78747
        44.0004         42.0004
  23334472.9644                   23334466.4394  122623521.62746  95550801.99546
        41.0004         39.0004
  20990173.2894                   20990165.8094  110304170.62749  85951300.55748
        49.0004         46.0004
  20347644.7194                   20347635.2724  106927662.82348  83320259.54048
        48.0004         47.0004
  20496122.4414                   20496113.4674  107707945.89448  83928285.74348
        48.0004         47.0004
  22201323.7124                   22201314.7674  116668814.36748  90910768.45047
        47.0004         43.0004
  23018129.0094                   23018122.1184  120961083.11347  94255344.07146
        42.0004         39.0004
  23843523.5234                   23843518.9934  125298535.74545  97635190.16845
        38.0004         36.0004
  22381761.5534                   22381754.7964  117616986.43348  91649592.32947
        45.0004         42.0004
 04  3  1  0  4  0.0000000  0  9G26G29G15G21G18G22G16G 6G 3
  22101567.1564                   22101560.3714  116144585.63047  90502276.49747
        44.0004         42.0004
  23343580.4274                   23343573.8774  122671381.67146  95588095.55446
        41.0004         39.0004
  20978064.9234                   20978057.4304  110240540.92148  85901719.01648
        48.0004         46.0004
  20352868.9874                   20352859.5384  106955116.53748  83341652.03748
        48.0004         47.0004
  20490285.8764                   20490276.8884  107677274.66648  83904386.11248
        48.0004         47.0004
  22184626.1434                   22184617.1994  116581068.24048  90842394.88647
        46.0004         43.0004
  23030546.2164                   23030539.3514  121026335.59847  94306190.06346
        42.0004         40.0004
  23864101.4704                   23864096.9644  125406673.27445  97719453.08344
        38.0004         35.0004
  22367127.1244                   22367120.3264  117540082.24048  91589667.05647
        45.0004         42.0004
 04  3  1  0  4 30.0000000  0  9G26G29G15G21G18G22G16G 6G 3
  22105912.8664                   22105906.0694  116167422.36447  90520071.34047
        44.0004         42.0004
  23352814.4634                   23352807.9134  122719906.73446  95625907.26345
        40.0004         38.0004
  20966041.9574                   20966034.4504  110177359.99549  85852487.17448
        49.0004         47.0004
  20358193.8114                   20358184.3634  106983098.67749  83363456.30448
        49.0004         47.0004
  20484573.6684                   20484564.6814  107647256.87348  83880995.64448
        48.0004         47.0004
  22168017.4764                   22168008.5204  116493789.16848  90774385.24747
        47.0004         44.0004
  23043071.9764                   23043065.1394  121092158.79147  94357480.82146
        42.0004         39.0004
  23884736.9634                   23884732.4404  125515112.95845  97803951.40744
        38.0004         35.0004
  22352592.4434                   22352585.6294  117463702.35048  91530150.34247
        45.0004         42.0004
 04  3  1  0  5  0.0000000  0  9G26G29G15G21G18G22G16G 6G 3
  22110416.5024                   22110409.7074  116191089.00747  90538512.86146
        43.0004         41.0004
  23362175.0724                   23362168.5314  122769097.00046  95664237.30745
        41.0004         38.0004
  20954104.8634                   20954097.3554  110114630.32849  85803606.95448
        49.0004         46.0004
  20363619.4164                   20363609.9554  107011610.36048  83385673.19948
        48.0004         47.0004
  20478986.1804                   20478977.1814  107617894.42348  83858115.82848
        48.0004         48.0004
  22151498.2794                   22151489.3114  116406980.26548  90706741.97147
        47.0004         44.0004
  23055706.1654                   23055699.3404  121158551.71547  94409215.51446
        42.0004         40.0004
  23905429.8744                   23905425.3514  125623854.44045  97888684.92045
        38.0004         36.0004
  22338158.3244                   22338151.4844  117387850.79748  91471045.30447
        45.0004         42.0004
 04  3  1  0  5 30.0000000  0  9G26G29G15G21G18G22G16G 6G 3
  22114990.6144                   22114983.8194  116215126.00347  90557242.96146
        44.0004         41.0004
  23371574.5994                   23371568.0434  122818491.90946  95702726.85946
        40.0004         39.0004
  20942166.5864                   20942159.0794  110051894.51148  85754721.95948
        48.0004         46.0004
  20369058.4264                   20369048.9664  107040192.55148  83407945.03848
        48.0004         47.0004
  20473436.0764                   20473427.0634  107588728.55548  83835389.21148
        47.0004         47.0004
  22134981.5374                   22134972.5554  116320184.32548  90639108.80547
        46.0004         43.0004
  23068360.9734                   23068354.1584  121225053.05246  94461034.69146
        41.0004         39.0004
  23926092.4984                   23926087.9864  125732437.07545  97973294.70445
        38.0004         36.0004
  22323737.8604                   22323731.0054  117312070.99648  91411996.16847
        45.0004         42.0004
 04  3  1  0  6  0.0000000  0  9G26G29G15G21G18G22G16G 6G 3
  22119693.8134                   22119687.0204  116239841.41847  90576501.71947
        44.0004         42.0004
  23381071.5824                   23381065.0514  122868398.76746  95741615.26945
        40.0004         38.0004
  20930286.2114                   20930278.6784  109989462.78149  85706073.89048
        49.0004         46.0004
  20374569.6004                   20374560.1534  107069153.96748  83430512.36648
        48.0004         47.0004
  20467982.2344                   20467973.2204  107560068.54848  83813056.76048
        48.0004         47.0004
  22118526.3294                   22118517.3454  116233711.74548  90571727.59547
        46.0004         44.0004
  23081094.7284                   23081087.9174  121291968.94847  94513176.86446
        42.0004         39.0004
  23946783.3554                   23946778.8734  125841167.57445  98058019.61645
        38.0004         36.0004
  22309390.2374                   22309383.3844  117236674.04148  91353245.36847
        45.0004         43.0004
 04  3  1  0  6 30.0000000  0  9G26G29G15G21G18G22G16G 6G 3
  22124582.8714                   22124576.0654  116265533.59247  90596521.60546
        43.0004         41.0004
  23390722.6084                   23390716.0914  122919115.06746  95781134.41846
        40.0004         39.0004
  20918520.7794                   20918513.2474  109927635.20849  85657896.60448
        49.0004         47.0004
  20380209.8464                   20380200.4124  107098793.72148  83453608.28248
        48.0004         47.0004
  20462681.7024                   20462672.6894  107532214.12448  83791352.03148
        47.0004         47.0004
  22102189.9254                   22102180.9424  116147863.48948  90504832.88147
        46.0004         44.0004
  23093963.7354                   23093956.9514  121359596.03547  94565873.28446
        42.0004         39.0004
  23967558.8754                   23967554.4064  125950343.35845  98143091.57645
        38.0004         36.0004
  22295172.8974                   22295166.0294  117161961.72848  91295028.05247
        45.0004         43.0004
 04  3  1  0  7  0.0000000  0  9G26G29G15G21G18G22G16G 6G 3
  22129542.7324                   22129535.9114  116291597.83647  90616831.40847
        43.0004         42.0004
  23400412.4424                   23400405.9274  122970035.42746  95820812.61245
        40.0004         38.0004
  20906755.6534                   20906748.1084  109865809.17949  85609720.51648
        49.0004         47.0004
  20385864.2064                   20385854.7724  107128507.58348  83476761.94348
        48.0004         47.0004
  20457419.5984                   20457410.5704  107504561.70948  83769804.72248
        48.0004         47.0004
  22085857.6824                   22085848.7004  116062037.10048  90437955.20747
        47.0004         44.0004
  23106852.7494                   23106845.9664  121427328.07647  94618651.45846
        42.0004         39.0004
  23988303.8404                   23988299.3694  126059358.57145  98228038.41844
        37.0004         35.0004
  22280971.3594                   22280964.4784  117087332.45647  91236875.45147
        44.0004         42.0004
 04  3  1  0  7 30.0000000  0  9G26G29G15G21G18G22G16G 6G 3
  22134689.6164                   22134682.7974  116318644.82947  90637906.98246
        44.0004         41.0004
  23410257.1974                   23410250.6684  123021769.77546  95861125.05545
        40.0004         38.0004
  20895107.4664                   20895099.9074  109804597.66749  85562023.26548
        49.0004         46.0004
  20391648.9994                   20391639.5674  107158906.87849  83500449.71148
        49.0004         47.0004
  20452312.3714                   20452303.3454  107477723.11348  83748891.55148
        48.0004         47.0004
  22069646.2874                   22069637.3044  115976845.76548  90371572.37547
        47.0004         44.0004
  23119877.6174                   23119870.8314  121495773.84147  94671985.72846
        42.0004         39.0004
  24009134.3924                   24009129.9364  126168823.48645  98313335.67044
        37.0004         35.0004
  22266902.4654                   22266895.5824  117013400.16448  91179265.92147
        45.0004         42.0004
 04  3  1  0  8  0.0000000  0  9G26G29G15G21G18G22G16G 6G 3
  22139906.7694                   22139899.9334  116346061.27947  90659270.46946
        44.0004         41.0004
  23420140.0094                   23420133.4794  123073704.24146  95901593.45445
        40.0004         38.0004
  20883459.9264                   20883452.3684  109743389.55349  85514328.66748
        49.0004         47.0004
  20397447.7404                   20397438.3064  107189379.53148  83524194.64148
        48.0004         47.0004
  20447243.4854                   20447234.4434  107451086.06048  83728135.43648
        47.0004         47.0004
  22053439.5354                   22053430.5254  115891678.89748  90305208.63847
        46.0004         44.0004
  23132921.2524                   23132914.4394  121564318.54747  94725397.18446
        42.0004         39.0004
  24029933.5744                   24029929.1604  126278123.55145  98398504.45444
        38.0004         35.0004
  22252850.1504                   22252843.2684  116939555.06448  91121724.35747
        45.0004         43.0004
 04  3  1  0  8 30.0000000  0  9G26G29G15G21G18G22G16G 6G 3
  22145251.7264                   22145244.8784  116374149.28047  90681157.25046
        44.0004         41.0004
  23430118.2814                   23430111.7504  123126139.97646  95942452.36846
        40.0004         39.0004
  20871870.8914                   20871863.3204  109682488.82648  85466873.57648
        48.0004         46.0004
  20403317.9574                   20403308.5234  107220227.72749  83548232.19848
        49.0004         47.0004
  20442270.7434                   20442261.7044  107424954.12548  83707772.89748
        47.0004         47.0004
  22037295.3374                   22037286.3294  115806840.81348  90239101.10447
        46.0004         44.0004
  23146040.8984                   23146034.0984  121633262.50147  94779119.68246
        42.0004         39.0004
  24050758.7154                   24050754.3474  126387559.84345  98483779.36145
        38.0004         36.0004
  22238872.5084                   22238865.6114  116866102.30948  91064488.50347
        45.0004         43.0004
 04  3  1  0  9  0.0000000  0  9G26G29G15G21G18G22G16G 6G 3
  22150753.2754                   22150746.4134  116403060.05347  90703685.11746
        42.0004         41.0004
  23440220.5094                   23440213.9804  123179227.54046  95983819.31046
        40.0004         39.0004
  20860369.5644                   20860361.9814  109622049.00849  85419777.64048
        49.0004         47.0004
  20409288.5824                   20409279.1494  107251603.57748  83572680.91548
        48.0004         47.0004
  20437423.1264                   20437414.0724  107399479.85248  83687922.84648
        47.0004         47.0004
  22021242.9554                   22021233.9334  115722485.22948  90173369.53948
        46.0004         45.0004
  23159265.0044                   23159258.2284  121702755.33446  94833269.84846
        41.0004         39.0004
  24071638.1884                   24071633.8544  126497282.27846  98569277.39344
        39.0004         35.0004
  22224998.9734                   22224992.0644  116793196.51747  91007678.83447
        44.0004         43.0004
 04  3  1  0  9 30.0000000  0  9G26G29G15G21G18G22G16G 6G 3
  22156382.0084                   22156375.1344  116432639.30947  90726733.91447
        43.0004         42.0004
  23450417.3874                   23450410.9144  123232812.06046  96025573.36246
        41.0004         39.0004
  20848927.0314                   20848919.4334  109561918.15249  85372922.44448
        49.0004         47.0004
  20415330.4284                   20415320.9964  107283353.75349  83597421.32748
        49.0004         48.0004
  20432671.5244                   20432662.4574  107374510.13848  83668465.96048
        48.0004         47.0004
  22005253.5644                   22005244.5134  115638460.78548  90107896.03647
        47.0004         44.0004
  23172563.8194                   23172557.0544  121772641.14246  94887726.31446
        41.0004         39.0004
  24092542.8724                   24092538.5804  126607136.50945  98654877.93645
        38.0004         36.0004
  22211200.8354                   22211193.9134  116720687.00148  90951177.96147
        45.0004         43.0004
 04  3  1  0 10  0.0000000  0  9G26G29G15G21G18G22G16G 6G 3
  22162138.7484                   22162131.8734  116462891.36947  90750306.98546
        44.0004         41.0004
  23460709.4264                   23460702.9654  123286897.02546  96067717.46446
        40.0004         39.0004
  20837544.5134                   20837536.9144  109502102.74349  85326313.05848
        49.0004         46.0004
  20421444.4444                   20421434.9984  107315483.12349  83622457.20748
        49.0004         48.0004
  20428016.9774                   20428007.8964  107350050.45748  83649406.50148
        48.0004         47.0004
  21989328.4804                   21989319.4154  115554774.27948  90042685.86048
        47.0004         45.0004
  23185937.9604                   23185931.2074  121842922.41346  94942490.86145
        41.0004         38.0004
  24113473.0724                   24113468.8114  126717125.14145  98740583.29645
        38.0004         36.0004
  22197479.5194                   22197472.5844  116648581.18548  90894991.66247
        45.0004         43.0004
 04  3  1  0 10 30.0000000  0  9G26G29G15G21G18G22G16G 6G 3
  22168051.6544                   22168044.7794  116493963.83747  90774519.28446
        43.0004         41.0004
  23471124.7214                   23471118.2764  123341629.45646  96110366.04946
        41.0004         39.0004
  20826250.5374                   20826242.9394  109442752.56449  85280066.18048
        49.0004         47.0004
  20427658.8604                   20427649.4144  107348140.10148  83647904.20348
        48.0004         48.0004
  20423487.8144                   20423478.7324  107326249.66548  83630860.45548
        47.0004         47.0004
  21973496.2304                   21973487.1394  115471575.62048  89977855.83447
        47.0004         44.0004
  23199415.1724                   23199408.4494  121913745.33146  94997677.47645
        41.0004         38.0004
  24134456.9274                   24134452.6704  126827395.66845  98826508.31644
        38.0004         35.0004
  22183863.7194                   22183856.7854  116577029.92648  90839237.49347
        46.0004         43.0004
 04  3  1  0 11  0.0000000  0  9G26G29G15G21G18G22G16G 6G 3
  22174033.4334                   22174026.5294  116525398.35847  90799013.74047
        42.0004         42.0004
  23481575.8434                   23481569.4124  123396550.34946  96153161.51745
        41.0004         38.0004
  20814958.3314                   20814950.7184  109383411.68349  85233826.54948
        49.0004         47.0004
  20433886.6484                   20433877.2014  107380867.40748  83673406.01248
        48.0004         47.0004
  20418997.0384                   20418987.9564  107302650.54148  83612471.54248
        47.0004         47.0004
  21957670.1124                   21957660.9794  115388409.30948  89913051.04447
        47.0004         44.0004
  23212907.8874                   23212901.1634  121984650.08846  95052927.94745
        41.0004         38.0004
  24155406.9794                   24155402.7514  126937488.49445  98912294.83444
        37.0004         35.0004
  22170266.9444                   22170260.0114  116505578.57748  90783561.16447
        45.0004         43.0004
 04  3  1  0 11 30.0000000  0  9G26G29G15G21G18G22G16G 6G 3
  22180142.8424                   22180135.9254  116557503.39447  90824030.63246
        44.0004         41.0004
  23492121.3754                   23492114.9324  123451967.49346  96196343.72045
        40.0004         38.0004
  20803726.9934                   20803719.3804  109324390.72749  85187836.22048
        49.0004         46.0004
  20440186.7124                   20440177.2654  107413974.53149  83699203.78148
        49.0004         47.0004
  20414603.5394                   20414594.4564  107279562.67648  83594481.02048
        47.0004         48.0004
  21941909.3284                   21941900.1684  115305586.26648  89848513.71747
        47.0004         44.0004
  23226474.5644                   23226467.8524  122055943.27146  95108481.02345
        41.0004         38.0004
  24176381.7244                   24176377.4834  127047711.27645  98998182.66744
        38.0004         35.0004
  22156748.5194                   22156741.5844  116434538.95847  90728205.65247
        44.0004         43.0004
 04  3  1  0 12  0.0000000  0  9G26G29G15G21G18G22G16G 6G 3
  22186407.9714                   22186401.0264  116590426.87347  90849685.29946
        44.0004         41.0004
  23502789.4254                   23502782.9854  123508028.35046  96240027.48745
        41.0004         38.0004
  20792585.1794                   20792577.5524  109265840.16049  85142212.42548
        49.0004         46.0004
  20446587.3274                   20446577.8804  107447609.98949  83725413.23248
        49.0004         47.0004
  20410335.8184                   20410326.7364  107257135.71248  83577005.48048
        47.0004         48.0004
  21926242.5634                   21926233.3634  115223257.35948  89784361.45747
        47.0004         44.0004
  23240143.0674                   23240136.3644  122127771.73746  95164451.23245
        41.0004         38.0004
  24197409.2894                   24197405.0764  127158211.50045  99084286.64644
        37.0004         35.0004
  22143337.3174                   22143330.3674  116364062.86947  90673289.27247
        44.0004         43.0004
 04  3  1  0 12 30.0000000  0  9G26G29G15G21G18G22G16G 6G 3
  22192799.8054                   22192792.8744  116624016.12147  90875858.72247
        44.0004         42.0004
  23513550.8104                   23513544.3994  123564579.37246  96284093.11545
        40.0004         38.0004
  20781504.1824                   20781496.5424  109207609.25549  85096837.72548
        49.0004         47.0004
  20453059.5924                   20453050.1494  107481621.91148  83751916.02748
        48.0004         47.0004
  20406164.9324                   20406155.8484  107235217.74448  83559926.58148
        48.0004         47.0004
  21910641.2144                   21910631.9894  115141272.15748  89720477.00147
        47.0004         44.0004
  23253884.0394                   23253877.3464  122199980.71847  95220717.88045
        42.0004         38.0004
  24218460.2534                   24218456.0434  127268835.12245  99170486.89844
        37.0004         34.0004
  22130004.8714                   22129997.9334  116294000.64048  90618695.37147
        46.0004         43.0004
 04  3  1  0 13  0.0000000  0  9G26G29G15G21G18G22G16G 6G 3
  22199346.8114                   22199339.8984  116658420.61947  90902667.37746
        44.0004         41.0004
  23524433.7464                   23524427.3534  123621769.52646  96328656.87145
        40.0004         38.0004
  20770512.9974                   20770505.3564  109149850.31248  85051830.78248
        48.0004         47.0004
  20459632.1104                   20459622.6634  107516160.85049  83778829.49948
        49.0004         47.0004
  20402119.6954                   20402110.6124  107213960.00848  83543362.13848
        47.0004         47.0004
  21895134.2494                   21895124.9814  115059783.06748  89656979.14847
        47.0004         44.0004
  23267725.6304                   23267718.9394  122272718.52246  95277396.64145
        41.0004         38.0004
  24239563.1124                   24239558.9554  127379731.33345  99256899.48544
        37.0004         35.0004
  22116780.3494                   22116773.3984  116224505.49748  90564543.36147
        45.0004         43.0004
 04  3  1  0 13 30.0000000  0  9G26G29G15G21G18G22G16G 6G 3
  22205960.6534                   22205953.7394  116693176.65747  90929750.01446
        44.0004         41.0004
  23535350.0284                   23535343.6474  123679134.59746  96373356.83146
        40.0004         39.0004
  20759523.8544                   20759516.1854  109092102.09949  85006832.21448
        50.0004         47.0004
  20466216.9034                   20466207.4564  107550764.10649  83805793.06448
        49.0004         47.0004
  20398112.0844                   20398102.9994  107192899.99548  83526951.76048
        47.0004         47.0004
  21879633.9584                   21879624.6664  114978328.92848  89593508.50947
        47.0004         44.0004
  23281579.3234                   23281572.6164  122345519.91946  95334124.94246
        41.0004         39.0004
  24260629.5304                   24260625.3944  127490436.10945  99343162.96744
        36.0004         34.0004
  22103576.1074                   22103569.1554  116155116.98548  90510474.44347
        46.0004         43.0004
 04  3  1  0 14  0.0000000  0  9G26G29G15G21G18G22G16G 6G 3
  22212700.5524                   22212693.6544  116728594.88147  90957348.59047
        43.0004         42.0004
  23546358.5504                   23546352.1744  123736984.52546  96418434.65745
        40.0004         38.0004
  20748596.2824                   20748588.6134  109034677.44749  84962085.76048
        49.0004         47.0004
  20472873.2304                   20472863.7854  107585743.34549  83833049.61948
        49.0004         47.0004
  20394201.4984                   20394192.4134  107172349.84948  83510938.69048
        47.0004         47.0004
  21864199.9824                   21864190.6604  114897223.39648  89530309.52548
        47.0004         45.0004
  23295503.9334                   23295497.2434  122418693.99146  95391143.65045
        41.0004         38.0004
  24281718.5444                   24281714.4084  127601259.43845  99429518.76544
        36.0004         35.0004
  22090452.0134                   22090445.0484  116086149.59748  90456733.67247
        45.0004         43.0004
 04  3  1  0 14 30.0000000  0  9G26G29G15G21G18G22G16G 6G 3
  22219595.1464                   22219588.2484  116764826.02847  90985580.61046
        44.0004         41.0004
  23557487.9054                   23557481.5554  123795469.61846  96464007.42745
        39.0004         38.0004
  20737759.4934                   20737751.8104  108977729.92449  84917711.11148
        49.0004         47.0004
  20479629.9754                   20479620.5304  107621250.27949  83860717.35848
        49.0004         47.0004
  20390416.9014                   20390407.8184  107152461.65948  83495441.40348
        48.0004         47.0004
  21848861.5464                   21848852.1864  114816619.81048  89467501.66248
        47.0004         45.0004
  23309527.8714                   23309521.1804  122492390.09347  95448569.14146
        42.0004         39.0004
  24302858.5954                   24302854.4574  127712351.28045  99516083.85644
        36.0004         34.0004
  22077437.4504                   22077430.4724  116017757.72948  90403441.34447
        46.0004         43.0004
 04  3  1  0 15  0.0000000  0  9G26G29G15G21G18G22G16G 6G 3
  22226614.0974                   22226607.2254  116801710.74047  91014321.89946
        42.0004         41.0004
  23568707.7194                   23568701.4134  123854429.69946  96509950.24345
        40.0004         38.0004
  20726983.6444                   20726975.9484  108921102.64249  84873586.00948
        49.0004         47.0004
  20486456.9804                   20486447.5364  107657126.43348  83888672.80848
        48.0004         47.0004
  20386728.1194                   20386719.0234  107133077.10548  83480336.59248
        48.0004         47.0004
  21833588.8114                   21833579.4344  114736361.54548  89404962.86048
        48.0004         45.0004
  23323620.5674                   23323613.8934  122566447.46246  95506276.13445
        41.0004         38.0004
  24324019.2594                   24324015.1294  127823551.19245  99602733.08644
        36.0004         34.0004
  22064502.7014                   22064495.7224  115949785.41648  90350475.95547
        46.0004         43.0004
 04  3  1  0 15 30.0000000  0  9G26G29G15G21G18G22G16G 6G 3
  22233786.7434                   22233779.8844  116839403.12347  91043692.55246
        42.0004         41.0004
  23580047.1134                   23580040.8194  123914018.55646  96556383.09245
        40.0004         37.0004
  20716298.5624                   20716290.8554  108864952.22149  84829832.46348
        49.0004         47.0004
  20493383.8104                   20493374.3524  107693527.10548  83917036.96148
        48.0004         47.0004
  20383164.8584                   20383155.7614  107114352.10448  83465745.69448
        47.0004         48.0004
  21818411.6794                   21818402.2634  114656605.55448  89342815.44248
        47.0004         45.0004
  23337811.1114                   23337804.4794  122641019.02346  95564383.77346
        41.0004         39.0004
  24345229.6394                   24345225.4984  127935012.49545  99689586.06244
        36.0004         34.0004
  22051677.8394                   22051670.8444  115882390.49848  90297960.47647
        46.0004         43.0004
 04  3  1  0 16  0.0000000  0  9G26G29G15G21G18G22G16G 6G 3
  22241055.1634                   22241048.3184  116877598.80147  91073455.38446
        44.0004         41.0004
  23591448.1684                   23591441.9294  123973931.06546  96603068.04245
        40.0004         38.0004
  20705646.7054                   20705638.9844  108808976.52449  84786215.08348
        50.0004         47.0004
  20500352.6744                   20500343.2144  107730148.73049  83945573.28848
        49.0004         47.0004
  20379669.3584                   20379660.2494  107095983.18848  83451432.28048
        47.0004         47.0004
  21803272.7114                   21803263.2804  114577050.17948  89280824.33848
        48.0004         45.0004
  23352041.2404                   23352034.6374  122715798.54347  95622653.45145
        42.0004         38.0004
  24366431.8524                   24366427.7374  128046430.49845  99776405.18944
        36.0004         33.0004
  22038905.6014                   22038898.6074  115815272.06048  90245660.42447
        46.0004         43.0004
 04  3  1  0 16 30.0000000  0  9G26G29G15G21G18G22G16G 6G 3
  22248418.6254                   22248411.7844  116916293.74347  91103607.23446
        43.0004         41.0004
  23602909.9304                   23602903.6924  124034162.96746  96650001.98245
        40.0004         38.0004
  20695027.8684                   20695020.1474  108753174.34449  84742732.90948
        49.0004         47.0004
  20507363.0584                   20507353.5994  107766988.55148  83974279.64148
        48.0004         47.0004
  20376241.1674                   20376232.0584  107077968.11048  83437394.59948
        47.0004         48.0004
  21788171.6694                   21788162.2244  114497694.03948  89218988.47748
        47.0004         45.0004
  23366309.9154                   23366303.3244  122790780.87146  95681081.21546
        41.0004         39.0004
  24387624.9294                   24387620.8434  128157801.18145  99863187.60044
        36.0004         34.0004
  22026185.9304                   22026178.9084  115748429.86148  90193575.63447
        46.0004         43.0004
 04  3  1  0 17  0.0000000  0  9G26G29G15G21G18G22G16G 6G 3
  22255905.7214                   22255898.8804  116955638.69746  91134265.64046
        41.0004         41.0004
  23614461.0264                   23614454.8024  124094864.32546  96697301.72445
        40.0004         37.0004
  20684471.2184                   20684463.4834  108697698.96049  84699505.38348
        49.0004         47.0004
  20514443.8544                   20514434.3834  107804198.32349  84003274.26748
        49.0004         47.0004
  20372909.2174                   20372900.1074  107060458.65948  83423750.88148
        47.0004         47.0004
  21773137.7844                   21773128.3274  114418690.75648  89157427.55648
        47.0004         45.0004
  23380645.6254                   23380639.0484  122866115.16146  95739783.17446
        41.0004         39.0004
  24408837.7914                                  128269274.71545
        36.0004
  22013548.1554                   22013541.1344  115682018.15748  90141826.31047
        46.0004         43.0004
 04  3  1  0 17 30.0000000  0  9G26G29G15G21G18G22G16G 6G 3
  22263546.5144                   22263539.6984  116995791.21347  91165553.26546
        43.0004         41.0004
  23626131.4474                   23626125.2394  124156192.23746  96745089.58745
        40.0004         38.0004
  20674007.2724                   20673999.5374  108642710.74149  84656657.46048
        49.0004         47.0004
  20521625.2994                   20521615.8424  107841937.06649  84032681.07748
        49.0004         47.0004
  20369703.7254                   20369694.6024  107043613.74548  83410624.99748
        47.0004         47.0004
  21758201.5614                   21758192.0774  114340200.74948  89096266.60748
        48.0004         45.0004
  23395078.0184                   23395071.4434  122941957.71346  95798881.22846
        41.0004         39.0004
  24430099.9344                                  128381008.46444
        35.0004
  22001023.1214                   22001016.0864  115616198.72348  90090538.45947
        46.0004         43.0004
 04  3  1  0 18  0.0000000  0  9G26G29G15G21G18G22G16G 6G 3
  22271340.2854                   22271333.5074  117036747.63347  91197467.29446
        42.0004         41.0004
  23637920.2524                   23637914.0714  124218142.51846  96793362.44845
        40.0004         38.0004
  20663635.8274                   20663628.0784  108588208.55349  84614188.25648
        49.0004         47.0004
  20528906.8774                   20528897.4214  107880201.96049  84062497.86448
        49.0004         47.0004
  20366624.3514                   20366615.2154  107027431.58948  83398015.54948
        47.0004         48.0004
  21743362.9024                   21743353.4054  114262223.32048  89035505.03848
        47.0004         45.0004
  23409606.2394                   23409599.6904  123018303.65346  95858371.47445
        41.0004         38.0004
  24451410.5504                                  128492997.38345
        36.0004
  21988610.6944                   21988603.6584  115550971.10148  90039711.76547
        46.0004         43.0004
 04  3  1  0 18 30.0000000  0  8G26G29G15G21G18G22G16G 3
  22279227.1364                   22279220.3734  117078193.12747  91229762.44446
        44.0004         41.0004
  23649767.5414                   23649761.3644  124280400.06346  96841874.75745
        40.0004         37.0004
  20653297.4874                   20653289.7254  108533880.27349  84571854.55648
        49.0004         47.0004
  20536228.9624                   20536219.5054  107918679.77149  84092480.57748
        49.0004         47.0004
  20363611.4324                   20363602.2974  107011598.71948  83385678.27648
        48.0004         47.0004
  21728562.4314                   21728552.9334  114184446.62948  88974899.89548
        47.0004         45.0004
  23424170.0544                   23424163.5054  123094837.01746  95918007.86245
        41.0004         38.0004
  21976251.7194                   21976244.6564  115486024.31248  89989103.90547
        47.0004         43.0004
 04  3  1  0 19  0.0000000  0  9G26G29G15G21G18G22G16G 6G 3
  22287207.1444                   22287200.3964  117120127.91347  91262438.80646
        43.0004         41.0004
  23661673.2564                   23661667.1064  124342964.64446  96890626.27845
        39.0004         37.0004
  20642992.7854                   20642985.0244  108479728.88949  84529658.71548
        49.0004         47.0004
  20543591.8124                   20543582.3434  107957371.75049  84122630.16448
        49.0004         47.0004
  20360665.2774                   20360656.1424  106996116.63248  83373614.32548
        46.0004         47.0004
  21713800.7584                   21713791.2344  114106873.64148  88914453.45348
        48.0004         45.0004
  23438769.3304                   23438762.8244  123171556.54146  95977789.25845
        40.0004         38.0004
  24493998.4314                                  128716829.64955
        36.0004
  21963946.8994                   21963939.8214  115421362.29448  89938717.97447
        45.0004         44.0004
 04  3  1  0 19 30.0000000  0  9G26G29G15G21G18G22G16G 6G 3
  22295310.4624                   22295303.7274  117162711.07547  91295620.46746
        43.0004         41.0004
  23673667.5504                   23673661.4584  124405994.77346  96939740.58045
        40.0004         37.0004
  20632752.5654                   20632744.8064  108425916.23349  84487726.79948
        49.0004         47.0004
  20551025.8314                   20551016.3754  107996437.78249  84153071.22248
        49.0004         47.0004
  20357816.4514                   20357807.2994  106981146.07348  83361948.98048
        47.0004         47.0004
  21699108.6744                   21699099.1224  114029666.46848  88854292.08648
        48.0004         45.0004
  23453434.0994                   23453427.5944  123248620.05046  96037838.66445
        40.0004         38.0004
  24515304.9144                                  128828797.72045
        36.0004
  21951727.3154                   21951720.2364  115357148.07648  89888680.94447
        46.0004         44.0004
 04  3  1  0 20  0.0000000  0  9G26G29G15G21G18G22G16G 6G 3
  22303565.1544                   22303558.4334  117206089.52247  91329421.79246
        43.0004         41.0004
  23685778.3274                   23685772.2354  124469636.89446  96989331.75245
        39.0004         37.0004
  20622605.2484                   20622597.4754  108372591.78049  84446175.29748
        49.0004         47.0004
  20558559.3054                   20558549.8514  108036026.39349  84183919.48648
        49.0004         47.0004
  20355093.1324                   20355083.9814  106966835.06448  83350797.57448
        47.0004         47.0004
  21684514.7024                   21684505.1364  113952974.81448  88794532.40548
        48.0004         45.0004
  23468191.9824                   23468185.4894  123326173.06346  96098269.52545
        40.0004         37.0004
  24536658.6864                                  128941011.11544
        35.0004
  21939621.5864                   21939614.4814  115293532.16348  89839110.15147
        47.0004         44.0004
 04  3  1  0 20 30.0000000  0  9G26G29G15G21G18G22G16G 6G 3
  22311970.4894                   22311963.7934  117250259.79347  91363840.14946
        43.0004         41.0004
  23698004.8134                   23697998.7474  124533887.26346  97039396.90145
        40.0004         38.0004
  20612550.7164                   20612542.9584  108319754.98849  84405003.79348
        50.0004         47.0004
  20566191.7944                   20566182.3404  108076135.39549  84215173.25148
        49.0004         47.0004
  20352495.0404                   20352485.8874  106953182.06148  83340158.87548
        47.0004         48.0004
  21670018.7364                   21670009.1714  113876798.18848  88735174.03648
        48.0004         45.0004
  23483042.1104                   23483035.6314  123404210.94846  96159078.24845
        40.0004         38.0004
  24558058.1714                                  129053466.04045
        36.0004
  21927629.7754                   21927622.6554  115230514.89548  89790005.81647
        46.0004         44.0004
 04  3  1  0 21  0.0000000  0  8G26G29G15G21G18G22G16G 3
  22320439.0294                   22320432.3354  117294762.02047  91398517.16346
        42.0004         41.0004
  23710259.4484                   23710253.3564  124598285.55846  97089577.34945
        39.0004         37.0004
  20602502.0014                   20602494.2404  108266948.75549  84363856.09748
        49.0004         47.0004
  20573836.0394                   20573826.5834  108116306.17048  84246475.14948
        48.0004         47.0004
  20349934.9014                   20349925.7504  106939728.50148  83329675.60348
        47.0004         47.0004
  21655533.8344                   21655524.2554  113800679.64048  88675860.91648
        48.0004         45.0004
  23497896.8244                   23497890.3724  123482272.62346  96219905.43245
        41.0004         38.0004
  21915665.1154                   21915657.9834  115167640.36948  89741012.73247
        46.0004         43.0004
 04  3  1  0 21 30.0000000  0  9G26G29G15G21G18G22G16G 6G 3
  22329057.1354                   22329050.4404  117340050.28747  91433806.67846
        43.0004         41.0004
  23722628.6194                   23722622.5174  124663285.48846  97140226.56145
        40.0004         38.0004
  20592546.0944                   20592538.3464  108214630.23549  84323088.43848
        49.0004         47.0004
  20581578.7034                   20581569.2604  108156994.14648  84278180.05248
        48.0004         47.0004
  20347499.4064                   20347490.2404  106926929.94848  83319702.72148
        47.0004         47.0004
  21641146.9744                   21641137.3804  113725076.36548  88616949.31648
        47.0004         45.0004
  23512842.2384                   23512835.7844  123560810.99246  96281104.08345
        40.0004         38.0004
  24600818.8514                                  129278169.36654
        35.0004
  21903814.7814                   21903807.6204  115105366.63548  89692487.79147
        46.0004         44.0004
 04  3  1  0 22  0.0000000  0  9G26G29G15G21G18G22G16G 6G 3
  22337767.3074                   22337760.6134  117385822.42547  91469473.25346
        44.0004         41.0004
  23735054.6154                   23735048.4864  124728584.47446  97191108.88745
        40.0004         37.0004
  20582626.0134                   20582618.2644  108162499.92349  84282467.42348
        49.0004         47.0004
  20589362.4964                   20589353.0394  108197898.19048  84310053.32648
        48.0004         47.0004
  20345131.3364                   20345122.1694  106914485.72248  83310005.93148
        47.0004         47.0004
  21626801.1834                   21626791.5764  113649688.91148  88558205.89648
        48.0004         45.0004
  23527820.6344                   23527814.1904  123639522.68146  96342437.77845
        40.0004         38.0004
  24622208.7164                                  129390573.49245
        36.0004
  21892021.9444                   21892014.7804  115043395.10748  89644198.33147
        46.0004         44.0004
 04  3  1  0 22 30.0000000  0  9G26G29G15G21G18G22G16G 6G 3
  22346626.9104                   22346620.2054  117432379.83047  91505751.73846
        44.0004         41.0004
  23747594.8334                   23747588.7264  124794483.45246  97242458.63845
        39.0004         37.0004
  20572799.6554                   20572791.9074  108110862.12749  84242230.19748
        49.0004         47.0004
  20597245.0554                   20597235.5984  108239321.31849  84342331.08748
        49.0004         47.0004
  20342888.3214                   20342879.1534  106902698.66048  83300821.21748
        47.0004         47.0004
  21612554.4714                   21612544.8514  113574822.06048  88499868.12648
        47.0004         45.0004
  23542889.1364                   23542882.6934  123718708.06946  96404140.65145
        39.0004         37.0004
  24643643.0804                                  129503211.64944
        35.0004
  21880344.7064                   21880337.5274  114982031.05748  89596382.24547
        46.0004         44.0004
 04  3  1  0 23  0.0000000  0  9G26G29G15G21G18G22G16G 6G 3
  22355635.7354                   22355629.0304  117479721.33747  91542641.18546
        43.0004         41.0004
  23760248.9114                   23760242.8174  124860981.39346  97294275.27245
        39.0004         37.0004
  20563067.3684                   20563059.6064  108059718.67449  84202378.17648
        49.0004         47.0004
  20605226.4334                   20605216.9894  108281263.68249  84375013.42548
        49.0004         47.0004
  20340770.4044                   20340761.2364  106891569.12148  83292148.88648
        47.0004         47.0004
  21598407.1764                   21598397.5404  113500477.64748  88441937.44348
        48.0004         45.0004
  23558047.3834                   23558040.9684  123798364.87846  96466210.81545
        39.0004         37.0004
  24665121.7224                                  129616082.54845
        36.0004
  21868783.6524                   21868776.4444  114921277.43148  89549041.79247
        47.0004         44.0004
 04  3  1  0 23 30.0000000  0 10G26G29G15G31G21G18G22G16G 6G 3
  22364734.4254                   22364727.7334  117527535.14647  91579898.66446
        43.0004         41.0004
  23772957.5484                   23772951.4494  124927765.61046  97346314.87245
        39.0004         37.0004
  20553370.4004                   20553362.6244  108008760.82449  84162670.78148
        49.0004         47.0004
  24703349.2614                                  129816983.68354
        34.0004
  20613247.5324                   20613238.0874  108323414.77748  84407858.42048
        48.0004         47.0004
  20338718.6344                   20338709.4794  106880787.05648  83283747.28448
        47.0004         47.0004
  21584300.4884                   21584290.8404  113426346.56448  88384172.98948
        47.0004         45.0004
  23573235.7804                   23573229.4374  123878180.07046  96528404.37145
        40.0004         38.0004
  24686585.5994                                  129728874.35744
        35.0004
  21857280.1364                   21857272.9404  114860826.23648  89501936.99247
        46.0004         44.0004
 04  3  1  0 24  0.0000000  0  9G26G29G15G31G21G18G22G16G 3
  22373923.4964                   22373916.8204  117575823.91747  91617526.25446
        42.0004         41.0004
  23785721.1904                   23785715.0514  124994838.81446  97398579.68945
        39.0004         37.0004
  20543709.8124                   20543702.0354  107957994.15449  84123112.34848
        50.0004         47.0004
  24682751.0804                                  129708740.01044
        33.0004
  20621309.1564                   20621299.7124  108365778.83749  84440869.36348
        49.0004         47.0004
  20336733.8114                   20336724.6564  106870356.80648  83275619.83048
        47.0004         47.0004
  21570235.5144                   21570225.8664  113352434.75449  88326579.39548
        49.0004         45.0004
  23588454.5804                   23588448.2664  123958155.15246  96590722.55745
        39.0004         37.0004
  21845835.4404                   21845828.2304  114800684.07948  89455073.00547
        47.0004         44.0004
 04  3  1  0 24 30.0000000  0 10G26G29G15G31G21G18G22G16G 6G 3
  22383230.3944                   22383223.7494  117624731.87247  91655636.32246
        43.0004         41.0004
  23798567.0604                   23798560.8944  125062344.69146  97451181.76945
        39.0004         37.0004
  20534113.5884                   20534105.7984  107907565.72149  84083817.48548
        49.0004         47.0004
  24662184.4324                                  129600664.42444
        34.0004
  20629439.0014                   20629429.5694  108408501.52249  84474159.77048
        49.0004         47.0004
  20334843.5894                   20334834.4334  106860423.74648  83267879.80748
        46.0004         47.0004
  21556240.3144                   21556230.6534  113278889.54248  88269271.46548
        48.0004         46.0004
  23603731.0434                   23603724.7254  124038433.31946  96653276.91645
        40.0004         38.0004
  24729495.9574                                  129954377.81354
        35.0004
  21834477.7354                   21834470.5114  114740999.05848  89408565.23347
        47.0004         44.0004
 04  3  1  0 25  0.0000000  0 10G26G29G15G31G21G18G22G16G 6G 3
  22392685.1794                   22392678.5334  117674417.10247  91694352.08146
        43.0004         40.0004
  23811525.4194                   23811519.2394  125130441.07846  97504243.83845
        39.0004         37.0004
  20524612.3824                   20524604.5914  107857636.67049  84044911.75848
        49.0004         47.0004
  24641681.5134                                  129492919.10744
        33.0004
  20637667.4384                   20637657.9924  108451742.18849  84507853.78648
        49.0004         47.0004
  20333078.4254                   20333069.2564  106851147.68248  83260651.70148
        46.0004         47.0004
  21542345.5034                   21542335.8174  113205871.88248  88212374.61948
        48.0004         45.0004
  23619095.0744                   23619088.7684  124119171.66346  96716189.85445
        39.0004         37.0004
  24751000.8614                                  130067384.78145
        36.0004
  21823237.8654                   21823230.6144  114681933.20648  89362539.92247
        45.0004         44.0004
 04  3  1  0 25 30.0000000  0 10G26G29G15G31G21G18G22G16G 6G 3
  22402259.4184                   22402252.7844  117724730.00347  91733556.91246
        43.0004         41.0004
  23824567.5764                   23824561.3804  125198977.94646  97557649.16445
        39.0004         37.0004
  20515178.3064                   20515170.5174  107808060.33149  84006280.86348
        49.0004         47.0004
  24621213.6244                                  129385359.12244
        35.0004
  20645966.2614                   20645956.8294  108495352.79948  84541836.07348
        48.0004         47.0004
  20331410.1204                   20331400.9524  106842380.68048  83253820.27548
        45.0004         47.0004
  21528523.2224                   21528513.5494  113133235.43048  88155774.80648
        47.0004         46.0004
  23634518.0124                   23634511.7224  124200219.43646  96779343.89745
        39.0004         38.0004
  24772519.5394                                  130180466.82344
        35.0004
  21812088.0744                   21812080.8084  114623340.78748  89316883.51847
        46.0004         44.0004
 04  3  1  0 26  0.0000000  0 10G26G29G15G31G21G18G22G16G 6G 3
  22411951.9244                   22411945.3174  117775664.40447  91773246.02646
        43.0004         41.0004
  23837692.3514                   23837686.1694  125267949.23145  97611393.04345
        38.0004         36.0004
  20505810.7044                   20505802.8984  107758833.37249  83967922.21848
        50.0004         47.0004
  24600780.2324                                  129277982.67444
        35.0004
  20654334.6184                   20654325.2004  108539328.74849  84576103.02648
        49.0004         47.0004
  20329837.7324                   20329828.5664  106834117.85347  83247381.74448
        44.0004         47.0004
  21514772.8904                   21514763.1904  113060977.00948  88099469.57148
        48.0004         45.0004
  23649998.4654                   23649992.1894  124281569.38946  96842733.38345
        39.0004         38.0004
  24794051.7364                                  130293618.34344
        34.0004
  21801027.9694                   21801020.6884  114565219.66548  89271594.36247
        46.0004         44.0004
 04  3  1  0 26 30.0000000  0 10G26G29G15G31G21G18G22G16G 6G 3
  22421762.2484                   22421755.6294  117827217.94647  91813417.61546
        42.0004         41.0004
  23850899.2704                   23850893.1144  125337351.99745  97665473.08645
        38.0004         36.0004
  20496509.8674                   20496502.0504  107709957.14849  83929836.86348
        49.0004         48.0004
  24580382.2644                                  129170792.06644
        35.0004
  20662772.2874                   20662762.8694  108583668.93349  84610653.81148
        49.0004         47.0004
  20328361.1884                   20328352.0344  106826358.62448  83241335.59348
        45.0004         47.0004
  21501094.6604                   21501084.9594  112989097.55048  88043459.62948
        48.0004         46.0004
  23665535.7404                   23665529.4774  124363218.07346  96906355.66845
        39.0004         38.0004
  24815596.3584                                  130406836.97344
        34.0004
  21790057.8214                   21790050.5404  114507571.33948  89226673.62747
        46.0004         44.0004
 04  3  1  0 27  0.0000000  0 10G26G29G15G31G21G18G22G16G 6G 3
  22431689.5774                   22431682.9564  117879386.34947  91854068.29846
        43.0004         41.0004
  23864187.4554                   23864181.2814  125407181.94445  97719886.03545
        38.0004         36.0004
  20487275.4814                   20487267.6514  107661430.24449  83892023.72848
        50.0004         47.0004
  24560019.9804                                  129063787.60244
        35.0004
  20671278.7904                   20671269.3734  108628370.90849  84645486.52048
        49.0004         47.0004
  20326980.0454                   20326970.8754  106819100.72948  83235680.10348
        46.0004         47.0004
  21487488.3234                   21487478.6094  112917595.89148  87987744.08848
        48.0004         45.0004
  23681128.8624                   23681122.6264  124445160.35646  96970206.75445
        40.0004         37.0004
  24837153.1594                                  130520117.91444
        34.0004
  21779177.6224                   21779170.3274  114450395.63248  89182121.16147
        46.0004         44.0004
 04  3  1  0 27 30.0000000  0 10G26G29G15G31G21G18G22G16G 6G 3
  22441704.8104                   22441698.1774  117932016.75247  91895079.01746
        42.0004         41.0004
  23877527.8634                   23877521.7414  125477285.94845  97774512.42345
        38.0004         37.0004
  20478079.0754                   20478071.2304  107613102.86549  83854366.04748
        50.0004         47.0004
  24539664.8054                                  128956820.81444
        35.0004
  20679825.3454                   20679815.9154  108673283.23349  84680483.11848
        49.0004         47.0004
  20325665.3844                   20325656.2134  106812192.20348  83230296.84548
        47.0004         48.0004
  21473925.3384                   21473915.6114  112846322.05349  87932206.06448
        49.0004         46.0004
  23696748.6314                   23696742.3944  124527242.35946  97034166.65645
        39.0004         37.0004
  24858692.6584                                  130633308.43444
        34.0004
  21768359.0694                   21768351.7764  114393543.87548  89137821.12747
        47.0004         44.0004
 04  3  1  0 28  0.0000000  0 10G26G29G15G31G21G18G22G16G 6G 3
  22451894.9814                   22451888.3464  117985566.45947  91936806.05546
        43.0004         41.0004
  23891007.3234                   23891001.2404  125548120.79845  97829708.34445
        38.0004         36.0004
  20469008.2114                   20469000.3674  107565435.21749  83817222.44048
        50.0004         48.0004
  24519404.8484                                  128850353.64544
        35.0004
  20688499.2064                   20688489.7894  108718864.68249  84716001.12348
        49.0004         47.0004
  20324504.5914                   20324495.4224  106806092.25948  83225543.66048
        47.0004         47.0004
  21460493.3534                   21460483.6134  112775736.67848  87877204.52848
        48.0004         46.0004
  23712481.7814                   23712475.4984  124609920.43146  97098591.08745
        39.0004         37.0004
  24880301.8504                                  130746865.94144
        35.0004
  21757689.9184                   21757682.5994  114337477.17248  89094132.81747
        47.0004         44.0004
 04  3  1  0 28 30.0000000  0 10G26G29G15G31G21G18G22G16G 6G 3
  22462143.0424                   22462136.4114  118039420.38647  91978770.16946
        42.0004         41.0004
  23904508.8314                   23904502.7494  125619071.45246  97884994.51945
        39.0004         37.0004
  20459946.4784                   20459938.6074  107517815.55149  83780116.23948
        49.0004         47.0004
  24499123.6844                                  128743775.78344
        35.0004
  20697183.6344                   20697174.2174  108764501.66048  84751562.40448
        48.0004         46.0004
  20323380.9854                   20323371.8144  106800187.73148  83220942.73848
        47.0004         48.0004
  21447075.9794                   21447066.2254  112705228.09148  87822262.81848
        48.0004         46.0004
  23728211.1144                   23728204.8264  124692578.50946  97162999.93345
        39.0004         37.0004
  24901864.0994                                  130860175.26144
        34.0004
  21747053.8794                   21747046.5464  114281584.59448  89050580.21248
        46.0004         45.0004
 04  3  1  0 29  0.0000000  0 10G26G29G15G31G21G18G22G16G 6G 3
  22472535.1204                   22472528.4904  118094031.00247  92021323.86746
        42.0004         40.0004
  23918118.3894                   23918112.3074  125690590.09845  97940723.32245
        38.0004         36.0004
  20450980.5454                   20450972.6604  107470699.31649  83743402.30848
        49.0004         47.0004
  24478908.3234                                  128637544.15645
        36.0004
  20705965.0944                   20705955.6774  108810648.48049  84787520.95248
        49.0004         47.0004
  20322380.8914                   20322371.7214  106794932.26648  83216847.58548
        47.0004         47.0004
  21433759.8224                   21433750.0544  112635251.46448  87767735.63548
        48.0004         46.0004
  23744022.6104                   23744016.3544  124775668.10546  97227744.99345
        39.0004         37.0004
  24923465.5224                                  130973688.63344
        34.0004
  21736537.8164                   21736530.4864  114226322.37348  89007518.76448
        47.0004         45.0004
 04  3  1  0 29 30.0000000  0 10G26G29G15G31G21G18G22G16G 6G 3
  22483041.6304                   22483034.9984  118149243.14347  92064346.32446
        43.0004         40.0004
  23931806.5164                   23931800.4334  125762521.44345  97996773.65945
        38.0004         36.0004
  20442081.5604                   20442073.6764  107423934.96149  83706962.58148
        49.0004         48.0004
  24458730.1974                                  128531493.51454
        35.0004
  20714814.3464                   20714804.9174  108857151.48749  84823757.04648
        49.0004         47.0004
  20321475.1734                   20321465.9904  106790172.68248  83213138.83148
        47.0004         48.0004
  21420516.0184                   21420506.2374  112565654.99048  87713504.66748
        48.0004         46.0004
  23759886.5544                   23759880.3144  124859033.25646  97292704.76045
        40.0004         37.0004
  24945076.1424                                  131087252.20744
        34.0004
  21726112.9734                   21726105.6174  114171539.58248  88964830.91747
        47.0004         44.0004
 04  3  1  0 30  0.0000000  0 10G26G29G15G31G21G18G22G16G 6G 3
  22493663.0734                   22493656.4584  118205059.20447  92107839.36446
        42.0004         40.0004
  23945573.6674                   23945567.6014  125834867.74545  98053147.28245
        38.0004         37.0004
  20433250.5564                   20433242.6734  107377527.85049  83670801.22448
        49.0004         48.0004
  24438590.9644                                  128425660.94245
        36.0004
  20723732.1324                   20723722.7034  108904014.76849  84860273.88848
        49.0004         47.0004
  20320664.6054                   20320655.4224  106785913.18448  83209819.75248
        46.0004         47.0004
  21407345.6244                   21407335.8284  112496444.41548  87659574.42148
        48.0004         46.0004
  23775803.1824                   23775796.9694  124942675.45446  97357880.42745
        39.0004         36.0004
  24966696.5634                                  131200867.59844
        34.0004
  21715780.6034                   21715773.2364  114117242.67348  88922521.67047
        48.0004         44.0004
 04  3  1  0 30 30.0000000  0 10G26G29G15G31G21G18G22G16G 6G 3
  22504369.6284                   22504363.0104  118261322.59247  92151680.96846
        42.0004         40.0004
  23959389.7944                   23959383.7274  125907472.04845  98109722.07445
        38.0004         36.0004
  20424458.3284                   20424450.4434  107331324.50449  83634798.64048
        50.0004         47.0004
  24418461.5074                                  128319879.36945
        36.0004
  20732688.9274                   20732679.4984  108951082.98349  84896950.40548
        49.0004         47.0004
  20319919.6254                   20319910.4404  106781998.34848  83206769.24048
        47.0004         47.0004
  21394219.4404                   21394209.6304  112427466.16948  87605825.21048
        48.0004         46.0004
  23791742.5244                   23791736.3234  125026437.13646  97423149.22745
        39.0004         37.0004
  24988297.0514                                  131314378.11644
        34.0004
  21705511.6004                   21705504.2184  114063278.81948  88880471.94747
        48.0004         44.0004
 04  3  1  0 31  0.0000000  0 10G26G29G15G31G21G18G22G16G 6G 3
  22515249.0964                   22515242.4794  118318494.33147  92196230.32646
        42.0004         40.0004
  23973342.8764                   23973336.7954  125980795.54945  98166857.17745
        38.0004         36.0004
  20415793.2774                   20415785.3654  107285789.41349  83599316.77948
        49.0004         48.0004
  24398430.4464                                  128214614.87345
        36.0004
  20741772.8424                   20741763.4144  108998819.28049  84934147.52148
        49.0004         47.0004
  20319328.2804                   20319319.0954  106778890.93648  83204347.90448
        47.0004         47.0004
  21381225.8624                   21381216.0414  112359184.64249  87552618.88248
        49.0004         46.0004
  23807792.1814                   23807785.9774  125110778.34246  97488869.56845
        39.0004         37.0004
  25009965.4294                                  131428245.39544
        34.0004
  21695394.5824                   21695387.1894  114010113.59648  88839044.53148
        48.0004         45.0004
 04  3  1  0 31 30.0000000  0 10G26G29G15G31G21G18G22G16G 6G 3
  22526183.6564                   22526177.0224  118375956.02147  92241005.70046
        42.0004         40.0004
  23987315.0934                   23987309.0134  126054219.67145  98224070.70045
        38.0004         36.0004
  20407138.3224                   20407130.4114  107240307.38049  83563876.25348
        49.0004         48.0004
  24378380.9104                                  128109258.59655
        36.0004
  20750866.4824                   20750857.0674  109046606.68049  84971384.44848
        49.0004         47.0004
  20318773.2524                   20318764.0674  106775974.24548  83202075.15848
        47.0004         48.0004
  21368247.7344                   21368237.8994  112290984.49448  87499475.99948
        48.0004         46.0004
  23823834.2764                   23823828.0994  125195079.86646  97554558.99945
        39.0004         36.0004
  25031583.7934                                  131541850.97744
        33.0004
  21685312.5624                   21685305.1674  113957132.40848  88797760.52348
        47.0004         45.0004
 04  3  1  0 32  0.0000000  0 10G26G29G15G31G21G18G22G16G 6G 3
  22537260.9174                   22537254.3114  118434167.36047  92286365.16146
        42.0004         40.0004
  24001393.8754                   24001387.7544  126128203.98345  98281720.79345
        37.0004         37.0004
  20398581.5534                   20398573.6414  107195341.38149  83528837.83348
        49.0004         48.0004
  24358401.1254                                  128004265.12245
        36.0004
  20760057.5914                   20760048.1624  109094906.22049  85009020.44748
        49.0004         47.0004
  20318342.2584                   20318333.0714  106773709.47948  83200310.42648
        47.0004         47.0004
  21355373.2124                   21355363.3494  112223328.73448  87446757.30948
        48.0004         46.0004
  23839956.1744                   23839950.0254  125279800.76446  97620575.21545
        39.0004         36.0004
  25053240.1574                                  131655655.25444
        33.0004
  21675353.8504                   21675346.4444  113904799.15048  88756981.40248
        48.0004         45.0004
 04  3  1  0 32 30.0000000  0 10G26G29G15G31G21G18G22G16G 6G 3
  22548451.4214                   22548444.8284  118492973.98147  92332188.51846
        42.0004         40.0004
  24015549.8144                   24015543.7194  126202593.82045  98339686.85445
        38.0004         36.0004
  20390094.2524                   20390086.3434  107150740.37549  83494083.82948
        49.0004         48.0004
  24338463.1904                                  127899490.06345
        36.0004
  20769317.2814                   20769307.8404  109143566.15648  85046937.28148
        48.0004         46.0004
  20318006.3484                   20317997.1474  106771944.26048  83198934.93648
        47.0004         47.0004
  21342573.5394                   21342563.6634  112156066.31348  87394345.10648
        48.0004         46.0004
  23856128.3554                   23856122.2044  125364785.89946  97686797.33545
        39.0004         36.0004
  25074904.7214                                  131769503.49444
        34.0004
  21665489.8274                   21665482.3934  113852963.54748  88716590.07448
        46.0004         45.0004
 04  3  1  0 33  0.0000000  0 10G26G29G15G31G21G18G22G16G 6G 3
  22559724.9974                   22559718.4174  118552216.89646  92378351.79646
        41.0004         40.0004
  24029752.7344                   24029746.6714  126277230.29446  98397845.06545
        39.0004         36.0004
  20381646.7934                   20381638.8854  107106348.74449  83459492.96448
        49.0004         48.0004
  24318537.1034                                  127794778.89545
        36.0004
  20778615.5244                   20778606.1114  109192428.75648  85085012.02148
        48.0004         47.0004
  20317735.5284                   20317726.3274  106770521.15148  83197826.03448
        47.0004         47.0004
  21329819.0504                   21329809.1444  112089041.39648  87342117.98648
        48.0004         46.0004
  23872320.3774                   23872314.2514  125449875.29746  97753100.68745
        39.0004         36.0004
  25096547.8034                                  131883237.21944
        33.0004
  21655691.0594                   21655683.6244  113801470.80248  88676465.88047
        47.0004         44.0004
 04  3  1  0 33 30.0000000  0  8G26G29G15G21G18G22G16G 3
  22571169.0464                   22571162.4924  118612355.77847  92425213.24346
        42.0004         40.0004
  24044089.9814                   24044083.9054  126352572.90745  98456553.58245
        38.0004         37.0004
  20373327.3154                   20373319.3964  107062629.65549  83425426.17148
        50.0004         48.0004
  20788040.1324                   20788030.7044  109241955.40348  85123604.21648
        48.0004         46.0004
  20317617.7024                   20317608.4874  106769901.90948  83197343.49948
        47.0004         48.0004
  21317197.8984                   21317187.9684  112022716.98448  87290436.69048
        48.0004         46.0004
  23888619.6104                   23888613.5264  125535527.90746  97819842.86745
        39.0004         36.0004
  21646045.7814                   21646038.3344  113750784.58648  88636970.15548
        48.0004         45.0004
 04  3  1  0 34  0.0000000  0  9G26G29G15G31G21G18G22G16G 3
  22582666.1544                   22582659.5964  118672773.42447  92472291.90046
        43.0004         40.0004
  24058444.1744                   24058438.1284  126428004.26445  98515331.16045
        38.0004         37.0004
  20365018.9264                   20365011.0054  107018968.90149  83391404.82848
        50.0004         48.0004
  24278870.7664                                  127586326.57554
        34.0004
  20797473.9654                   20797464.5534  109291530.53249  85162234.18648
        49.0004         46.0004
  20317535.6474                   20317526.4324  106769470.77048  83197007.56448
        48.0004         48.0004
  21304593.1894                   21304583.2444  111956479.10448  87238822.83048
        48.0004         46.0004
  23904908.3624                   23904902.2794  125621125.75345  97886542.46245
        38.0004         36.0004
  21636437.2784                   21636429.8164  113700291.74548  88597625.12948
        47.0004         45.0004
 04  3  1  0 34 30.0000000  0  9G26G29G15G31G21G18G22G16G 3
  22594303.8354                   22594297.2654  118733929.66747  92519946.08546
        42.0004         40.0004
  24072902.7144                   24072896.6564  126503984.34546  98574536.41645
        39.0004         37.0004
  20356809.8724                   20356801.9384  106975830.09449  83357790.19348
        49.0004         47.0004
  24259101.7614                   24259096.6784  127482441.68845  99336938.69354
        36.0004         33.0004
  20807004.8834                   20806995.4684  109341615.84048  85201261.69148
        48.0004         46.0004
  20317577.2154                   20317567.9884  106769689.21548  83197177.79048
        46.0004         48.0004
  21292093.0984                   21292083.1414  111890790.93148  87187637.30848
        48.0004         46.0004
  23921274.1334                   23921268.0634  125707128.08346  97953557.17645
        39.0004         36.0004
  21626953.8754                   21626946.4134  113650456.31748  88558792.36948
        48.0004         45.0004
 04  3  1  0 35  0.0000000  0  9G26G29G15G31G21G18G22G16G 3
  22606052.2524                   22606045.6834  118795668.07446  92568053.95446
        41.0004         40.0004
  24087435.8824                   24087429.8254  126580356.40745  98634047.06644
        38.0004         35.0004
  20348670.9704                   20348663.0354  106933059.93649  83324462.81048
        49.0004         48.0004
  24239377.1944                   24239371.6564  127378786.51345  99256168.40144
        36.0004         34.0004
  20816603.4824                   20816594.0814  109392056.88549  85240566.40848
        49.0004         46.0004
  20317712.9304                   20317703.6764  106770402.33548  83197733.47248
        47.0004         47.0004
  21279668.4794                   21279658.4924  111825499.36548  87136760.82348
        48.0004         46.0004
  23937686.9624                   23937680.9054  125793377.52046  98020764.39345
        39.0004         36.0004
  21617566.6104                   21617559.1474  113601126.02948  88520353.20648
        47.0004         45.0004
 04  3  1  0 35 30.0000000  0  9G26G29G15G31G21G18G22G16G 3
  22617911.4444                   22617904.8884  118857988.55246  92616615.35346
        41.0004         40.0004
  24102043.6974                   24102037.6614  126657120.74245  98693863.40045
        38.0004         36.0004
  20340602.8504                   20340594.9014  106890661.74349  83291425.27348
        49.0004         47.0004
  24219696.9134                   24219691.5534  127275365.75445  99175580.91744
        36.0004         34.0004
  20826270.0654                   20826260.6634  109442855.12149  85280149.44648
        49.0004         46.0004
  20317943.0914                   20317933.8374  106771611.84148  83198675.94248
        48.0004         47.0004
  21267319.9354                   21267309.9354  111760607.51648  87086195.79748
        48.0004         46.0004
  23954146.5634                   23954140.5094  125879873.30746  98088163.72345
        39.0004         36.0004
  21608276.1994                   21608268.7364  113552304.71348  88482310.65448
        46.0004         45.0004
 04  3  1  0 36  0.0000000  0  9G26G29G15G31G21G18G22G16G 3
  22629850.6054                   22629844.0744  118920729.20346  92665504.13846
        41.0004         40.0004
  24116695.3174                   24116689.3254  126734115.14845  98753858.95245
        38.0004         36.0004
  20332575.3894                   20332567.4254  106848477.27249  83258554.29048
        49.0004         48.0004
  24200031.3634                   24200025.9844  127172022.90545  99095054.07644
        36.0004         35.0004
  20835974.2164                   20835964.8144  109493850.77949  85319886.31948
        49.0004         46.0004
  20318237.2564                   20318228.0014  106773157.75048  83199880.55648
        47.0004         47.0004
  21255017.2664                   21255007.2544  111695956.74348  87035818.62348
        48.0004         46.0004
  23970622.1784                   23970616.2124  125966452.93545  98155628.28444
        38.0004         35.0004
  21599052.7064                   21599045.2574  113503835.11848  88444542.17048
        47.0004         45.0004
 04  3  1  0 36 30.0000000  0  9G26G29G15G31G21G18G22G16G 3
  22641928.6144                   22641922.0694  118984199.57046  92714961.56846
        41.0004         40.0004
  24131449.5374                   24131443.5624  126811649.10345  98814275.02445
        37.0004         36.0004
  20324648.1024                   20324640.1384  106806819.22549  83226093.49948
        50.0004         48.0004
  24180440.4004                   24180434.9684  127069072.13545  99014832.70444
        36.0004         35.0004
  20845775.0854                   20845765.6704  109545354.69249  85360019.25148
        49.0004         46.0004
  20318654.6104                   20318645.3694  106775350.96048  83201589.54848
        47.0004         47.0004
  21242819.9894                   21242809.9774  111631859.86849  86985873.06248
        49.0004         46.0004
  23987172.5704                   23987166.6304  126053425.14445  98223398.66744
        37.0004         35.0004
  21589955.7814                   21589948.3194  113456030.58148  88407291.91848
        47.0004         45.0004
 04  3  1  0 37  0.0000000  0  9G26G29G15G31G21G18G22G16G 3
  22654115.0604                   22654108.5244  119048239.71047  92764862.94146
        42.0004         39.0004
  24146276.0534                   24146270.1324  126889562.59145  98874986.72445
        37.0004         36.0004
  20316791.2094                   20316783.2454  106765531.03849  83193920.89948
        49.0004         48.0004
  24160894.6174                   24160889.2464  126966358.60345  98934796.23944
        36.0004         34.0004
  20855642.5814                   20855633.1674  109597208.66948  85400424.93948
        48.0004         46.0004
  20319165.0554                   20319155.8134  106778033.42948  83203679.79348
        47.0004         47.0004
  21230698.3264                   21230688.2994  111568160.35348  86936237.13148
        48.0004         46.0004
  24003766.9344                   24003760.9654  126140629.30645  98291350.00744
        38.0004         35.0004
  21580955.6994                   21580948.2234  113408734.95848  88370438.21648
        48.0004         45.0004
 04  3  1  0 37 30.0000000  0  9G26G29G15G31G21G18G22G16G 3
  22666380.0854                   22666373.5664  119112692.73047  92815086.04946
        42.0004         40.0004
  24161144.9184                   24161139.0224  126967699.00745  98935872.21945
        37.0004         36.0004
  20308975.5514                   20308967.5744  106724459.53949  83161917.15748
        49.0004         47.0004
  24141365.0074                   24141359.6634  126863730.49545  98854826.42244
        36.0004         34.0004
  20865547.2884                   20865537.8724  109649258.32149  85440983.11348
        49.0004         46.0004
  20319739.1264                   20319729.8844  106781050.25748  83206030.57848
        47.0004         47.0004
  21218623.0954                   21218613.0544  111504704.70749  86886791.20948
        49.0004         46.0004
  24020375.5924                   24020369.6784  126227907.95445  98359359.22045
        37.0004         36.0004
  21572023.4904                   21572016.0004  113361795.94348  88333862.38348
        47.0004         45.0004
 04  3  1  0 38  0.0000000  0  9G26G29G15G31G21G18G22G16G 3
  22678811.4624                   22678804.9434  119178020.05547  92865990.46146
        42.0004         40.0004
  24176144.0334                   24176138.1664  127046519.57245  98997290.76745
        37.0004         36.0004
  20301289.5914                   20301281.6004  106684069.60649  83130444.50448
        49.0004         48.0004
  24121940.5404                   24121935.1664  126761654.41945  98775286.60744
        36.0004         34.0004
  20875577.3514                   20875567.9364  109701966.65648  85482054.54848
        48.0004         46.0004
  20320464.9454                   20320455.6914  106784864.39948  83209002.63648
        47.0004         48.0004
  21206682.6964                   21206672.6414  111441957.67848  86837897.46348
        48.0004         47.0004
  24037086.0554                   24037080.1694  126315721.77945  98427785.51344
        37.0004         35.0004
  21563247.7094                   21563240.2314  113315679.02748  88297927.13948
        48.0004         45.0004
 04  3  1  0 38 30.0000000  0  9G26G29G15G31G21G18G22G16G 3
  22691292.5774                   22691286.0824  119243608.75847  92917098.51246
        42.0004         40.0004
  24191156.6414                   24191150.8004  127125411.42745  99058764.93044
        37.0004         35.0004
  20293617.3654                   20293609.3754  106643751.91549  83099028.14948
        50.0004         48.0004
  24102505.4274                   24102499.9684  126659522.46245  98695703.34244
        36.0004         35.0004
  20885616.4644                   20885607.0644  109754722.55349  85523163.03548
        49.0004         46.0004
  20321226.1994                   20321216.9444  106788864.87748  83212119.90248
        47.0004         48.0004
  21194761.1564                   21194751.0884  111379309.68649  86789080.88448
        49.0004         47.0004
  24053781.6374                   24053775.7614  126403457.34545  98496150.80045
        36.0004         36.0004
  21554512.5624                   21554505.0594  113269775.64648  88262158.31948
        48.0004         45.0004
 04  3  1  0 39  0.0000000  0  9G26G29G15G31G21G18G22G16G 3
  22703909.4764                   22703902.9654  119309910.94647  92968762.54246
        42.0004         39.0004
  24206268.8864                   24206263.0754  127204826.68345  99120646.92245
        37.0004         36.0004
  20286045.6074                   20286037.6044  106603962.12049  83068023.13848
        50.0004         48.0004
  24083146.6844                   24083141.2464  126557791.95845  98616432.86344
        36.0004         34.0004
  20895751.0184                   20895741.6164  109807979.99448  85564662.33248
        48.0004         46.0004
  20322109.2844                   20322100.0144  106793505.51948  83215735.99048
        47.0004         47.0004
  21182945.1264                   21182935.0474  111317216.09148  86740696.29648
        48.0004         46.0004
  24070548.2504                   24070542.3574  126491566.17545  98564806.95544
        37.0004         35.0004
  21545904.8624                   21545897.3464  113224541.94048  88226911.30148
        48.0004         45.0004
 04  3  1  0 39 30.0000000  0  9G26G29G15G31G21G18G22G16G 3
  22716603.6234                   22716597.1244  119376619.20146  93020742.99946
        41.0004         39.0004
  24221422.3774                   24221416.5444  127284458.19145  99182697.34345
        37.0004         36.0004
  20278516.4704                   20278508.4544  106564396.29749  83037192.65248
        49.0004         48.0004
  24063806.7244                   24063801.3044  126456160.59545  98537239.78244
        36.0004         35.0004
  20905922.8784                   20905913.4904  109861433.47748  85606314.39348
        48.0004         46.0004
  20323055.9254                   20323046.6434  106798480.15548  83219612.33948
        47.0004         48.0004
  21171176.7204                   21171166.6544  111255372.95248  86692506.88448
        48.0004         46.0004
  24087327.2664                   24087321.3404  126579740.12645  98633513.83744
        36.0004         35.0004
  21537366.8624                   21537359.3464  113179674.63648  88191949.80648
        48.0004         45.0004
 04  3  1  0 40  0.0000000  0  9G26G29G15G31G21G18G22G16G 3
  22729462.2294                   22729455.7424  119444191.56947  93073396.76546
        42.0004         39.0004
  24236704.0304                   24236698.1684  127364763.82045  99245273.16345
        37.0004         36.0004
  20271117.7694                   20271109.7524  106525515.98749  83006896.32948
        49.0004         48.0004
  24044573.8444                   24044568.3944  126355091.43845  98458484.66844
        37.0004         35.0004
  20916219.6034                   20916210.2014  109915543.06849  85648477.70248
        49.0004         46.0004
  20324153.6584                   20324144.3754  106804248.84248  83224107.43348
        47.0004         47.0004
  21159543.7834                   21159533.7024  111194241.58048  86644872.07848
        48.0004         46.0004
  24104205.7384                   24104199.8284  126668436.65945  98702627.92144
        37.0004         35.0004
  21528986.5094                   21528978.9824  113135635.64448  88157633.73748
        48.0004         45.0004
 04  3  1  0 40 30.0000000  0  9G26G29G15G31G21G18G22G16G 3
  22742368.5644                   22742362.1024  119512014.75447  93126245.96546
        42.0004         39.0004
  24251997.3064                   24251991.4074  127445130.40345  99307896.48445
        37.0004         36.0004
  20263733.4764                   20263725.4474  106486711.33249  82976658.95848
        49.0004         48.0004
  24025332.2104                   24025326.6974  126253976.53245  98379693.94944
        37.0004         35.0004
  20926524.8794                   20926515.4914  109969697.65948  85690676.08048
        48.0004         46.0004
  20325286.1594                   20325276.8644  106810200.17248  83228744.84848
        48.0004         47.0004
  21147930.2364                   21147920.1424  111133212.10449  86597316.67848
        49.0004         46.0004
  24121066.8414                   24121060.9694  126757042.09945  98771671.03844
        36.0004         35.0004
  21520647.9454                   21520640.4054  113091816.31948  88123488.84748
        48.0004         45.0004
 04  3  1  0 41  0.0000000  0  9G26G29G15G31G21G18G22G16G 3
  22755409.0284                   22755402.5784  119580542.91746  93179644.53546
        41.0004         39.0004
  24267388.5244                   24267382.5384  127526012.29845  99370921.46745
        36.0004         36.0004
  20256450.6834                   20256442.6684  106448440.11749  82946837.25848
        49.0004         47.0004
  24006169.2194                   24006163.6154  126153275.08645  98301225.45544
        36.0004         35.0004
  20936925.3984                   20936916.0094  110024352.75449  85733264.46548
        49.0004         46.0004
  20326540.1894                   20326530.9084  106816790.14848  83233879.88748
        47.0004         48.0004
  21136423.1424                   21136413.0354  111072741.97549  86550197.12348
        49.0004         46.0004
  24137996.9194                   24137991.0894  126846009.88645  98840996.48744
        36.0004         34.0004
  21512438.3434                   21512430.7904  113048674.63448  88089871.97048
        47.0004         45.0004
 04  3  1  0 41 30.0000000  0  9G26G29G15G31G21G18G22G16G 3
  22768554.6214                   22768548.1574  119649623.41446  93233473.48346
        41.0004         39.0004
  24282848.8994                   24282842.9124  127607256.68045  99434228.67545
        37.0004         36.0004
  20249241.0404                   20249233.0244  106410553.31449  82917315.09848
        49.0004         48.0004
  23987056.9194                   23987051.3144  126052839.77245  98222964.27844
        37.0004         35.0004
  20947392.4984                   20947383.1244  110079357.73848  85776125.48548
        48.0004         46.0004
  20327887.0034                   20327877.7094  106823867.76748  83239394.93448
        47.0004         47.0004
  21124994.0704                   21124983.9644  111012681.92248  86503397.11448
        48.0004         46.0004
  24154966.8024                   24154960.9664  126935186.84745  98910484.92444
        36.0004         35.0004
  21504329.5014                   21504321.9354  113006062.44448  88056667.69048
        48.0004         45.0004
 04  3  1  0 42  0.0000000  0  9G26G29G15G31G21G18G22G16G 3
  22781775.1534                   22781768.7324  119719097.59246  93287609.15046
        41.0004         39.0004
  24298348.0264                   24298342.0424  127688704.83045  99497694.71144
        37.0004         35.0004
  20242075.0294                   20242067.0134  106372895.79649  82887971.60448
        49.0004         48.0004
  23967966.0604                   23967960.3704  125952516.94345  98144790.74244
        37.0004         35.0004
  20957896.3814                   20957887.0074  110134556.01848  85819137.13248
        48.0004         46.0004
  20329296.7754                   20329287.4954  106831276.23148  83245167.77448
        47.0004         47.0004
  21113613.4734                   21113603.3534  110952876.66949  86456795.66248
        49.0004         46.0004
  24171946.2434                   24171940.4054  127024413.78645  98980012.26344
        36.0004         35.0004
  21496291.9414                   21496284.3734  112963824.96948  88023755.40648
        48.0004         45.0004
 04  3  1  0 42 30.0000000  0  9G26G29G15G31G21G18G22G16G 3
  22795129.0674                   22795122.6454  119789272.88546  93342291.19546
        40.0004         39.0004
  24313944.5194                   24313938.5264  127770664.89045  99561559.70345
        37.0004         36.0004
  20235011.9124                   20235003.8814  106335778.99349  82859049.44748
        49.0004         48.0004
  23948956.1354                   23948950.4004  125852619.54945  98066948.71844
        38.0004         35.0004
  20968495.9494                   20968486.5904  110190257.06248  85862540.52748
        48.0004         46.0004
  20330828.3154                   20330819.0334  106839324.65248  83251439.29248
        47.0004         48.0004
  21102340.5604                   21102330.4404  110893637.23648  86410635.09448
        48.0004         47.0004
  24188993.5424                   24188987.6744  127113997.95045  99049818.10544
        37.0004         35.0004
  21488385.0264                   21488377.4474  112922273.91248  87991377.98948
        48.0004         45.0004
 04  3  1  0 43  0.0000000  0  9G26G29G15G31G21G18G22G16G 3
  22808557.0354                   22808550.6244  119859837.39246  93397276.52146
        41.0004         39.0004
  24329579.0834                   24329573.1074  127852824.89145  99625580.45044
        36.0004         35.0004
  20227993.0034                   20227984.9724  106298894.43949  82830308.25048
        49.0004         48.0004
  23929968.7044                   23929962.9274  125752840.74145  97989199.19144
        36.0004         35.0004
  20979132.1814                   20979122.8214  110246150.90048  85906094.17748
        48.0004         46.0004
  20332422.6804                   20332413.4124  106847703.15848  83257968.00648
        47.0004         48.0004
  21091116.5484                   21091106.4264  110834654.84249  86364674.82048
        49.0004         47.0004
  24206049.3604                   24206043.5364  127203626.62945  99119658.57144
        37.0004         35.0004
  21480550.1464                   21480542.5534  112881101.46348  87959295.59548
        48.0004         45.0004
 04  3  1  0 43 30.0000000  0  9G26G29G15G31G21G18G22G16G 3
  22822116.5884                   22822110.1514  119931093.01147  93452800.33046
        42.0004         39.0004
  24345309.0344                   24345303.0474  127935486.78045  99689992.42544
        36.0004         35.0004
  20221076.4284                   20221068.3954  106262547.71649  82801986.15148
        49.0004         47.0004
  23911062.4774                   23911056.7244  125653487.90545  97911781.38644
        37.0004         35.0004
  20989863.0124                   20989853.6504  110302541.73248  85950035.06748
        48.0004         46.0004
  20334137.5684                   20334128.2994  106856714.95548  83264990.18348
        48.0004         48.0004
  21079999.5724                   21079989.4344  110776234.98948  86319152.90948
        48.0004         47.0004
  24223171.1234                   24223165.3594  127293601.41545  99189768.63744
        37.0004         35.0004
  21472845.5594                   21472837.9674  112840613.71448  87927746.72848
        48.0004         45.0004
 04  3  1  0 44  0.0000000  0  9G26G29G15G31G21G18G22G16G 3
  22835777.7444                   22835771.3204  120002882.68346  93508740.28646
        41.0004         39.0004
  24361104.7744                   24361098.7434  128018493.70345  99754673.09744
        36.0004         34.0004
  20214233.0014                   20214224.9564  106226585.26448  82773963.47548
        48.0004         47.0004
  23892208.3004                   23892202.5904  125554409.10445  97834577.23444
        37.0004         35.0004
  21000658.8674                   21000649.5054  110359274.39948  85994242.35248
        48.0004         46.0004
  20335943.4764                   20335934.2084  106866205.06748  83272385.07948
        47.0004         48.0004
  21068960.4224                   21068950.2844  110718223.99249  86273949.56248
        49.0004         47.0004
  24240328.7084                   24240322.9854  127383764.75345  99260025.68444
        37.0004         35.0004
  21465242.1524                   21465234.5594  112800657.66448  87896612.17148
        47.0004         46.0004
 04  3  1  0 44 30.0000000  0  9G26G29G15G31G21G18G22G16G 3
  22849511.1114                   22849504.6894  120075052.01646  93564976.13546
        41.0004         39.0004
  24376936.7434                   24376930.7034  128101691.32344  99819502.45244
        35.0004         35.0004
  20207434.0114                   20207425.9804  106190856.45749  82746122.86548
        49.0004         47.0004
  23873377.9704                   23873372.2314  125455455.36245  97757470.49944
        37.0004         35.0004
  21011490.7494                   21011481.3734  110416196.19548  86038596.97548
        48.0004         46.0004
  20337811.3414                   20337802.0594  106876020.82748  83280033.74248
        47.0004         48.0004
  21057970.3064                   21057960.1554  110660470.66848  86228947.00848
        48.0004         47.0004
  24257492.7404                   24257487.0044  127473961.79145  99330308.97344
        37.0004         35.0004
  21457711.3434                   21457703.7354  112761083.11948  87865774.89448
        47.0004         45.0004
 04  3  1  0 45  0.0000000  0  9G26G29G15G31G21G18G22G16G 3
  22863374.9104                   22863368.5034  120147906.70946  93621746.01246
        41.0004         39.0004
  24392863.2804                   24392857.2574  128185385.71645  99884718.84244
        36.0004         35.0004
  20200738.3764                   20200730.3184  106155670.71949  82718705.43648
        49.0004         48.0004
  23854630.6614                   23854624.8804  125356937.90245  97680703.73045
        38.0004         36.0004
  21022417.2844                   21022407.9084  110473615.52548  86083339.31148
        48.0004         46.0004
  20339799.7924                   20339790.5114  106886470.20748  83288176.11748
        48.0004         47.0004
  21047088.0954                   21047077.9304  110603284.44749  86184386.36348
        49.0004         47.0004
  24274721.2514                   24274715.5254  127564498.04045  99400856.63344
        36.0004         35.0004
  21450312.1714                   21450304.5644  112722200.27148  87835476.58748
        48.0004         45.0004
 04  3  1  0 45 30.0000000  0  9G26G29G15G31G21G18G22G16G 3
  22877339.4254                   22877333.0584  120221290.48146  93678928.09246
        41.0004         39.0004
  24408854.4974                   24408848.4474  128269420.62745  99950200.71744
        36.0004         34.0004
  20194117.0374                   20194108.9804  106120875.35048  82691592.16748
        48.0004         48.0004
  23835937.6394                   23835931.8904  125258705.59745  97604159.12644
        37.0004         35.0004
  21033409.0264                   21033399.6364  110531377.51749  86128348.66348
        49.0004         46.0004
  20341879.3264                   20341870.0444  106897398.29148  83296691.52148
        48.0004         48.0004
  21036284.6664                   21036274.4854  110546512.23449  86140148.31448
        49.0004         47.0004
  24291984.4384                   24291978.6954  127655216.63845  99471546.42944
        36.0004         34.0004
  21443015.6194                   21443008.0104  112683856.88448  87805598.66948
        47.0004         45.0004
 04  3  1  0 46  0.0000000  0  9G26G29G15G31G21G18G22G16G 3
  22891374.5104                   22891368.1454  120295045.22346  93736399.30346
        41.0004         39.0004
  24424880.5464                   24424874.4824  128353637.77445 100015824.39844
        36.0004         35.0004
  20187540.5524                   20187532.4814  106086315.81149  82664662.68748
        49.0004         48.0004
  23817269.6944                   23817263.8894  125160605.50845  97527717.65544
        38.0004         35.0004
  21044436.2694                   21044426.8804  110589326.00948  86173503.32148
        48.0004         46.0004
  20344020.1654                   20344010.8704  106908648.47948  83305457.90848
        47.0004         48.0004
  21025530.5844                   21025520.3914  110489999.27749  86096112.28348
        49.0004         47.0004
  24309252.1994                   24309246.4974  127745958.64645  99542254.31944
        37.0004         35.0004
  21435792.4104                   21435784.7864  112645898.72548  87776020.89848
        48.0004         45.0004
 04  3  1  0 46 30.0000000  0  9G26G29G15G31G21G18G22G16G 3
  22905567.0154                   22905560.6394  120369627.21846  93794515.12946
        41.0004         39.0004
  24441028.1224                   24441022.0004  128438493.98145 100081946.16344
        36.0004         34.0004
  20181096.4884                   20181088.4174  106052452.08849  82638275.38648
        49.0004         48.0004
  23798714.8494                   23798709.0154  125063099.51445  97451739.04944
        38.0004         35.0004
  21055586.3314                   21055576.9314  110647919.85749  86219160.85248
        49.0004         46.0004
  20346309.5314                   20346300.2364  106920679.17748  83314832.48048
        47.0004         47.0004
  21014913.3274                   21014903.1214  110434205.40348  86052636.58948
        48.0004         46.0004
  24326611.1664                   24326605.4944  127837180.25745  99613336.00844
        37.0004         35.0004
  21428730.1844                   21428722.5474  112608786.60048  87747102.39848
        48.0004         45.0004
 04  3  1  0 47  0.0000000  0  9G26G29G15G31G21G18G22G16G 3
  22919799.4414                   22919793.0554  120444419.12346  93852794.55746
        41.0004         39.0004
  24457179.8914                   24457173.7434  128523372.16545 100148085.03744
        36.0004         35.0004
  20174668.0854                   20174660.0114  106018670.79049  82611952.32748
        49.0004         48.0004
  23780156.5824                   23780150.7084  124965575.66345  97375746.57245
        37.0004         36.0004
  21066741.9914                   21066732.5904  110706543.18448  86264841.35048
        48.0004         46.0004
  20348630.2664                   20348620.9714  106932874.78748  83324335.56448
        48.0004         47.0004
  21004316.0674                   21004305.8744  110378516.61549  86009242.75948
        49.0004         47.0004
  24343943.8654                   24343938.1934  127928263.89145  99684310.20244
        37.0004         35.0004
  21421712.2874                   21421704.6644  112571907.30248  87718365.27548
        47.0004         46.0004
 04  3  1  0 47 30.0000000  0  9G26G29G15G31G21G18G22G16G 3
  22934160.7284                   22934154.3314  120519887.88146  93911601.33246
        41.0004         39.0004
  24473424.7514                   24473418.6024  128608739.35345 100214604.89544
        36.0004         34.0004
  20168344.9714                   20168336.8984  105985442.66748  82586060.29948
        48.0004         48.0004
  23761684.8444                   23761678.9304  124868506.58645  97300108.47845
        38.0004         36.0004
  21077992.5424                   21077983.1394  110765665.28948  86310910.52848
        48.0004         46.0004
  20351071.5814                   20351062.2734  106945703.98448  83334332.35048
        47.0004         48.0004
  20993828.3394                   20993818.1194  110323403.41948  85966297.46748
        48.0004         47.0004
  24361339.0754                   24361333.4564  128019676.02545  99755540.33444
        37.0004         35.0004
  21414828.3064                   21414820.6694  112535731.86349  87690176.65548
        49.0004         46.0004
 04  3  1  0 48  0.0000000  0  9G26G29G15G31G21G18G22G16G 3
  22948619.9644                   22948613.5714  120595871.42746  93970809.25346
        40.0004         39.0004
  24489731.7334                   24489725.5814  128694433.80844 100281379.93644
        35.0004         34.0004
  20162096.9524                   20162088.8524  105952609.16549  82560475.78148
        49.0004         48.0004
  23743269.7164                   23743263.7354  124771734.80845  97224702.02245
        38.0004         36.0004
  21089307.5784                   21089298.1754  110825126.27048  86357243.77148
        48.0004         45.0004
  20353602.9274                   20353593.6324  106959006.35448  83344697.84148
        47.0004         47.0004
  20983419.9434                   20983409.7244  110268707.05448  85923676.95548
        48.0004         47.0004
  24378765.9204                   24378760.3334  128111254.52745  99826900.17044
        37.0004         35.0004
  21408048.2064                   21408040.5704  112500102.26049  87662413.34648
        49.0004         46.0004
 04  3  1  0 48 30.0000000  0  9G26G29G15G31G21G18G22G16G 3
  22963147.5444                   22963141.1644  120672214.25146  94030297.12846
        41.0004         39.0004
  24506071.5704                   24506065.4494  128780300.29745 100348288.90044
        36.0004         35.0004
  20155895.2134                   20155887.1134  105920018.87249  82535080.75948
        49.0004         48.0004
  23724882.6954                   23724876.6614  124675111.05245  97149410.96744
        38.0004         35.0004
  21100657.9864                   21100648.5854  110884772.94048  86403721.67748
        48.0004         46.0004
  20356195.0994                   20356185.7914  106972628.31048  83355312.36148
        48.0004         48.0004
  20973061.9314                   20973051.6854  110214275.45749  85881262.76648
        49.0004         47.0004
  24396194.7674                   24396189.2244  128202843.36345  99898267.99944
        36.0004         35.0004
  21401343.1834                   21401335.5204  112464867.19148  87634957.47548
        47.0004         45.0004
 04  3  1  0 49  0.0000000  0  9G26G29G15G31G21G18G22G16G 3
  22977800.9304                   22977794.5654  120749218.06746  94090300.04446
        40.0004         39.0004
  24522501.5144                   24522495.4064  128866640.42245 100415566.95244
        36.0004         34.0004
  20149797.8094                   20149789.7234  105887976.85749  82510112.96848
        50.0004         48.0004
  23706582.2784                   23706576.2464  124578941.96245  97074474.07644
        38.0004         35.0004
  21112101.4164                   21112092.0144  110944908.44448  86450580.48248
        48.0004         45.0004
  20358905.9254                   20358896.6184  106986873.86348  83366412.80848
        47.0004         47.0004
  20962812.3344                   20962802.0754  110160413.58549  85839292.51248
        49.0004         47.0004
  24413682.8814                   24413677.3924  128294743.58145  99969878.43644
        36.0004         34.0004
  21394771.4144                   21394763.7514  112430332.37148  87608047.24248
        48.0004         46.0004
 04  3  1  0 49 30.0000000  0  9G26G29G15G31G21G18G22G16G 3
  22992551.0614                   22992544.7214  120826730.65246  94150699.46746
        40.0004         39.0004
  24538992.7284                   24538986.5624  128953302.33744 100483095.72744
        35.0004         33.0004
  20143776.5004                   20143768.4024  105856334.72649  82485456.78748
        49.0004         48.0004
  23688340.4064                   23688334.3464  124483081.08946  96999777.48044
        39.0004         35.0004
  21123609.3654                   21123599.9624  111005383.12348  86497703.60648
        48.0004         46.0004
  20361706.7624                   20361697.4554  107001592.35948  83377881.76748
        48.0004         48.0004
  20952642.8514                   20952632.5934  110106972.78049  85797650.37248
        49.0004         47.0004
  24431201.3054                   24431195.8254  128386803.08545 100041612.99244
        37.0004         34.0004
  21388304.7214                   21388297.0434  112396349.79648  87581567.34148
        48.0004         46.0004
 04  3  1  0 50  0.0000000  0  9G26G29G15G31G21G18G22G16G 3
  23007367.6074                   23007361.2864  120904591.75246  94211370.38646
        40.0004         39.0004
  24555514.6094                                  129040126.22045
        36.0004
  20137801.5184                   20137793.4184  105824936.10949  82460990.35248
        50.0004         47.0004
  23670127.8064                   23670121.6924  124387373.47645  96925200.20745
        38.0004         36.0004
  21135151.7454                   21135142.3404  111066038.73948  86544967.71648
        48.0004         45.0004
  20364567.3744                   20364558.0794  107016625.04048  83389595.54648
        48.0004         48.0004
  20942523.6894                   20942513.4184  110053796.35148  85756214.22848
        48.0004         47.0004
  24448719.5214                   24448714.0684  128478861.36745 100113346.58344
        36.0004         35.0004
  21381913.4674                   21381905.7924  112362763.46748  87555396.17448
        48.0004         46.0004
 04  3  1  0 50 30.0000000  0  9G26G29G15G31G21G18G22G16G 3
  23022309.1134                   23022302.8054  120983109.95846  94272553.41046
        40.0004         39.0004
  24572126.3154                                  129127421.13445
        36.0004
  20131932.3014                   20131924.2024  105794093.23149  82436956.95648
        49.0004         48.0004
  23652004.0714                   23651997.9194  124292133.16945  96850987.13545
        38.0004         36.0004
  21146787.6574                   21146778.2664  111127185.87348  86592614.82348
        47.0004         45.0004
  20367546.8734                   20367537.5664  107032282.41148  83401796.10948
        48.0004         48.0004
  20932514.1324                   20932503.8464  110001195.95849  85715226.95748
        49.0004         47.0004
  24466296.0884                   24466290.6464  128571226.41245 100185319.23244
        36.0004         34.0004
  21375657.0334                   21375649.3434  112329885.93349  87529777.37448
        49.0004         46.0004
 04  3  1  0 51  0.0000000  0  8G26G29G15G31G21G18G22G 3
  23037344.7194                   23037338.4254  121062122.41246  94334121.50845
        40.0004         38.0004
  24588796.4404                                  129215024.35744
        35.0004
  20126138.6254                   20126130.5124  105763647.25549  82413232.82548
        49.0004         48.0004
  23633939.4014                   23633933.2244  124197203.06345  96777015.73045
        38.0004         36.0004
  21158486.5834                   21158477.1934  111188664.08248  86640519.91348
        48.0004         45.0004
  20370614.6264                   20370605.3194  107048403.56548  83414358.04648
        47.0004         48.0004
  20922583.9224                   20922573.6234  109949012.48248  85674564.54248
        48.0004         47.0004
  21369505.3354                   21369497.6344  112297558.54249  87504587.21648
        49.0004         46.0004
 04  3  1  0 51 30.0000000  0  8G26G15G31G21G18G22G16G 3
  23052445.1864                   23052438.9044  121141475.58846  94395955.07345
        40.0004         38.0004
  20120391.9004                   20120383.7864  105733448.13748  82389701.06948
        48.0004         48.0004
  23615905.5134                   23615899.3134  124102434.71945  96703170.38145
        38.0004         36.0004
  21170219.6704                   21170210.2934  111250321.86748  86688564.93448
        48.0004         45.0004
  20373741.7564                   20373732.4374  107064836.74348  83427163.13148
        47.0004         48.0004
  20912704.4524                   20912694.1284  109897095.63649  85634109.90848
        49.0004         47.0004
  24501501.7754                                  128756256.17555
        36.0004
  21363429.8474                   21363422.1464  112265631.63948  87479709.10748
        48.0004         46.0004
 04  3  1  0 52  0.0000000  0  9G26G29G15G31G21G18G22G16G 3
  23067667.8844                   23067661.6044  121221471.21846  94458289.29546
        40.0004         39.0004
  24622282.2124                                  129390967.28054
        35.0004
  20114750.3514                   20114742.2224  105703801.65949  82366599.93548
        50.0004         48.0004
  23597960.9474                   23597954.7164  124008135.69846  96629690.69445
        39.0004         36.0004
  21182044.7664                   21182035.3904  111312463.04248  86736986.60048
        47.0004         45.0004
  20376986.0574                   20376976.7374  107081885.65748  83440447.99648
        47.0004         48.0004
  20902933.8384                   20902923.5014  109845750.78048  85594100.95148
        48.0004         47.0004
  24519159.4974                                  128849046.69345
        36.0004
  21357488.8124                   21357481.1114  112234411.41249  87455381.68848
        49.0004         46.0004
 04  3  1  0 52 30.0000000  0  9G26G29G15G31G21G18G22G16G 3
  23082954.2834                   23082948.0174  121301801.60246  94520884.35145
        41.0004         38.0004
  24639097.3654                                  129479331.31544
        35.0004
  20109156.1664                   20109148.0394  105674404.02149  82343692.69148
        49.0004         48.0004
  23580048.1764                   23580041.8764  123914003.76445  96556341.23445
        38.0004         36.0004
  21193903.6554                   21193894.2804  111374781.92548  86785546.77448
        47.0004         45.0004
  20380289.2454                   20380279.9274  107099244.09448  83453974.07148
        47.0004         47.0004
  20893214.1084                   20893203.7704  109794673.44249  85554300.46348
        50.0004         47.0004
  24536813.5194                   24536808.5464  128941820.63944 100474127.43154
        35.0004         33.0004
  21351624.4344                   21351616.7204  112203593.96449  87431368.11348
        49.0004         46.0004
 04  3  1  0 53  0.0000000  0  9G26G29G15G31G21G18G22G16G 3
  23098391.8954                   23098385.6294  121382926.67646  94584098.66746
        40.0004         39.0004
  24656028.4964                                  129568305.32344
        35.0004
  20103697.5104                   20103689.3824  105645718.65249  82321340.46448
        49.0004         48.0004
  23562255.6734                   23562249.3694  123820503.96945  96483484.32945
        38.0004         36.0004
  21205884.3094                   21205874.9344  111437740.62548  86834605.48748
        47.0004         45.0004
  20383739.2364                   20383729.9174  107117373.91948  83468101.20548
        47.0004         48.0004
  20883633.4624                   20883623.1244  109744326.93249  85515069.44448
        49.0004         47.0004
  24554552.5994                   24554546.9974  129035037.75844 100546764.04844
        35.0004         33.0004
  21345924.9674                   21345917.2644  112173643.18748  87408029.85648
        48.0004         46.0004
 04  3  1  0 53 30.0000000  0 10G26G29G15G31G21G18G22G16G14G 3
  23113862.7814                   23113856.5314  121464226.47946  94647449.11246
        40.0004         39.0004
  24672957.8824                                  129657269.84444
        35.0004
  20098257.2054                   20098249.0654  105617129.72149  82299063.39948
        49.0004         48.0004
  23544466.7004                   23544460.3964  123727022.66246  96410641.83145
        39.0004         36.0004
  21217869.1944                   21217859.8204  111500721.55748  86883681.53148
        47.0004         45.0004
  20387218.4194                   20387209.0874  107135657.14548  83482347.88448
        47.0004         48.0004
  20874074.6404                   20874064.2864  109694095.10749  85475927.78948
        49.0004         47.0004
  24572257.7894                                  129128078.28545
        36.0004
  25152196.2994                                  132175681.72454
        35.0004
  21340273.3084                   21340265.5924  112143943.70748  87384887.45448
        48.0004         46.0004
 04  3  1  0 54  0.0000000  0 10G26G29G15G31G21G18G22G16G14G 3
  23129454.2444                   23129448.0184  121546160.41946  94711293.77145
        39.0004         38.0004
  24689972.7634                                  129746683.64844
        35.0004
  20092923.3634                   20092915.2084  105589100.25049  82277222.27248
        49.0004         48.0004
  23526769.5644                   23526763.2054  123634024.08245  96338175.54245
        38.0004         37.0004
  21229946.1024                   21229936.7414  111564186.13848  86933134.43948
        48.0004         45.0004
  20390814.5074                   20390805.1484  107154554.71548  83497073.27948
        48.0004         48.0004
  20864625.6634                   20864615.2974  109644440.45949  85437235.88448
        49.0004         47.0004
  24590016.5884                   24590011.7954  129221400.84544 100692000.77954
        35.0004         34.0004
  25129944.5274                                  132058746.18744
        33.0004
  21334757.5804                   21334749.8514  112114958.35749  87362301.47848
        49.0004         46.0004
 04  3  1  0 54 30.0000000  0 10G26G29G15G31G21G18G22G16G14G 3
  23145137.0094                   23145130.8194  121628573.84346  94775511.96945
        40.0004         37.0004
  24707043.7514                                  129836393.42444
        34.0004
  20087667.2934                   20087659.1514  105561479.54349  82255699.66248
        49.0004         47.0004
  23509135.9954                   23509129.6374  123541359.55145  96265969.52945
        38.0004         37.0004
  21242086.1064                   21242076.7444  111627982.22748  86982845.66048
        48.0004         45.0004
  20394498.4314                   20394489.0734  107173913.93448  83512158.40048
        47.0004         48.0004
  20855257.7394                   20855247.3734  109595211.81448  85398875.92648
        48.0004         47.0004
  24607799.5814                   24607794.6104  129314851.10144 100764819.06044
        34.0004         34.0004
  25107688.1764                                  131941789.33744
        34.0004
  21329349.1454                   21329341.4164  112086536.96648  87340154.96748
        48.0004         46.0004
 04  3  1  0 55  0.0000000  0 10G26G29G15G31G21G18G22G16G14G 3
  23160881.6954                   23160875.5044  121711312.85246  94839983.94545
        41.0004         38.0004
  24724141.8754                                  129926244.98344
        35.0004
  20082460.4164                   20082452.2464  105534117.28049  82234378.44148
        49.0004         47.0004
  23491537.7564                   23491531.3974  123448880.55446  96193908.05245
        39.0004         37.0004
  21254260.2014                   21254250.8404  111691957.46648  87032696.48848
        47.0004         45.0004
  20398241.2834                   20398231.9274  107193582.69048  83527484.69748
        48.0004         47.0004
  20845942.2024                   20845931.8354  109546258.45848  85360730.48048
        48.0004         47.0004
  24625577.6304                                  129408274.63144
        33.0004
  25085399.3814                                  131824662.73944
        34.0004
  21324019.4914                   21324011.7484  112058529.50948  87318330.99248
        48.0004         46.0004
 04  3  1  0 55 30.0000000  0 10G26G29G15G31G21G18G22G16G14G 3
  23176745.5544                   23176739.3694  121794677.87146  94904943.69845
        40.0004         38.0004
  24741324.3264                                  130016539.37144
        35.0004
  20077360.6364                   20077352.4664  105507317.82249  82213495.75648
        49.0004         48.0004
  23474033.1564                   23474026.8254  123356893.20145  96122229.57045
        38.0004         36.0004
  21266526.0194                   21266516.6564  111756414.71148  87082922.88948
        48.0004         45.0004
  20402100.5354                   20402091.1774  107213863.25548  83543287.74448
        47.0004         48.0004
  20836736.9324                   20836726.5524  109497884.50348  85323036.51048
        48.0004         47.0004
  24643407.5334                                  129501971.84144
        34.0004
  25063136.5064                                  131707672.16944
        32.0004
  21318826.5464                   21318818.8044  112031240.52248  87297066.88048
        48.0004         46.0004
 04  3  1  0 56  0.0000000  0 10G26G29G15G31G21G18G22G16G14G 3
  23192668.6424                   23192662.4464  121878353.88846  94970145.72345
        40.0004         38.0004
  24758531.5214                                  130106960.79255
        36.0004
  20072308.7614                   20072300.5924  105480770.16449  82192809.30248
        49.0004         48.0004
  23456563.0884                   23456556.7154  123265088.06246  96050693.26445
        39.0004         37.0004
  21278824.0304                   21278814.6684  111821041.13148  87133281.13148
        47.0004         45.0004
  20406016.5894                   20406007.2324  107234442.26248  83559323.33448
        48.0004         48.0004
  20827582.6224                   20827572.2294  109449778.34149  85285551.21348
        49.0004         47.0004
  24661229.8584                                  129595627.91745
        36.0004
  25040840.8204                                  131590508.11244
        34.0004
  21313711.1794                   21313703.4374  112004359.21449  87276120.43348
        49.0004         46.0004
 04  3  1  0 56 30.0000000  0 10G26G29G15G31G21G18G22G16G14G 3
  23208738.8504                   23208732.5974  121962803.52546  95035950.68045
        40.0004         38.0004
  24775850.1364                                  130197974.41544
        34.0004
  20067393.5684                   20067385.3984  105454940.71049  82172682.46748
        49.0004         47.0004
  23439216.8014                   23439210.3864  123173933.39546  95979663.82445
        39.0004         37.0004
  21291242.7154                   21291233.3544  111886301.70148  87184133.50948
        47.0004         45.0004
  20410077.8814                   20410068.4964  107255784.55748  83575953.71948
        48.0004         47.0004
  20818567.9504                   20818557.5574  109402405.98249  85248637.70048
        49.0004         47.0004
  24679132.1644                                  129689704.91645
        36.0004
  25018600.7024                                  131473638.62544
        34.0004
  21308762.1594                   21308754.4154  111978352.06249  87255855.13948
        49.0004         46.0004
 04  3  1  0 57  0.0000000  0  9G26G29G15G31G21G18G22G14G 3
  23224838.8884                   23224832.6504  122047409.60846  95101877.45745
        40.0004         38.0004
  24793164.4034                                  130288961.87944
        35.0004
  20062498.3754                   20062490.1914  105429216.36049  82152637.53948
        49.0004         48.0004
  23421878.0074                   23421871.6364  123082817.48146  95908664.41345
        39.0004         37.0004
  21303665.0504                   21303655.6884  111951581.38448  87235000.76647
        47.0004         44.0004
  20414167.2584                   20414157.8874  107277274.37648  83592699.03048
        48.0004         48.0004
  20809576.1124                   20809565.7194  109355153.61549  85211817.68848
        49.0004         47.0004
  24996300.6744                                  131356451.99944
        34.0004
  21303862.7884                   21303855.0314  111952605.75848  87235793.10548
        48.0004         46.0004
 04  3  1  0 57 30.0000000  0 10G26G29G15G31G21G18G22G16G14G 3
  23241056.1554                   23241049.9304  122132631.73546  95168284.25445
        40.0004         38.0004
  24810561.0974                                  130380383.87145
        36.0004
  20057711.3504                   20057703.1664  105404060.49849  82133035.59548
        49.0004         47.0004
  23404635.0384                   23404628.6394  122992205.63046  95838057.91245
        40.0004         37.0004
  21316178.8304                   21316169.4834  112017341.74648  87286242.60247
        46.0004         44.0004
  20418372.5754                   20418363.2044  107299373.46648  83609919.10148
        48.0004         47.0004
  20800695.2324                   20800684.8394  109308484.33949  85175452.03148
        49.0004         47.0004
  24714911.9774                                  129877733.79154
        34.0004
  24974028.7884                                  131239413.51244
        35.0004
  21299101.3224                   21299093.5634  111927584.21048  87216295.81648
        48.0004         46.0004
 04  3  1  0 58  0.0000000  0 10G26G29G15G31G21G18G22G16G14G 3
  23257359.8794                   23257353.6504  122218308.38346  95235045.26345
        39.0004         37.0004
  24828010.0664                                  130472078.82344
        35.0004
  20053002.4544                   20052994.2684  105379315.20949  82113753.57248
        49.0004         48.0004
  23387458.3174                   23387451.9154  122901941.85246  95767722.59845
        40.0004         37.0004
  21328753.8804                   21328744.5454  112083424.13948  87337735.38048
        47.0004         45.0004
  20422663.3534                   20422653.9834  107321921.72048  83627489.18448
        47.0004         48.0004
  20791895.2174                   20791884.8104  109262240.01349  85139417.51248
        49.0004         47.0004
  24732846.5074                                  129971979.51044
        35.0004
  24951755.5634                                  131122366.80044
        33.0004
  21294447.7434                   21294439.9714  111903129.55048  87197240.25848
        48.0004         46.0004
 04  3  1  0 58 30.0000000  0 10G26G29G15G31G21G18G22G16G14G 3
  23273720.7914                   23273714.5354  122304285.55746  95302040.47845
        39.0004         37.0004
  24845481.8604                                  130563893.41044
        34.0004
  20048343.1404                   20048334.9424  105354830.41249  82094674.53648
        49.0004         48.0004
  23370319.6404                   23370313.2354  122811877.81046  95697542.88245
        39.0004         37.0004
  21341361.1784                   21341351.8444  112149675.81348  87389360.03548
        48.0004         45.0004
  20427010.7314                   20427001.3734  107344767.40748  83645291.02248
        48.0004         47.0004
  20783147.3604                   20783136.9534  109216269.83948  85103596.62348
        48.0004         48.0004
  24750771.1084                                  130066172.54844
        35.0004
  24929452.3274                                  131005163.56544
        35.0004
  21289873.4924                   21289865.7174  111879091.82249  87178509.57948
        49.0004         46.0004
 04  3  1  0 59  0.0000000  0 10G26G29G15G31G21G18G22G16G14G 3
  23290197.1834                   23290190.9674  122390869.20546  95369508.14945
        40.0004         37.0004
  24863034.4994                                  130656133.64844
        35.0004
  20043792.3754                   20043784.1634  105330916.04349  82076039.98148
        49.0004         48.0004
  23353278.2204                   23353271.8004  122722325.10346  95627761.67745
        39.0004         37.0004
  21354059.4514                   21354050.1184  112216405.62448  87441357.28148
        47.0004         45.0004
  20431473.2504                   20431463.8784  107368218.10148  83663564.29548
        48.0004         48.0004
  20774510.6184                   20774500.2104  109170883.57548  85068230.72848
        48.0004         47.0004
  24768743.8314                                  130160619.21844
        35.0004
  24907178.8984                                  130888115.09444
        35.0004
  21285437.6074                   21285429.8314  111855781.21248  87160345.49348
        48.0004         46.0004
 04  3  1  0 59 30.0000000  0 10G26G29G15G31G21G18G22G16G14G 3
  23306729.3244                   23306723.0794  122477746.31446  95437204.63745
        39.0004         37.0004
  24880608.6854                                  130748487.30545
        36.0004
  20039291.3234                   20039283.1244  105307262.97849  82057609.04148
        49.0004         48.0004
  23336275.6244                   23336269.1884  122632976.17246  95558139.20245
        39.0004         38.0004
  21366789.5114                   21366780.1774  112283302.48148  87493484.68447
        46.0004         44.0004
  20435991.6104                   20435982.2524  107391962.37248  83682066.34348
        47.0004         47.0004
  20765926.0004                   20765915.5794  109125771.16949  85033078.22748
        49.0004         47.0004
  24786705.1704                                  130255006.06745
        36.0004
  24884876.0964                                  130770913.88944
        33.0004
  21281081.1774                   21281073.4024  111832888.14448  87142506.76948
        48.0004         46.0004
                            4  1
RINEX FILE SPLICE; other post-header comments skipped       COMMENT
 04  3  1  1  0  0.0000000  0 10G26G29G15G31G21G18G22G16G14G 3
  23323404.3654                   23323398.1084  122565373.93546  95505485.84045
        39.0004         37.0004
  24898291.8264                                  130841411.46544
        35.0004
  20034927.7114                   20034919.5124  105284332.17048  82039740.90348
        48.0004         47.0004
  23319399.8194                   23319393.3564  122544293.84246  95489036.24145
        39.0004         37.0004
  21379638.8034                   21379629.4704  112350825.84048  87546100.26548
        46.0004         45.0004
  20440653.2334                   20440643.8764  107416459.30148  83701154.85048
        47.0004         47.0004
  20757481.1624                   20757470.7424  109081393.30649  84998498.09148
        49.0004         47.0004
  24804742.0564                                  130349796.16855
        36.0004
  24862632.1504                                  130654022.47644
        34.0004
  21276891.9554                   21276884.1914  111810873.75848  87125352.71148
        48.0004         46.0004
 04  3  1  1  0 30.0000000  0 10G26G29G15G31G21G18G22G16G14G 3
  23340105.5794                   23340099.3514  122653139.47246  95573874.57845
        39.0004         37.0004
  24915966.5564                                  130934294.10944
        35.0004
  20030585.6964                   20030577.4824  105261514.78749  82021961.14248
        49.0004         48.0004
  23302535.4034                   23302528.9264  122455671.05246  95419979.59345
        39.0004         38.0004
  21392491.0564                   21392481.7364  112418364.88748  87598728.08548
        47.0004         45.0004
  20445341.8414                   20445332.4824  107441098.16548  83720353.97448
        47.0004         47.0004
  20749060.1374                   20749049.7184  109037140.64849  84964015.53148
        49.0004         47.0004
  24822737.9634                                  130444364.92244
        35.0004
  24840331.4594                                  130536833.61744
        33.0004
  21272754.1164                   21272746.3534  111789129.32948  87108409.02148
        48.0004         46.0004
 04  3  1  1  1  0.0000000  0 10G26G29G15G31G21G18G22G16G14G 3
  23356890.4144                   23356884.1694  122741344.06146  95642605.35245
        39.0004         36.0004
  24933690.9804                                  131027436.96144
        35.0004
  20026323.3194                   20026315.1054  105239115.84649  82004507.42348
        49.0004         48.0004
  23285740.6704                   23285734.1784  122367414.69646  95351208.53045
        39.0004         38.0004
  21405404.1314                   21405394.8254  112486223.48848  87651604.90047
        46.0004         44.0004
  20450115.0984                   20450105.7254  107466181.79948  83739899.66548
        48.0004         47.0004
  20740720.8874                   20740710.4534  108993317.71949  84929867.82348
        49.0004         47.0004
  24840750.1184                                  130539019.43444
        35.0004
  24818032.8414                                  130419654.40444
        34.0004
  21268725.7704                   21268717.9934  111767960.29048  87091913.68348
        48.0004         46.0004
 04  3  1  1  1 30.0000000  0 10G26G29G15G31G21G18G22G16G14G 3
  23373787.1754                   23373780.9284  122830137.26646  95711794.87945
        39.0004         37.0004
  24951493.4454                                  131120989.73645
        36.0004
  20022169.7814                   20022161.5554  105217288.98349  81987499.51648
        50.0004         47.0004
  23269045.2744                   23269038.7574  122279680.04546  95282843.94845
        40.0004         38.0004
  21418406.8644                   21418397.5594  112554553.25148  87704848.86047
        47.0004         44.0004
  20455001.8034                   20454992.4304  107491861.60848  83759909.90748
        48.0004         47.0004
  20732492.5704                   20732482.1234  108950077.68249  84896174.31348
        49.0004         47.0004
  24858807.0764                                  130633909.20444
        35.0004
  24795765.6744                                  130302639.77744
        33.0004
  21264836.1114                   21264828.3354  111747520.06149  87075986.24748
        49.0004         46.0004
 04  3  1  1  2  0.0000000  0 10G26G29G15G31G21G18G22G16G14G 3
  23390796.0054                   23390789.7684  122919519.39246  95781443.29945
        39.0004         36.0004
  24969374.0594                                  131214952.87145
        36.0004
  20018125.8724                   20018117.6604  105196038.22149  81970940.50348
        49.0004         48.0004
  23252450.1634                   23252443.5804  122192472.59046  95214890.22245
        40.0004         38.0004
  21431499.6744                   21431490.3684  112623356.43048  87758461.72347
        47.0004         44.0004
  20460002.3364                   20459992.9654  107518139.58748  83780386.26148
        48.0004         47.0004
  20724375.7924                   20724365.3304  108907423.91449  84862937.65048
        49.0004         47.0004
  24876908.9574                                  130729034.47844
        35.0004
  24773530.6764                                  130185795.75944
        33.0004
  21261085.8694                   21261078.0914  111727812.53149  87060629.75048
        49.0004         46.0004
 04  3  1  1  2 30.0000000  0 10G26G29G15G31G21G18G22G16G14G 3
  23407828.3304                   23407822.1224  123009024.68146  95851187.63045
        39.0004         37.0004
  24987244.1594                                  131308861.75344
        35.0004
  20014103.6924                   20014095.4654  105174901.58649  81954470.41348
        49.0004         48.0004
  23235867.9664                   23235861.3564  122105332.74346  95146989.10345
        40.0004         38.0004
  21444594.4484                   21444585.1564  112692169.87148  87812082.56647
        47.0004         44.0004
  20465028.4364                   20465019.0634  107544551.98348  83800967.35548
        48.0004         47.0004
  20716282.6164                   20716272.1564  108864894.11149  84829797.58148
        49.0004         48.0004
  24894967.0104                                  130823929.62844
        34.0004
  24751240.7864                                  130068662.09844
        33.0004
  21257387.2044                   21257379.4134  111708375.91448  87045484.34448
        48.0004         46.0004
 04  3  1  1  3  0.0000000  0 10G26G29G15G31G21G18G22G16G14G 3
  23424970.9704                   23424964.7884  123099109.73846  95921383.73045
        39.0004         36.0004
  25005191.2044                                  131403172.98644
        34.0004
  20010190.9044                   20010182.6784  105154339.81049  81938448.26748
        49.0004         47.0004
  23219386.4124                   23219379.7454  122018722.40346  95079500.72145
        40.0004         38.0004
  21457778.4244                   21457769.1324  112761452.07048  87866068.68147
        47.0004         44.0004
  20470167.3514                   20470157.9924  107571557.22548  83822010.40848
        47.0004         47.0004
  20708300.5564                   20708290.0824  108822948.23048  84797112.51248
        48.0004         48.0004
  24913068.1064                                  130919051.21744
        34.0004
  24728983.8814                                  129951700.70844
        33.0004
  21253827.6704                   21253819.8784  111689670.62149  87030908.83048
        49.0004         46.0004
 04  3  1  1  3 30.0000000  0 10G26G29G15G31G21G18G22G16G14G 3
  23442163.8154                   23442157.6324  123189458.74846  95991785.55345
        39.0004         37.0004
  25023154.2214                                  131497571.71844
        35.0004
  20006328.1384                   20006319.9124  105134040.89949  81922630.94948
        49.0004         48.0004
  23202946.7964                   23202940.1184  121932331.82546  95012183.44745
        40.0004         38.0004
  21470992.0164                   21470982.7094  112830889.90448  87920176.07147
        47.0004         44.0004
  20475359.3244                   20475349.9514  107598841.22948  83843270.67548
        48.0004         47.0004
  20700370.1814                   20700359.7054  108781274.01149  84764639.13148
        49.0004         48.0004
  24931152.0904                                  131014083.56744
        33.0004
  24706700.8324                                  129834601.62244
        33.0004
  21250347.9944                   21250340.2044  111671384.80249  87016660.14948
        49.0004         47.0004
 04  3  1  1  4  0.0000000  0 10G26G29G15G31G21G18G22G16G14G 3
  23459495.5034                   23459489.2934  123280537.31846  96062755.86845
        39.0004         37.0004
  25041222.9204                                  131592523.68644
        34.0004
  20002604.7024                   20002596.4634  105114474.11148  81907384.11048
        48.0004         48.0004
  23186638.5684                   23186631.8504  121846631.82146  94945404.31445
        41.0004         38.0004
  21484324.1674                   21484314.8744  112900950.76448  87974768.93247
        47.0004         44.0004
  20480693.2464                   20480683.8734  107626871.24248  83865112.25948
        48.0004         48.0004
  20692580.6794                   20692570.1904  108740340.09449  84732742.61948
        49.0004         48.0004
  24949307.8224                                  131109492.14444
        34.0004
  24684480.8504                                  129717836.01744
        34.0004
  21247037.4604                   21247029.6574  111653987.83148  87003104.07548
        48.0004         46.0004
 04  3  1  1  4 30.0000000  0 10G26G29G15G31G21G18G22G16G14G 3
  23476847.8174                   23476841.6204  123371724.15446  96133810.49945
        39.0004         37.0004
  25059278.8834                                  131687408.22244
        35.0004
  19998903.1594                   19998894.9334  105095022.49648  81892227.02748
        48.0004         48.0004
  23170344.6754                   23170337.9014  121761007.14846  94878683.88045
        41.0004         38.0004
  21497657.1604                   21497647.8674  112971015.99448  88029365.18747
        46.0004         44.0004
  20486051.2504                   20486041.8914  107655027.74448  83887052.38448
        48.0004         48.0004
  20684814.5494                   20684804.0484  108699528.86849  84700941.68948
        49.0004         47.0004
  24967417.1234                                  131204655.66444
        35.0004
  24662207.4094                                  129600775.23254
        33.0004
  21243778.5864                   21243770.7834  111636862.39348  86989759.59248
        48.0004         46.0004
 04  3  1  1  5  0.0000000  0 10G26G29G15G31G21G18G22G16G14G 3
  23494308.0984                   23494301.8904  123463478.49146  96205307.38645
        39.0004         37.0004
  25077409.3614                                  131782684.90544
        35.0004
  19995311.6164                   19995303.3774  105076148.87249  81877520.32948
        49.0004         47.0004
  23154153.5354                   23154146.7674  121675922.38246  94812384.14446
        40.0004         39.0004
  21511078.7324                   21511069.4524  113041546.76548  88084324.20847
        46.0004         44.0004
  20491521.0404                   20491511.6694  107683771.68548  83909450.27248
        48.0004         48.0004
  20677159.6994                   20677149.1844  108659302.48449  84669596.49048
        49.0004         48.0004
  24985566.9564                                  131300033.49344
        34.0004
  24639968.7004                                  129483910.08744
        35.0004
  21240659.4374                   21240651.6204  111620471.27948  86976987.32848
        48.0004         46.0004
 04  3  1  1  5 30.0000000  0 10G26G29G15G31G21G18G22G16G14G 3
  23511845.9894                   23511839.7694  123555640.72945  96277122.12845
        38.0004         37.0004
  25095584.2514                                  131878194.46744
        34.0004
  19991800.4074                   19991792.1554  105057697.40949  81863142.58648
        49.0004         48.0004
  23138035.8074                   23138029.0124  121591223.59046  94746385.19546
        41.0004         39.0004
  21524558.9414                   21524549.6624  113112385.62048  88139523.28947
        47.0004         44.0004
  20497072.6344                   20497063.2634  107712945.50549  83932183.12348
        49.0004         47.0004
  20669586.4424                   20669575.9274  108619504.87549  84638585.39348
        49.0004         48.0004
  25003727.1194                                  131395465.92244
        35.0004
  24617735.4894                                  129367073.46544
        35.0004
  21237650.3504                   21237642.5474  111604658.48449  86964665.67748
        49.0004         46.0004
 04  3  1  1  6  0.0000000  0 10G26G29G15G31G21G18G22G16G14G 3
  23529432.9344                   23529426.7144  123648060.87245  96349137.85545
        38.0004         36.0004
  25113774.7334                                  131973787.78544
        34.0004
  19988341.7944                   19988333.5274  105039522.27449  81848980.14648
        49.0004         48.0004
  23121964.0674                   23121957.2594  121506766.33946  94680574.42745
        40.0004         38.0004
  21538069.7324                   21538060.4524  113183385.24148  88194847.65147
        45.0004         44.0004
  20502677.8214                   20502668.4504  107742401.02548  83955135.49048
        48.0004         48.0004
  20662066.8914                   20662056.3754  108579989.55449  84607794.27148
        49.0004         48.0004
  25021869.2544                                  131490803.23044
        33.0004
  24595480.2024                                  129250121.38844
        34.0004
  21234723.5764                   21234715.7754  111589278.24748  86952681.09748
        47.0004         46.0004
 04  3  1  1  6 30.0000000  0 10G26G29G15G31G21G18G22G16G14G 3
  23547156.0764                   23547149.8624  123741196.42845  96421710.99645
        38.0004         37.0004
  25132068.2154                                  132069922.55444
        34.0004
  19985023.4784                   19985015.2114  105022084.52849  81835392.32248
        49.0004         48.0004
  23106026.4914                   23106019.6554  121423014.12046  94615313.04245
        41.0004         38.0004
  21551698.5214                   21551689.2424  113255004.94848  88250655.20847
        47.0004         44.0004
  20508424.0014                   20508414.6314  107772597.40448  83978665.14048
        48.0004         48.0004
  20654688.7144                   20654678.1844  108541217.09849  84577582.00048
        49.0004         48.0004
  25040080.5874                                  131586502.87044
        34.0004
  24573291.0144                                  129133516.86044
        34.0004
  21231966.8244                   21231959.0214  111574791.54048  86941392.77748
        48.0004         46.0004
 04  3  1  1  7  0.0000000  0 10G26G29G15G31G21G18G22G16G14G 3
  23564926.4234                   23564920.1814  123834580.23145  96494477.60545
        38.0004         37.0004
  25150376.2394                                  132166132.31044
        34.0004
  19981757.3814                   19981749.1134  105004921.13748  81822018.26048
        48.0004         48.0004
  23090135.2224                   23090128.3724  121339505.31646  94550241.33046
        40.0004         39.0004
  21565356.8834                   21565347.6054  113326780.06348  88306583.85647
        46.0004         44.0004
  20514222.6474                   20514213.2754  107803069.55648  84002409.67848
        48.0004         47.0004
  20647363.6584                   20647353.1274  108502723.85748  84547587.30248
        48.0004         48.0004
  25058271.9044                                  131682097.94744
        34.0004
  24551079.8404                                  129016798.60244
        35.0004
  21229291.9624                   21229284.1614  111560735.11048  86930439.73448
        48.0004         46.0004
 04  3  1  1  7 30.0000000  0 10G26G29G15G31G21G18G22G16G14G 3
  23582742.6574                   23582736.4014  123928204.85846  96567431.79945
        39.0004         37.0004
  25168697.2024                                  132262410.11944
        34.0004
  19978542.7824                   19978534.5154  104988028.36948  81808855.07948
        48.0004         48.0004
  23074289.9424                   23074283.0494  121256238.11946  94485357.88145
        40.0004         38.0004
  21579043.7834                   21579034.5034  113398705.20848  88362629.41547
        46.0004         44.0004
  20520072.6444                   20520063.2734  107833811.49948  84026364.44548
        48.0004         48.0004
  20640090.9294                   20640080.3834  108464505.53349  84517806.82048
        49.0004         48.0004
  25076441.6774                                  131777581.00144
        33.0004
  24528846.9854                                  128899964.59444
        35.0004
  21226698.2004                   21226690.3844  111547104.86248  86919818.77648
        48.0004         46.0004
 04  3  1  1  8  0.0000000  0 10G26G29G15G31G21G18G22G16G14G 3
  23600663.1844                   23600656.9184  124022377.86545  96640813.38545
        38.0004         37.0004
  25187089.8144                                  132359064.13344
        33.0004
  19975438.9734                   19975430.6924  104971717.80249  81796145.56948
        49.0004         48.0004
  23058550.2144                   23058543.2784  121173525.60346  94420906.65145
        41.0004         38.0004
  21592818.2374                   21592808.9694  113471090.32948  88419033.36647
        46.0004         43.0004
  20526032.8384                   20526023.4674  107865132.59148  84050770.50348
        48.0004         47.0004
  20632929.6844                   20632919.1254  108426872.99849  84488482.79048
        49.0004         48.0004
  25094648.8224                                  131873259.63344
        35.0004
  24506651.6854                                  128783327.94444
        35.0004
  21224244.7804                   21224236.9644  111534212.17649  86909772.55548
        49.0004         46.0004
 04  3  1  1  8 30.0000000  0 10G26G29G15G31G21G18G22G16G14G 3
  23618658.3364                   23618652.0604  124116943.15245  96714500.66745
        38.0004         37.0004
  25205524.0144                                  132455938.38544
        34.0004
  19972416.9704                   19972408.6884  104955837.13149  81783771.03248
        49.0004         48.0004
  23042887.4524                   23042880.4864  121091217.48446  94356770.51245
        40.0004         38.0004
  21606650.9494                   21606641.6804  113543781.65648  88475675.94247
        46.0004         44.0004
  20532073.8764                   20532064.4914  107896878.39748  84075507.48648
        48.0004         47.0004
  20625850.8134                   20625840.2534  108389673.40249  84459496.11948
        49.0004         48.0004
  25112863.5344                                  131968977.90144
        34.0004
  24484465.3914                                  128666738.49944
        35.0004
  21221902.7394                   21221894.9244  111521904.73149  86900182.35448
        49.0004         46.0004
 04  3  1  1  9  0.0000000  0 10G26G29G15G31G21G18G22G16G14G 3
  23636727.2194                   23636720.9474  124211895.45845  96788489.42745
        38.0004         36.0004
  25223999.5764                                  132553028.43344
        34.0004
  19969476.5414                   19969468.2464  104940385.13548  81771730.53948
        48.0004         47.0004
  23027301.7134                   23027294.7204  121009314.12246  94292949.78145
        41.0004         38.0004
  21620541.2834                   21620531.9984  113616775.79348  88532554.47147
        46.0004         44.0004
  20538195.1524                   20538185.7674  107929045.92048  84100573.09048
        48.0004         47.0004
  20618853.9804                   20618843.4064  108352904.92549  84430845.38748
        49.0004         48.0004
  25131084.6004                                  132064730.62344
        33.0004
  24462287.9974                                  128550196.31445
        36.0004
  21219671.7664                   21219663.9484  111510180.88748  86891046.88448
        48.0004         46.0004
 04  3  1  1  9 30.0000000  0 10G26G29G15G31G21G18G22G16G14G 3
  23654869.3054                   23654863.0204  124307232.95446  96862778.43345
        39.0004         36.0004
  25242516.0174                                  132650332.73644
        33.0004
  19966618.0524                   19966609.7454  104925363.61248  81760025.45348
        48.0004         48.0004
  23011793.6574                   23011786.6764  120927819.17546  94229447.30545
        41.0004         38.0004
  21634489.3204                   21634480.0344  113690073.15748  88589669.28547
        46.0004         44.0004
  20544396.5564                   20544387.1704  107961634.51948  84125966.79848
        48.0004         47.0004
  20611939.4854                   20611928.8994  108316569.07149  84402531.76248
        49.0004         48.0004
  25149311.9704                                  132160516.10144
        33.0004
  24440120.4724                                  128433705.56145
        36.0004
  21217552.1344                   21217544.3024  111499042.27148  86882367.47348
        48.0004         46.0004
 04  3  1  1 10  0.0000000  0 10G26G29G15G31G21G18G22G16G14G 3
  23673083.9644                   23673077.6524  124402951.56945  96937364.36945
        38.0004         36.0004
  25261072.3174                                  132747847.99844
        34.0004
  19963841.4554                   19963833.1344  104910772.62049  81748655.88348
        49.0004         48.0004
  22996363.6764                   22996356.6654  120846734.51346  94166264.55245
        41.0004         38.0004
  21648494.8184                   21648485.5344  113763672.42448  88647019.34047
        46.0004         44.0004
  20550677.7644                   20550668.3794  107994642.49248  84151687.30048
        48.0004         47.0004
  20605107.1194                   20605096.5334  108280664.80749  84374554.42948
        49.0004         48.0004
  25167545.1864                                  132256330.60744
        34.0004
  24417963.2234                                  128317267.68045
        36.0004
  21215543.8464                   21215536.0124  111488488.76948  86874143.98548
        48.0004         46.0004
 04  3  1  1 10 30.0000000  0 10G26G29G15G31G21G18G22G16G14G 3
  23691342.0054                   23691335.7084  124498897.91145  97012127.68245
        38.0004         36.0004
  25279639.7374                                  132845421.38744
        34.0004
  19961118.3614                   19961110.0544  104896462.72948  81737505.32548
        48.0004         48.0004
  22980983.7234                   22980976.7014  120765912.50646  94103286.42246
        41.0004         39.0004
  21662528.9704                   21662519.7124  113837422.32648  88704486.76947
        46.0004         43.0004
  20557009.9254                   20557000.5284  108027918.16048  84177616.38948
        48.0004         48.0004
  20598328.3724                   20598317.7724  108245042.37449  84346796.72348
        49.0004         48.0004
  25185754.3564                                  132352020.88244
        34.0004
  24395787.8004                                  128200735.36145
        36.0004
  21213618.3984                   21213610.5784  111478370.59748  86866259.71848
        48.0004         46.0004
 04  3  1  1 11  0.0000000  0 10G26G29G15G31G21G18G22G16G14G 3
  23709730.8054                   23709724.5364  124595531.58245  97087426.60745
        38.0004         36.0004
  25298305.8614                                  132943512.65744
        33.0004
  19958536.8854                   19958528.5784  104882897.10948  81726934.73848
        48.0004         48.0004
  22965742.1354                   22965735.0824  120685817.79447  94040875.04146
        42.0004         39.0004
  21676679.5974                   21676670.3274  113911784.31248  88762431.17247
        47.0004         43.0004
  20563480.6924                   20563471.3084  108061922.33248  84204113.15248
        48.0004         47.0004
  20591691.2854                   20591680.6724  108210164.31049  84319619.03248
        49.0004         48.0004
  25204027.5444                                  132448046.38444
        34.0004
  24373682.7904                                  128084573.55945
        36.0004
  21211863.8664                   21211856.0464  111469150.53248  86859075.26548
        47.0004         46.0004
 04  3  1  1 11 30.0000000  0 10G26G29G15G31G21G18G22G16G14G 3
  23728132.1054                   23728125.8064  124692231.19045  97162776.98545
        38.0004         36.0004
  25316952.1074                                  133041501.40444
        33.0004
  19955979.5454                   19955971.2244  104869458.25948  81716462.92548
        48.0004         48.0004
  22950521.8734                   22950514.7954  120605834.96546  93978550.82346
        41.0004         39.0004
  21690828.9124                   21690819.6554  113986139.40248  88820370.17647
        46.0004         43.0004
  20569972.2004                   20569962.8024  108096035.43449  84230694.79848
        49.0004         47.0004
  20585078.2154                   20585067.6044  108175412.51849  84292539.74948
        49.0004         48.0004
  25222246.0894                                  132543786.10644
        33.0004
  24351531.0634                                  127968166.57744
        35.0004
  21210162.7094                   21210154.8754  111460210.95548  86852109.37948
        45.0004         46.0004
 04  3  1  1 12  0.0000000  0 10G26G29G15G31G21G18G22G16G14G 3
  23746633.4404                   23746627.1264  124789456.23845  97238536.73345
        38.0004         36.0004
  25335666.5814                                  133139847.81844
        33.0004
  19953534.5164                   19953526.1814  104856609.60748  81706451.00948
        48.0004         47.0004
  22935411.4304                   22935404.3674  120526429.17346  93916676.20846
        41.0004         39.0004
  21705064.7754                   21705055.5054  114060949.24048  88878663.54347
        47.0004         44.0004
  20576572.2464                   20576562.8364  108130718.85048  84257720.83348
        48.0004         47.0004
  20578577.2524                   20578566.6284  108141249.79248  84265919.46448
        48.0004         48.0004
  25240497.9094                                  132639699.50544
        33.0004
  24329421.3554                                  127851979.83845
        36.0004
  21208603.0194                   21208595.1704  111452014.79147  86845722.77348
        44.0004         46.0004
 04  3  1  1 12 30.0000000  0  9G26G29G15G31G21G18G22G14G 3
  23765204.4734                   23765198.2024  124887047.36045  97314581.68345
        37.0004         36.0004
  25354418.9654                                  133238376.88454
        32.0004
  19951172.2124                   19951163.8914  104844195.67848  81696777.82748
        48.0004         48.0004
  22920381.4394                   22920374.3464  120447446.54047  93855131.40746
        42.0004         39.0004
  21719357.3214                   21719348.0674  114136056.95348  88937189.00747
        47.0004         43.0004
  20583250.8434                   20583241.4334  108165815.11648  84285068.57148
        48.0004         48.0004
  20572158.6394                   20572148.0004  108107519.81349  84239636.38348
        50.0004         48.0004
  24307324.2574                                  127735859.42945
        37.0004
  21207155.1674                   21207147.3144  111444406.40248  86839794.17248
        46.0004         46.0004
 04  3  1  1 13  0.0000000  0  9G26G15G31G21G18G22G 9G14G 3
  23783845.2754                   23783838.9614  124985005.93845  97390913.16644
        37.0004         35.0004
  19948893.6124                   19948885.2764  104832221.61448  81687447.40448
        48.0004         48.0004
  22905433.3454                   22905426.2664  120368894.09147  93793921.76946
        42.0004         39.0004
  21733707.1354                   21733697.8674  114211465.67348  88995949.03847
        45.0004         43.0004
  20590008.5384                   20589999.1134  108201327.03848  84312740.20648
        48.0004         48.0004
  20565823.2574                   20565812.6174  108074227.28249  84213694.17348
        49.0004         48.0004
  24767128.8174                                  130152143.20354
        33.0004
  24285241.1104                                  127619812.64644
        35.0004
  21205820.0564                   21205812.1764  111437390.41048  86834327.19248
        48.0004         46.0004
 04  3  1  1 13 30.0000000  0 10G26G29G15G31G21G18G22G 9G14G 3
  23802555.4094                   23802549.1074  125083328.10645  97467527.77144
        37.0004         35.0004
  25392037.6444                                  133436061.93754
        32.0004
  19946698.7574                   19946690.4094  104820687.57348  81678459.85348
        48.0004         48.0004
  22890567.4824                   22890560.4024  120290773.70246  93733048.79246
        41.0004         39.0004
  21748114.0014                   21748104.7224  114287174.07548  89054942.57547
        46.0004         43.0004
  20596844.9444                   20596835.5344  108237252.59749  84340734.14448
        49.0004         48.0004
  20559571.0044                   20559560.3784  108041371.65849  84188092.42248
        49.0004         48.0004
  24751290.0284                                  130068909.05544
        35.0004
  24263172.2624                                  127503841.50244
        35.0004
  21204597.6854                   21204589.8054  111430966.87148  86829321.85048
        48.0004         46.0004
 04  3  1  1 14  0.0000000  0  9G26G15G31G21G18G22G 9G14G 3
  23821333.6084                   23821327.3184  125182008.27145  97544421.40544
        37.0004         35.0004
  19944587.2124                   19944578.8774  104809591.51549  81669813.60648
        49.0004         48.0004
  22875783.8134                   22875776.7214  120213085.12246  93672512.27646
        41.0004         40.0004
  21762577.2134                   21762567.9344  114363178.70348  89114166.94947
        47.0004         44.0004
  20603759.4114                   20603750.0024  108273588.36549  84369047.73348
        49.0004         47.0004
  20553401.4284                   20553390.7894  108008950.37949  84162829.11248
        49.0004         48.0004
  24735503.7364                                  129985950.40244
        35.0004
  24241117.8844                                  127387945.78144
        35.0004
  21203487.5524                   21203479.6574  111425133.20448  86824776.16648
        48.0004         46.0004
 04  3  1  1 14 30.0000000  0  9G26G15G31G21G18G22G 9G14G 3
  23840207.7974                   23840201.5184  125281192.67445  97621707.91545
        37.0004         36.0004
  19942587.6244                   19942579.2624  104799083.67348  81661625.70448
        48.0004         48.0004
  22861111.2394                   22861104.1174  120135980.53546  93612430.85446
        41.0004         39.0004
  21777125.0884                   21777115.8254  114439628.11548  89173737.88047
        46.0004         43.0004
  20610779.9884                   20610770.5794  108310481.74549  84397795.82348
        49.0004         47.0004
  20547342.9604                   20547332.3064  107977113.04149  84138020.82548
        49.0004         48.0004
  24719798.8744                                  129903420.23444
        35.0004
  24219106.8174                                  127272277.53044
        35.0004
  21202518.2414                   21202510.3354  111420039.50748  86820807.07748
        48.0004         46.0004
 04  3  1  1 15  0.0000000  0  9G26G15G31G21G18G22G 9G14G 3
  23859118.9834                   23859112.7084  125380571.63045  97699146.07744
        38.0004         35.0004
  19940641.7344                   19940633.3854  104788858.01448  81653657.66548
        48.0004         47.0004
  22846491.8894                   22846484.7414  120059155.71146  93552567.45346
        41.0004         39.0004
  21791699.0724                   21791689.8104  114516214.79348  89233415.78847
        46.0004         43.0004
  20617848.0044                   20617838.5804  108347624.42348  84426738.16948
        48.0004         48.0004
  20541337.1994                   20541326.5454  107945552.73949  84113428.42448
        49.0004         48.0004
  24704117.6834                                  129821014.89344
        35.0004
  24197080.9904                                  127156532.71444
        35.0004
  21201631.3464                   21201623.4384  111415378.96348  86817175.50948
        48.0004         46.0004
 04  3  1  1 15 30.0000000  0  9G26G15G31G21G18G22G 9G14G 3
  23878096.4544                   23878090.1234  125480298.47645  97776855.22944
        37.0004         35.0004
  19938779.4654                   19938771.1174  104779071.78848  81646032.04848
        48.0004         47.0004
  22831956.0604                   22831948.8974  119982769.53846  93493045.79046
        41.0004         39.0004
  21806328.7944                   21806319.5174  114593094.31648  89293321.86947
        46.0004         43.0004
  20624993.1814                   20624983.7574  108385172.57849  84455996.47548
        49.0004         47.0004
  20535414.0394                   20535403.3714  107914426.44949  84089174.20348
        49.0004         48.0004
  24688490.8394                                  129738894.65045
        36.0004
  24175070.8724                                  127040870.88944
        35.0004
  21200856.7914                   21200848.8564  111411308.77548  86814003.97448
        48.0004         46.0004
 04  3  1  1 16  0.0000000  0  9G26G15G31G21G18G22G 9G14G 3
  23897140.9034                   23897134.5034  125580377.54445  97854838.90644
        37.0004         35.0004
  19937002.3354                   19936993.9864  104769733.03148  81638755.11948
        47.0004         48.0004
  22817505.5544                   22817498.3484  119906831.93046  93433873.70746
        40.0004         40.0004
  21821015.4494                   21821006.1854  114670273.20548  89353461.25647
        46.0004         43.0004
  20632216.6224                   20632207.1994  108423132.01849  84485575.26148
        49.0004         47.0004
  20529574.9064                   20529564.2384  107883741.72349  84065264.05848
        49.0004         48.0004
  24672920.1494                                  129657070.05844
        35.0004
  24153078.8434                                  126925301.74544
        35.0004
  21200196.0224                   21200188.0874  111407836.47548  86811298.29848
        47.0004         46.0004
 04  3  1  1 16 30.0000000  0  9G26G15G31G21G18G22G 9G14G 3
  23916251.5614                   23916245.2034  125680804.72745  97933093.84144
        36.0004         34.0004
  19935310.2884                   19935301.9394  104760841.38848  81631826.59748
        45.0004         47.0004
  22803140.6774                   22803133.4444  119831344.17747  93375052.13746
        42.0004         40.0004
  21835758.7234                   21835749.4724  114747749.44548  89413832.30247
        46.0004         43.0004
  20639517.7724                   20639508.3364  108461499.81949  84515472.25948
        49.0004         48.0004
  20523819.5514                   20523808.8714  107853497.25549  84041696.97748
        50.0004         48.0004
  24657405.9894                                  129575543.22344
        35.0004
  24131104.6094                                  126809826.86444
        35.0004
  21199648.8444                   21199640.8964  111404961.15949  86809057.83348
        49.0004         46.0004
 04  3  1  1 17  0.0000000  0  9G26G15G31G21G18G22G 9G14G 3
  23935425.8794                   23935419.5074  125781567.01345  98011610.03544
        36.0004         34.0004
  19933701.6324                   19933693.2674  104752387.90947  81625239.48048
        44.0004         47.0004
  22788860.0234                   22788852.7644  119756299.14547  93316575.58046
        42.0004         40.0004
  21850556.5604                   21850547.3234  114825512.54148  89474426.90047
        46.0004         43.0004
  20646894.5694                   20646885.1314  108500265.21249  84545679.06348
        49.0004         47.0004
  20518146.1324                   20518135.4494  107823683.35849  84018465.38949
        50.0004         49.0004
  24641947.2934                                  129494307.85244
        35.0004
  24109146.9644                                  126694439.03945
        36.0004
  21199213.4414                   21199205.4804  111402673.16649  86807275.00248
        49.0004         46.0004
 04  3  1  1 17 30.0000000  0  9G26G15G31G21G18G22G 9G14G 3
  23954692.9134                   23954686.5244  125882815.58645  98090504.93644
        36.0004         35.0004
  19932205.8264                   19932197.4184  104744527.45648  81619114.47748
        45.0004         47.0004
  22774693.4124                   22774686.1284  119681853.35647  93258565.94746
        42.0004         40.0004
  21865438.1044                   21865428.8794  114903715.45848  89535364.20047
        46.0004         43.0004
  20654376.0444                   20654366.6064  108539580.63248  84576314.45548
        48.0004         47.0004
  20512583.9714                   20512573.2604  107794454.13149  83995689.40748
        50.0004         48.0004
  24626574.0084                                  129413521.38244
        35.0004
  24087235.4264                   24087228.5624  126579295.37845  98633175.05054
        36.0004         35.0004
  21198919.1904                   21198911.2274  111401126.98748  86806070.21048
        48.0004         46.0004
 04  3  1  1 18  0.0000000  0  9G26G15G31G21G18G22G 9G14G 3
  23973994.1594                   23973987.6954  125984244.31445  98169540.31744
        37.0004         34.0004
  19930765.3364                   19930756.9294  104736957.69548  81613215.97748
        47.0004         48.0004
  22760583.6464                   22760576.3204  119607706.28347  93200789.08046
        42.0004         40.0004
  21880345.5944                   21880336.3844  114982054.72448  89596407.75347
        46.0004         43.0004
  20661904.4314                   20661894.9804  108579142.57048  84607141.94848
        48.0004         47.0004
  20507075.5004                   20507064.7894  107765507.04749  83973133.26348
        49.0004         48.0004
  24611228.7584                                  129332884.36144
        34.0004
  24065313.5284                   24065307.0644  126464095.65145  98543409.12044
        36.0004         35.0004
  21198708.5164                   21198700.5564  111400020.01448  86805207.67148
        48.0004         46.0004
 04  3  1  1 18 30.0000000  0  8G26G15G31G21G18G22G14G 3
  23993329.1054                   23993322.5854  126085850.39245  98248713.96045
        37.0004         36.0004
  19929380.3564                   19929371.9504  104729679.63948  81607544.78448
        48.0004         48.0004
  22746531.2644                   22746523.9394  119533860.89446  93143247.30646
        41.0004         40.0004
  21895278.9104                   21895269.7124  115060529.70148  89657557.04847
        45.0004         43.0004
  20669479.3614                   20669469.9074  108618949.15948  84638160.07348
        48.0004         47.0004
  20501620.7464                   20501610.0224  107736842.24749  83950797.09048
        50.0004         48.0004
  24043381.5684                   24043374.8494  126348842.67445  98453601.73844
        36.0004         35.0004
  21198581.5094                   21198573.5374  111399352.58949  86804687.61148
        49.0004         46.0004
 04  3  1  1 19  0.0000000  0  9G26G15G31G21G18G22G 9G14G 3
  24012785.3014                   24012778.6864  126188093.26845  98328383.75444
        36.0004         35.0004
  19928139.0824                   19928130.6644  104723156.69848  81602461.98548
        48.0004         48.0004
  22732624.7584                   22732617.3944  119460782.02447  93086302.82946
        42.0004         40.0004
  21910325.8034                   21910316.6064  115139601.65848  89719171.56247
        45.0004         42.0004
  20677188.6244                   20677179.1584  108659461.61049  84669728.22648
        49.0004         47.0004
  20496307.7034                   20496296.9794  107708922.13949  83929041.19148
        49.0004         48.0004
  24580714.8354                                  129172524.05154
        34.0004
  24021527.9744                   24021521.3374  126234001.76445  98364115.45044
        38.0004         35.0004
  21198626.1714                   21198618.1994  111399587.41548  86804870.62248
        48.0004         46.0004
 04  3  1  1 19 30.0000000  0  9G26G15G31G21G18G22G 9G14G 3
  24032273.7144                   24032267.0704  126290505.57045  98408185.55444
        38.0004         35.0004
  19926953.1874                   19926944.7694  104716924.83849  81597606.00948
        49.0004         48.0004
  22718776.1574                   22718768.7914  119388007.57247  93029595.55246
        42.0004         40.0004
  21925397.7644                   21925388.5814  115218805.28648  89780888.65647
        46.0004         43.0004
  20684943.5264                   20684934.0594  108700213.95648  84701483.31348
        48.0004         47.0004
  20491047.9654                   20491037.2284  107681282.15649  83907503.57849
        50.0004         49.0004
  24565547.2194                                  129092816.63144
        35.0004
  23999664.9674                   23999658.3694  126119110.88545  98274590.18844
        38.0004         35.0004
  21198754.1344                   21198746.1774  111400259.99049  86805394.73048
        49.0004         46.0004
 04  3  1  1 20  0.0000000  0  9G26G15G31G21G18G22G 9G14G 3
  24051822.8184                   24051816.1114  126393236.74445  98488235.85944
        36.0004         35.0004
  19925851.8944                   19925843.4634  104711137.57249  81593096.46948
        49.0004         48.0004
  22705015.0374                   22705007.6444  119315692.70947  92973246.39146
        42.0004         40.0004
  21940523.6784                   21940514.4954  115298292.37548  89842826.61947
        45.0004         43.0004
  20692772.8434                   20692763.3744  108741357.36049  84733543.11348
        49.0004         47.0004
  20485870.6334                   20485859.8814  107654075.15449  83886303.33449
        49.0004         49.0004
  24550439.5074                                  129013422.93944
        35.0004
  23977821.9334                   23977815.3124  126004325.52845  98185147.20545
        38.0004         36.0004
  21198994.5214                   21198986.5644  111401523.23349  86806379.07648
        49.0004         47.0004
 04  3  1  1 20 30.0000000  0  9G26G15G31G21G18G22G 9G14G 3
  24071461.7754                   24071455.0824  126496440.28245  98568654.22444
        36.0004         34.0004
  19924865.1234                   19924856.7044  104705952.17649  81589055.91748
        49.0004         48.0004
  22691371.6304                   22691364.2214  119243996.49647  92917379.29346
        42.0004         40.0004
  21955733.1474                   21955723.9774  115378218.55148  89905106.71847
        45.0004         42.0004
  20700706.1674                   20700696.6984  108783047.31948  84766028.81248
        48.0004         47.0004
  20480805.4604                   20480794.6954  107627457.61649  83865562.43148
        49.0004         48.0004
  24535421.7234                                  128934503.14344
        35.0004
  23956029.4554                   23956022.7724  125889804.97345  98095910.40045
        38.0004         36.0004
  21199377.0994                   21199369.1444  111403533.81848  86807945.80148
        48.0004         46.0004
 04  3  1  1 21  0.0000000  0  9G26G15G31G21G18G22G 9G14G 3
  24091102.2674                   24091095.5254  126599651.51745  98649078.55444
        37.0004         35.0004
  19923905.1494                   19923896.7044  104700907.47948  81585125.00248
        48.0004         48.0004
  22677758.5304                   22677751.0794  119172459.61247  92861636.37546
        43.0004         40.0004
  21970938.2314                   21970929.0754  115458121.68048  89967368.86647
        45.0004         43.0004
  20708655.3684                   20708645.8854  108824820.65448  84798579.46648
        48.0004         47.0004
  20475764.6084                   20475753.8564  107600967.94849  83844921.16248
        50.0004         48.0004
  24520406.4134                                  128855606.71754
        35.0004
  23934199.7804                   23934193.0084  125775090.19545  98006522.47744
        38.0004         35.0004
  21199814.0754                   21199806.1194  111405830.20448  86809735.20548
        48.0004         46.0004
 04  3  1  1 21 30.0000000  0  9G26G15G31G21G18G22G 9G14G 3
  24110859.5284                   24110852.7494  126703476.74945  98729981.39644
        36.0004         35.0004
  19923088.0634                   19923079.6204  104696613.66649  81581779.18048
        49.0004         48.0004
  22664292.1524                   22664284.6844  119101693.87647  92806494.36746
        42.0004         41.0004
  21986254.7014                   21986245.5464  115538610.14748  90030087.12947
        45.0004         43.0004
  20716736.1354                   20716726.6664  108867285.43248  84831668.91448
        48.0004         48.0004
  20470864.0684                   20470853.2884  107575215.49849  83824854.34348
        49.0004         48.0004
  24505510.8854                                  128777330.44044
        34.0004
  23912449.7454                   23912442.9244  125660793.30045  97917460.08345
        38.0004         36.0004
  21200421.4124                   21200413.4694  111409021.84248  86812222.20248
        48.0004         47.0004
 04  3  1  1 22  0.0000000  0  9G26G15G31G21G18G22G 9G14G 3
  24130645.5914                   24130638.8454  126807453.46145  98811002.27644
        37.0004         34.0004
  19922326.4944                   19922318.0504  104692611.71948  81578660.80348
        48.0004         48.0004
  22650885.5694                   22650878.0894  119031242.12047  92751596.97546
        42.0004         40.0004
  22001594.8364                   22001585.6964  115619223.10448  90092902.41847
        45.0004         42.0004
  20724860.7454                   20724851.2624  108909980.54448  84864937.83948
        48.0004         47.0004
  20466016.3414                   20466005.5594  107549740.70849  83805003.89249
        50.0004         49.0004
  24490647.7634                                  128699225.76844
        35.0004
  23890692.3064                   23890685.4464  125546457.43645  97828367.22245
        37.0004         36.0004
  21201111.6534                   21201103.7114  111412649.14948  86815048.69148
        48.0004         46.0004
 04  3  1  1 22 30.0000000  0  9G26G15G31G21G18G22G 9G14G 3
  24150489.2864                   24150482.4734  126911732.84645  98892258.99444
        37.0004         35.0004
  19921650.0424                   19921641.5854  104689056.93649  81575890.85548
        49.0004         48.0004
  22637568.5374                   22637561.0424  118961261.08347  92697066.39546
        42.0004         41.0004
  22016987.8874                   22016978.7854  115700114.13248  90155934.35647
        45.0004         43.0004
  20733058.3234                   20733048.8414  108953059.17149  84898505.61548
        49.0004         47.0004
  20461250.8484                   20461240.0684  107524697.99849  83785490.12549
        49.0004         49.0004
  24475847.6094                                  128621450.43244
        34.0004
  23868957.2924                   23868950.3014  125432239.79045  97739366.62545
        37.0004         36.0004
  21201914.1954                   21201906.2394  111416866.59648  86818335.03248
        48.0004         46.0004
 04  3  1  1 23  0.0000000  0  9G26G15G31G21G18G22G 9G14G 3
  24170420.3604                   24170413.5094  127016471.59745  98973873.69044
        36.0004         34.0004
  19921089.0884                   19921080.6454  104686109.22949  81573593.96348
        49.0004         48.0004
  22624371.9384                   22624364.4284  118891912.86247  92643028.90546
        43.0004         40.0004
  22032464.1154                   22032455.0274  115781442.19848  90219306.85547
        45.0004         43.0004
  20741358.9854                   20741349.5024  108996679.50648  84932495.49548
        48.0004         47.0004
  20456597.9284                   20456587.1324  107500246.92649  83766437.38149
        50.0004         49.0004
  24461141.0274                                  128544167.44844
        35.0004
  23847275.6984                   23847268.6544  125318302.68445  97650584.59244
        38.0004         35.0004
  21202859.4024                   21202851.4604  111421833.75548  86822205.55448
        48.0004         46.0004
 04  3  1  1 23 30.0000000  0  8G26G15G31G21G18G22G14G 3
  24190378.8594                   24190371.9924  127121354.65345  99055600.84244
        37.0004         33.0004
  19920584.4734                   19920576.0174  104683457.46148  81571527.65648
        48.0004         48.0004
  22611236.8674                   22611229.3314  118822887.85147  92589243.24946
        42.0004         41.0004
  22047963.9804                   22047954.9064  115862894.41448  90282776.07847
        45.0004         42.0004
  20749703.1114                   20749693.6154  109040528.18648  84966663.30948
        48.0004         47.0004
  20451998.2194                   20451987.4124  107476075.35849  83747602.42249
        50.0004         49.0004
  23825588.6534                   23825581.5694  125204336.68245  97561779.98045
        38.0004         36.0004
  21203887.8994                   21203879.9444  111427238.67048  86826417.21148
        47.0004         46.0004
 04  3  1  1 24  0.0000000  0  9G26G15G31G21G18G22G 9G14G 3
  24210392.7974                   24210385.8854  127226528.98145  99137554.95144
        37.0004         34.0004
  19920164.8794                   19920156.4254  104681252.60549  81569809.62248
        49.0004         48.0004
  22598192.3064                   22598184.7434  118754338.59647  92535828.34446
        42.0004         41.0004
  22063515.8334                   22063506.7734  115944619.82548  90346458.18847
        45.0004         42.0004
  20758118.9794                   20758109.4864  109084753.87249  85001124.89248
        49.0004         47.0004
  20447480.2584                   20447469.4364  107452333.43749  83729102.25548
        50.0004         48.0004
  24431863.0934                                  128390306.80355
        36.0004
  23803925.2374                   23803918.1274  125090495.03545  97473072.30344
        38.0004         35.0004
  21205028.2604                   21205020.3204  111433231.36948  86831086.85948
        48.0004         46.0004
 04  3  1  1 24 30.0000000  0  9G26G15G31G21G18G22G 9G14G 3
  24230491.8144                   24230484.8924  127332150.27745  99219857.33644
        37.0004         35.0004
  19919860.5834                   19919852.1264  104679653.64448  81568563.69548
        47.0004         48.0004
  22585268.9274                   22585261.3374  118686426.02647  92482909.53246
        43.0004         41.0004
  22079149.6684                   22079140.6244  116026776.05948  90410476.00647
        45.0004         42.0004
  20766636.5544                   20766627.0624  109129514.03148  85036002.94048
        48.0004         47.0004
  20443074.2574                   20443063.4364  107429179.86949  83711060.54548
        49.0004         48.0004
  24417350.8094                                  128314044.54744
        35.0004
  23782316.1324                   23782308.9854  124976938.73545  97384586.98045
        38.0004         36.0004
  21206310.6444                   21206302.7034  111439970.46548  86836338.12848
        48.0004         46.0004
 04  3  1  1 25  0.0000000  0  9G26G15G31G21G18G22G 9G14G 3
  24250646.6324                   24250639.7114  127438065.00145  99302388.38744
        36.0004         35.0004
  19919643.0574                   19919634.6154  104678510.66049  81567673.08448
        49.0004         48.0004
  22572438.4794                   22572430.8374  118619001.81847  92430371.27746
        43.0004         41.0004
  22094836.6554                   22094827.5974  116109211.67048  90474711.53947
        45.0004         42.0004
  20775226.8914                   20775217.3994  109174656.55348  85071178.93848
        48.0004         47.0004
  20438751.4814                   20438740.6604  107406463.65349  83693359.62548
        50.0004         48.0004
  24402905.3894                                  128238134.04445
        36.0004
  23760733.1674                   23760726.0194  124863519.92645  97296208.78144
        38.0004         35.0004
  21207706.3824                   21207698.4264  111447305.18449  86842053.50948
        49.0004         46.0004
 04  3  1  1 25 30.0000000  0  8G26G15G31G21G18G22G14G 3
  24270826.9784                                  127544114.05845
        36.0004
  19919482.7464                   19919474.2914  104677668.22149  81567016.64848
        49.0004         48.0004
  22559671.7314                   22559664.0754  118551912.41747  92378093.89946
        43.0004         41.0004
  22110546.9894                   22110537.9294  116191769.90448  90539042.59847
        45.0004         42.0004
  20783860.0484                   20783850.5434  109220024.10248  85106530.27948
        48.0004         47.0004
  20434482.2754                   20434471.4424  107384028.95049  83675878.07849
        49.0004         49.0004
  23739147.2114                   23739140.0484  124750085.59045  97207818.52544
        38.0004         35.0004
  21209185.7844                   21209177.8164  111455079.55448  86848111.48548
        48.0004         46.0004
 04  3  1  1 26  0.0000000  0  9G26G15G31G21G18G22G 9G14G 3
  24291061.2644                                  127650446.51044
        35.0004
  19919408.6844                   19919400.2434  104677279.08648  81566713.43348
        48.0004         48.0004
  22546998.1244                   22546990.4464  118485312.35447  92326197.81646
        42.0004         41.0004
  22126309.4604                   22126300.4004  116274602.18648  90603587.21647
        45.0004         42.0004
  20792564.6364                   20792555.1314  109265767.08148  85142174.17448
        48.0004         47.0004
  20430295.5914                   20430284.7444  107362027.90449  83658734.43849
        49.0004         49.0004
  24374157.8604                                  128087066.07154
        35.0004
  23717587.8394                   23717580.6764  124636790.50845  97119536.68845
        38.0004         36.0004
  21210777.8124                   21210769.8444  111463445.71648  86854630.57748
        48.0004         46.0004
 04  3  1  1 26 30.0000000  0  9G26G15G31G21G18G22G 9G14G 3
  24311349.1574                                  127757060.10945
        37.0004
  19919421.1384                   19919412.6824  104677344.59149  81566764.49548
        49.0004         48.0004
  22534418.2234                   22534410.5454  118419204.71047  92274685.41346
        43.0004         41.0004
  22142124.0064                   22142114.9594  116357708.00048  90668344.94347
        45.0004         42.0004
  20801340.6134                   20801331.1074  109311885.15048  85178110.33048
        48.0004         47.0004
  20426191.5264                   20426180.6654  107340461.02149  83641929.10949
        50.0004         49.0004
  24359885.9804                                  128012068.33545
        36.0004
  23696055.6104                   23696048.4364  124523638.07145  97031366.01445
        38.0004         36.0004
  21212482.5054                   21212474.5214  111472404.12548  86861611.19248
        48.0004         46.0004
 04  3  1  1 27  0.0000000  0  9G26G15G31G21G18G22G 9G14G 3
  24331717.7064                   24331710.6144  127864100.80845  99634288.93354
        36.0004         34.0004
  19919548.5684                   19919540.1154  104678014.30648  81567286.37548
        48.0004         48.0004
  22521960.7494                   22521953.0714  118353740.68447  92223674.58046
        42.0004         41.0004
  22158018.8094                   22158009.7794  116441235.56947  90733431.32647
        44.0004         43.0004
  20810215.9834                   20810206.4654  109358525.53648  85214453.49948
        48.0004         47.0004
  20422198.4204                   20422187.5744  107319477.23349  83625578.12949
        50.0004         49.0004
  24345711.2384                                  127937581.37444
        35.0004
  23674579.3924                   23674572.1654  124410780.16046  96943424.90145
        39.0004         36.0004
  21214328.2154                   21214320.2194  111482103.46348  86869169.14248
        48.0004         46.0004
 04  3  1  1 27 30.0000000  0  8G15G31G21G18G22G 9G14G 3
  19919732.9294                   19919724.4894  104678983.19449  81568041.35548
        49.0004         48.0004
  22509568.0604                   22509560.3564  118288616.85147  92172928.79646
        43.0004         41.0004
  22173935.4714                   22173926.4424  116524878.13048  90798607.33747
        45.0004         42.0004
  20819132.3594                   20819122.8404  109405381.40848  85250964.56648
        48.0004         48.0004
  20418258.0454                   20418247.1834  107298770.54749  83609443.07749
        50.0004         49.0004
  24331576.3784                                  127863300.81055
        36.0004
  23653101.4754                   23653094.2194  124297913.44345  96855476.92545
        38.0004         37.0004
  21216256.7164                   21216248.7074  111492237.86649  86877066.10248
        49.0004         46.0004
 04  3  1  1 28  0.0000000  0  9G26G15G31G21G18G22G 9G14G 3
  24372581.4394                                  128078778.98555
        36.0004
  19920033.0644                   19920024.6244  104680560.47448  81569270.41848
        48.0004         48.0004
  22497299.2274                   22497291.5104  118224144.07347  92122690.36046
        43.0004         41.0004
  22189932.5824                   22189923.5544  116608943.26247  90864112.58547
        44.0004         43.0004
  20828148.1944                   20828138.6634  109452759.94049  85287882.91348
        49.0004         47.0004
  20414429.1104                   20414418.2384  107278649.42049  83593764.30949
        50.0004         49.0004
  24317540.1974                                  127789542.86845
        36.0004
  23631681.2194                   23631673.9384  124185349.55146  96767764.89545
        39.0004         37.0004
  21218326.6424                   21218318.6064  111503115.46448  86885542.18248
        48.0004         47.0004
 04  3  1  1 28 30.0000000  0  9G26G15G31G21G18G22G 9G14G 3
  24393074.9614                                  128186473.35744
        35.0004
  19920390.1554                   19920381.7124  104682437.12349  81570732.76148
        49.0004         48.0004
  22485095.8644                   22485088.1194  118160015.09447  92072719.76147
        43.0004         42.0004
  22205951.0024                   22205941.9624  116693120.56847  90929705.28947
        44.0004         42.0004
  20837204.2834                   20837194.7394  109500350.01348  85324966.09448
        48.0004         48.0004
  20410652.6904                   20410641.8174  107258804.32449  83578300.62149
        49.0004         49.0004
  24303544.4824                   24303539.4064  127715998.76444  99518930.54654
        34.0004         34.0004
  23610260.1434                   23610252.8064  124072781.34846  96680049.50445
        40.0004         37.0004
  21220479.0294                   21220470.9934  111514426.45848  86894355.97048
        48.0004         46.0004
 04  3  1  1 29  0.0000000  0  9G26G15G31G21G18G22G 9G14G 3
  24413648.9554                                  128294589.48944
        35.0004
  19920863.9504                   19920855.5074  104684926.99648  81572672.93648
        48.0004         48.0004
  22473017.9554                   22473010.1934  118096545.68947  92023263.17447
        43.0004         42.0004
  22222050.2434                   22222041.2304  116777722.52347  90995628.84947
        44.0004         42.0004
  20846359.9874                   20846350.4554  109548463.62248  85362457.22048
        48.0004         47.0004
  20406988.4104                   20406977.5234  107239548.52849  83563296.14149
        50.0004         49.0004
  24289651.4204                   24289645.0134  127642985.47945  99462037.20444
        36.0004         35.0004
  23588898.4604                   23588891.1154  123960525.38246  96592577.44945
        39.0004         38.0004
  21222773.5224                   21222765.4874  111526484.22448  86903751.66648
        48.0004         47.0004
 04  3  1  1 29 30.0000000  0  8G15G31G21G18G22G 9G14G 3
  19921396.3644                   19921387.9344  104687724.97648  81574853.19548
        48.0004         48.0004
  22461007.8054                   22461000.0314  118033432.11547  91974083.81747
        43.0004         42.0004
  22238171.9004                   22238162.8744  116862442.27948  91061644.22547
        45.0004         42.0004
  20855556.8954                   20855547.3644  109596793.76348  85400117.08848
        48.0004         48.0004
  20403378.0504                   20403367.1624  107220576.08249  83548512.44149
        49.0004         49.0004
  24275801.1894                   24275794.4964  127570200.21645  99405321.46444
        36.0004         35.0004
  23567538.5214                   23567531.1694  123848278.39746  96505112.35445
        40.0004         37.0004
  21225151.8644                   21225143.8404  111538982.68249  86913490.74948
        49.0004         46.0004
 04  3  1  1 30  0.0000000  0  9G26G15G31G21G18G22G 9G14G 3
  24454946.4364                                  128511612.28055
        36.0004
  19922073.6634                   19922065.2324  104691284.27048  81577626.68348
        48.0004         48.0004
  22449151.9844                   22449144.1824  117971129.60247  91925536.47347
        44.0004         42.0004
  22254402.0064                   22254392.9954  116947731.93648  91128103.66947
        45.0004         42.0004
  20864880.8964                   20864871.3764  109645791.78349  85438297.36148
        49.0004         47.0004
  20399907.7274                   20399896.8264  107202339.53649  83534302.18049
        50.0004         49.0004
  24262080.6124                   24262073.9634  127498099.21945  99349139.11644
        36.0004         34.0004
  23546266.9644                   23546259.6034  123736495.98346  96418009.28445
        40.0004         37.0004
  21227700.1964                   21227692.1584  111552374.31949  86923925.81248
        49.0004         46.0004
 04  3  1  1 30 30.0000000  0  9G26G15G31G21G18G22G 9G14G 3
  24475638.7064                                  128620353.07645
        36.0004
  19922779.6924                   19922771.2744  104694994.60148  81580517.86748
        48.0004         48.0004
  22437334.6664                   22437326.8244  117909029.42847  91877146.80447
        44.0004         42.0004
  22270624.1234                   22270615.1104  117032979.67647  91194530.45647
        44.0004         42.0004
  20874215.4324                   20874205.8974  109694845.22148  85476520.85048
        48.0004         47.0004
  20396461.2004                   20396450.3134  107184228.04149  83520189.34849
        50.0004         50.0004
  24248374.6834                   24248368.1214  127426075.07644  99293016.54444
        35.0004         35.0004
  23524968.1064                   23524960.7424  123624569.98346  96330794.25845
        40.0004         38.0004
  21230302.1654                   21230294.1284  111566047.88548  86934580.56948
        48.0004         47.0004
 04  3  1  1 31  0.0000000  0  9G26G15G31G21G18G22G 9G14G 3
  24496407.4904                   24496399.7184  128729496.58844 100308667.28554
        35.0004         34.0004
  19923601.5604                   19923593.1424  104699313.54749  81583883.28048
        49.0004         48.0004
  22425643.2564                   22425635.4004  117847590.90347  91829272.69247
        44.0004         42.0004
  22286925.0404                   22286916.0274  117118641.44347  91261279.86147
        44.0004         42.0004
  20883647.2104                   20883637.6884  109744409.61449  85515142.45848
        49.0004         47.0004
  20393125.3844                   20393114.4824  107166698.26849  83506529.80249
        50.0004         49.0004
  24234770.9574                   24234764.3424  127354587.82645  99237312.34444
        36.0004         35.0004
  23503729.4324                   23503722.0414  123512960.24846  96243825.70545
        39.0004         38.0004
  21233044.6514                   21233036.5994  111580459.93448  86945810.77848
        48.0004         47.0004
 04  3  1  1 31 30.0000000  0  9G26G15G31G21G18G22G 9G14G 3
  24517195.1764                   24517187.3774  128838736.05445 100393789.21044
        36.0004         34.0004
  19924481.4484                   19924473.0164  104703937.45348  81587486.34248
        48.0004         48.0004
  22414020.2594                   22414012.3914  117786511.95347  91781678.78647
        44.0004         42.0004
  22303246.7134                   22303237.7154  117204412.22847  91328114.19547
        44.0004         42.0004
  20893118.1264                   20893108.6174  109794179.67749  85553924.32948
        49.0004         47.0004
  20389842.3284                   20389831.4124  107149445.81849  83493086.36749
        49.0004         49.0004
  24221212.0814                   24221205.4644  127283336.45145  99181792.00444
        36.0004         34.0004
  23482493.4984                   23482486.1064  123401365.03546  96156868.47445
        40.0004         38.0004
  21235869.7824                   21235861.7324  111595306.15948  86957379.28748
        48.0004         46.0004
 04  3  1  1 32  0.0000000  0  9G26G15G31G21G18G22G 9G14G 3
  24538029.2194                   24538021.4514  128948220.68944 100479102.26244
        35.0004         34.0004
  19925448.5054                   19925440.0714  104709019.49649  81591446.39648
        49.0004         48.0004
  22402495.1734                   22402487.2774  117725947.46747  91734485.74647
        43.0004         42.0004
  22319617.9464                   22319608.9344  117290443.57747  91395151.59947
        44.0004         42.0004
  20902656.9194                   20902647.3954  109844306.43649  85592984.15548
        49.0004         47.0004
  20386641.0644                   20386630.1464  107132623.18649  83479977.84649
        50.0004         49.0004
  24207727.9044                   24207721.3484  127212476.80945  99126576.74444
        36.0004         35.0004
  23461290.0054                   23461282.6164  123289940.11746  96070043.91445
        40.0004         38.0004
  21238806.5134                   21238798.4504  111610738.78849  86969404.72148
        49.0004         47.0004
 04  3  1  1 32 30.0000000  0  9G26G15G31G21G18G22G 9G14G 3
  24558967.6634                                  129058254.13944
        35.0004
  19926561.1714                   19926552.7244  104714866.59349  81596002.58848
        49.0004         48.0004
  22391126.6574                   22391118.7484  117666205.82847  91687933.89847
        43.0004         42.0004
  22336096.8754                   22336087.8614  117377040.80747  91462629.92747
        44.0004         42.0004
  20912321.5964                   20912312.0854  109895094.71848  85632559.44448
        48.0004         47.0004
  20383579.8304                   20383568.9144  107116536.42049  83467442.73449
        50.0004         49.0004
  24194377.0364                   24194370.4584  127142318.15345  99071907.83144
        36.0004         35.0004
  23440177.7254                   23440170.3224  123178994.39946  95983592.72446
        40.0004         39.0004
  21241912.9274                   21241904.8634  111627063.35348  86982125.21048
        48.0004         47.0004
 04  3  1  1 33  0.0000000  0  9G26G15G31G21G18G22G 9G14G 3
  24579894.6574                                  129168226.98844
        35.0004
  19927704.0744                   19927695.6304  104720872.65549  81600682.65648
        49.0004         48.0004
  22379799.7664                   22379791.8164  117606682.80147  91641552.37847
        44.0004         42.0004
  22352567.9194                   22352558.9194  117463596.60347  91530075.96647
        43.0004         42.0004
  20921996.4814                   20921986.9704  109945936.64548  85672176.54348
        48.0004         47.0004
  20380543.2014                   20380532.2834  107100578.95549  83455008.36649
        50.0004         49.0004
  24181044.8654                   24181038.2784  127072257.68245  99017315.40645
        37.0004         36.0004
  23419041.6474                   23419034.2324  123067923.93546  95897044.40645
        39.0004         38.0004
  21245073.6594                   21245065.5954  111643673.10849  86995067.88048
        49.0004         47.0004
 04  3  1  1 33 30.0000000  0  9G26G15G31G21G18G22G 9G14G 3
  24600895.8944                                  129278589.41944
        35.0004
  19928963.5884                   19928955.1424  104727491.57149  81605840.27248
        49.0004         48.0004
  22368601.1334                   22368593.1574  117547833.89947  91595696.18147
        44.0004         42.0004
  22369117.1294                   22369108.1544  117550563.29047  91597842.19347
        44.0004         42.0004
  20931767.5814                   20931758.0844  109997284.18448  85712187.62448
        48.0004         47.0004
  20377617.4294                   20377606.5114  107085203.98049  83443027.88049
        49.0004         49.0004
  24167818.3624                   24167811.7564  127002751.94144  98963155.13545
        35.0004         36.0004
  23397968.7064                   23397961.3014  122957185.13046  95810754.46345
        40.0004         38.0004
  21248374.8694                   21248366.8044  111661021.14649  87008585.84148
        49.0004         47.0004
 04  3  1  1 34  0.0000000  0  9G26G15G31G21G18G22G 9G14G 3
  24621941.1804                                  129389185.51644
        34.0004
  19930310.7374                   19930302.2914  104734570.94848  81611356.68748
        48.0004         48.0004
  22357502.0604                   22357494.0694  117489508.31448  91550247.77047
        45.0004         43.0004
  22385715.3174                   22385706.3404  117637787.22947  91665808.86447
        44.0004         42.0004
  20941605.5074                   20941595.9984  110048982.77048  85752472.23648
        48.0004         47.0004
  20374773.3434                   20374762.4254  107070258.26949  83431381.88449
        50.0004         50.0004
  24154668.7184                   24154662.0414  126933650.84445  98909310.31144
        36.0004         35.0004
  23376930.2814                   23376922.9034  122846627.64646  95724605.80346
        39.0004         39.0004
  21251787.3234                   21251779.2474  111678953.84049  87022559.41148
        49.0004         46.0004
 04  3  1  1 34 30.0000000  0  9G26G15G31G21G18G22G 9G14G 3
  24643001.6614                                  129499859.22144
        35.0004
  19931716.4374                   19931707.9764  104741958.01148  81617112.85848
        48.0004         48.0004
  22346473.7914                   22346465.7864  117431554.68247  91505089.17047
        44.0004         43.0004
  22402333.0344                   22402324.0704  117725113.73347  91733855.44446
        43.0004         41.0004
  20951480.8254                   20951471.3154  110100877.97748  85792910.07148
        48.0004         48.0004
  20371981.6984                   20371970.7654  107055588.13749  83419950.63149
        49.0004         49.0004
  24141567.5484                   24141560.8914  126864804.29645  98855663.73044
        36.0004         35.0004
  23355897.7234                   23355890.3294  122736100.99846  95638481.18145
        40.0004         38.0004
  21255281.7704                   21255273.6934  111697317.28148  87036868.58448
        47.0004         47.0004
 04  3  1  1 35  0.0000000  0  9G26G15G31G21G18G22G 9G14G 3
  24664135.3064                                  129610895.77354
        35.0004
  19933239.9384                   19933231.4924  104749964.12748  81623351.40049
        48.0004         49.0004
  22335576.0054                   22335567.9744  117374286.55747  91460464.70347
        44.0004         43.0004
  22419029.2764                   22419020.3244  117812853.07747  91802223.75047
        44.0004         42.0004
  20961452.5414                   20961443.0444  110153279.76348  85833742.63248
        48.0004         47.0004
  20369301.7054                   20369290.7594  107041504.74049  83408976.57849
        50.0004         49.0004
  24128574.4894                   24128567.7524  126796526.55744  98802460.56144
        35.0004         35.0004
  23334930.6934                   23334923.2864  122625919.07546  95552625.26845
        40.0004         38.0004
  21258917.3074                   21258909.2324  111716422.22149  87051755.57148
        49.0004         47.0004
 04  3  1  1 35 30.0000000  0  9G26G15G31G21G18G22G 9G14G 3
  24685282.2304                                  129722021.85744
        35.0004
  19934821.1324                   19934812.6844  104758273.54749  81629826.30348
        49.0004         48.0004
  22324748.8344                   22324740.7784  117317389.63748  91416129.51947
        45.0004         42.0004
  22435743.7974                   22435734.8584  117900688.35747  91870666.78646
        44.0004         41.0004
  20971460.1504                   20971450.6554  110205870.10448  85874722.12648
        48.0004         47.0004
  20366673.1014                   20366662.1564  107027691.33349  83398212.88949
        50.0004         50.0004
  24115630.2864                   24115623.4954  126728504.56345  98749456.49244
        36.0004         35.0004
  23313969.7014                   23313962.2924  122515768.56646  95466793.75445
        39.0004         38.0004
  21262633.6804                   21262625.6054  111735951.89448  87066973.49748
        48.0004         46.0004
 04  3  1  1 36  0.0000000  0  9G26G15G31G21G18G22G 9G14G 3
  24706529.3154                                  129833676.35644
        34.0004
  19936548.6274                   19936540.1814  104767351.59549  81636900.11648
        49.0004         48.0004
  22314081.1404                   22314073.0584  117261330.77647  91372447.36347
        44.0004         43.0004
  22452564.7574                   22452555.8324  117989082.97347  91939545.67246
        44.0004         41.0004
  20981591.8164                   20981582.3214  110259112.36948  85916209.60748
        48.0004         47.0004
  20364184.2884                   20364173.3434  107014612.59849  83388021.67849
        50.0004         50.0004
  24102823.7714                   24102817.0454  126661206.31045  98697016.40744
        37.0004         35.0004
  23293103.5294                   23293096.1334  122406116.65646  95381350.81945
        40.0004         38.0004
  21266519.1984                   21266511.1234  111756370.55248  87082884.17148
        48.0004         47.0004
 04  3  1  1 36 30.0000000  0  9G26G15G31G21G18G22G 9G14G 3
  24727758.6324                                  129945238.54644
        35.0004
  19938304.8704                   19938296.4114  104776580.77749  81644091.70948
        49.0004         48.0004
  22303455.7684                   22303447.6474  117205494.19647  91328938.39347
        44.0004         43.0004
  22469374.4274                   22469365.5284  118077418.38547  92008378.44446
        42.0004         41.0004
  20991729.6374                   20991720.1404  110312387.03848  85957722.34248
        48.0004         47.0004
  20361717.6524                   20361706.6934  107001650.39949  83377921.28349
        50.0004         49.0004
  24090037.9954                   24090031.2234  126594016.97645  98644661.16844
        37.0004         35.0004
  23272215.2264                   23272207.8004  122296348.50645  95295817.33646
        38.0004         39.0004
  21270456.2204                   21270448.1444  111777059.80748  87099005.67548
        48.0004         47.0004
 04  3  1  1 37  0.0000000  0  9G26G15G31G21G18G22G 9G14G 3
  24749059.3884                                  130057180.02154
        35.0004
  19940179.3064                   19940170.8454  104786431.06449  81651767.26549
        49.0004         49.0004
  22292962.3894                   22292954.2534  117150351.42747  91285970.07647
        44.0004         43.0004
  22486261.9904                   22486253.0894  118166163.06247  92077530.12246
        43.0004         41.0004
  21001962.7924                   21001953.2974  110366162.63348  85999625.40948
        48.0004         47.0004
  20359362.4564                   20359351.4974  106989273.82249  83368277.21049
        50.0004         50.0004
  24077362.9084                   24077356.1504  126527409.38445  98592759.23845
        37.0004         37.0004
  23251394.6114                   23251387.1564  122186936.12346  95210561.09446
        39.0004         39.0004
  21274533.9184                   21274525.8554  111798488.37748  87115703.28348
        48.0004         47.0004
 04  3  1  1 37 30.0000000  0  9G26G15G31G21G18G22G 9G14G 3
  24770400.3854                                  130169326.46844
        34.0004
  19942141.3284                   19942132.8664  104796741.68348  81659801.53848
        48.0004         48.0004
  22282570.7644                   22282562.6294  117095743.32047  91243418.36147
        44.0004         43.0004
  22503196.5814                   22503187.6934  118255154.81547  92146874.30547
        43.0004         42.0004
  21012260.2774                   21012250.7954  110420276.34448  86041791.94548
        48.0004         47.0004
  20357088.0084                   20357077.0354  106977321.51749  83358963.73449
        50.0004         50.0004
  24064768.4344                   24064761.6264  126461225.35245  98541187.39144
        36.0004         35.0004
  23230611.5974                   23230604.1274  122077721.20946  95125458.68946
        40.0004         39.0004
  21278721.5294                   21278713.4524  111820494.42649  87132850.85648
        49.0004         47.0004
 04  3  1  1 38  0.0000000  0  9G26G15G31G21G18G22G 9G14G 3
  24791781.1074                                  130281685.36144
        34.0004
  19944192.0824                   19944183.6204  104807518.46849  81668199.03448
        49.0004         48.0004
  22272282.2934                   22272274.1474  117041677.22948  91201288.99847
        45.0004         43.0004
  22520178.9594                   22520170.0704  118344397.81147  92216414.29846
        43.0004         41.0004
  21022622.8364                   21022613.3414  110474731.95848  86084224.89848
        48.0004         47.0004
  20354895.2704                   20354884.2854  106965798.60249  83349984.85149
        50.0004         49.0004
  24052256.1974                   24052249.3484  126395473.41345  98489952.20644
        36.0004         35.0004
  23209867.6844                   23209860.1724  121968711.77346  95040516.41246
        40.0004         39.0004
  21283019.8944                   21283011.8054  111843082.61048  87150452.07948
        48.0004         47.0004
 04  3  1  1 38 30.0000000  0  9G26G15G31G21G18G22G 9G14G 3
  24813172.0934                                  130394098.12444
        34.0004
  19946301.9284                   19946293.4534  104818605.84949  81676838.57048
        49.0004         48.0004
  22262067.6624                   22262059.5144  116987999.22847  91159462.03547
        44.0004         43.0004
  22537179.4054                   22537170.5454  118433735.51147  92286028.02646
        42.0004         41.0004
  21033020.5194                   21033011.0254  110529372.15248  86126801.67548
        48.0004         47.0004
  20352754.4804                   20352743.4804  106954548.73749  83341218.73849
        50.0004         49.0004
  24039796.9944                   24039790.1314  126330000.55045  98438934.54545
        37.0004         36.0004
  23189133.6794                   23189126.1274  121859754.59446  94955614.90046
        40.0004         39.0004
  21287399.2834                   21287391.1794  111866096.45448  87168384.94848
        48.0004         46.0004
 04  3  1  1 39  0.0000000  0  9G26G15G31G21G18G22G 9G14G 3
  24834660.8994                                  130507023.56144
        35.0004
  19948558.8714                   19948550.3824  104830466.22748  81686080.44349
        48.0004         49.0004
  22252015.1644                   22252007.0034  116935173.24847  91118298.99547
        44.0004         43.0004
  22554285.4774                   22554276.6304  118523628.52447  92356074.52446
        42.0004         41.0004
  21043540.9794                   21043531.4984  110584657.60648  86169881.25748
        48.0004         47.0004
  20350753.4934                   20350742.4944  106944033.47949  83333025.03549
        49.0004         50.0004
  24027479.4974                   24027472.6214  126265271.72645  98388496.52445
        36.0004         36.0004
  23168498.0874                   23168490.4944  121751314.51146  94871116.30846
        40.0004         39.0004
  21291947.4314                   21291939.3284  111889997.19348  87187008.91748
        48.0004         46.0004
 04  3  1  1 39 30.0000000  0  9G26G15G31G21G18G22G 9G14G 3
  24856158.1584                                  130619990.92344
        34.0004
  19950873.9504                   19950865.4744  104842632.10949  81695560.35748
        49.0004         48.0004
  22242036.1514                   22242027.9634  116882733.30347  91077436.74147
        44.0004         43.0004
  22571407.9954                   22571399.1614  118613607.90247  92426188.30346
        42.0004         41.0004
  21054094.9014                   21054085.4064  110640118.90148  86213097.86848
        48.0004         47.0004
  20348803.2414                   20348792.2424  106933784.90049  83325039.14049
        51.0004         50.0004
  24015215.0564                   24015208.1974  126200822.21745  98338276.25944
        36.0004         35.0004
  23147872.3614                   23147864.7014  121642926.27746  94786658.13246
        40.0004         39.0004
  21296575.1914                   21296567.0624  111914316.17648  87205958.77648
        48.0004         47.0004
 04  3  1  1 40  0.0000000  0  9G26G15G31G21G18G22G 9G14G 3
  24877691.2734                                  130733153.39244
        33.0004
  19953276.9514                   19953268.4744  104855260.02849  81705400.30549
        49.0004         49.0004
  22232160.6734                   22232152.4574  116830837.50548  91036998.51047
        45.0004         43.0004
  22588576.5494                   22588567.7474  118703829.20047  92496490.60246
        43.0004         41.0004
  21064711.7424                   21064702.2464  110695910.83748  86256572.11648
        47.0004         47.0004
  20346933.3184                   20346922.2924  106923958.38949  83317382.13149
        50.0004         49.0004
  24003033.9824                   24003027.1774  126136811.05445  98288397.58044
        36.0004         35.0004
  23127286.6954                   23127278.9934  121534748.62346  94702364.03646
        40.0004         39.0004
  21301312.0504                   21301303.9204  111939208.66048  87225355.54548
        47.0004         47.0004
 04  3  1  1 40 30.0000000  0  9G26G15G31G21G18G22G 9G14G 3
  24899262.9654                                  130846512.83344
        33.0004
  19955768.9064                   19955760.4174  104868355.34049  81715604.45648
        49.0004         48.0004
  22222390.0444                   22222381.8144  116779492.69247  90996989.60947
        43.0004         43.0004
  22605791.8364                   22605783.0474  118794296.01847  92566984.19346
        42.0004         40.0004
  21075392.0944                   21075382.5854  110752036.46748  86300306.38348
        48.0004         47.0004
  20345144.6044                   20345133.5754  106914558.75649  83310057.76149
        49.0004         49.0004
  23990938.0024                   23990931.1784  126073246.31045  98238866.61345
        37.0004         36.0004
  23106742.5334                   23106734.7744  121426789.19946  94618240.01946
        41.0004         39.0004
  21306158.8404                   21306150.7104  111964678.77748  87245202.40148
        48.0004         47.0004
 04  3  1  1 41  0.0000000  0  9G26G15G31G21G18G22G 9G14G 3
  24920870.9904                                  130960066.02044
        33.0004
  19958349.7014                   19958341.2144  104881917.45048  81726172.32648
        48.0004         48.0004
  22212724.4584                   22212716.2264  116728699.94348  90957410.89447
        45.0004         43.0004
  22623053.4324                   22623044.6584  118885006.31547  92637667.54246
        42.0004         41.0004
  21086135.6254                   21086126.1034  110808494.10648  86344299.35648
        48.0004         47.0004
  20343436.9344                   20343425.8934  106905584.89248  83303065.14949
        47.0004         49.0004
  23978927.3044                   23978920.4714  126010130.23345  98189685.39744
        37.0004         35.0004
  23086240.3294                   23086232.5434  121319050.13946  94534287.68846
        41.0004         39.0004
  21311115.2594                   21311107.1314  111990724.93848  87265498.11748
        48.0004         47.0004
 04  3  1  1 41 30.0000000  0  9G26G15G31G21G18G22G 9G14G 3
  24942513.9614                                  131073802.97544
        34.0004
  19961018.0324                   19961009.5444  104895939.74848  81737098.81648
        48.0004         48.0004
  22203163.0294                   22203154.7844  116678454.41948  90918258.57247
        45.0004         43.0004
  22640359.9714                   22640351.2114  118975952.73347  92708534.85546
        42.0004         41.0004
  21096940.6614                   21096931.1264  110865275.01649  86388544.24448
        49.0004         47.0004
  20341808.8884                   20341797.8454  106897029.57848  83296398.69349
        46.0004         49.0004
  23967001.3214                   23966994.5014  125947459.08045  98140850.79345
        38.0004         36.0004
  23065779.2534                   23065771.4014  121211527.14546  94450503.73046
        41.0004         40.0004
  21316179.8474                   21316171.7194  112017339.58648  87286236.82248
        48.0004         47.0004
 04  3  1  1 42  0.0000000  0  9G26G15G31G21G18G22G 9G14G 3
  24964192.1554                                  131187722.78344
        33.0004
  19963774.3504                   19963765.8614  104910424.35648  81748385.53748
        48.0004         48.0004
  22193706.4244                   22193698.1814  116628759.81448  90879535.55247
        45.0004         43.0004
  22657711.5564                   22657702.7794  119067135.73747  92779586.50446
        42.0004         40.0004
  21107807.3674                   21107797.8334  110922379.93949  86433041.59148
        49.0004         47.0004
  20340260.7704                   20340249.7304  106888894.16347  83290059.41948
        44.0004         48.0004
  23955160.8614                   23955154.0564  125885237.79445  98092366.83844
        37.0004         35.0004
  23045360.1204                   23045352.2134  121104224.75746  94366891.69446
        41.0004         40.0004
  21321352.7704                   21321344.6294  112044523.54548  87307419.14848
        48.0004         46.0004
 04  3  1  1 42 30.0000000  0  9G26G15G31G21G18G22G 9G14G 3
  24985904.2574                                  131301820.46044
        33.0004
  19966618.3264                   19966609.8374  104925369.61549  81760031.20448
        49.0004         48.0004
  22184354.6114                   22184346.3524  116579615.82848  90841241.56547
        45.0004         43.0004
  22675107.5944                   22675098.8164  119158552.53747  92850820.36646
        42.0004         41.0004
  21118735.0564                   21118725.5084  110979805.33648  86477788.65548
        47.0004         47.0004
  20338792.1044                   20338781.0634  106881176.39748  83284045.59649
        46.0004         49.0004
  23943406.1374                   23943399.3164  125823466.80045  98044233.70645
        37.0004         36.0004
  23024983.1544                   23024975.2034  120997143.82646  94283452.18346
        41.0004         40.0004
  21326633.5134                   21326625.3724  112072274.03848  87329042.90848
        47.0004         46.0004
 04  3  1  1 43  0.0000000  0  9G26G15G31G21G18G22G 9G14G 3
  25007621.0684                                  131415942.88544
        33.0004
  19969521.4254                   19969512.9234  104940625.50249  81771918.91948
        49.0004         48.0004
  22175079.2944                   22175071.0344  116530873.89647  90803260.87447
        44.0004         43.0004
  22692519.2154                   22692510.4384  119250051.15947  92922117.98546
        42.0004         40.0004
  21129694.8174                   21129685.2824  111037399.39248  86522667.16248
        48.0004         47.0004
  20337374.2154                   20337363.1714  106873725.40148  83278239.63049
        48.0004         49.0004
  23931709.0664                   23931702.2344  125761998.90145  97996336.80045
        37.0004         36.0004
  23004620.1774                   23004612.1594  120890136.47147  94200070.04546
        42.0004         40.0004
  21331993.2444                   21331985.1164  112100439.67548  87350990.16448
        48.0004         46.0004
 04  3  1  1 43 30.0000000  0  9G26G15G31G21G18G22G 9G14G 3
  25029401.3524                                  131530398.80144
        33.0004
  19972543.0324                   19972534.5444  104956504.21848  81784291.95249
        48.0004         49.0004
  22165940.2174                   22165931.9444  116482847.84547  90765838.01647
        44.0004         43.0004
  22710005.6234                   22709996.8584  119341942.79046  92993721.82746
        41.0004         40.0004
  21140745.7224                   21140736.1864  111095472.28748  86567918.76848
        48.0004         47.0004
  20336066.3724                   20336055.3284  106866852.70249  83272884.29349
        49.0004         49.0004
  23920129.7324                   23920122.8374  125701149.09245  97948921.41545
        37.0004         36.0004
  22984331.1574                   22984323.0844  120783517.51346  94116990.48646
        40.0004         40.0004
  21337491.1744                   21337483.0324  112129331.62048  87373503.39748
        47.0004         46.0004
 04  3  1  1 44  0.0000000  0  8G15G31G21G18G22G 9G14G 3
  19975682.6904                   19975674.1874  104973003.29249  81797148.39149
        49.0004         49.0004
  22156937.1694                   22156928.8934  116435536.76047  90728972.27847
        44.0004         43.0004
  22727566.1534                   22727557.4004  119434223.87547  93065629.12146
        42.0004         40.0004
  21151886.9674                   21151877.4194  111154019.92849  86613540.31648
        49.0004         47.0004
  20334867.9714                   20334856.9124  106860555.12349  83267977.10449
        50.0004         49.0004
  23908667.9514                   23908661.0974  125640917.40345  97901987.69445
        37.0004         36.0004
  22964115.9884                   22964107.8454  120677286.83446  94034213.52746
        41.0004         40.0004
  21343126.6464                   21343118.4904  112158946.16048  87396579.65748
        48.0004         46.0004
 04  3  1  1 44 30.0000000  0  9G26G15G31G21G18G22G 9G14G 3
  25073089.6714                                  131759974.90554
        35.0004
  19978881.7494                   19978873.2464  104989814.52549  81810248.06348
        49.0004         48.0004
  22148011.7954                   22148003.5164  116388633.85247  90692424.60247
        44.0004         43.0004
  22745141.8694                   22745133.1274  119526584.82147  93137598.66246
        42.0004         40.0004
  21163059.5804                   21163050.0324  111212732.46948  86659290.36048
        48.0004         47.0004
  20333720.2454                   20333709.1744  106854523.78549  83263277.37249
        50.0004         50.0004
  23897265.6624                   23897258.8044  125580998.53245  97855297.77545
        37.0004         36.0004
  22943916.5714                   22943908.4164  120571138.55947  93951500.67746
        42.0004         40.0004
  21348840.7534                   21348832.5974  112188974.05848  87419978.03348
        48.0004         46.0004
 04  3  1  1 45  0.0000000  0  9G26G15G31G21G18G22G 9G14G 3
  25094967.0234                                  131874941.72444
        33.0004
  19982169.2264                   19982160.7244  105007090.33249  81823709.73948
        49.0004         48.0004
  22139193.3944                   22139185.1154  116342293.02948  90656314.91247
        45.0004         43.0004
  22762761.4964                   22762752.7684  119619176.64746  93209748.14546
        41.0004         40.0004
  21174292.2924                   21174282.7444  111271760.76648  86705286.43748
        48.0004         47.0004
  20332652.0214                   20332640.9484  106848910.35249  83258903.29249
        50.0004         50.0004
  23885952.3524                   23885945.5104  125521547.18745  97808972.16445
        36.0004         36.0004
  22923762.2704                   22923754.0874  120465227.61547  93868972.82146
        42.0004         40.0004
  21354662.2364                   21354654.0674  112219566.15748  87443816.04048
        48.0004         46.0004
 04  3  1  1 45 30.0000000  0  8G15G31G21G18G22G 9G14G 3
  19985574.1304                   19985565.6154  105024983.28849  81837652.32148
        49.0004         48.0004
  22130511.2414                   22130502.9494  116296668.13548  90620763.07747
        45.0004         44.0004
  22780453.8084                   22780445.0804  119712150.19047  93282195.01746
        43.0004         40.0004
  21185613.7234                   21185604.1754  111331255.28648  86751645.80448
        48.0004         47.0004
  20331692.2294                   20331681.1574  106843866.67549  83254973.16949
        50.0004         49.0004
  23874757.5034                   23874750.6444  125462718.35945  97763131.61945
        36.0004         36.0004
  22903682.6364                   22903674.3994  120359708.86247  93786750.54346
        42.0004         40.0004
  21360619.8194                   21360611.6494  112250873.53148  87468211.40448
        47.0004         46.0004
 04  3  1  1 46  0.0000000  0  8G15G31G21G18G22G 9G14G 3
  19989038.7644                   19989030.2484  105043190.06149  81851839.41748
        49.0004         48.0004
  22121907.8904                   22121899.5834  116251457.53248  90585534.10747
        45.0004         44.0004
  22798160.8694                   22798152.1274  119805201.36246  93354702.41746
        41.0004         40.0004
  21196965.9264                   21196956.3794  111390911.45348  86798131.11948
        48.0004         47.0004
  20330783.0504                   20330771.9634  106839088.96749  83251250.29849
        50.0004         50.0004
  23863624.0224                   23863617.1514  125404211.76945  97717542.14345
        38.0004         36.0004
  22883620.4164                   22883612.1374  120254281.68847  93704599.62346
        42.0004         40.0004
  21366655.6204                   21366647.4234  112282591.88048  87492927.01748
        48.0004         46.0004
 04  3  1  1 46 30.0000000  0  8G15G31G21G18G22G 9G14G 3
  19992593.0794                   19992584.5644  105061868.17649  81866393.80948
        49.0004         48.0004
  22113413.6664                   22113405.3464  116206820.20948  90550751.81647
        45.0004         43.0004
  22815912.4254                   22815903.6704  119898486.35247  93427392.01646
        42.0004         39.0004
  21208378.5144                   21208368.9814  111450885.01048  86844863.75448
        48.0004         47.0004
  20329954.2944                   20329943.1954  106834733.88949  83247856.75449
        50.0004         50.0004
  23852582.2584                   23852575.3614  125346187.53045  97672328.60645
        38.0004         36.0004
  22863606.0564                   22863597.7364  120149105.76547  93622644.43046
        42.0004         40.0004
  21372799.3334                   21372791.1364  112314877.30648  87518084.49448
        48.0004         46.0004
 04  3  1  1 47  0.0000000  0  8G15G31G21G18G22G 9G14G 3
  19996266.0264                   19996257.4854  105081169.64149  81881433.92848
        49.0004         48.0004
  22105057.7124                   22105049.4064  116162909.62548  90516535.82547
        45.0004         44.0004
  22833737.1164                   22833728.3894  119992155.61446  93500381.01246
        41.0004         40.0004
  21219880.0284                   21219870.4824  111511325.87548  86891960.54348
        48.0004         47.0004
  20329234.7654                   20329223.6644  106830952.86349  83244910.52349
        50.0004         50.0004
  23841661.7774                   23841654.8284  125288800.14445  97627611.22645
        38.0004         36.0004
  22843668.9074                   22843660.5584  120044335.65247  93541005.45746
        42.0004         40.0004
  21379079.6234                   21379071.4124  112347880.51948  87543801.30148
        48.0004         46.0004
 04  3  1  1 47 30.0000000  0  8G15G31G21G18G22G 9G14G 3
  19999969.0264                   19999960.4864  105100629.03949  81896597.09848
        49.0004         48.0004
  22096751.7224                   22096743.4034  116119261.53748  90482524.38147
        45.0004         44.0004
  22851546.1514                   22851537.4264  120085742.47147  93573305.79146
        42.0004         40.0004
  21231381.6724                   21231372.1264  111571767.41949  86939057.85048
        49.0004         46.0004
  20328535.7334                   20328524.6204  106827279.42649  83242048.11549
        50.0004         50.0004
  23830774.2784                   23830767.3034  125231586.45245  97583029.25345
        38.0004         36.0004
  22823720.8764                   22823712.5144  119939508.35447  93459321.92746
        43.0004         40.0004
  21385407.6254                   21385399.4144  112381134.51648  87569713.53648
        48.0004         46.0004
 04  3  1  1 48  0.0000000  0  8G15G31G21G18G22G 9G14G 3
  20003819.7474                   20003811.2204  105120864.77649  81912365.21048
        50.0004         48.0004
  22088613.7164                   22088605.3704  116076496.21748  90449200.81047
        45.0004         44.0004
  22869456.9434                   22869448.2054  120179864.31846  93646647.50046
        41.0004         40.0004
  21243000.7554                   21242991.2234  111632826.17848  86986636.11248
        48.0004         47.0004
  20327974.8004                   20327963.6884  106824331.76849  83239751.25549
        50.0004         50.0004
  23820038.0874                   23820031.1104  125175167.82245  97539066.77645
        38.0004         37.0004
  22803880.1814                   22803871.7924  119835244.98347  93378077.80146
        42.0004         41.0004
  21391900.9114                   21391892.6874  112415256.90449  87596302.40248
        49.0004         46.0004
 04  3  1  1 48 30.0000000  0  8G15G31G21G18G22G 9G14G 3
  20007758.8384                   20007750.2994  105141564.84249  81928495.14448
        49.0004         48.0004
  22080584.5864                   22080576.2424  116034302.97748  90416322.99747
        45.0004         44.0004
  22887409.8704                   22887401.1464  120274207.40246  93720161.54346
        41.0004         40.0004
  21254677.6574                   21254668.1274  111694188.64848  87034451.01748
        48.0004         46.0004
  20327492.4784                   20327481.3654  106821797.27449  83237776.34749
        50.0004         50.0004
  23809394.2904                   23809387.2554  125119234.85445  97495482.78345
        38.0004         37.0004
  22784087.8484                   22784079.4594  119731235.82247  93297031.75646
        42.0004         41.0004
  21398499.7804                   21398491.5684  112449934.25548  87623323.71648
        48.0004         46.0004
 04  3  1  1 49  0.0000000  0  8G15G31G21G18G22G 9G14G 3
  20011728.0384                   20011719.4844  105162423.12549  81944748.35548
        50.0004         48.0004
  22072606.3074                   22072597.9614  115992377.15248  90383653.58447
        45.0004         44.0004
  22905346.4984                   22905337.7504  120368464.89146  93793608.93746
        41.0004         40.0004
  21266353.7844                   21266344.2664  111755547.11048  87082262.79548
        48.0004         46.0004
  20327030.4104                   20327019.2964  106819369.15049  83235884.31449
        50.0004         49.0004
  23798785.2074                   23798778.1554  125063484.11945  97452040.72945
        38.0004         37.0004
  22764286.1604                   22764277.7454  119627177.50247  93215947.42446
        42.0004         41.0004
  21405145.7054                   21405137.4934  112484858.89148  87650537.73048
        48.0004         46.0004
 04  3  1  1 49 30.0000000  0  8G15G31G21G18G22G 9G14G 3
  20015844.1914                   20015835.6394  105184053.71748  81961603.38348
        48.0004         48.0004
  22064796.0734                   22064787.7144  115951334.22148  90351672.11547
        45.0004         44.0004
  22923383.4874                   22923374.7684  120463249.59747  93867467.07346
        42.0004         39.0004
  21278145.6924                   21278136.1614  111817514.00548  87130548.69548
        48.0004         46.0004
  20326705.2614                   20326694.1344  106817660.48249  83234552.89649
        50.0004         49.0004
  23788328.1344                   23788321.0694  125008532.33145  97409221.27345
        38.0004         37.0004
  22744592.4664                   22744584.0394  119523686.68747  93135305.30246
        43.0004         41.0004
  21411955.3214                   21411947.1094  112520643.60348  87678421.90948
        48.0004         46.0004
 04  3  1  1 50  0.0000000  0  8G15G31G21G18G22G 9G14G 3
  20020019.7764                   20020011.2114  105205996.56449  81978701.71748
        49.0004         48.0004
  22057066.5554                   22057058.1824  115910715.51648  90320021.22347
        45.0004         43.0004
  22941432.9164                   22941424.2114  120558099.92246  93941376.39846
        41.0004         40.0004
  21289965.5504                   21289956.0314  111879627.84048  87178949.08848
        47.0004         46.0004
  20326429.3644                   20326418.2364  106816210.75949  83233423.26349
        49.0004         49.0004
  23777936.0644                   23777928.9874  124953921.88445  97366667.74645
        38.0004         37.0004
  22724919.6334                   22724911.1924  119420305.44147  93054748.53246
        43.0004         41.0004
  21418840.8204                   21418832.6094  112556827.14448  87706616.87948
        47.0004         46.0004
 04  3  1  1 50 30.0000000  0  8G15G31G21G18G22G 9G14G 3
  20024313.4554                   20024304.8904  105228560.00449  81996283.61548
        50.0004         48.0004
  22049476.7124                   22049468.3254  115870830.74748  90288942.21347
        45.0004         44.0004
  22959553.3034                   22959544.5834  120653323.13747  94015576.29446
        42.0004         40.0004
  21301871.6954                   21301862.1774  111942195.05648  87227702.76448
        48.0004         47.0004
  20326261.3134                   20326250.1864  106815327.70849  83232735.18949
        51.0004         49.0004
  23767668.0324                   23767660.9324  124899963.70145  97324622.58945
        37.0004         37.0004
  22705326.8134                   22705318.3624  119317344.72847  92974519.47846
        43.0004         41.0004
  21425860.6594                   21425852.4464  112593716.70648  87735362.00148
        48.0004         46.0004
 04  3  1  1 51  0.0000000  0  8G15G31G21G18G22G 9G14G 3
  20028666.7194                   20028658.1404  105251436.62349  82014109.57048
        49.0004         48.0004
  22041968.2614                   22041959.8734  115831373.76048  90258196.54547
        45.0004         44.0004
  22977685.9124                   22977677.2224  120748610.51546  94089826.16946
        41.0004         39.0004
  21313805.3374                   21313795.8054  112004906.76648  87276569.03748
        48.0004         47.0004
  20326142.4734                   20326131.3474  106814703.19949  83232248.56349
        50.0004         50.0004
  23757466.1694                   23757459.0424  124846352.85945  97282847.99145
        37.0004         36.0004
  22685755.9794                   22685747.5304  119214499.73847  92894380.63146
        42.0004         41.0004
  21432956.0214                   21432947.8104  112631003.14748  87764416.39348
        47.0004         46.0004
 04  3  1  1 51 30.0000000  0  8G15G31G21G18G22G 9G14G 3
  20033138.5374                   20033129.9594  105274936.18349  82032420.92248
        50.0004         48.0004
  22034600.4324                   22034592.0434  115792655.74448  90228026.70447
        45.0004         44.0004
  22995889.4514                   22995880.7924  120844270.63246  94164366.49446
        41.0004         39.0004
  21325825.1204                   21325815.5884  112068071.15148  87325788.04248
        47.0004         46.0004
  20326131.6234                   20326120.4964  106814646.30649  83232204.25549
        50.0004         50.0004
  23747389.8094                   23747382.6554  124793401.67145  97241587.43445
        38.0004         36.0004
  22666266.6024                   22666258.1394  119112082.62147  92814575.14846
        43.0004         41.0004
  21440185.6154                   21440177.3894  112668994.92348  87794020.37448
        48.0004         46.0004
 04  3  1  1 52  0.0000000  0  8G15G31G21G18G22G 9G14G 3
  20037669.8464                   20037661.2544  105298748.43549  82050975.94148
        49.0004         48.0004
  22027314.4934                   22027306.0924  115754367.93648  90198192.07647
        45.0004         44.0004
  23014104.6994                   23014096.0284  120939992.03146  94238954.53046
        40.0004         39.0004
  21337871.7574                   21337862.2124  112131376.65948  87375117.01448
        48.0004         46.0004
  20326169.6634                   20326158.5224  106814846.26949  83232360.08849
        51.0004         50.0004
  23737380.5124                   23737373.2694  124740802.46045  97200601.11045
        38.0004         37.0004
  22646800.1084                   22646791.6334  119009785.88247  92734863.49547
        43.0004         42.0004
  21447490.1214                   21447481.9084  112707380.36248  87823931.09448
        48.0004         46.0004
 04  3  1  1 52 30.0000000  0  8G15G31G21G18G22G 9G14G 3
  20042348.5344                   20042339.9424  105323335.17249  82070134.45248
        50.0004         48.0004
  22020198.5244                   22020190.1244  115716973.45748  90169053.56247
        46.0004         44.0004
  23032419.1994                   23032410.5454  121036235.50646  94313949.47646
        40.0004         39.0004
  21350032.8314                   21350023.2994  112195283.53048  87424914.56848
        48.0004         46.0004
  20326344.3464                   20326333.2044  106815764.29849  83233075.44749
        51.0004         50.0004
  23727526.5214                   23727519.2794  124689019.76246  97160251.04545
        39.0004         37.0004
  22627444.8924                   22627436.3754  118908073.90747  92655607.51247
        44.0004         42.0004
  21454957.1674                   21454948.9684  112746619.95248  87854507.39648
        48.0004         46.0004
 04  3  1  1 53  0.0000000  0  8G15G31G21G18G22G 9G14G 3
  20047057.6874                   20047049.0944  105348081.93549  82089417.64049
        49.0004         49.0004
  22013135.8974                   22013127.4834  115679859.22748  90140133.41547
        45.0004         44.0004
  23050715.8844                   23050707.2574  121132384.98546  94388871.08046
        41.0004         39.0004
  21362191.0794                   21362181.5444  112259175.67948  87474700.67548
        48.0004         46.0004
  20326538.6094                   20326527.4544  106816785.15649  83233870.93249
        50.0004         50.0004
  23717711.4264                   23717704.1544  124637441.46445  97120060.24645
        37.0004         36.0004
  22608084.5334                   22608075.9924  118806334.84747  92576330.41647
        43.0004         42.0004
  21462469.5334                   21462461.3484  112786097.76349  87885269.33648
        49.0004         46.0004
 04  3  1  1 53 30.0000000  0  8G15G31G21G18G22G 9G14G 3
  20051885.6144                   20051877.0094  105373452.86449  82109187.20649
        49.0004         49.0004
  22006215.1464                   22006206.7444  115643490.61948  90111794.27347
        45.0004         44.0004
  23069082.7714                   23069074.1424  121228903.50246  94464080.27946
        40.0004         39.0004
  21374434.5534                   21374425.0184  112323515.50848  87524835.59548
        47.0004         46.0004
  20326840.6074                   20326829.4274  106818372.16449  83235107.58349
        50.0004         50.0004
  23708024.0554                   23708016.7694  124586534.11145  97080392.21445
        37.0004         37.0004
  22588807.7094                   22588799.1404  118705034.95347  92497395.55547
        43.0004         42.0004
  21470115.2624                   21470107.0644  112826276.33948  87916577.32648
        48.0004         46.0004
 04  3  1  1 54  0.0000000  0  8G15G31G21G18G22G 9G14G 3
  20056773.8024                   20056765.1964  105399140.46549  82129203.51848
        49.0004         48.0004
  21999378.0364                   21999369.6484  115607561.49248  90083797.57147
        45.0004         44.0004
  23087461.1544                   23087452.5084  121325482.49446  94539336.61346
        40.0004         39.0004
  21386704.4444                   21386694.9074  112387994.34748  87575078.86448
        48.0004         46.0004
  20327191.7704                   20327180.5904  106820217.60449  83236545.60049
        51.0004         50.0004
  23698406.3344                   23698399.0364  124535993.08545  97041009.70545
        38.0004         36.0004
  22569556.4944                   22569547.8974  118603869.57247  92418565.49747
        43.0004         42.0004
  21477835.6254                   21477827.4284  112866847.06248  87948190.86348
        47.0004         46.0004
 04  3  1  1 54 30.0000000  0  8G15G31G21G18G22G 9G14G 3
  20061779.8954                   20061771.2914  105425447.72349  82149702.70148
        49.0004         48.0004
  21992682.4994                   21992674.1114  115572376.26648  90056380.52847
        45.0004         44.0004
  23105908.5334                   23105899.8844  121422423.93546  94614875.34846
        41.0004         39.0004
  21399058.1054                   21399048.5694  112452913.33848  87625665.10448
        47.0004         46.0004
  20327649.6274                   20327638.4474  106822623.72349  83238420.51149
        51.0004         50.0004
  23688916.3984                   23688909.0614  124486123.69645  97002150.59245
        38.0004         37.0004
  22550389.0164                   22550380.3944  118503144.29847  92340078.39947
        44.0004         42.0004
  21485687.9674                   21485679.7834  112908111.46148  87980344.94548
        48.0004         46.0004
 04  3  1  1 55  0.0000000  0  8G15G31G21G18G22G 9G14G 3
  20066874.1484                   20066865.5424  105452218.20249  82170562.80848
        49.0004         48.0004
  21986098.9834                   21986090.5824  115537779.72048  90029422.20047
        45.0004         44.0004
  23124394.8764                   23124386.2294  121519570.13746  94690573.65245
        41.0004         38.0004
  21411465.5744                   21411456.0394  112518114.96249  87676471.55848
        49.0004         46.0004
  20328184.2974                   20328173.1044  106825433.49449  83240609.96549
        50.0004         50.0004
  23679525.0994                   23679517.7364  124436772.14946  96963694.87545
        39.0004         37.0004
  22531276.0244                   22531267.3894  118402705.22247  92261814.27847
        44.0004         42.0004
  21493642.2774                   21493634.0934  112949911.63848  88012916.51548
        48.0004         46.0004
 04  3  1  1 55 30.0000000  0  8G15G31G21G18G22G 9G14G 3
  20072028.4484                   20072019.8314  105479304.23549  82191668.82049
        50.0004         49.0004
  21979599.6044                   21979591.1914  115503625.31648  90002808.40647
        45.0004         44.0004
  23142891.8474                   23142883.2144  121616772.18846  94766315.46445
        40.0004         38.0004
  21423898.3654                   21423888.8294  112583449.78148  87727381.81948
        47.0004         46.0004
  20328767.5414                   20328756.3354  106828498.45949  83242998.26249
        50.0004         49.0004
  23670204.6504                   23670197.2754  124387793.10746  96925529.45745
        39.0004         37.0004
  22512189.8604                   22512181.2004  118302407.12847  92183660.02447
        43.0004         42.0004
  21501670.1214                   21501661.9374  112992098.30948  88045789.25448
        48.0004         46.0004
 04  3  1  1 56  0.0000000  0  8G15G31G21G18G22G 9G14G 3
  20077300.8614                   20077292.2574  105507011.01048  82213258.52648
        48.0004         48.0004
  21973242.7064                   21973234.2944  115470219.65448  89976778.04147
        46.0004         44.0004
  23161457.2714                   23161448.6224  121714334.15046  94842337.76745
        39.0004         38.0004
  21436414.3114                   21436404.7904  112649221.58748  87778632.58548
        48.0004         45.0004
  20329457.3414                   20329446.1354  106832123.44549  83245822.94249
        50.0004         50.0004
  23661013.6334                   23661006.2494  124339494.42745  96887894.24345
        38.0004         37.0004
  22493189.0654                   22493180.3764  118202557.77747  92105855.45147
        43.0004         42.0004
  21509829.3234                   21509821.1384  113034975.13848  88079199.75648
        47.0004         46.0004
 04  3  1  1 56 30.0000000  0  8G15G31G21G18G22G 9G14G 3
  20082662.2314                   20082653.6414  105535185.26549  82235212.49448
        50.0004         48.0004
  21966999.3794                   21966990.9544  115437410.75048  89951212.66847
        45.0004         44.0004
  23180061.8004                   23180053.1804  121812101.48446  94918520.07345
        40.0004         38.0004
  21448983.9444                   21448974.4234  112715275.45148  87830103.13148
        48.0004         46.0004
  20330224.3384                   20330213.1324  106836154.10749  83248963.72849
        50.0004         50.0004
  23651923.3574                   23651915.9864  124291725.07746  96850671.44645
        39.0004         37.0004
  22474245.0254                   22474236.3084  118103006.54847  92028283.16047
        44.0004         42.0004
  21518090.4074                   21518082.2364  113078387.55548  88113027.63648
        47.0004         45.0004
 04  3  1  1 57  0.0000000  0  8G15G31G21G18G22G 9G14G 3
  20088083.5914                   20088074.9884  105563674.70549  82257412.06949
        49.0004         49.0004
  21960840.8154                   21960832.3924  115405047.34248  89925994.44947
        45.0004         44.0004
  23198676.1884                   23198667.5564  121909920.62846  94994742.76845
        40.0004         38.0004
  21461578.0914                   21461568.5704  112781458.14048  87881674.06048
        48.0004         46.0004
  20331039.4844                   20331028.2804  106840437.78949  83252301.68449
        51.0004         50.0004
  23642905.3014                   23642897.9294  124244335.31446  96813744.45045
        39.0004         37.0004
  22455329.2374                   22455320.4664  118003603.84947  91950826.63947
        44.0004         42.0004
  21526424.1994                   21526416.0264  113122181.80048  88147152.98948
        48.0004         46.0004
 04  3  1  1 57 30.0000000  0  8G15G31G21G18G22G 9G14G 3
  20093652.3084                   20093643.7044  105592938.56949  82280215.09248
        49.0004         48.0004
  21954854.7314                   21954846.3064  115373590.31648  89901482.48947
        45.0004         44.0004
  23217387.6274                   23217379.0054  122008249.84446  95071362.90245
        40.0004         38.0004
  21474283.8214                   21474274.2874  112848227.20248  87933701.90648
        48.0004         46.0004
  20331990.0924                   20331978.8874  106845433.33149  83256194.32649
        50.0004         50.0004
  23634047.2894                   23634039.8864  124197786.83345  96777473.05445
        38.0004         37.0004
  22436529.5994                   22436520.8014  117904811.39547  91873845.58847
        44.0004         42.0004
  21534917.6584                   21534909.4884  113166815.29348  88181932.35648
        48.0004         46.0004
 04  3  1  1 58  0.0000000  0  8G15G31G21G18G22G 9G14G 3
  20099251.3044                   20099242.6874  105622361.49649  82303142.05348
        49.0004         48.0004
  21948924.2214                   21948915.7944  115342425.40548  89877198.15947
        45.0004         44.0004
  23236078.8894                   23236070.2644  122106472.96346  95147900.35545
        39.0004         38.0004
  21486983.8884                   21486974.3664  112914966.50448  87985706.54648
        47.0004         46.0004
  20332958.9714                   20332947.7544  106850524.82349  83260161.73549
        50.0004         50.0004
  23625232.8594                   23625225.4534  124151467.12745  96741379.86545
        38.0004         36.0004
  22417729.5514                   22417720.7034  117806016.79048  91796862.89147
        45.0004         42.0004
  21543453.5394                   21543445.3684  113211671.65248  88216885.36148
        48.0004         46.0004
 04  3  1  1 58 30.0000000  0  8G15G31G21G18G22G 9G14G 3
  20104968.3194                   20104959.7024  105652404.61349  82326552.27548
        50.0004         48.0004
  21943137.2984                   21943128.8574  115312014.97948  89853501.74647
        46.0004         44.0004
  23254837.4684                   23254828.8374  122205049.95846  95224713.57545
        39.0004         38.0004
  21499765.6834                   21499756.1634  112982135.29048  88038045.86948
        47.0004         46.0004
  20334033.7314                   20334022.5294  106856172.78949  83264562.75849
        50.0004         50.0004
  23616550.1934                   23616542.7714  124105839.65746  96705826.04545
        39.0004         37.0004
  22399017.2614                   22399008.3884  117707683.41547  91720239.59147
        44.0004         42.0004
  21552119.2574                   21552111.0864  113257210.30748  88252370.02748
        48.0004         45.0004
 04  3  1  1 59  0.0000000  0  8G15G31G21G18G22G 9G14G 3
  20110774.0954                   20110765.4774  105682914.23249  82350326.01548
        50.0004         48.0004
  21937464.9384                   21937456.4824  115282206.52548  89830274.38047
        45.0004         44.0004
  23273633.9074                   23273625.3144  122303825.91546  95301681.82045
        39.0004         37.0004
  21512599.6384                   21512590.1174  113049578.24448  88090598.82848
        47.0004         46.0004
  20335184.9974                   20335173.7824  106862222.73349  83269277.01049
        49.0004         50.0004
  23607970.4244                   23607962.9884  124060752.91945  96670693.58145
        38.0004         37.0004
  22380363.9754                   22380355.1024  117609660.17848  91643857.94247
        45.0004         42.0004
  21560885.2454                   21560877.0884  113303275.88148  88288265.27448
        48.0004         46.0004
 04  3  1  1 59 30.0000000  0  8G15G31G21G18G22G 9G14G 3
  20116668.5184                   20116659.9024  105713889.69749  82374462.76348
        50.0004         48.0004
  21931907.1814                   21931898.7264  115253000.44148  89807516.42447
        45.0004         44.0004
  23292467.8544                   23292459.2754  122402798.85046  95378803.55345
        39.0004         37.0004
  21525485.3814                   21525475.8604  113117293.34448  88143363.85148
        47.0004         45.0004
  20336412.5094                   20336401.2924  106868673.41249  83274303.52249
        50.0004         49.0004
  23599493.8474                   23599486.3984  124016208.76846  96635983.98545
        39.0004         37.0004
  22361770.1354                   22361761.2224  117511949.19847  91567719.61247
        44.0004         42.0004
  21569751.1294                   21569742.9744  113349866.35648  88324569.53648
        47.0004         46.0004
                            4  1
RINEX FILE SPLICE; other post-header comments skipped       COMMENT
 04  3  1  2  0  0.0000000  0  8G15G31G21G18G22G 9G14G 3
  20122651.5104                   20122642.8804  105745330.46949  82398962.05748
        49.0004         48.0004
  21926464.1924                   21926455.7224  115224397.46748  89785228.41947
        46.0004         44.0004
  23311338.9234                   23311330.3114  122501967.04646  95456077.47945
        39.0004         37.0004
  21538422.5784                   21538413.0544  113185278.89948  88196339.62348
        47.0004         46.0004
  20337716.0514                   20337704.8344  106875523.63449  83279641.36949
        51.0004         49.0004
  23591120.9334                   23591113.4264  123972209.30646  96601698.81745
        39.0004         36.0004
  22343236.0504                   22343227.1094  117414552.23647  91491825.95547
        44.0004         43.0004
  21578716.4914                   21578708.3374  113396979.65148  88361281.19848
        48.0004         46.0004
 04  3  1  2  0 30.0000000  0  8G15G31G21G18G22G 9G14G 3
  20128722.0264                   20128713.3984  105777231.31049  82423819.87548
        49.0004         48.0004
  21921135.2284                   21921126.7604  115196393.57448  89763407.21247
        46.0004         44.0004
  23330246.1084                   23330237.5494  122601324.78945  95533499.02145
        38.0004         37.0004
  21551410.0414                   21551400.5154  113253528.47448  88249521.10548
        47.0004         45.0004
  20339094.5734                   20339083.3694  106882767.87849  83285286.24249
        50.0004         49.0004
  23582851.1664                   23582843.6564  123928751.63845  96567835.74045
        38.0004         37.0004
  22324761.2874                   22324752.3344  117317466.95347  91416175.15347
        44.0004         43.0004
  21587780.0294                   21587771.8744  113444608.92548  88398394.92948
        48.0004         45.0004
 04  3  1  2  1  0.0000000  0  8G15G31G21G18G22G 9G14G 3
  20134881.3144                   20134872.6874  105809598.58349  82449041.13348
        50.0004         48.0004
  21915921.6974                   21915913.2294  115168996.34648  89742058.73647
        46.0004         44.0004
  23349190.2534                   23349181.6934  122700876.75646  95611071.93945
        39.0004         37.0004
  21564448.6554                   21564439.1154  113322046.91848  88302912.11748
        47.0004         45.0004
  20340549.1694                   20340537.9664  106890411.89849  83291242.63649
        50.0004         50.0004
  23574686.1034                   23574678.5654  123885844.25645  96534401.49445
        38.0004         37.0004
  22306347.5104                   22306338.5314  117220702.27947  91340774.20747
        44.0004         43.0004
  21596942.6584                   21596934.5024  113492758.93048  88435914.42348
        48.0004         46.0004
 04  3  1  2  1 30.0000000  0  8G15G31G21G18G22G 9G14G 3
  20141129.8464                   20141121.2204  105842434.84549  82474627.83448
        49.0004         48.0004
  21910824.2874                   21910815.8074  115142209.33848  89721185.76948
        45.0004         45.0004
  23368171.6264                   23368163.0364  122800624.72946  95688797.67445
        39.0004         37.0004
  21577538.7224                   21577529.1824  113390835.68448  88356513.75348
        47.0004         45.0004
  20342080.1954                   20342068.9914  106898457.55449  83297511.99049
        50.0004         50.0004
  23566626.6494                   23566619.0934  123843491.97746  96501399.80445
        39.0004         37.0004
  22287995.7884                   22287986.7964  117124263.51548  91265627.17047
        45.0004         43.0004
  21606204.6114                   21606196.4424  113541430.75848  88473840.51748
        47.0004         46.0004
 04  3  1  2  2  0.0000000  0  8G15G31G21G18G22G 9G14G 3
  20147465.8474                   20147457.2074  105875730.75549  82500572.70348
        49.0004         48.0004
  21905841.4714                   21905832.9774  115116024.52348  89700782.03747
        46.0004         44.0004
  23387188.3604                   23387179.7974  122900558.15546  95766667.82145
        39.0004         37.0004
  21590678.1804                   21590668.6264  113459884.00148  88410317.64248
        47.0004         45.0004
  20343685.8084                   20343674.6044  106906895.16849  83304086.76649
        50.0004         50.0004
  23558671.5704                   23558663.9894  123801688.13246  96468825.48545
        39.0004         37.0004
  22269704.7534                   22269695.7344  117028143.66448  91190728.63947
        45.0004         43.0004
  21615563.7864                   21615555.6164  113590613.55548  88512164.77248
        47.0004         45.0004
 04  3  1  2  2 30.0000000  0  8G15G31G21G18G22G 9G14G 3
  20153920.0244                   20153911.3974  105909647.80749  82527001.59648
        49.0004         48.0004
  21901004.1744                   21900995.6674  115090604.42148  89680974.18947
        46.0004         44.0004
  23406270.8914                   23406262.3024  123000837.40546  95844807.48945
        40.0004         38.0004
  21603897.4514                   21603887.9104  113529351.80148  88464448.40048
        48.0004         46.0004
  20345396.5944                   20345385.3904  106915885.47349  83311092.21349
        51.0004         50.0004
  23550852.0834                   23550844.5054  123760596.76246  96436806.31545
        39.0004         38.0004
  22251505.6584                   22251496.6384  116932507.14747  91116206.76047
        44.0004         43.0004
  21625050.6364                   21625042.4654  113640467.35248  88551011.89548
        48.0004         46.0004
 04  3  1  2  3  0.0000000  0  8G15G31G21G18G22G 9G14G 3
  20160433.2334                   20160424.5944  105943874.95249  82553672.10948
        49.0004         48.0004
  21896253.4664                   21896244.9584  115065639.40648  89661520.95447
        45.0004         44.0004
  23425359.9314                   23425351.3474  123101150.86546  95922973.81345
        40.0004         37.0004
  21617137.2304                   21617127.6754  113598927.31148  88518663.09048
        47.0004         45.0004
  20347153.3304                   20347142.1394  106925117.24849  83318285.80649
        50.0004         50.0004
  23543109.4414                   23543101.8634  123719909.15445  96405101.74345
        38.0004         37.0004
  22233339.9424                   22233330.9104  116837045.85448  91041821.39147
        45.0004         43.0004
  21634605.7444                   21634597.5604  113690679.71948  88590138.40948
        47.0004         46.0004
 04  3  1  2  3 30.0000000  0  8G15G31G21G18G22G 9G14G 3
  20167034.4744                   20167025.8384  105978564.64649  82580703.03648
        49.0004         48.0004
  21891618.5014                   21891609.9814  115041282.56348  89642541.62447
        45.0004         44.0004
  23444484.2544                   23444475.6414  123201649.79846  96001284.66245
        39.0004         38.0004
  21630426.2914                   21630416.7234  113668761.79748  88573079.58148
        48.0004         45.0004
  20348984.9184                   20348973.7124  106934742.37049  83325785.91649
        50.0004         49.0004
  23535473.1094                   23535465.4814  123679780.08346  96373832.40745
        39.0004         38.0004
  22215237.0624                   22215228.0324  116741914.82948  90967693.37947
        45.0004         43.0004
  21644257.6944                   21644249.5084  113741401.06048  88629661.52548
        47.0004         45.0004
 04  3  1  2  4  0.0000000  0  8G15G31G21G18G22G 9G14G 3
  20173724.6764                   20173716.0394  106013721.95849  82608098.35448
        50.0004         48.0004
  21887100.4474                   21887091.9274  115017540.15548  89624041.07247
        46.0004         44.0004
  23463644.6464                   23463636.0374  123302338.21146  96079743.15645
        39.0004         37.0004
  21643765.3354                   21643755.7684  113738858.94548  88627700.73948
        47.0004         45.0004
  20350892.1624                   20350880.9554  106944765.06549  83333595.82249
        51.0004         50.0004
  23527944.3574                   23527936.7044  123640216.78446  96343004.01145
        39.0004         38.0004
  22197198.4604                   22197189.4024  116647121.52448  90893828.51747
        45.0004         43.0004
  21654007.1554                   21653998.9694  113792634.82248  88669583.93848
        48.0004         45.0004
 04  3  1  2  4 30.0000000  0  8G15G31G21G18G22G 9G14G 3
  20180502.8854                   20180494.2494  106049341.68549  82635853.99348
        49.0004         48.0004
  21882698.5894                   21882690.0554  114994408.29648  89606016.26647
        46.0004         44.0004
  23482839.9114                   23482831.3014  123403209.88746  96158344.42745
        39.0004         37.0004
  21657153.1244                   21657143.5684  113809212.31348  88682521.54548
        47.0004         45.0004
  20352873.9914                   20352862.7994  106955179.71149  83341711.14049
        51.0004         49.0004
  23520522.8604                   23520515.1944  123601216.62146  96312614.29345
        39.0004         38.0004
  22179223.6034                   22179214.5334  116552663.26348  90820224.74747
        45.0004         43.0004
  21663852.8644                   21663844.6814  113844374.37548  88709900.48048
        47.0004         45.0004
 04  3  1  2  5  0.0000000  0  8G15G31G21G18G22G 9G14G 3
  20187398.7274                   20187390.0884  106085579.70249  82664091.42648
        49.0004         48.0004
  21878442.7154                   21878434.1664  114972043.65248  89588589.30047
        46.0004         44.0004
  23502099.4604                   23502090.9054  123504419.24946  96237208.78545
        39.0004         36.0004
  21670619.0364                   21670609.4654  113879976.15848  88737662.20448
        47.0004         45.0004
  20354959.9934                   20354948.7734  106966141.72749  83350252.98249
        50.0004         50.0004
  23513238.5524                   23513230.8734  123562937.50846  96282786.46945
        39.0004         38.0004
  22161342.7284                   22161333.6434  116458698.88148  90747005.80547
        46.0004         43.0004
  21673824.2074                   21673816.0224  113896774.07048  88750731.39348
        48.0004         45.0004
 04  3  1  2  5 30.0000000  0  8G15G31G21G18G22G 9G14G 3
  20194353.8654                   20194345.2264  106122129.19949  82692571.55348
        49.0004         48.0004
  21874274.6974                   21874266.1504  114950140.63448  89571522.03448
        46.0004         45.0004
  23521364.7304                   23521356.1624  123605658.79945  96316096.73045
        37.0004         37.0004
  21684104.4714                   21684094.8874  113950842.60148  88792882.81648
        47.0004         45.0004
  20357091.6704                   20357080.4504  106977343.82649  83358981.90549
        49.0004         49.0004
  23506033.5024                   23506025.7974  123525074.96646  96253283.26045
        39.0004         38.0004
  22143497.9584                   22143488.8764  116364924.10748  90673934.59147
        45.0004         43.0004
  21683862.4544                   21683854.2824  113949525.47848  88791836.39048
        47.0004         45.0004
 04  3  1  2  6  0.0000000  0  8G15G31G21G18G22G 9G14G 3
  20201395.6704                   20201387.0314  106159134.19749  82721406.62848
        49.0004         48.0004
  21870222.1324                   21870213.5694  114928844.31948  89554927.51947
        46.0004         44.0004
  23540662.9724                   23540654.3754  123707071.81146  96395119.87545
        39.0004         37.0004
  21697636.7164                   21697627.1324  114021955.02748  88848295.09548
        47.0004         45.0004
  20359296.3414                   20359285.1354  106988929.51449  83368009.72049
        50.0004         49.0004
  23498935.6544                   23498927.9224  123487775.58846  96224218.83545
        39.0004         38.0004
  22125717.1724                   22125708.0614  116271485.63048  90601125.44047
        46.0004         43.0004
  21693994.7334                   21693986.5744  114002770.90148  88833326.30548
        47.0004         45.0004
 04  3  1  2  6 30.0000000  0  8G15G31G21G18G22G 9G14G 3
  20208555.3754                   20208546.7374  106196758.70449  82750724.43148
        50.0004         48.0004
  21866316.4154                   21866307.8434  114908319.70548  89538934.34647
        47.0004         44.0004
  23560025.2684                   23560016.6994  123808820.98845  96474404.85545
        38.0004         37.0004
  21711246.6694                   21711237.0984  114093475.87748  88904025.63348
        46.0004         45.0004
  20361605.1504                   20361593.9314  107001062.38449  83377463.91449
        50.0004         49.0004
  23491976.6224                   23491968.8554  123451205.68746  96195722.87245
        40.0004         38.0004
  22108032.1694                   22108023.0464  116178550.43948  90528708.44847
        46.0004         44.0004
  21704251.9754                   21704243.8024  114056673.01248  88875327.94148
        47.0004         45.0004
 04  3  1  2  7  0.0000000  0  8G15G31G21G18G22G 9G14G 3
  20215773.7754                   20215765.1384  106234691.71449  82780282.63548
        50.0004         48.0004
  21862498.5434                   21862489.9684  114888256.77548  89523300.91247
        46.0004         44.0004
  23579392.1004                   23579383.5194  123910594.50146  96553708.93445
        39.0004         37.0004
  21724874.9944                   21724865.4114  114165093.20848  88959831.35948
        47.0004         45.0004
  20363958.7844                   20363947.5504  107013430.81649  83387101.65449
        50.0004         49.0004
  23485097.5664                   23485089.7894  123415056.31546  96167554.62145
        39.0004         38.0004
  22090384.2034                   22090375.0674  116085810.00348  90456443.23547
        46.0004         43.0004
  21714574.6184                   21714566.4454  114110918.86348  88917597.44048
        48.0004         45.0004
 04  3  1  2  7 30.0000000  0  8G15G31G21G18G22G 9G14G 3
  20223109.0794                   20223100.4394  106273239.05749  82810319.53248
        49.0004         48.0004
  21858826.9164                   21858818.3284  114868962.30648  89508266.28347
        46.0004         44.0004
  23598821.5864                   23598813.0474  124012697.01545  96633269.28944
        38.0004         35.0004
  21738579.5594                   21738569.9914  114237111.18448  89015949.25848
        47.0004         45.0004
  20366415.3134                   20366404.0794  107026340.02749  83397160.79249
        50.0004         49.0004
  23478357.1834                   23478349.4084  123379635.42846  96139953.94945
        40.0004         38.0004
  22072832.0064                   22072822.8564  115993572.76948  90384570.11747
        46.0004         44.0004
  21725020.5544                   21725012.3974  114165812.63148  88960371.80248
        47.0004         45.0004
 04  3  1  2  8  0.0000000  0  8G15G31G21G18G22G 9G14G 3
  20230502.8784                   20230494.2524  106312093.79549  82840595.96148
        49.0004         48.0004
  21855243.3124                   21855234.7244  114850130.46548  89493592.14947
        45.0004         44.0004
  23618255.2044                   23618246.6634  124114821.36646  96712846.69945
        39.0004         37.0004
  21752301.7584                   21752292.1894  114309221.88548  89072139.43048
        47.0004         45.0004
  20368916.2744                   20368905.0254  107039482.72749  83407401.87349
        50.0004         49.0004
  23471697.4394                   23471689.6514  123344638.54746  96112683.73445
        39.0004         38.0004
  22055317.6554                   22055308.4924  115901534.35848  90312851.90847
        46.0004         44.0004
  21735531.1024                   21735522.9574  114221045.86848  89003410.66548
        47.0004         45.0004
 04  3  1  2  8 30.0000000  0  8G15G31G21G18G22G 9G14G 3
  20237984.8354                   20237976.1964  106351411.74749  82871233.33148
        50.0004         48.0004
  21851777.5734                   21851768.9594  114831917.88448  89479400.54748
        46.0004         45.0004
  23637722.2544                   23637713.7014  124217121.33945  96792560.96445
        38.0004         36.0004
  21766071.0984                   21766061.5464  114381580.25648  89128522.58148
        47.0004         45.0004
  20371491.2204                   20371479.9844  107053014.22149  83417945.90249
        50.0004         50.0004
  23465148.4734                   23465140.6714  123310223.68846  96085867.00745
        39.0004         38.0004
  22037871.3454                   22037862.1704  115809853.50748  90241412.32647
        46.0004         44.0004
  21746135.5614                   21746127.4304  114276772.74048  89046834.20848
        47.0004         45.0004
 04  3  1  2  9  0.0000000  0  8G15G31G21G18G22G 9G14G 3
  20245583.8204                   20245575.1814  106391344.74349  82902349.96648
        49.0004         48.0004
  21848458.7294                   21848450.1014  114814477.42948  89465810.62947
        46.0004         44.0004
  23657251.5484                   23657242.9704  124319748.22545  96872529.93045
        37.0004         36.0004
  21779916.2154                   21779906.6654  114454336.83548  89185216.02848
        46.0004         45.0004
  20374168.9684                   20374157.7314  107067085.94249  83428910.88949
        50.0004         50.0004
  23458739.5584                   23458731.7564  123276545.05046  96059624.00645
        39.0004         37.0004
  22020522.4564                   22020513.2804  115718684.66648  90170371.70847
        46.0004         44.0004
  21756862.5454                   21756854.4294  114333143.36048  89090759.35148
        46.0004         45.0004
 04  3  1  2  9 30.0000000  0  8G15G31G21G18G22G 9G14G 3
  20253269.8954                   20253261.2444  106431735.27549  82933823.11048
        50.0004         48.0004
  21845257.0224                   21845248.3804  114797652.34748  89452700.17948
        47.0004         45.0004
  23676812.8344                   23676804.2414  124422543.60345  96952630.25445
        38.0004         36.0004
  21793806.9594                   21793797.4074  114527333.25148  89242096.36047
        47.0004         44.0004
  20376919.4084                   20376908.1704  107081539.66449  83440173.54149
        51.0004         50.0004
  23452441.1574                   23452433.3634  123243447.04245  96033833.39245
        37.0004         37.0004
  22003241.5134                   22003232.3484  115627872.95248  90099609.36847
        46.0004         44.0004
  21767681.7424                   21767673.6264  114389998.56248  89135062.09248
        47.0004         45.0004
 04  3  1  2 10  0.0000000  0  8G15G31G21G18G22G 9G14G 3
  20261043.3214                   20261034.6694  106472584.96849  82965654.05049
        49.0004         49.0004
  21842172.8834                   21842164.2284  114781445.20848  89440071.28048
        46.0004         45.0004
  23696406.3974                   23696397.8304  124525508.15745  97032862.28545
        38.0004         36.0004
  21807743.4034                   21807733.8534  114600569.75848  89299163.77648
        47.0004         45.0004
  20379742.8054                   20379731.5694  107096376.78349  83451734.94849
        50.0004         50.0004
  23446254.0064                   23446246.1994  123210933.52946  96008498.23645
        39.0004         38.0004
  21986029.3524                   21986020.1734  115537422.55948  90029128.57447
        46.0004         44.0004
  21778593.1384                   21778585.0354  114447338.39448  89179742.48948
        46.0004         45.0004
 04  3  1  2 10 30.0000000  0  8G15G31G21G18G22G 9G14G 3
  20268874.9694                   20268866.3334  106513740.62149  82997723.40248
        50.0004         48.0004
  21839177.3864                   21839168.7194  114765703.82948  89427805.29548
        46.0004         45.0004
  23716002.7984                   23715994.1924  124628487.81645  97113106.17545
        38.0004         36.0004
  21821696.2174                   21821686.6824  114673892.35348  89356298.27848
        48.0004         45.0004
  20382609.9214                   20382598.6714  107111443.57649  83463475.31549
        50.0004         50.0004
  23440149.2994                   23440141.4754  123178853.39446  95983500.79045
        39.0004         38.0004
  21968857.3704                   21968848.1634  115447183.24748  89958812.25447
        46.0004         44.0004
  21789567.2974                   21789559.1944  114505007.92748  89224679.77148
        47.0004         45.0004
 04  3  1  2 11  0.0000000  0  8G15G31G21G18G22G 9G14G 3
  20276823.8734                   20276815.2354  106555512.45749  83030272.89148
        50.0004         48.0004
  21836329.7814                   21836321.1004  114750739.62748  89416144.89948
        45.0004         45.0004
  23735660.9554                   23735652.3274  124731791.87545  97193602.82945
        36.0004         36.0004
  21835724.2574                   21835714.6964  114747610.14348  89413740.71148
        47.0004         45.0004
  20385579.7324                   20385568.4814  107127050.10149  83475636.25349
        49.0004         49.0004
  23434186.5754                   23434178.7344  123147519.44146  95959084.79945
        39.0004         38.0004
  21951785.1184                   21951775.9094  115357468.14248  89888904.41547
        46.0004         44.0004
  21800662.9504                   21800654.8484  114563315.91448  89270114.55848
        47.0004         45.0004
 04  3  1  2 11 30.0000000  0  8G15G31G21G18G22G 9G14G 3
  20284860.1744                   20284851.5234  106597743.50049  83063180.21048
        49.0004         48.0004
  21833600.3674                   21833591.6864  114736396.58348  89404968.52747
        46.0004         44.0004
  23755350.9054                   23755342.2614  124835263.26045  97274229.87845
        38.0004         36.0004
  21849797.5094                   21849787.9484  114821565.51648  89471368.26448
        46.0004         45.0004
  20388622.3204                   20388611.0694  107143039.07149  83488095.20549
        49.0004         49.0004
  23428336.4784                   23428328.6124  123116776.97546  95935129.65445
        39.0004         38.0004
  21934783.2834                   21934774.0754  115268123.08648  89819284.93447
        46.0004         44.0004
  21811849.9124                   21811841.8114  114622103.73348  89315923.23948
        47.0004         45.0004
 04  3  1  2 12  0.0000000  0  8G15G31G21G18G22G 9G14G 3
  20292983.2434                   20292974.5924  106640430.51849  83096442.81748
        49.0004         48.0004
  21830988.6454                   21830979.9784  114722672.01948  89394274.08248
        47.0004         45.0004
  23775071.7534                   23775063.1124  124938897.01745  97354983.46545
        37.0004         36.0004
  21863915.0874                   21863905.5124  114895753.95248  89529177.45548
        46.0004         45.0004
  20391736.9624                   20391725.7114  107159406.68849  83500849.20649
        50.0004         49.0004
  23422598.6214                   23422590.7314  123086624.64546  95911634.42545
        40.0004         38.0004
  21917851.7344                   21917842.5134  115179147.32248  89749953.20647
        45.0004         44.0004
  21823127.2504                   21823119.1474  114681366.54948  89362102.04648
        47.0004         45.0004
 04  3  1  2 12 30.0000000  0  8G15G31G21G18G22G 9G14G 3
  20301163.5354                   20301154.8844  106683418.30348  83129939.81148
        48.0004         48.0004
  21828465.2974                   21828456.6024  114709411.86148  89383941.52948
        46.0004         45.0004
  23794793.8824                   23794785.2834  125042537.06645  97435741.83745
        36.0004         36.0004
  21878047.3064                   21878037.7184  114970019.26448  89587046.53647
        47.0004         44.0004
  20394894.0494                   20394882.7994  107175997.35749  83513777.01549
        50.0004         49.0004
  23416943.9874                   23416936.0854  123056909.46946  95888479.78245
        40.0004         38.0004
  21900961.4844                   21900952.2494  115090388.51948  89680790.52348
        46.0004         45.0004
  21834465.1684                   21834457.0674  114740947.64348  89408528.86848
        46.0004         45.0004
 04  3  1  2 13  0.0000000  0  8G15G31G21G18G22G 9G14G 3
  20309461.0704                   20309452.4184  106727022.20949  83163916.88648
        49.0004         48.0004
  21826090.4614                   21826081.7534  114696932.07848  89374217.04648
        45.0004         45.0004
  23814576.9664                   23814568.4454  125146498.00245  97516750.32644
        37.0004         35.0004
  21892254.0344                   21892244.4454  115044676.12148  89645220.71048
        46.0004         45.0004
  20398153.4814                   20398142.2184  107193125.78549  83527123.85449
        50.0004         49.0004
  23411432.9474                   23411425.0084  123027948.88046  95865913.15645
        39.0004         38.0004
  21884172.9564                   21884163.7044  115002164.45748  89612044.54947
        46.0004         44.0004
  21845923.2944                   21845915.1934  114801160.44148  89455447.91648
        47.0004         45.0004
 04  3  1  2 13 30.0000000  0  8G15G31G21G18G22G 9G14G 3
  20317846.6544                   20317838.0034  106771088.74749  83198254.45548
        49.0004         48.0004
  21823835.0694                   21823826.3464  114685079.97148  89364981.65747
        46.0004         44.0004
  23834391.7294                   23834383.2094  125250625.47045  97597888.65845
        37.0004         36.0004
  21906505.7774                   21906496.1754  115119569.53848  89703579.22447
        46.0004         44.0004
  20401485.9554                   20401474.6934  107210638.12049  83540769.84449
        50.0004         49.0004
  23406036.6284                   23406028.6784  122999591.34746  95843816.46345
        40.0004         38.0004
  21867457.5934                   21867448.3154  114914324.63348  89543597.95147
        46.0004         44.0004
  21857472.0684                   21857463.9654  114861849.65748  89502738.20748
        46.0004         45.0004
 04  3  1  2 14  0.0000000  0  8G15G31G21G18G22G 9G14G 3
  20326318.3984                   20326309.7464  106815608.06349  83232944.82748
        49.0004         48.0004
  21821697.4284                   21821688.6934  114673846.65548  89356228.44748
        46.0004         45.0004
  23854236.1554                   23854227.6194  125354908.63045  97679148.26444
        36.0004         35.0004
  21920800.5444                   21920790.9254  115194689.17048  89762114.02448
        46.0004         45.0004
  20404889.5754                   20404878.2984  107228524.32549  83554707.16349
        50.0004         49.0004
  23400753.6584                   23400745.6664  122971829.27646  95822183.72345
        39.0004         38.0004
  21850813.9194                   21850804.6424  114826861.72748  89475445.07947
        46.0004         44.0004
  21869109.3524                   21869101.2634  114923004.00148  89550390.93748
        47.0004         45.0004
 04  3  1  2 14 30.0000000  0  8G15G31G21G18G22G 9G14G 3
  20334877.4554                   20334868.8024  106860586.27749  83267992.79248
        49.0004         48.0004
  21819678.8124                   21819670.0764  114663238.82148  89347962.61347
        46.0004         44.0004
  23874111.2864                   23874102.7494  125459352.96245  97760533.41345
        37.0004         36.0004
  21935139.3034                   21935129.6864  115270039.85848  89820828.85148
        46.0004         45.0004
  20408365.3844                   20408354.1214  107246789.88449  83568940.07849
        50.0004         49.0004
  23395585.5204                   23395577.5164  122944670.65246  95801021.20345
        40.0004         38.0004
  21834243.6314                   21834234.3374  114739784.45948  89407592.70347
        46.0004         44.0004
  21880835.9864                   21880827.9124  114984627.75148  89598409.41348
        47.0004         45.0004
 04  3  1  2 15  0.0000000  0  8G15G31G21G18G22G 9G14G 3
  20343521.5464                   20343512.9054  106906011.34349  83303388.94848
        49.0004         48.0004
  21817777.1014                   21817768.3524  114653245.38548  89340175.55948
        46.0004         45.0004
  23894014.6554                   23894006.1234  125563945.43545  97842033.96644
        37.0004         35.0004
  21949519.6044                   21949509.9614  115345608.85248  89879713.79947
        46.0004         44.0004
  20411911.0184                   20411899.7394  107265422.38049  83583458.91749
        50.0004         49.0004
  23390530.3634                   23390522.3774  122918105.75046  95780321.31345
        40.0004         38.0004
  21817744.9924                   21817735.6844  114653083.65048  89340033.66547
        46.0004         44.0004
  21892649.3194                   21892641.2454  115046707.23348  89646783.03848
        47.0004         45.0004
 04  3  1  2 15 30.0000000  0  8G15G31G21G18G22G 9G14G 3
  20352252.1584                   20352243.5174  106951891.01749  83339139.34748
        49.0004         48.0004
  21815993.9264                   21815985.1744  114643874.79948  89332873.80547
        45.0004         44.0004
  23913947.4824                   23913938.9144  125668693.08945  97923655.53445
        37.0004         36.0004
  21963942.6934                   21963933.0504  115421402.69348  89938773.93647
        46.0004         44.0004
  20415527.8974                   20415516.6214  107284429.27349  83598269.50349
        50.0004         49.0004
  23385589.9814                   23385581.9544  122892144.11746  95760091.54545
        39.0004         38.0004
  21801320.0124                   21801310.7194  114566769.92748  89272776.24047
        46.0004         44.0004
  21904550.5044                   21904542.4424  115109248.44948  89695516.44948
        46.0004         45.0004
 04  3  1  2 16  0.0000000  0  9G11G15G31G21G18G22G 9G14G 3
  25008476.7914                                  131420431.11654
        33.0004
  20361068.0964                   20361059.4424  106998219.08649  83375239.14748
        49.0004         48.0004
  21814328.2554                   21814319.5044  114635121.76347  89326053.28847
        44.0004         44.0004
  23933908.5284                   23933899.9584  125773588.84045  98005392.42644
        37.0004         34.0004
  21978407.2264                   21978397.5814  115497414.39148  89998003.83747
        47.0004         44.0004
  20419214.8124                   20419203.5234  107303804.14149  83613366.81649
        51.0004         49.0004
  23380763.6294                   23380755.5494  122866781.71446  95740328.72445
        39.0004         38.0004
  21784968.0244                   21784958.7174  114480839.77148  89205817.71147
        46.0004         44.0004
  21916538.0734                   21916530.0114  115172243.48348  89744603.48148
        46.0004         45.0004
 04  3  1  2 16 30.0000000  0  9G11G15G31G21G18G22G 9G14G 3
  24988630.1404                                  131316133.82444
        33.0004
  20369970.8644                   20369962.2094  107045003.51049  83411694.55448
        49.0004         48.0004
  21812781.7284                   21812772.9924  114626994.83747  89319720.64447
        44.0004         44.0004
  23953899.0074                   23953890.4264  125878639.76945  98087250.36045
        36.0004         36.0004
  21992914.5734                   21992904.9174  115573650.95348  90057408.95247
        45.0004         44.0004
  20422973.2014                   20422961.9124  107323554.67249  83628756.85349
        50.0004         49.0004
  23376053.1714                   23376045.0904  122842028.46846  95721040.55945
        40.0004         38.0004
  21768691.0444                   21768681.7374  114395303.85348  89139166.38848
        46.0004         45.0004
  21928613.1754                   21928605.1294  115235698.45048  89794048.88148
        46.0004         45.0004
 04  3  1  2 17  0.0000000  0  9G11G15G31G21G18G22G 9G14G 3
  24968790.1174                                  131211872.92044
        34.0004
  20378959.1304                   20378950.4744  107092237.22849  83448500.05948
        49.0004         48.0004
  21811353.1784                   21811344.4904  114619487.81647  89313871.04247
        44.0004         44.0004
  23973917.5254                   23973909.0014  125983837.97945  98169223.01744
        37.0004         35.0004
  22007463.2734                   22007453.6194  115650104.88548  90116983.45347
        46.0004         44.0004
  20426801.5944                   20426790.2924  107343673.01249  83644433.49349
        50.0004         49.0004
  23371457.7324                   23371449.6234  122817879.46146  95702223.20245
        39.0004         38.0004
  21752488.2644                   21752478.9444  114310157.73148  89072818.78548
        46.0004         45.0004
  21940774.1634                   21940766.1034  115299604.80848  89843846.03847
        47.0004         44.0004
 04  3  1  2 17 30.0000000  0  9G11G15G31G21G18G22G 9G14G 3
  24948987.2524                                  131107808.72745
        36.0004
  20388063.0244                   20388054.3674  107140078.51149  83485778.98048
        49.0004         48.0004
  21810072.8634                   21810064.1604  114612759.77948  89308628.43147
        45.0004         44.0004
  23993994.2374                   23993985.7554  126089341.37445  98251433.34444
        37.0004         35.0004
  22022083.2854                   22022073.6184  115726933.56748  90176849.97147
        46.0004         44.0004
  20430730.1264                   20430718.8234  107364317.64749  83660520.23349
        51.0004         50.0004
  23367007.7564                   23366999.6624  122794495.05146  95684001.66645
        40.0004         38.0004
  21736390.3094                   21736380.9614  114225562.59348  89006900.54648
        47.0004         45.0004
  21953050.8654                   21953042.8074  115364119.25348  89894117.02447
        47.0004         44.0004
 04  3  1  2 18  0.0000000  0  9G11G15G31G21G18G22G 9G14G 3
  24929162.6644                                  131003629.94145
        36.0004
  20397222.8754                   20397214.2194  107188213.92149  83523287.10348
        49.0004         48.0004
  21808881.2504                   21808872.5324  114606498.00148  89303749.16447
        46.0004         44.0004
  24014069.0094                   24014060.5594  126194835.32645  98333636.49944
        37.0004         34.0004
  22036714.7504                   22036705.0964  115803822.49548  90236763.42547
        47.0004         44.0004
  20434699.0474                   20434687.7454  107385174.53249  83676772.36749
        50.0004         49.0004
  23362644.0514                   23362635.9624  122771563.75346  95666133.16945
        41.0004         38.0004
  21720338.0714                   21720328.7094  114141207.70048  88941169.50947
        46.0004         44.0004
  21965383.2804                   21965375.2194  115428926.53048  89944616.19148
        46.0004         45.0004
 04  3  1  2 18 30.0000000  0  9G11G15G31G21G18G22G 9G14G 3
  24909346.0694                                  130899493.53045
        36.0004
  20406468.2244                   20406459.5534  107236798.55849  83561145.26248
        49.0004         48.0004
  21807807.9714                   21807799.2514  114600857.94148  89299354.31647
        45.0004         44.0004
  24034171.4054                   24034162.8844  126300474.18845  98415952.53444
        36.0004         35.0004
  22051387.0594                   22051377.3914  115880926.06248  90296844.14647
        46.0004         44.0004
  20438737.7714                   20438726.4564  107406398.23249  83693310.33649
        50.0004         49.0004
  23358396.3734                   23358388.2594  122749242.18046  95648739.78745
        40.0004         38.0004
  21704361.5854                   21704352.2104  114057250.82748  88875748.60448
        47.0004         45.0004
  21977800.6064                   21977792.5464  115494180.02148  89995463.07048
        46.0004         45.0004
 04  3  1  2 19  0.0000000  0  9G11G15G31G21G18G22G 9G14G 3
  24889538.4024                                  130795405.34844
        35.0004
  20415799.7284                   20415791.0714  107285835.94049  83599356.20848
        49.0004         48.0004
  21806853.8384                   21806845.1184  114595844.06348  89295447.42847
        46.0004         44.0004
  24054302.0084                   24054293.5384  126406260.91145  98498383.63144
        36.0004         35.0004
  22066100.6934                   22066091.0374  115958246.73048  90357094.00547
        45.0004         44.0004
  20442846.9824                   20442835.6824  107427992.34649  83710136.92949
        50.0004         49.0004
  23354265.7894                   23354257.6474  122727536.00046  95631825.93145
        40.0004         38.0004
  21688462.0494                   21688452.6484  113973698.32548  88810642.80748
        47.0004         45.0004
  21990303.2204                   21990295.1604  115559881.63448  90046659.12147
        46.0004         44.0004
 04  3  1  2 19 30.0000000  0  9G11G15G31G21G18G22G 9G14G 3
  24869798.2884                                  130691672.79045
        36.0004
  20425275.4624                   20425266.8064  107335631.32349  83638157.81948
        49.0004         48.0004
  21806077.1124                   21806068.3814  114591762.40548  89292266.94348
        47.0004         45.0004
  24074518.6214                   24074510.1174  126512500.18245  98581167.51844
        37.0004         34.0004
  22080913.5984                   22080903.9574  116036089.20048  90417750.49847
        45.0004         44.0004
  20447084.6924                   20447073.3784  107450261.66049  83727489.65149
        50.0004         49.0004
  23350310.8194                   23350302.6364  122706752.61846  95615631.13545
        39.0004         38.0004
  21672698.0464                   21672688.6314  113890858.11748  88746092.04148
        46.0004         45.0004
  22002948.8524                   22002940.7934  115626334.88248  90098440.87247
        46.0004         44.0004
 04  3  1  2 20  0.0000000  0  9G11G15G31G21G18G22G 9G14G 3
  24849980.3294                                  130587529.46045
        36.0004
  20434749.1144                   20434740.4574  107385415.76249  83676950.89948
        49.0004         47.0004
  21805331.5624                   21805322.8314  114587844.57748  89289214.10547
        46.0004         44.0004
  24094674.8074                   24094666.2714  126618421.77845  98663703.85344
        36.0004         34.0004
  22095679.3814                   22095669.7274  116113683.91248  90478213.91847
        46.0004         43.0004
  20451304.4964                   20451293.1824  107472436.94349  83744769.10549
        50.0004         49.0004
  23346385.5324                   23346377.3484  122686125.28546  95599557.92645
        40.0004         38.0004
  21656923.8104                   21656914.3984  113807964.07248  88681499.31748
        47.0004         45.0004
  22015590.8634                   22015582.7904  115692769.03648  90150207.73947
        46.0004         44.0004
 04  3  1  2 20 30.0000000  0  9G11G15G31G21G18G22G 9G14G 3
  24830230.1574                                  130483743.10645
        36.0004
  20444366.4464                   20444357.7744  107435955.18149  83716332.26948
        49.0004         48.0004
  21804763.0424                   21804754.2974  114584857.04648  89286886.18048
        46.0004         45.0004
  24114916.1894                   24114907.6674  126724790.95844  98746588.92044
        35.0004         34.0004
  22110543.6264                   22110533.9724  116191796.04648  90539080.51947
        46.0004         43.0004
  20455652.1334                   20455640.8064  107495283.93249  83762571.96249
        50.0004         49.0004
  23342635.9754                   23342627.7654  122666421.35346  95584204.25945
        40.0004         38.0004
  21641285.6044                   21641276.1774  113725784.99648  88617463.73048
        47.0004         45.0004
  22028374.6284                   22028366.5554  115759948.17048  90202555.11847
        46.0004         44.0004
 04  3  1  2 21  0.0000000  0  9G11G15G31G21G18G22G 9G14G 3
  24810460.4664                                  130379853.61545
        36.0004
  20454039.4454                   20454030.7744  107486787.13549  83755941.58848
        49.0004         48.0004
  21804283.6444                   21804274.9004  114582337.91748  89284923.25148
        47.0004         45.0004
  24135154.7214                   24135146.2644  126831144.97244  98829462.09244
        35.0004         34.0004
  22125418.0994                   22125408.4314  116269962.05648  90599989.12847
        45.0004         43.0004
  20460039.4994                   20460028.1714  107518339.75449  83780537.54849
        50.0004         49.0004
  23338974.5264                   23338966.3054  122647180.49546  95569211.44345
        40.0004         38.0004
  21625695.9254                   21625686.4734  113643860.80848  88553626.74748
        47.0004         46.0004
  22041211.8744                   22041203.8004  115827408.29148  90255121.42947
        46.0004         44.0004
 04  3  1  2 21 30.0000000  0  9G11G15G31G21G18G22G 9G14G 3
  24790759.3234                                  130276323.90845
        36.0004
  20463855.7834                   20463847.1124  107538372.33649  83796137.84948
        49.0004         48.0004
  21803981.2044                   21803972.4724  114580748.71048  89283684.92448
        46.0004         45.0004
  24155477.7844                   24155469.3184  126937943.45545  98912681.72744
        36.0004         34.0004
  22140390.4284                   22140380.7864  116348642.17548  90661298.29447
        46.0004         43.0004
  20464554.2774                   20464542.9384  107542065.07349  83799024.82749
        50.0004         49.0004
  23335489.1344                   23335480.9114  122628865.13746  95554939.83945
        39.0004         38.0004
  21610242.9754                   21610233.5094  113562655.25748  88490349.75848
        46.0004         45.0004
  22054189.9174                   22054181.8424  115895608.36948  90308264.34247
        46.0004         44.0004
 04  3  1  2 22  0.0000000  0  9G11G15G31G21G18G22G 9G14G 3
  24770981.2794                                  130172390.71445
        36.0004
  20473669.7614                   20473661.0894  107589945.20149  83836324.50748
        49.0004         48.0004
  21803710.1394                   21803701.3924  114579324.37948  89282575.08548
        46.0004         45.0004
  24175739.6224                   24175731.1244  127044419.94245  98995650.37344
        37.0004         34.0004
  22155314.7524                   22155305.0944  116427070.08748  90722410.96447
        46.0004         44.0004
  20469050.6734                   20469039.3344  107565693.85549  83817436.87849
        50.0004         49.0004
  23332034.5574                   23332026.3214  122610711.59046  95540794.30546
        40.0004         39.0004
  21594781.6244                   21594772.1574  113481405.55848  88427038.35348
        47.0004         45.0004
  22067162.8064                   22067154.7184  115963781.36348  90361386.16347
        46.0004         44.0004
