     2.10           OBSERVATION DATA    G (GPS)             RINEX VERSION / TYPE
teqc  2002Mar14                         20040302 01:27:28UTCPGM / RUN BY / DATE
HP-UX 10.20|PA-RISC|cc A.10.32.03|=+|=|                     COMMENT
teqc  2002Mar14     GRD/NGS/NOAA        20040302 01:24:42UTCCOMMENT
BIT 2 OF LLI FLAGS DATA COLLECTED UNDER A/S CONDITION       COMMENT
CC2nonCC ESOC Version 6.5, 21 Mar 2012                      COMMENT
CC2nonCC executed 20151123 090140.588                       COMMENT
CC C1, P2 converted to non-CC type                          COMMENT
 average P1-C1 biases applied by CC2nonCC by PRN (ps):      COMMENT
    49          83  1603  -814   652  -551  -447   516 -1531COMMENT
   775        1649   460  -880  -283  -808   141 -5558  -931COMMENT
  -171   683         375   779  1373    84  -124   942  2124COMMENT
  -193                                                      COMMENT
MANA                                                        MARKER NAME
41201S001                                                   MARKER NUMBER
G. Medina           INETER                                  OBSERVER / AGENCY
3935A26606          TRIMBLE 4000SSI     7.29                REC # / TYPE / VERS
0220191257          TRM29659.00     UNAV                    ANT # / TYPE
   408026.0542 -6223016.5795  1333566.9255                  APPROX POSITION XYZ
        0.0000        0.0000        0.0000                  ANTENNA: DELTA H/E/N
     1     1                                                WAVELENGTH FACT L1/2
     9    C1    L1    L2    P1    P2    D1    D2    S1    S2# / TYPES OF OBSERV
    30.0000                                                 INTERVAL
 SNR is mapped to RINEX snr flag value [1-9]                COMMENT
  L1: 3 -> 1; 8 -> 5; 40 -> 9                               COMMENT
  L2: 1 -> 1; 5 -> 5; 60 -> 9                               COMMENT
teqc windowed: delta = 86400.000 sec                        COMMENT
Forced Modulo Decimation to 30 seconds                      COMMENT
  2004     3     1     0     0    0.0000000     GPS         TIME OF FIRST OBS
                                                            END OF HEADER
  4  3  1  0  0  0.0000000  0  9G26G22G18G 6G17G 9G29G30G21
  21903667.3444   -6224350.45646  -4005782.60746         0.000    21903671.3414
     -3773.2944          0.000          17.0004         15.2504
  24497590.2414    -223389.46844    -77992.66845         0.000    24497596.7214
       277.8214          0.000           7.2504          5.2504
  22784561.0344   -4379937.20946    555264.44746         0.000    22784565.3104
      -384.4834          0.000          16.0004         12.7504
  20782409.7144  -14938404.52247 -11484388.24446         0.000    20782414.3694
     -1601.3904          0.000          26.0004         24.0004
  22273727.6884    2661458.34345    456511.62545         0.000    22273732.6454
     -1534.1644          0.000          11.2504         11.2504
  22093173.6344  -11009844.38646  -6589404.68446         0.000    22093179.5704
      1398.8674          0.000          18.5004         17.0004
  23821749.6114    7892301.10345   6249705.35745         0.000    23821753.2034
     -3887.7124          0.000           8.7504          9.2504
  24487188.4334    9763634.08145   4817474.55745         0.000    24487205.7334
     -1447.0924          0.000           8.2504          8.0004
  22320186.6774   -9905467.95146  -7077556.18046         0.000    22320189.6774
      1993.1704          0.000          17.7504         14.7504
  4  3  1  0  0 30.0000000  0  9G26G22G18G 6G17G 9G29G30G21
  21925232.7814   -6111023.53846  -3917475.91246         0.000    21925236.4044
     -3781.9134          0.000          17.5004         15.2504
  24496012.3204    -231680.71043    -84453.30245         0.000    24496017.9474
       274.8064          0.000           5.2504          4.7504
  22786756.6874   -4368398.52046    564255.65746         0.000    22786761.1874
      -384.8684          0.000          14.2504         12.5004
  20791597.0364  -14890124.79347 -11446767.67946         0.000    20791601.8084
     -1617.3824          0.000          26.2504         24.2504
  22282520.5914    2707665.55246    492517.24245         0.000    22282525.4354
     -1546.4614          0.000          12.5004         11.0004
  22085210.9444  -11051688.08246  -6622010.06446         0.000    22085216.0704
      1390.5674          0.000          19.2504         16.7504
  23843948.0424    8008954.38245   6340604.01045         0.000    23843952.7464
     -3889.2724          0.000           8.5004          8.7504
  24495424.8974    9806916.19045   4851200.69945         0.000    24495443.9874
     -1438.5014          0.000           7.5004          7.2504
  22308809.5214   -9965254.91646  -7124143.33146         0.000    22308813.1154
      1992.4924          0.000          17.7504         14.5004
  4  3  1  0  1  0.0000000  0  9G26G22G18G 6G17G 9G29G30G21
  21946848.8964   -5997430.31646  -3828961.70746         0.000    21946852.7794
     -3790.8444          0.000          17.2504         14.7504
  24494453.1904    -239873.18443    -90836.79545         0.000    24494459.2094
       271.4704          0.000           5.5004          5.0004
  22788955.9914   -4356840.47146    573262.02246         0.000    22788960.3564
      -385.5574          0.000          15.2504         12.5004
  20800877.0844  -14841357.97647 -11408767.55246         0.000    20800881.5804
     -1633.6554          0.000          27.2504         25.0004
  22291385.4654    2754250.69746    528817.34645         0.000    22291389.5624
     -1559.1414          0.000          12.2504         11.2504
  22077297.5324  -11093272.83046  -6654413.66946         0.000    22077303.3494
      1381.8124          0.000          19.5004         17.7504
  23866156.6934    8125662.38345   6431545.33445         0.000    23866161.6924
     -3891.1354          0.000           7.5004          7.0004
  24503613.7604    9849948.51644   4884732.24845         0.000    24503632.9514
     -1430.1994          0.000           7.2504          7.5004
  22297438.0904  -10025011.81846  -7170707.07046         0.000    22297441.1344
      1991.3704          0.000          18.0004         14.7504
  4  3  1  0  1 30.0000000  0  9G26G22G18G 6G17G 9G29G30G21
  21968514.9414   -5883574.61146  -3740242.96646         0.000    21968518.7374
     -3799.5404          0.000          17.5004         15.2504
  24492912.4654    -247969.34344    -97145.27445         0.000    24492919.8494
       268.2504          0.000           6.5004          4.7504
  22791158.6694   -4345265.19146    582281.76246         0.000    22791162.1944
      -386.1264          0.000          14.7504         12.7504
  20810249.4274  -14792106.23347 -11370389.57046         0.000    20810254.4604
     -1649.8024          0.000          26.7504         25.0004
  22300322.3744    2801214.28946    565412.37745         0.000    22300327.2464
     -1571.7924          0.000          13.0004         11.2504
  22069433.8894  -11134596.10447  -6686613.50446         0.000    22069439.8854
      1373.0384          0.000          20.0004         18.0004
  23888375.2374    8242421.91045   6522526.81645         0.000    23888380.2764
     -3892.8134          0.000           7.7504          8.2504
  24511754.7814    9892729.25345   4918067.74145         0.000    24511772.2434
     -1421.8514          0.000           8.0004          6.7504
  22286072.7034  -10084737.14346  -7217246.19646         0.000    22286075.6554
      1990.2804          0.000          18.5004         14.7504
  4  3  1  0  2  0.0000000  0  9G26G22G18G 6G17G 9G29G30G21
  21990230.0484   -5769460.86446  -3651323.15646         0.000    21990234.4604
     -3808.0944          0.000          16.2504         14.2504
  24491389.5374    -255971.57045   -103380.61445         0.000    24491394.3434
       265.1474          0.000           7.5004          6.7504
  22793364.1234   -4333675.16146    591313.02946         0.000    22793368.0984
      -386.6084          0.000          14.5004         12.0004
  20819713.3994  -14742372.90347 -11331636.31646         0.000    20819717.7994
     -1665.8464          0.000          27.5004         25.2504
  22309331.2554    2848556.08246    602302.08945         0.000    22309336.8224
     -1584.4164          0.000          12.5004         11.5004
  22061620.3764  -11175656.08947  -6718608.20246         0.000    22061626.2374
      1364.1884          0.000          20.7504         18.2504
  23910602.8444    8359229.13744   6613545.47845         0.000    23910607.7804
     -3894.3714          0.000           7.0004          7.7504
  24519847.4634    9935255.85745   4951205.24545         0.000    24519863.8784
     -1413.3264          0.000           8.0004          6.5004
  22274713.4734  -10144430.03046  -7263760.03946         0.000    22274716.5624
      1989.1664          0.000          18.5004         14.7504
  4  3  1  0  2 30.0000000  0  9G26G22G18G 6G17G 9G29G30G21
  22011994.8164   -5655086.07946  -3562199.94646         0.000    22011999.6114
     -3816.7514          0.000          16.2504         14.7504
  24489885.4914    -263874.52645   -109538.55345         0.000    24489891.8794
       261.8544          0.000           7.7504          6.0004
  22795573.4024   -4322065.26246    600359.79046         0.000    22795577.0794
      -387.2404          0.000          15.7504         12.7504
  20829269.9394  -14692152.88247 -11292503.82346         0.000    20829274.8104
     -1682.0164          0.000          26.0004         24.7504
  22318413.4984    2896283.36146    639492.17945         0.000    22318420.3264
     -1597.2684          0.000          12.0004         11.2504
  22053858.7924  -11216443.02047  -6750390.11846         0.000    22053864.4364
      1355.0384          0.000          20.0004         18.0004
  23932840.3764    8476088.20045   6704604.48345         0.000    23932846.1144
     -3896.0884          0.000           7.5004          7.5004
  24527892.6834    9977533.54745   4984148.71445         0.000    24527910.5024
     -1405.0294          0.000           7.5004          7.0004
  22263362.0254  -10204081.94146  -7310241.96946         0.000    22263365.4254
      1987.7364          0.000          17.7504         15.2504
  4  3  1  0  3  0.0000000  0  9G26G22G18G 6G17G 9G29G30G21
  22033806.8214   -5540463.22046  -3472883.42446         0.000    22033811.0094
     -3824.9044          0.000          17.0004         14.5004
  24488398.1694    -271689.91945   -115628.24845         0.000    24488405.9584
       259.0074          0.000           7.7504          5.7504
  22797784.2104   -4310447.04746    609413.02446         0.000    22797789.8094
      -387.4504          0.000          14.2504         12.5004
  20838916.7504  -14641458.34847 -11253001.58346         0.000    20838921.5804
     -1697.7604          0.000          25.5004         24.7504
  22327567.3294    2944387.31245    676975.78245         0.000    22327573.6004
     -1609.8174          0.000          11.0004         11.2504
  22046147.8944  -11256963.70047  -6781964.56846         0.000    22046152.8684
      1346.1614          0.000          21.7504         18.5004
  23955085.3914    8592986.78945   6795694.31745         0.000    23955092.6944
     -3897.3214          0.000           8.0004          8.0004
  24535888.4234   10019551.16245   5016889.61445         0.000    24535907.3514
     -1396.2904          0.000           7.7504          8.2504
  22252017.0264  -10263699.88446  -7356697.41046         0.000    22252020.8404
      1986.6264          0.000          17.5004         14.7504
  4  3  1  0  3 30.0000000  0  9G26G22G18G 6G17G 9G29G30G21
  22055667.4474   -5425584.75746  -3383367.72546         0.000    22055671.4774
     -3833.4044          0.000          16.2504         14.0004
  24486929.3174    -279407.97545   -121642.18645         0.000    24486934.7954
       255.7644          0.000           7.7504          7.0004
  22799998.4124   -4298810.73346    618480.36846         0.000    22800002.9304
      -388.0744          0.000          14.7504         12.7504
  20848655.6514  -14590279.90847 -11213122.27346         0.000    20848660.8224
     -1713.8984          0.000          26.2504         24.2504
  22336795.0894    2992879.87945    714762.20145         0.000    22336800.0454
     -1622.8094          0.000          11.2504         10.7504
  22038490.3354  -11297204.10347  -6813320.63046         0.000    22038496.1574
      1336.7344          0.000          20.2504         18.2504
  23977339.5794    8709933.18245   6886821.40645         0.000    23977346.2004
     -3898.8934          0.000           8.0004          8.7504
  24543836.5434   10061318.44245   5049435.45445         0.000    24543854.3914
     -1387.9514          0.000           8.0004          8.0004
  22240680.8894  -10323271.03846  -7403116.41546         0.000    22240684.1674
      1984.9954          0.000          16.7504         14.5004
  4  3  1  0  4  0.0000000  0  9G26G22G18G 6G17G 9G29G30G21
  22077575.1244   -5310459.20246  -3293659.50546         0.000    22077579.2674
     -3841.6164          0.000          16.0004         14.0004
  24485477.7044    -287035.57945   -127585.57445         0.000    24485483.3194
       252.7314          0.000           9.0004          6.7504
  22802214.8914   -4287162.67146    627556.86546         0.000    22802218.8704
      -388.4564          0.000          14.5004         12.5004
  20858485.3434  -14538624.48647 -11172871.29446         0.000    20858490.4244
     -1729.7774          0.000          27.0004         24.7504
  22346095.9384    3041756.47746    752847.83945         0.000    22346102.0144
     -1635.6564          0.000          12.2504         10.5004
  22030885.7244  -11337166.25046  -6844459.84046         0.000    22030891.6544
      1327.3874          0.000          19.5004         18.2504
  23999601.3004    8826919.72644   6977979.77245         0.000    23999607.1024
     -3900.1944          0.000           6.7504          8.0004
  24551735.8604   10102829.01245   5081781.34645         0.000    24551753.6184
     -1379.4014          0.000           8.2504          7.2504
  22229353.1924  -10382798.00746  -7449500.97846         0.000    22229356.5104
      1983.4614          0.000          18.2504         14.5004
  4  3  1  0  4 30.0000000  0  9G26G22G18G 6G17G 9G29G30G21
  22099528.9774   -5195090.74046  -3203761.99246         0.000    22099533.3094
     -3849.4104          0.000          15.7504         14.0004
  24484042.8714    -294574.90945   -133460.19745         0.000    24484050.3064
       250.0594          0.000           9.7504          6.7504
  22804433.0934   -4275505.43046    636640.50846         0.000    22804437.1784
      -388.5104          0.000          15.2504         13.0004
  20868405.2784  -14486495.06047 -11132250.95346         0.000    20868410.1134
     -1745.3314          0.000          27.7504         25.2504
  22355469.9924    3091017.41545    791232.97645         0.000    22355475.8914
     -1648.2594          0.000          11.7504         11.2504
  22023334.4464  -11376847.97246  -6875380.56246         0.000    22023339.7174
      1318.2124          0.000          19.5004         17.2504
  24021870.0794    8943943.02044   7069166.78145         0.000    24021872.5434
     -3901.1684          0.000           7.2504          8.0004
  24559585.9064   10144080.64845   5113925.33545         0.000    24559601.3874
     -1370.5184          0.000           8.7504          7.5004
  22218034.1844  -10442279.50746  -7495850.10946         0.000    22218036.9974
      1982.1284          0.000          18.7504         15.7504
  4  3  1  0  5  0.0000000  0  9G26G22G18G 6G17G 9G29G30G21
  22121528.3714   -5079483.01646  -3113678.03646         0.000    22121532.2254
     -3857.8564          0.000          15.2504         14.0004
  24482624.5654    -302027.80445   -139267.40745         0.000    24482630.7024
       246.6924          0.000          11.5004          6.0004
  22806652.7584   -4263840.74246    645729.95446         0.000    22806658.3664
      -389.2384          0.000          15.5004         13.0004
  20878414.9214  -14433894.00047 -11091263.10846         0.000    20878420.0674
     -1761.5164          0.000          26.5004         24.5004
  22364917.2504    3140662.82946    829917.73845         0.000    22364923.1304
     -1661.5394          0.000          13.0004         11.0004
  22015837.0764  -11416246.50546  -6906080.60846         0.000    22015842.7044
      1308.2294          0.000          19.5004         17.7504
  24044145.3644    9061000.35245   7160380.33245         0.000    24044150.5364
     -3902.7864          0.000           7.7504          8.0004
  24567386.3534   10185071.87345   5145866.46145         0.000    24567403.9814
     -1362.3234          0.000           9.0004          7.0004
  22206724.1554  -10501713.76946  -7542162.44646         0.000    22206727.3154
      1980.0194          0.000          19.0004         16.0004
  4  3  1  0  5 30.0000000  0  9G26G22G18G 6G17G 9G29G30G21
  22143573.4774   -4963635.08546  -3023406.91046         0.000    22143577.5854
     -3865.7144          0.000          15.2504         13.5004
  24481223.1774    -309391.49945   -145005.19045         0.000    24481228.8144
       243.8284          0.000          10.5004          7.5004
  22808874.4034   -4252165.99446    654827.25946         0.000    22808877.5234
      -389.4714          0.000          16.5004         13.2504
  20888514.7794  -14380818.78447 -11049905.79346         0.000    20888519.7524
     -1777.2054          0.000          26.0004         24.5004
  22374438.6284    3190697.86846    868906.07645         0.000    22374444.9244
     -1674.4964          0.000          12.2504         11.0004
  22008394.9324  -11455354.70346  -6936554.42546         0.000    22008400.0624
      1298.5874          0.000          19.2504         17.2504
  24066427.3004    9178093.40244   7251621.64945         0.000    24066433.6684
     -3903.8144          0.000           6.5004          7.5004
  24575137.8074   10225805.60445   5177607.00645         0.000    24575156.7204
     -1353.6464          0.000           9.0004          8.2504
  22195424.3714  -10561094.26446  -7588432.87446         0.000    22195427.5914
      1978.2744          0.000          19.2504         15.7504
  4  3  1  0  6  0.0000000  0  9G26G22G18G 6G17G 9G29G30G21
  22165663.1414   -4847553.05146  -2932953.35946         0.000    22165667.4504
     -3873.0794          0.000          15.0004         13.5004
  24479837.8694    -316670.32445   -150676.81345         0.000    24479844.5204
       241.4474          0.000          10.5004          7.5004
  22811097.1274   -4240485.31046    663929.15946         0.000    22811101.8874
      -389.2424          0.000          16.0004         13.0004
  20898703.8694  -14327274.64047 -11008183.08246         0.000    20898709.1444
     -1792.4044          0.000          26.0004         24.2504
  22384033.7374    3241120.53046    908196.47545         0.000    22384039.2874
     -1687.0304          0.000          12.2504         10.7504
  22001008.0794  -11494172.32847  -6966801.81246         0.000    22001013.2784
      1289.2414          0.000          20.0004         17.7504
  24088715.1124    9295216.83444   7342886.72245         0.000    24088719.4114
     -3904.4094          0.000           6.7504          7.0004
  24582839.5654   10266277.90945   5209143.81345         0.000    24582856.4494
     -1344.4974          0.000           8.7504          8.5004
  22184134.6994  -10620421.45346  -7634661.75646         0.000    22184138.1704
      1976.8554          0.000          19.2504         15.5004
  4  3  1  0  6 30.0000000  0  9G26G22G18G 6G17G 9G29G30G21
  22187797.3144   -4731237.21446  -2842317.64346         0.000    22187801.6484
     -3881.1444          0.000          15.0004         13.7504
  24478469.0584    -323862.56345   -156280.99245         0.000    24478473.0304
       238.2404          0.000           9.2504          8.0004
  22813321.3784   -4228796.87246    673037.12246         0.000    22813326.1734
      -389.8094          0.000          16.2504         13.5004
  20908982.4614  -14273260.31047 -10966093.99846         0.000    20908987.2644
     -1808.3764          0.000          27.0004         24.7504
  22393703.3234    3291934.70045    947791.91545         0.000    22393709.3214
     -1700.4174          0.000          11.7504         10.7504
  21993677.7414  -11532693.22247  -6996818.00746         0.000    21993682.7754
      1278.9694          0.000          20.2504         17.7504
  24111008.8924    9412371.18845   7434175.82945         0.000    24111012.5764
     -3905.7204          0.000           7.7504          7.2504
  24590491.7314   10306490.47944   5240478.26045         0.000    24590508.8534
     -1336.1604          0.000           7.2504          7.5004
  22172856.2354  -10679689.85946  -7680844.86046         0.000    22172859.5824
      1974.5224          0.000          18.7504         16.0004
  4  3  1  0  7  0.0000000  0  9G26G22G18G 6G17G 9G29G30G21
  22209976.0114   -4614687.32146  -2751499.50846         0.000    22209980.1514
     -3888.7214          0.000          14.7504         13.2504
  24477116.9964    -330966.33145   -161816.16245         0.000    24477125.5104
       235.4444          0.000           9.0004          7.2504
  22815547.5034   -4217098.49946    682152.80846         0.000    22815551.6964
      -389.9854          0.000          16.5004         13.5004
  20919350.8044  -14218774.43947 -10923637.47346         0.000    20919355.6014
     -1823.9194          0.000          26.5004         24.5004
  22403448.2254    3343144.58445    987695.70745         0.000    22403453.7784
     -1713.4584          0.000          11.7504         11.0004
  21986405.1714  -11570910.59147  -7026597.67246         0.000    21986410.3734
      1268.9524          0.000          21.2504         18.2504
  24133308.7584    9529557.55245   7525489.92845         0.000    24133313.8674
     -3906.6064          0.000           8.0004          7.7504
  24598095.0954   10346445.99444   5271612.36845         0.000    24598111.4434
     -1327.4394          0.000           6.5004          6.7504
  22161590.0554  -10738893.77046  -7726977.68946         0.000    22161593.6594
      1972.5054          0.000          19.5004         16.5004
  4  3  1  0  7 30.0000000  0  9G26G22G18G 6G17G 9G29G30G21
  22232197.1064   -4497914.57046  -2660507.73546         0.000    22232201.6834
     -3896.5544          0.000          14.7504         13.0004
  24475780.2364    -337990.94745   -167289.69145         0.000    24475785.4194
       232.3764          0.000           9.7504          7.7504
  22817773.7394   -4205399.54546    691268.97046         0.000    22817777.7194
      -390.4144          0.000          17.5004         14.0004
  20929807.0814  -14163826.39247 -10880820.81646         0.000    20929811.5484
     -1839.7384          0.000          26.5004         24.2504
  22413267.1674    3394743.25746   1027902.42045         0.000    22413273.1294
     -1726.8964          0.000          12.5004         11.0004
  21979189.3764  -11608829.53146  -7056144.79546         0.000    21979195.2814
      1258.5014          0.000          19.5004         18.5004
  24155612.6734    9646765.65744   7616820.92745         0.000    24155616.8104
     -3907.7294          0.000           7.2504          7.7504
  24605647.6504   10386135.14944   5302538.98245         0.000    24605665.3234
     -1318.9834          0.000           6.7504          6.5004
  22150335.0994  -10798038.81247  -7773064.64546         0.000    22150337.7234
      1970.0384          0.000          20.5004         16.5004
  4  3  1  0  8  0.0000000  0  9G26G22G18G 6G17G 9G29G30G21
  22254460.1714   -4380921.08646  -2569343.94846         0.000    22254464.2494
     -3903.4754          0.000          14.5004         13.0004
  24474458.4544    -344936.55145   -172701.62145         0.000    24474462.5744
       230.1564          0.000           8.2504          6.5004
  22819999.9514   -4193700.32846    700385.29246         0.000    22820003.5904
      -390.0304          0.000          16.0004         13.0004
  20940351.0734  -14108417.34647 -10837644.93446         0.000    20940355.8434
     -1854.6864          0.000          26.0004         23.7504
  22423160.3824    3446732.30545   1068413.34045         0.000    22423166.5344
     -1739.5474          0.000          11.2504         11.2504
  21972031.1814  -11646445.72847  -7085456.02146         0.000    21972036.3914
      1248.7454          0.000          21.0004         18.2504
  24177920.6014    9763994.26645   7708167.93845         0.000    24177928.9544
     -3907.9814          0.000           7.7504          7.5004
  24613149.6184   10425558.02144   5333258.06445         0.000    24613168.7894
     -1309.6604          0.000           6.2504          6.7504
  22139092.1114  -10857120.94247  -7819102.58846         0.000    22139095.0204
      1968.2784          0.000          20.0004         16.0004
  4  3  1  0  8 30.0000000  0  9G26G22G18G 6G17G 9G29G30G21
  22276764.9314   -4263708.39946  -2478009.39646         0.000    22276769.7174
     -3910.6024          0.000          13.2504         12.5004
  24473151.5864    -351803.17345   -178052.04645         0.000    24473156.8474
       227.6934          0.000           7.7504          6.2504
  22822226.2864   -4182000.24446    709502.31346         0.000    22822230.4314
      -389.9024          0.000          15.5004         13.5004
  20950982.7154  -14052547.66547 -10794110.11346         0.000    20950987.0224
     -1869.8924          0.000          26.2504         23.7504
  22433128.3654    3499114.18546   1109230.40645         0.000    22433134.2854
     -1752.5224          0.000          12.0004         10.7504
  21964931.5004  -11683754.38446  -7114527.62346         0.000    21964937.6234
      1238.5624          0.000          19.7504         17.7504
  24200232.3294    9881242.55145   7799530.40245         0.000    24200242.6394
     -3908.4724          0.000           8.2504          5.2504
  24620600.9404   10464715.18744   5363770.10845         0.000    24620618.1604
     -1300.6794          0.000           6.2504          7.0004
  22127861.7224  -10916136.69646  -7865088.80746         0.000    22127864.3724
      1966.1644          0.000          19.2504         15.5004
  4  3  1  0  9  0.0000000  0  9G26G22G18G 6G17G 9G29G30G21
  22299110.4354   -4146281.95446  -2386508.25746         0.000    22299115.0474
     -3917.8424          0.000          14.2504         12.5004
  24471859.0024    -358594.45545   -183343.71845         0.000    24471863.0134
       225.0624          0.000           7.7504          6.5004
  22824452.2014   -4170302.63746    718617.37546         0.000    22824455.5874
      -389.9534          0.000          15.5004         13.0004
  20961701.1254  -13996222.02847 -10750220.01946         0.000    20961705.3844
     -1885.2124          0.000          26.0004         23.7504
  22443170.7804    3551887.69745   1150352.61445         0.000    22443176.2814
     -1765.7484          0.000          11.0004         10.2504
  21957890.4764  -11720754.58047  -7143358.83746         0.000    21957896.1994
      1228.0614          0.000          20.0004         18.0004
  24222546.9194    9998506.03645   7890904.44345         0.000    24222551.3254
     -3909.1124          0.000           9.0004          8.7504
  24628001.0834   10503603.37443   5394072.54145         0.000    24628020.2144
     -1291.8564          0.000           5.5004          6.5004
  22116644.0174  -10975085.69947  -7911023.00946         0.000    22116646.7934
      1963.7344          0.000          20.2504         16.0004
  4  3  1  0  9 30.0000000  0  9G26G22G18G 6G17G 9G29G30G21
  22321495.9944   -4028645.09046  -2294843.12646         0.000    22321500.3274
     -3924.6654          0.000          14.7504         13.0004
  24470580.6534    -365311.53245   -188577.68545         0.000    24470586.0054
       222.7154          0.000           8.2504          6.2504
  22826677.3354   -4158608.96746    727729.38546         0.000    22826682.4774
      -389.6614          0.000          14.5004         12.7504
  20972506.0684  -13939441.67147 -10705975.57746         0.000    20972510.6034
     -1900.1684          0.000          26.5004         23.7504
  22453287.8464    3605053.44945   1191780.46245         0.000    22453294.2794
     -1778.6724          0.000          11.2504         10.5004
  21950908.7664  -11757443.30347  -7171947.35846         0.000    21950914.3254
      1217.7754          0.000          20.2504         18.0004
  24244863.9134   10115782.29945   7982288.58645         0.000    24244867.5634
     -3909.3484          0.000           9.0004          8.2504
  24635349.8674   10542221.52644   5424164.62845         0.000    24635372.4124
     -1282.7154          0.000           6.5004          5.7504
  22105439.4914  -11033965.42946  -7956903.23946         0.000    22105442.4984
      1961.5234          0.000          18.7504         16.0004
  4  3  1  0 10  0.0000000  0  9G26G22G18G 6G17G 9G29G30G21
  22343922.4984   -3910793.06846  -2203010.36946         0.000    22343926.4824
     -3931.5874          0.000          14.0004         13.0004
  24469317.5764    -371948.02944   -193748.83445         0.000    24469322.7834
       220.2604          0.000           7.2504          7.2504
  22828903.0064   -4146912.65846    736843.45846         0.000    22828906.1274
      -389.5344          0.000          16.0004         13.2504
  20983398.4854  -13882201.73447 -10661373.04246         0.000    20983402.6804
     -1915.2904          0.000          26.5004         24.0004
  22463481.1784    3658619.92645   1233520.56545         0.000    22463487.1444
     -1791.8864          0.000          10.7504         10.2504
  21943988.3774  -11793809.76947  -7200284.76146         0.000    21943993.1154
      1207.1784          0.000          21.0004         18.0004
  24267184.2554   10233076.67444   8073686.83545         0.000    24267189.1244
     -3909.7124          0.000           7.2504          7.7504
  24642648.5274   10580576.23943   5454051.36044         0.000    24642667.3334
     -1273.7264          0.000           5.5004          3.5004
  22094250.0424  -11092765.84346  -8002721.66746         0.000    22094253.3194
      1959.0304          0.000          18.7504         16.0004
  4  3  1  0 10 30.0000000  0  9G26G22G18G 6G17G 9G29G30G21
  22366386.9084   -3792741.79046  -2111022.33246         0.000    22366390.9004
     -3938.4664          0.000          14.0004         12.7504
  24468067.1094    -378518.17945   -198868.25945         0.000    24468073.5074
       217.7624          0.000           7.5004          6.7504
  22831126.5034   -4135227.60246    745948.75246         0.000    22831130.5024
      -389.4154          0.000          14.7504         12.5004
  20994375.7214  -13824516.04747 -10616423.16146         0.000    20994380.2814
     -1930.3874          0.000          26.0004         24.0004
  22473748.5364    3712575.07946   1275563.51145         0.000    22473754.6994
     -1805.1324          0.000          12.0004         10.5004
  21937127.5594  -11829863.36447  -7228378.38446         0.000    21937132.6624
      1196.4074          0.000          21.0004         18.0004
  24289505.2154   10350374.41744   8165087.71645         0.000    24289512.2674
     -3910.0964          0.000           7.0004          7.7504
  24649894.4514   10618653.89443   5483722.32445         0.000    24649910.7064
     -1264.7694          0.000           5.5004          6.0004
  22083073.8074  -11151497.04046  -8048486.15346         0.000    22083076.8594
      1956.3864          0.000          19.7504         16.5004
  4  3  1  0 11  0.0000000  0  9G26G22G18G 6G17G 9G29G30G21
  22388890.2614   -3674485.79446  -2018874.76946         0.000    22388894.3194
     -3945.2184          0.000          15.0004         12.7504
  24466830.7704    -385014.66844   -203930.31245         0.000    24466837.6444
       215.3744          0.000           6.7504          6.5004
  22833349.3124   -4123546.59046    755050.90546         0.000    22833353.0984
      -389.2414          0.000          16.0004         12.7504
  21005438.8924  -13766378.64447 -10571121.29146         0.000    21005443.7654
     -1945.3654          0.000          26.0004         23.5004
  22484091.6984    3766928.49646   1317916.80045         0.000    22484097.4784
     -1818.3994          0.000          12.2504         11.0004
  21930328.5084  -11865592.30247  -7256219.02946         0.000    21930333.5994
      1185.5584          0.000          21.2504         18.5004
  24311828.0424   10467681.68045   8256495.97045         0.000    24311831.9054
     -3910.3264          0.000           7.7504          7.0004
  24657089.2604   10656462.26643   5513183.37445         0.000    24657108.3234
     -1255.7364          0.000           6.0004          6.2504
  22071912.9154  -11210147.72247  -8094187.92146         0.000    22071916.0564
      1953.6884          0.000          20.2504         16.7504
  4  3  1  0 11 30.0000000  0  9G26G22G18G 6G17G 9G29G30G21
  22411431.3564   -3556031.45046  -1926572.66746         0.000    22411435.6354
     -3952.0534          0.000          14.5004         12.5004
  24465607.3924    -391442.32444   -208938.70845         0.000    24465612.1274
       212.8214          0.000           6.2504          6.5004
  22835570.4624   -4111874.23846    764146.29946         0.000    22835574.1664
      -389.2324          0.000          15.5004         13.0004
  21016587.0374  -13707794.77747 -10525471.51246         0.000    21016591.9064
     -1960.5154          0.000          25.0004         23.7504
  22494510.1314    3821677.35846   1360578.23345         0.000    22494516.7754
     -1831.8364          0.000          13.0004         11.5004
  21923591.2144  -11900996.82247  -7283806.88046         0.000    21923596.1044
      1174.4034          0.000          21.0004         18.7504
  24334151.6374   10584992.99445   8347907.44645         0.000    24334155.1024
     -3910.7164          0.000           8.0004          7.5004
  24664232.0424   10693997.07643   5542431.21045         0.000    24664252.0564
     -1246.8864          0.000           6.0004          5.7504
  22060767.2204  -11268718.52147  -8139827.44046         0.000    22060770.8994
      1950.7104          0.000          20.0004         17.0004
  4  3  1  0 12  0.0000000  0  9G26G22G18G 6G17G 9G29G30G21
  22434008.9014   -3437385.74846  -1834121.44746         0.000    22434012.9444
     -3958.1084          0.000          14.2504         12.5004
  24464396.2894    -397805.86644   -213897.17945         0.000    24464403.6324
       210.9694          0.000           6.2504          5.7504
  22837789.0564   -4100215.07746    773231.41346         0.000    22837793.3524
      -388.5024          0.000          15.7504         12.5004
  21027819.0564  -13648770.12747 -10479478.28346         0.000    21027823.5604
     -1974.9044          0.000          26.2504         23.7504
  22505003.2454    3876818.78446   1403545.55245         0.000    22505008.6734
     -1844.6614          0.000          12.0004         11.0004
  21916915.5484  -11936077.43147  -7311142.33746         0.000    21916920.3334
      1163.8234          0.000          21.5004         19.0004
  24356474.8564   10702302.46044   8439317.46745         0.000    24356478.9394
     -3910.3484          0.000           7.2504          7.5004
  24671321.9114   10731253.86944   5571462.53945         0.000    24671336.1964
     -1237.3394          0.000           6.5004          6.0004
  22049636.4494  -11327210.89847  -8185405.82646         0.000    22049639.7134
      1948.3124          0.000          20.5004         17.2504
  4  3  1  0 12 30.0000000  0  9G26G22G18G 6G17G 9G29G30G21
  22456623.5984   -3318544.65446  -1741517.97746         0.000    22456627.6744
     -3964.2794          0.000          14.0004         12.2504
  24463198.4884    -404100.00244   -218801.53645         0.000    24463204.1014
       208.9604          0.000           6.7504          6.7504
  22840006.1704   -4088563.71146    782310.44446         0.000    22840009.7094
      -387.9504          0.000          15.2504         12.7504
  21039135.8054  -13589300.13147 -10433138.01846         0.000    21039140.7194
     -1989.4464          0.000          26.2504         23.7504
  22515572.5104    3932360.43446   1446824.75445         0.000    22515577.5554
     -1857.7394          0.000          12.7504         10.7504
  21910303.3744  -11970824.36247  -7338217.78146         0.000    21910308.0734
      1152.9294          0.000          21.5004         19.2504
  24378798.6244   10819614.71944   8530729.66845         0.000    24378799.4024
     -3910.1034          0.000           7.0004          6.2504
  24678359.9004   10768238.35244   5600281.69845         0.000    24678376.3934
     -1227.9904          0.000           7.0004          5.5004
  22038522.4004  -11385615.31747  -8230915.68546         0.000    22038525.2774
      1945.6214          0.000          21.5004         17.5004
  4  3  1  0 13  0.0000000  0  9G26G22G18G 6G17G 9G29G30G21
  22479273.7764   -3199517.21646  -1648769.31746         0.000    22479278.1374
     -3970.4664          0.000          14.0004         12.2504
  24462012.4774    -410331.76344   -223657.32645         0.000    24462018.2914
       206.8974          0.000           6.2504          6.5004
  22842220.5434   -4076926.79346    791378.23046         0.000    22842225.6874
      -387.4444          0.000          15.5004         13.0004
  21050535.8434  -13529392.53747 -10386456.77746         0.000    21050540.5764
     -2004.0084          0.000          26.2504         23.7504
  22526216.9384    3988297.13546   1490411.78045         0.000    22526222.5524
     -1870.9774          0.000          12.7504         10.7504
  21903754.1904  -12005240.16747  -7365035.19746         0.000    21903759.2434
      1141.8304          0.000          21.2504         19.2504
  24401121.3954   10936921.82044   8622137.85045         0.000    24401128.1344
     -3909.9404          0.000           6.7504          6.2504
  24685344.8144   10804943.91643   5628883.51745         0.000    24685363.4754
     -1218.6764          0.000           5.0004          4.5004
  22027424.4514  -11443935.01047  -8276359.50746         0.000    22027428.1174
      1942.7364          0.000          21.0004         17.2504
  4  3  1  0 13 30.0000000  0  9G26G22G18G 6G17G 9G29G30G21
  22501959.7224   -3080301.80446  -1555874.14846         0.000    22501963.9584
     -3976.9794          0.000          13.5004         12.5004
  24460838.9544    -416498.00044   -228461.91245         0.000    24460841.7154
       204.4074          0.000           6.5004          6.7504
  22844432.8704   -4065300.82646    800437.50146         0.000    22844436.8954
      -387.3664          0.000          16.5004         13.2504
  21062019.7294  -13469044.25747 -10339432.13346         0.000    21062024.2404
     -2018.9614          0.000          26.0004         23.7504
  22536937.5554    4044634.40645   1534310.95945         0.000    22536943.7694
     -1884.6034          0.000          11.7504         10.5004
  21897269.4624  -12039317.19847  -7391588.64146         0.000    21897274.0774
      1130.1964          0.000          21.0004         18.7504
  24423443.5914   11054226.21644   8713543.99745         0.000    24423449.3394
     -3910.0874          0.000           6.2504          6.0004
  24692277.2344   10841374.48042   5657271.00444         0.000    24692292.4814
     -1209.7914          0.000           4.0004          3.7504
  22016344.0484  -11502162.57847  -8321731.55346         0.000    22016346.6594
      1939.3264          0.000          20.2504         16.7504
  4  3  1  0 14  0.0000000  0  9G26G22G18G 6G17G 9G29G30G21
  22524679.6944   -2960907.51446  -1462839.59346         0.000    22524683.6954
     -3982.4364          0.000          14.0004         12.5004
  24459676.5674    -422605.68944   -233221.07245         0.000    24459682.2234
       202.9234          0.000           6.7504          6.0004
  22846641.7714   -4053692.83346    809482.74646         0.000    22846646.1814
      -386.2914          0.000          15.5004         12.7504
  21073585.9254  -13408263.38447 -10292070.41246         0.000    21073590.8774
     -2032.8924          0.000          25.0004         23.5004
  22547733.3844    4101366.87746   1578518.03145         0.000    22547738.7374
     -1897.3514          0.000          13.0004         10.5004
  21890848.6814  -12073058.14247  -7417880.18746         0.000    21890853.4794
      1119.3774          0.000          20.2504         18.5004
  24445763.7034   11171519.64243   8804941.48945         0.000    24445770.5324
     -3909.2524          0.000           6.0004          6.0004
  24699155.9634   10877523.15842   5685438.66544         0.000    24699177.8454
     -1199.9454          0.000           3.7504          4.0004
  22005280.4904  -11560301.44847  -8367034.48146         0.000    22005282.9904
      1936.7724          0.000          20.2504         16.5004
  4  3  1  0 14 30.0000000  0  9G26G22G18G 6G17G 9G29G30G21
  22547434.4244   -2841330.45046  -1369662.65746         0.000    22547439.4094
     -3989.0164          0.000          13.2504         12.2504
  24458526.3584    -428649.36345   -237930.22645         0.000    24458530.5734
       200.2964          0.000           8.0004          7.5004
  22848848.3684   -4042097.01046    818518.50346         0.000    22848852.3424
      -386.4204          0.000          15.7504         12.7504
  21085235.3124  -13347045.37747 -10244368.06346         0.000    21085239.8554
     -2047.9774          0.000          25.2504         23.5004
  22558605.8644    4158501.94846   1623038.85545         0.000    22558611.6684
     -1911.3374          0.000          13.5004         10.7504
  21884493.8134  -12106452.78647  -7443901.89846         0.000    21884498.2214
      1107.2324          0.000          21.5004         18.7504
  24468082.6214   11288806.89243   8896334.20545         0.000    24468086.6454
     -3909.5594          0.000           5.5004          6.0004
  24705982.1774   10913395.97241   5713391.73745         0.000    24706001.0614
     -1191.2304          0.000           3.5004          5.5004
  21994235.6354  -11618342.10246  -8412260.87046         0.000    21994238.7944
      1932.9074          0.000          19.7504         17.2504
  4  3  1  0 15  0.0000000  0  9G26G22G18G 6G17G 9G29G30G21
  22570222.8534   -2721576.42246  -1276347.81946         0.000    22570227.5484
     -3995.0264          0.000          13.0004         12.2504
  24457387.5604    -434633.03745   -242592.76145         0.000    24457394.9064
       198.1824          0.000           9.5004          7.7504
  22851051.8234   -4030517.50046    827541.56446         0.000    22851055.0044
      -386.0054          0.000          16.2504         13.2504
  21096966.8864  -13285395.45847 -10196329.16846         0.000    21096971.5374
     -2062.4744          0.000          24.7504         23.2504
  22569554.5234    4216037.58346   1667871.81645         0.000    22569560.1924
     -1924.8494          0.000          12.0004         11.2504
  21878204.8784  -12139500.88347  -7469653.56346         0.000    21878209.7484
      1095.4974          0.000          20.5004         18.7504
  24490399.4684   11406082.99043   8987718.32245         0.000    24490404.0994
     -3909.3264          0.000           5.7504          6.0004
  24712755.0804   10948989.35241   5741126.78144         0.000    24712783.0014
     -1182.0444          0.000           3.0004          4.2504
  21983209.4784  -11676284.71247  -8457410.85046         0.000    21983212.7144
      1929.4554          0.000          20.5004         17.2504
  4  3  1  0 15 30.0000000  0  8G26G22G18G 6G17G 9G29G21
  22593045.6874   -2601641.36446  -1182891.89245         0.000    22593050.2274
     -4000.7834          0.000          13.0004         11.7504
  24456261.3164    -440550.96145   -247204.01745         0.000    24456268.2694
       196.2054          0.000           9.2504          8.5004
  22853253.4034   -4018947.84746    836556.93546         0.000    22853257.1284
      -385.4464          0.000          15.7504         13.0004
  21108781.5624  -13223308.97647 -10147950.08446         0.000    21108786.5204
     -2076.7624          0.000          24.7504         22.7504
  22580580.9054    4273981.60245   1713022.98445         0.000    22580587.4574
     -1938.2494          0.000          11.0004         11.0004
  21871983.8654  -12172192.13346  -7495127.18346         0.000    21871988.7624
      1083.7634          0.000          19.5004         18.7504
  24512715.2104   11523353.00244   9079097.62545         0.000    24512722.1694
     -3908.8444          0.000           6.2504          5.5004
  21972203.8294  -11734119.43647  -8502476.76646         0.000    21972206.8734
      1926.0174          0.000          20.2504         17.2504
  4  3  1  0 16  0.0000000  0  8G26G22G18G 6G17G 9G29G21
  22615901.6294   -2481532.49146  -1089300.56345         0.000    22615905.4424
     -4006.3144          0.000          12.2504         11.5004
  24455146.5724    -446408.50645   -251768.22145         0.000    24455155.1494
       194.4454          0.000          10.0004          9.0004
  22855452.0434   -4007393.66046    845560.27246         0.000    22855455.2154
      -384.7024          0.000          16.2504         13.2504
  21120678.1774  -13160791.83947 -10099235.43046         0.000    21120682.7784
     -2090.8904          0.000          25.0004         22.7504
  22591684.2864    4332330.37145   1758489.54045         0.000    22591690.7194
     -1951.5354          0.000          11.2504         10.2504
  21865830.5294  -12204527.79147  -7520323.71346         0.000    21865835.5174
      1072.0714          0.000          21.2504         19.2504
  24535028.5684   11640610.48344   9170467.19045         0.000    24535033.7044
     -3908.1544          0.000           6.2504          5.7504
  21961218.3654  -11791847.96747  -8547459.93946         0.000    21961221.3274
      1922.6544          0.000          21.2504         17.2504
  4  3  1  0 16 30.0000000  0  9G26G22G18G 6G17G 9G29G30G21
  22638789.5444   -2361255.59046   -995578.27045         0.000    22638793.1904
     -4012.1124          0.000          12.2504         11.7504
  24454042.5094    -452210.07645   -256288.76045         0.000    24454048.8074
       192.3734          0.000          10.0004          8.5004
  22857647.0444   -3995858.56046    854548.71446         0.000    22857651.2164
      -384.2744          0.000          15.0004         12.0004
  21132655.8774  -13097848.58747 -10050188.71846         0.000    21132660.4754
     -2105.2994          0.000          25.0004         22.5004
  22602864.3364    4391081.75146   1804269.82945         0.000    22602869.7254
     -1965.1994          0.000          12.0004         10.2504
  21859744.9524  -12236507.42047  -7545242.80846         0.000    21859749.8524
      1059.9134          0.000          22.2504         19.7504
  24557338.4574   11757850.61643   9261823.28445         0.000    24557344.2394
     -3907.7864          0.000           5.5004          5.2504
  24732759.1994      25463.61452         0.000           0.000           0.000
     -1154.0994          0.000           4.7504          0.000
  21950253.1224  -11849470.30047  -8592360.36246         0.000    21950255.9344
      1918.8314          0.000          21.5004         18.0004
  4  3  1  0 17  0.0000000  0  9G26G22G18G 6G17G 9G29G30G21
  22661709.1054   -2240812.51446   -901726.49345         0.000    22661714.7014
     -4017.5184          0.000          12.7504         11.7504
  24452949.1184    -457955.76245   -260765.79345         0.000    24452954.2014
       190.5954          0.000           9.2504          8.2504
  22859838.3274   -3984342.72546    863522.14546         0.000    22859841.6914
      -383.5364          0.000          15.0004         12.7504
  21144714.4674  -13034480.21947 -10000810.77346         0.000    21144719.1794
     -2119.3614          0.000          24.7504         22.7504
  22614121.2894    4450237.19045   1850364.92645         0.000    22614127.4344
     -1978.5974          0.000          11.7504         10.2504
  21853727.9334  -12268126.91647  -7569881.29946         0.000    21853732.5274
      1047.9344          0.000          21.7504         19.7504
  24579645.0034   11875072.42043   9353164.95445         0.000    24579647.1994
     -3907.1114          0.000           6.0004          6.5004
  24739320.0784      59942.91742         0.000           0.000           0.000
     -1144.6014          0.000           4.0004          0.000
  21939308.7944  -11906982.68547  -8637175.13146         0.000    21939312.0164
      1915.1994          0.000          20.5004         17.7504
  4  3  1  0 17 30.0000000  0  9G26G22G18G 6G17G 9G29G30G21
  22684658.0094   -2120214.91045   -807754.30945         0.000    22684661.8194
     -4022.5774          0.000          11.7504         10.7504
  24451864.4114    -463655.47745   -265207.00945         0.000    24451870.1024
       189.1134          0.000           8.7504          7.7504
  22862024.0684   -3972855.94046    872472.94646         0.000    22862028.6574
      -382.5334          0.000          15.2504         12.5004
  21156851.9434  -12970697.37047  -9951109.83346         0.000    21156857.0354
     -2133.0704          0.000          25.2504         23.0004
  22625453.6144    4509788.76246   1896768.77845         0.000    22625460.3214
     -1991.7754          0.000          12.2504         10.2504
  21847778.4044  -12299391.56147  -7594243.25746         0.000    21847783.7454
      1036.0794          0.000          21.0004         19.5004
  24601946.0134   11992265.16244   9444483.97845         0.000    24601952.1194
     -3906.0244          0.000           6.5004          5.7504
  24745826.1034      94131.57842     15067.77455         0.000    24745847.8024
     -1135.0114          0.000           4.2504          4.7504
  21928384.3244  -11964390.77547  -8681908.62546         0.000    21928387.4934
      1911.7164          0.000          21.7504         18.5004
  4  3  1  0 18  0.0000000  0  9G26G22G18G 6G17G 9G29G30G21
  22707636.5274   -1999462.05946   -713661.15346         0.000    22707639.7874
     -4027.7984          0.000          12.2504         12.0004
  24450788.9814    -469306.67445   -269610.38645         0.000    24450794.7624
       187.4474          0.000           9.2504          8.7504
  22864204.9514   -3961395.05746    881403.55846         0.000    22864210.3774
      -381.7274          0.000          15.0004         12.7504
  21169068.4324  -12906499.42547  -9901085.45946         0.000    21169073.3204
     -2146.9614          0.000          25.7504         23.0004
  22636862.1754    4569740.84046   1943484.63645         0.000    22636867.8844
     -2005.2164          0.000          12.2504         10.7504
  21841897.6804  -12330294.71747  -7618323.56446         0.000    21841902.4374
      1023.9094          0.000          21.7504         19.2504
  24624241.7574   12109430.41343   9535781.68045         0.000    24624248.1404
     -3905.1534          0.000           6.0004          5.7504
  24752277.3064     128032.65542     41484.35545         0.000    24752302.7904
     -1125.4054          0.000           4.5004          4.5004
  21917480.8854  -12021688.44247  -8726556.07946         0.000    21917483.6684
      1907.9124          0.000          21.2504         18.2504
  4  3  1  0 18 30.0000000  0  9G26G22G18G 6G17G 9G29G30G21
  22730645.6754   -1878548.14746   -619442.48746         0.000    22730649.4634
     -4032.8754          0.000          12.5004         12.0004
  24449724.2254    -474901.76145   -273970.01345         0.000    24449730.6994
       185.8144          0.000          10.0004          8.7504
  22866382.4024   -3949952.35146    890320.00046         0.000    22866387.1244
      -380.8744          0.000          16.0004         13.5004
  21181365.2074  -12841879.46447  -9850732.23046         0.000    21181369.7824
     -2160.7884          0.000          25.0004         23.2504
  22648348.6944    4630102.95046   1990520.01545         0.000    22648354.4094
     -2018.6614          0.000          12.5004         11.0004
  21836088.0154  -12360824.37847  -7642112.81346         0.000    21836092.4634
      1011.6244          0.000          21.7504         19.2504
  24646533.6354   12226575.18544   9627063.40545         0.000    24646537.3834
     -3904.2154          0.000           6.5004          6.5004
  24758675.3064     161654.41542     67683.20844         0.000    24758691.0904
     -1115.8114          0.000           4.2504          4.0004
  21906600.7484  -12078863.72647  -8771108.16446         0.000    21906603.1754
      1904.0014          0.000          21.7504         18.5004
  4  3  1  0 19  0.0000000  0  9G26G22G18G 6G17G 9G29G30G21
  22753683.8974   -1757481.40046   -525104.72646         0.000    22753688.2774
     -4037.9404          0.000          13.0004         12.0004
  24448668.9504    -480447.32445   -278291.12145         0.000    24448675.3704
       184.1824          0.000           9.5004          8.0004
  22868555.2434   -3938534.23146    899217.29446         0.000    22868558.4394
      -380.0484          0.000          17.7504         13.7504
  21193740.8644  -12776844.91147  -9800055.93946         0.000    21193745.7084
     -2174.5794          0.000          25.2504         23.0004
  22659912.3004    4690870.22345   2037871.10745         0.000    22659918.0094
     -2032.1874          0.000          11.2504         10.0004
  21830348.9694  -12390982.93547  -7665612.92046         0.000    21830353.5834
       999.2004          0.000          20.7504         19.0004
  24668820.1884   12343691.97944   9718323.27745         0.000    24668824.4414
     -3903.2894          0.000           6.5004          6.0004
  24765018.9364     194990.68242         0.000           0.000           0.000
     -1106.2654          0.000           3.7504          0.000
  21895743.4064  -12135919.29747  -8815566.98146         0.000    21895746.3744
      1899.9784          0.000          23.0004         18.7504
  4  3  1  0 19 30.0000000  0  9G26G22G18G 6G17G 9G29G30G21
  22776750.1194   -1636267.64546   -430652.42246         0.000    22776754.3444
     -4043.1434          0.000          13.0004         12.0004
  24447622.2574    -485947.54245   -282576.79445         0.000    24447625.2904
       182.3434          0.000           9.0004          7.5004
  22870722.7334   -3927144.41046    908092.51746         0.000    22870725.8554
      -379.4344          0.000          18.2504         14.2504
  21206194.4794  -12711400.71547  -9749060.46346         0.000    21206199.2634
     -2188.5334          0.000          25.2504         22.7504
  22671552.5124    4752040.29445   2085536.11945         0.000    22671557.8444
     -2045.9814          0.000          10.7504         10.0004
  21824680.6044  -12420769.94947  -7688823.49146         0.000    21824685.8844
       986.4134          0.000          20.5004         18.7504
  24691100.4854   12460775.92944   9809557.61045         0.000    24691104.2824
     -3902.4914          0.000           6.2504          6.0004
  24771307.6144     228037.98942         0.000           0.000           0.000
     -1097.0334          0.000           4.2504          0.000
  21884908.6994  -12192855.73747  -8859932.95746         0.000    21884911.5644
      1895.5954          0.000          21.7504         18.7504
  4  3  1  0 20  0.0000000  0  9G26G22G18G 6G17G 9G29G30G21
  22799844.6244   -1514904.87545   -336084.01945         0.000    22799849.7034
     -4047.8214          0.000          11.5004         11.2504
  24446584.8494    -491398.79345   -286824.36545         0.000    24446588.3224
       180.9774          0.000           9.0004          7.7504
  22872885.4514   -3915779.31546    916948.51446         0.000    22872888.5024
      -378.3604          0.000          17.7504         14.2504
  21218726.5074  -12645544.37747  -9697743.84046         0.000    21218731.6234
     -2201.9934          0.000          24.7504         22.5004
  22683270.3804    4813618.32745   2133518.92545         0.000    22683276.5504
     -2059.3264          0.000          11.2504         10.2504
  21819084.4604  -12450177.60347  -7711738.46746         0.000    21819088.8114
       973.9644          0.000          22.0004         19.2504
  24713375.0814   12577829.87444   9900768.53045         0.000    24713382.0964
     -3901.1944          0.000           7.2504          6.0004
  24777542.1724     260800.53443      5935.90155         0.000    24777554.0834
     -1087.2724          0.000           5.0004          5.5004
  21874098.1334  -12249665.02947  -8904199.86446         0.000    21874100.8764
      1891.5624          0.000          20.5004         18.2504
  4  3  1  0 20 30.0000000  0  9G26G22G18G 6G17G 9G29G30G21
  22822964.7184   -1393407.53445   -241410.71445         0.000    22822968.6244
     -4052.2024          0.000          11.5004         11.0004
  24445554.2684    -496813.90645   -291043.78745         0.000    24445557.7264
       179.8424          0.000           9.2504          7.2504
  22875041.1634   -3904450.93446    925775.86446         0.000    22875044.1344
      -377.0514          0.000          17.2504         13.5004
  21231334.3694  -12579289.60147  -9646116.73446         0.000    21231338.9984
     -2215.2024          0.000          25.0004         22.5004
  22695063.8364    4875593.48645   2181811.22945         0.000    22695069.9264
     -2072.5264          0.000          11.2504         10.2504
  21813558.9184  -12479214.18547  -7734364.30646         0.000    21813563.8364
       961.6024          0.000          20.5004         19.2504
  24735641.3964   12694840.19144   9991945.48345         0.000    24735645.7964
     -3899.6614          0.000           7.0004          6.5004
  24783720.0794     293266.10442     31233.81944         0.000    24783742.3834
     -1077.2664          0.000           4.5004          3.7504
  21863310.1444  -12306355.83547  -8948374.46246         0.000    21863313.2914
      1887.6174          0.000          21.5004         18.5004
  4  3  1  0 21  0.0000000  0  9G26G22G18G 6G17G 9G29G30G21
  22846111.6174   -1271769.41445   -146627.76445         0.000    22846114.8514
     -4057.1244          0.000          11.7504         11.0004
  24444532.0214    -502184.94845   -295228.78345         0.000    24444538.3364
       178.1144          0.000           8.5004          7.2504
  22877191.3434   -3893151.26446    934580.86846         0.000    22877195.9884
      -376.3624          0.000          16.2504         13.5004
  21244019.4364  -12512629.07247  -9594173.46246         0.000    21244024.1454
     -2228.9474          0.000          25.5004         23.0004
  22706934.7814    4937975.45845   2230420.55245         0.000    22706941.0804
     -2086.3854          0.000          11.2504         10.5004
  21808106.2884  -12507867.60147  -7756691.56546         0.000    21808110.3934
       948.4924          0.000          21.5004         19.2504
  24757900.7574   12811814.18044  10083094.17245         0.000    24757906.0034
     -3898.6964          0.000           6.7504          5.5004
  24789843.2484     325443.36142     56307.13245         0.000    24789862.8834
     -1067.9744          0.000           4.2504          5.0004
  21852547.0074  -12362916.26147  -8992447.45246         0.000    21852549.7184
      1882.9454          0.000          22.0004         18.7504
  4  3  1  0 21 30.0000000  0  9G26G22G18G 6G17G 9G29G30G21
  22869285.1754   -1149991.06845    -51735.49445         0.000    22869288.5524
     -4061.4714          0.000          10.7504         10.2504
  24443518.3614    -507510.82345   -299378.65345         0.000    24443525.0424
       176.9374          0.000           8.2504          7.0004
  22879336.3624   -3881878.92646    943364.53246         0.000    22879340.6374
      -375.1384          0.000          17.5004         13.7504
  21256781.6084  -12445563.30747  -9541914.41946         0.000    21256786.6454
     -2242.1174          0.000          24.5004         22.5004
  22718883.6864    5000766.85445   2279348.87345         0.000    22718890.1064
     -2099.7504          0.000          11.7504         10.5004
  21802727.5674  -12536132.48547  -7778716.06346         0.000    21802732.1904
       935.7934          0.000          21.7504         19.5004
  24780153.1704   12928752.17943  10174214.75145         0.000    24780156.6884
     -3897.1484          0.000           5.7504          5.7504
  24795911.8224     357334.08242         0.000           0.000           0.000
     -1058.0594          0.000           3.7504          0.000
  21841809.6844  -12419341.15147  -9036414.82946         0.000    21841812.5764
      1878.6874          0.000          22.7504         19.0004
  4  3  1  0 22  0.0000000  0  9G26G22G18G 6G17G 9G29G30G21
  22892484.0194   -1028080.03845     43260.08445         0.000    22892488.5114
     -4065.9564          0.000          10.7504         10.0004
  24442512.0854    -512797.60745   -303498.06045         0.000    24442512.9064
       175.5324          0.000           8.0004          7.0004
  22881475.1434   -3870639.49946    952122.60246         0.000    22881479.3744
      -374.1664          0.000          17.0004         13.7504
  21269619.5504  -12378099.30247  -9489345.06846         0.000    21269624.2554
     -2255.4874          0.000          24.2504         22.5004
  22730909.7434    5063963.61846   2328593.07545         0.000    22730915.6954
     -2113.3974          0.000          12.2504         11.0004
  21797422.4494  -12564010.65747  -7800439.23046         0.000    21797426.9974
       922.7094          0.000          21.2504         19.2504
  24802397.5824   13045647.56943  10265302.08445         0.000    24802404.8394
     -3895.8664          0.000           5.7504          5.2504
  24801924.7164     388932.75542         0.000           0.000           0.000
     -1048.5054          0.000           4.0004          0.000
  21831097.7604  -12475632.58347  -9080278.22146         0.000    21831100.4674
      1874.0544          0.000          22.7504         19.0004
  4  3  1  0 22 30.0000000  0 10G26G22G18G14G 6G17G 9G29G30G21
  22915705.9264    -906047.92045    138350.06845         0.000    22915711.3364
     -4069.6594          0.000          10.7504         10.2504
  24441511.5144    -518054.83245   -307594.46145         0.000    24441518.5394
       174.8584          0.000           8.0004          7.2504
  22883605.8064   -3859442.71846    960847.43546         0.000    22883610.1454
      -372.4314          0.000          17.5004         14.0004
  24627967.5214     -21911.78752         0.000           0.000           0.000
      2433.8294          0.000           3.7504          0.000
  21282531.2764  -12310247.73247  -9436473.70746         0.000    21282535.7834
     -2268.0784          0.000          24.7504         22.2504
  22743011.2594    5127557.34945   2378146.62045         0.000    22743017.7774
     -2126.3504          0.000          10.2504         10.2504
  21792189.9084  -12591507.48047  -7821865.25446         0.000    21792194.3964
       910.2484          0.000          21.5004         19.2504
  24824631.8334   13162489.58443  10356347.86944         0.000    24824631.9294
     -3893.7424          0.000           6.0004          4.0004
  24807880.4014     420230.37143         0.000           0.000           0.000
     -1038.1774          0.000           5.5004          0.000
  21820410.1254  -12531796.23347  -9124042.02646         0.000    21820413.0404
      1870.0384          0.000          22.2504         18.2504
  4  3  1  0 23  0.0000000  0 10G26G22G18G14G 6G17G 9G29G30G21
  22938952.1354    -783888.36745    233539.34145         0.000    22938956.3254
     -4074.2544          0.000          10.7504         10.5004
  24440518.0634    -523274.70844   -311661.71745         0.000    24440522.5074
       173.1814          0.000           7.0004          6.7504
  22885729.8664   -3848280.30246    969545.48046         0.000    22885733.9144
      -371.7004          0.000          17.0004         14.2504
  24614097.1064     -94796.17841         0.000           0.000           0.000
      2425.1184          0.000           2.5004          0.000
  21295518.1054  -12242001.54647  -9383294.86946         0.000    21295522.9844
     -2281.6144          0.000          24.5004         22.5004
  22755190.1374    5191557.81645   2428017.10045         0.000    22755196.4634
     -2140.3384          0.000          10.2504         10.0004
  21787032.2544  -12618610.79747  -7842984.65746         0.000    21787036.7284
       896.6574          0.000          21.7504         19.7504
  24846857.3984   13279285.82043  10447357.95445         0.000    24846857.3424
     -3892.6264          0.000           6.0004          5.0004
  24813780.4954     451235.60742     11246.44353         0.000    24813802.7904
     -1028.8244          0.000           4.7504          3.0004
  21809749.0734  -12587820.12847  -9167696.93546         0.000    21809751.5474
      1864.9234          0.000          23.2504         18.7504
  4  3  1  0 23 30.0000000  0 10G26G22G18G14G 6G17G 9G29G30G21
  22962223.0544    -661598.84245    328829.93845         0.000    22962227.0344
     -4078.6104          0.000          11.0004         10.5004
  24439532.4734    -528453.32445   -315696.80145         0.000    24439536.2024
       171.7774          0.000           8.5004          7.0004
  22887848.3094   -3837147.49446    978220.45346         0.000    22887851.4504
      -370.7684          0.000          16.0004         14.0004
  24600274.8914    -167427.73141         0.000           0.000           0.000
      2416.6614          0.000           2.2504          0.000
  21308580.6654  -12173357.42247  -9329805.93946         0.000    21308585.2054
     -2294.8974          0.000          24.5004         22.2504
  22767447.4724    5255970.71045   2478208.87845         0.000    22767452.5094
     -2154.1424          0.000          10.2504          9.2504
  21781951.1004  -12645312.21747  -7863790.87646         0.000    21781955.9304
       883.1464          0.000          21.5004         19.7504
  24869074.7914   13396039.33743  10538334.80145         0.000    24869077.7234
     -3891.1944          0.000           5.0004          4.5004
  24819625.7454     481953.29242     35182.37044         0.000    24819641.9294
     -1019.2994          0.000           4.5004          4.2504
  21799116.1694  -12643696.06847  -9211236.57146         0.000    21799118.2934
      1859.8594          0.000          22.7504         18.7504
  4  3  1  0 24  0.0000000  0  9G26G22G18G 6G17G 9G29G30G21
  22985517.0954    -539187.82545    424215.17745         0.000    22985522.0984
     -4082.2424          0.000          10.7504         11.0004
  24438553.4714    -533597.29545   -319704.86645         0.000    24438557.3714
       171.0054          0.000           7.5004          6.5004
  22889959.8814   -3826050.68546    986867.38146         0.000    22889963.6904
      -369.1854          0.000          16.2504         13.2504
  21321717.3064  -12104324.05047  -9276013.69746         0.000    21321722.0404
     -2307.5074          0.000          23.7504         22.5004
  22779782.2654    5320790.62045   2528717.85545         0.000    22779787.8504
     -2167.3704          0.000           9.2504          9.7504
  21776945.9244  -12671614.38047  -7884285.99846         0.000    21776950.5514
       870.1504          0.000          22.2504         20.0004
  24891282.5704   13512742.88443  10629272.65845         0.000    24891289.6444
     -3889.1494          0.000           5.0004          4.7504
  24825415.0614     512377.13642     58889.25945         0.000    24825438.1684
     -1009.1334          0.000           4.5004          4.5004
  21788510.9154  -12699426.73847  -9254663.00346         0.000    21788513.3754
      1855.3314          0.000          22.5004         19.2504
  4  3  1  0 24 30.0000000  0 10G26G22G18G14G 6G17G 9G29G30G21
  23008833.0244    -416661.55345    519690.17745         0.000    23008837.4804
     -4086.0794          0.000          10.5004         10.5004
  24437580.1724    -538711.20944   -323689.64645         0.000    24437585.0144
       170.0084          0.000           7.2504          7.0004
  22892063.6374   -3814994.60346    995482.57046         0.000    22892067.2664
      -367.8294          0.000          14.2504         12.7504
  24572771.3934     -38438.31652         0.000           0.000           0.000
      2400.3934          0.000           3.7504          0.000
  21334927.0154  -12034906.53947  -9221922.13546         0.000    21334931.6734
     -2320.2764          0.000          23.2504         22.2504
  22792193.9614    5386014.47345   2579541.60145         0.000    22792200.3774
     -2180.8274          0.000          10.0004          9.5004
  21772016.6144  -12697517.81447  -7904470.42646         0.000    21772021.4534
       856.7804          0.000          22.7504         20.2504
  24913479.8534   13629390.94843  10720167.31145         0.000    24913480.4804
     -3887.3274          0.000           5.0004          5.7504
  24831147.8244     542503.24642     82364.39144         0.000    24831165.5424
      -999.2454          0.000           4.7504          3.7504
  21777933.2174  -12755012.63147  -9297976.61246         0.000    21777936.1734
      1850.4464          0.000          23.7504         19.5004
  4  3  1  0 25  0.0000000  0 10G26G22G18G14G 6G17G 9G29G30G21
  23032172.0664    -294014.07645    615259.67545         0.000    23032175.7434
     -4090.1514          0.000          11.0004         10.7504
  24436613.9694    -543787.81645   -327645.27045         0.000    24436619.4234
       168.6944          0.000           7.5004          6.7504
  22894161.2164   -3803971.13646   1004072.33946         0.000    22894165.8264
      -366.8294          0.000          14.5004         12.0004
  24559093.2044    -110314.62042         0.000           0.000           0.000
      2391.5944          0.000           4.5004          0.000
  21348210.9904  -11965098.83347  -9167526.51246         0.000    21348215.7024
     -2333.3324          0.000          24.2504         22.2504
  22804684.3664    5451651.76345   2630687.47345         0.000    22804690.1834
     -2194.7394          0.000          10.7504         10.0004
  21767165.4704  -12723010.48847  -7924334.77646         0.000    21767170.3324
       842.9414          0.000          22.0004         20.0004
  24935667.9984   13745990.51943  10811024.16745         0.000    24935671.8854
     -3885.7534          0.000           5.0004          4.5004
  24836825.5284     572339.96742         0.000           0.000           0.000
      -989.6394          0.000           4.2504          0.000
  21767385.2644  -12810442.29947  -9341168.50446         0.000    21767387.8244
      1845.1064          0.000          23.0004         19.5004
  4  3  1  0 25 30.0000000  0 10G26G22G18G14G 6G17G 9G29G30G21
  23055532.3024    -171255.29545    710915.90445         0.000    23055536.2024
     -4094.1034          0.000          11.2504         10.5004
  24435653.3894    -548835.21545   -331578.09345         0.000    24435659.5534
       167.4584          0.000           8.0004          7.7504
  22896251.1764   -3792988.08346   1012630.63046         0.000    22896253.8064
      -365.7344          0.000          15.7504         12.5004
  24545463.6684    -181937.68743         0.000           0.000           0.000
      2382.8514          0.000           5.5004          0.000
  21361567.3874  -11894910.52547  -9112834.32646         0.000    21361572.4794
     -2346.2514          0.000          24.2504         22.2504
  22817252.1374    5517695.45245   2682150.06645         0.000    22817258.5814
     -2208.5464          0.000          10.0004          9.5004
  21762391.7034  -12748096.60047  -7943882.32346         0.000    21762396.2044
       829.0714          0.000          21.5004         19.7504
  24957845.2214   13862532.55243  10901836.22745         0.000    24957851.6244
     -3884.0974          0.000           6.0004          5.7504
  24842446.5744     601879.54642         0.000           0.000           0.000
      -980.0224          0.000           4.7504          0.000
  21756866.2394  -12865719.84147  -9384241.86746         0.000    21756869.0404
      1839.7054          0.000          22.5004         19.5004
  4  3  1  0 26  0.0000000  0 10G26G22G18G14G 6G17G 9G29G30G21
  23078913.7554     -48384.79445    806659.19945         0.000    23078917.4784
     -4097.2394          0.000          11.0004         10.0004
  24434698.6744    -553851.45145   -335486.70645         0.000    24434705.4914
       166.9714          0.000           8.2504          6.7504
  22898333.8624   -3782043.42246   1021159.01246         0.000    22898337.2004
      -363.8954          0.000          16.0004         12.7504
  24531883.1764    -253302.22943         0.000           0.000           0.000
      2374.7794          0.000           5.5004          0.000
  21374996.4654  -11824340.17947  -9057844.44646         0.000    21375001.1624
     -2358.4244          0.000          24.5004         22.0004
  22829897.9584    5584149.20345   2733932.15945         0.000    22829903.4744
     -2221.6904          0.000          10.7504          9.5004
  21757696.4314  -12772770.19047  -7963108.42746         0.000    21757700.9314
       815.8154          0.000          22.7504         20.2504
  24980011.5894   13979018.48142  10992604.57145         0.000    24980014.2804
     -3881.6454          0.000           4.7504          5.5004
  24848011.8014     631125.06043         0.000           0.000           0.000
      -969.6614          0.000           5.2504          0.000
  21746377.3474  -12920839.05647  -9427191.84346         0.000    21746380.0994
      1834.9054          0.000          23.2504         19.7504
  4  3  1  0 26 30.0000000  0 10G26G22G18G14G 6G17G 9G29G30G21
  23102315.2354      74590.79145    902484.33545         0.000    23102319.0664
     -4101.0094          0.000          11.5004         10.5004
  24433749.0014    -558841.42144   -339374.84845         0.000    24433752.0944
       165.8064          0.000           7.0004          7.2504
  22900408.4174   -3771141.59246   1029654.01546         0.000    22900411.5064
      -362.7914          0.000          16.5004         12.7504
  24518351.4104    -324409.90943    -48006.42955         0.000    24518361.1384
      2365.8594          0.000           5.0004          4.7504
  21388497.1004  -11753393.88847  -9002561.61846         0.000    21388502.2404
     -2371.2094          0.000          23.7504         21.7504
  22842621.0244    5651009.38245   2786030.97145         0.000    22842626.7954
     -2235.5714          0.000           9.2504          9.5004
  21753079.5444  -12797031.92347  -7982013.59946         0.000    21753083.6574
       801.7224          0.000          22.2504         20.2504
  25002166.3154   14095442.58143  11083324.72345         0.000    25002171.2264
     -3879.8564          0.000           5.7504          6.0004
  24853520.3804     660072.15644     13504.80555         0.000    24853541.2594
      -960.0344          0.000           7.2504          5.0004
  21735918.3954  -12975801.15847  -9470019.39446         0.000    21735920.9584
      1829.3174          0.000          24.7504         20.2504
  4  3  1  0 27  0.0000000  0 10G26G22G18G14G 6G17G 9G29G30G21
  23125738.1864     197679.18445    998397.42045         0.000    23125740.4784
     -4104.7894          0.000          11.2504          9.7504
  24432805.9424    -563795.90743   -343235.25945         0.000    24432806.9274
       164.5694          0.000           6.0004          6.0004
  22902476.7524   -3760272.48846   1038123.52046         0.000    22902479.8474
      -361.7544          0.000          16.5004         13.0004
  24504870.7764    -395248.30643   -103204.22945         0.000    24504878.6464
      2356.7614          0.000           5.2504          5.2504
  21402070.7154  -11682064.07947  -8946979.95946         0.000    21402075.1054
     -2384.0364          0.000          24.5004         21.7504
  22855423.5134    5718286.79945   2838454.85845         0.000    22855429.4664
     -2249.5394          0.000           9.5004          9.2504
  21748543.5884  -12820868.39047  -8000587.40846         0.000    21748547.5944
       787.4254          0.000          23.5004         20.5004
  25024310.9704   14211813.65643  11174003.47145         0.000    25024313.6354
     -3878.1474          0.000           5.7504          6.0004
  24858973.8434     688730.77743     35836.33444         0.000    24858993.9934
      -950.4884          0.000           5.5004          4.2504
  21725491.9504  -13030592.35747  -9512713.79046         0.000    21725494.1714
      1823.4894          0.000          23.7504         20.2504
  4  3  1  0 27 30.0000000  0 10G26G22G18G14G 6G17G 9G29G30G21
  23149180.6234     320870.26945   1094390.48345         0.000    23149184.4814
     -4107.8894          0.000          11.5004         10.0004
  24431868.0434    -568723.63745   -347074.84145         0.000    24431874.8424
       164.0024          0.000           8.0004          6.5004
  22904537.1324   -3749444.95546   1046560.65046         0.000    22904539.7844
      -360.0444          0.000          16.5004         13.2504
  24491440.2314    -465822.76743   -158196.35245         0.000    24491451.2814
      2348.2414          0.000           5.0004          5.5004
  21415715.5144  -11610360.21147  -8891106.82146         0.000    21415720.1434
     -2396.1564          0.000          23.5004         21.5004
  22868303.8934    5785974.23445   2891198.30645         0.000    22868308.9324
     -2262.9144          0.000           7.7504          8.7504
  21744087.6944  -12844284.03347  -8018833.30046         0.000    21744092.4634
       773.6534          0.000          23.7504         20.2504
  25046443.8524   14328122.47743  11264633.81245         0.000    25046455.6884
     -3875.7154          0.000           5.2504          5.2504
  24864371.0174     717093.24944     57937.12945         0.000    24864392.3944
      -940.2884          0.000           6.2504          4.7504
  21715097.1334  -13085217.27847  -9555278.58546         0.000    21715099.5504
      1818.1934          0.000          24.2504         19.5004
  4  3  1  0 28  0.0000000  0 10G26G22G18G14G 6G17G 9G29G30G21
  23172641.7534     444159.33545   1190459.90045         0.000    23172645.0114
     -4111.2744          0.000          11.0004         10.0004
  24430934.8504    -573627.56045   -350895.98845         0.000    24430940.8594
       163.0584          0.000           9.0004          7.7504
  22906589.0704   -3738661.53446   1054963.37746         0.000    22906593.5384
      -358.7494          0.000          16.0004         13.2504
  24478059.8874    -536133.49643   -212982.98045         0.000    24478070.3734
      2339.2334          0.000           5.5004          5.0004
  21429430.6574  -11538286.72547  -8834945.66646         0.000    21429435.1194
     -2408.6164          0.000          24.7504         21.7504
  22881262.1324    5854070.18545   2944260.00345         0.000    22881268.9514
     -2276.7064          0.000           8.2504          9.2504
  21739712.0724  -12867277.85547  -8036750.49946         0.000    21739716.8644
       759.3664          0.000          22.0004         20.0004
  25068564.1284   14444365.06743  11355212.41645         0.000    25068567.1264
     -3873.6534          0.000           5.7504          6.5004
  24869711.2844     745157.02044     79805.10145         0.000    24869730.6394
      -930.5154          0.000           6.2504          5.2504
  21704734.1034  -13139675.03247  -9597713.13046         0.000    21704736.8824
      1812.4114          0.000          24.2504         20.0004
  4  3  1  0 28 30.0000000  0 10G26G22G18G14G 6G17G 9G29G30G21
  23196122.3434     567550.81345   1286609.13145         0.000    23196125.2454
     -4114.4234          0.000          11.2504          9.2504
  24430007.3094    -578501.50145   -354693.67445         0.000    24430011.0594
       162.2904          0.000           8.5004          7.7504
  22908633.8274   -3727915.45146   1063337.05346         0.000    22908637.7934
      -357.2774          0.000          16.0004         13.2504
  24464731.4974    -606171.07143   -267556.88445         0.000    24464742.5554
      2330.3224          0.000           5.7504          5.7504
  21443217.0364  -11465838.80647  -8778492.76246         0.000    21443221.1954
     -2420.8404          0.000          24.0004         21.2504
  22894299.5584    5922582.04645   2997645.83345         0.000    22894305.6274
     -2290.3494          0.000           8.2504          9.2504
  21735418.6594  -12889839.67047  -8054331.08246         0.000    21735423.3994
       745.1424          0.000          22.7504         19.5004
  25090672.8204   14560546.81644  11445743.73145         0.000    25090675.5354
     -3871.3914          0.000           6.2504          5.5004
  24874996.0584     772929.10844    101445.81745         0.000    24875015.6394
      -920.5734          0.000           6.7504          5.5004
  21694404.8214  -13193955.57247  -9640009.59946         0.000    21694407.1594
      1806.6604          0.000          25.2504         20.5004
  4  3  1  0 29  0.0000000  0 10G26G22G18G14G 6G17G 9G29G30G21
  23219619.4874     691029.11645   1382826.02445         0.000    23219622.3254
     -4117.2714          0.000          10.5004          9.2504
  24429082.6184    -583360.01045   -358479.36845         0.000    24429086.7034
       161.7914          0.000           7.5004          6.7504
  22910668.8504   -3717220.77746   1071670.62446         0.000    22910672.8424
      -355.5354          0.000          15.5004         13.5004
  24451453.0774    -675946.58844   -321926.49545         0.000    24451465.2804
      2321.5394          0.000           6.5004          5.7504
  21457071.6874  -11393032.02347  -8721760.20746         0.000    21457076.8654
     -2432.7984          0.000          23.0004         21.2504
  22907413.6904    5991496.86545   3051345.64245         0.000    22907420.9754
     -2303.8224          0.000           9.2504         10.0004
  21731205.4774  -12911979.86547  -8071583.11746         0.000    21731209.2994
       731.0234          0.000          23.0004         19.7504
  25112767.0994   14676653.09744  11536216.22245         0.000    25112768.2544
     -3868.8754          0.000           6.2504          5.5004
  24880222.8474     800396.04744    122848.74445         0.000    24880235.5724
      -910.3784          0.000           7.2504          6.2504
  21684107.4394  -13248068.59347  -9682175.51346         0.000    21684108.9974
      1801.0394          0.000          23.7504         20.5004
  4  3  1  0 29 30.0000000  0 10G26G22G18G14G 6G17G 9G29G30G21
  23243133.2264     814595.04645   1479111.18245         0.000    23243136.0894
     -4120.4674          0.000           9.5004          9.0004
  24428161.4174    -588200.44745   -362250.97045         0.000    24428163.5914
       160.8964          0.000           8.2504          7.5004
  22912694.7054   -3706574.37446   1079966.59346         0.000    22912698.4594
      -354.2394          0.000          16.2504         13.2504
  24438225.6224    -745454.41844   -376087.53845         0.000    24438233.1474
      2312.2704          0.000           7.2504          6.0004
  21470995.0744  -11319864.08247  -8664746.23346         0.000    21470999.8714
     -2445.0744          0.000          23.2504         21.2504
  22920605.2374    6060818.67045   3105362.59245         0.000    22920611.2074
     -2317.6814          0.000          10.2504          9.5004
  21727073.8344  -12933691.64747  -8088501.32646         0.000    21727078.0054
       716.3824          0.000          23.0004         20.0004
  25134847.3534   14792685.82443  11626631.28145         0.000    25134851.5594
     -3866.6804          0.000           5.7504          5.2504
  24885392.0404     827561.25843    144016.53244         0.000    24885413.0444
      -900.6344          0.000           6.0004          4.2504
  21673843.1104  -13302007.69847  -9724205.92546         0.000    21673845.0264
      1794.8564          0.000          24.5004         20.2504
  4  3  1  0 30  0.0000000  0 10G26G22G18G14G 6G17G 9G29G30G21
  23266663.8174     938249.75445   1575465.53445         0.000    23266668.6034
     -4123.2784          0.000           9.7504          9.2504
  24427244.1574    -593020.08345   -366006.36345         0.000    24427247.6254
       160.3134          0.000           7.7504          7.0004
  22914711.9994   -3695973.03346   1088227.44946         0.000    22914715.8234
      -352.6044          0.000          15.7504         13.0004
  24425050.1724    -814688.87644   -430035.64645         0.000    24425060.5834
      2303.2614          0.000           6.7504          6.0004
  21484987.3114  -11246334.38947  -8607450.37446         0.000    21484992.4744
     -2456.9714          0.000          22.7504         20.5004
  22933874.9904    6130551.38145   3159699.71345         0.000    22933880.3944
     -2331.2844          0.000          10.0004          9.5004
  21723024.9754  -12954968.22347  -8105080.40846         0.000    21723028.8624
       701.9354          0.000          23.2504         20.0004
  25156913.9544   14908646.99643  11716990.84845         0.000    25156914.7774
     -3864.1324          0.000           5.0004          6.0004
  24890504.5154     854428.06044    164951.85645         0.000    24890524.5094
      -890.5854          0.000           6.2504          5.0004
  21663613.1974  -13355766.01047  -9766095.45346         0.000    21663615.1944
      1788.9104          0.000          24.2504         20.5004
  4  3  1  0 30 30.0000000  0  9G26G22G18G14G 6G17G 9G30G21
  23290211.4724    1061993.83745   1671889.50545         0.000    23290216.0284
     -4126.0834          0.000           9.7504          9.5004
  24426331.1114    -597816.99444   -369744.11745         0.000    24426336.2424
       159.7334          0.000           7.2504          7.0004
  22916721.1064   -3685414.69946   1096454.80946         0.000    22916725.0904
      -351.0074          0.000          15.7504         13.7504
  24411927.7254    -883644.80144   -483766.59445         0.000    24411935.9994
      2294.0714          0.000           6.7504          6.0004
  21499048.4914  -11172442.39747  -8549872.20646         0.000    21499052.7484
     -2468.8964          0.000          22.7504         21.2504
  22947223.5624    6200698.28045   3214359.61845         0.000    22947229.9514
     -2344.9324          0.000           9.2504          9.0004
  21719060.0464  -12975803.77347  -8121315.83646         0.000    21719064.1444
       687.3424          0.000          23.5004         20.5004
  24895560.8204     880999.33145    185656.85345         0.000    24895579.0784
      -880.5774          0.000           7.5004          4.7504
  21653418.7644  -13409337.73247  -9807839.58946         0.000    21653421.2404
      1782.7824          0.000          23.5004         20.2504
  4  3  1  0 31  0.0000000  0  9G26G22G18G14G 6G17G 9G30G21
  23313774.0764    1185816.13045   1768374.43345         0.000    23313777.7424
     -4128.7764          0.000          10.0004          9.5004
  24425420.6064    -602600.53845   -373471.36245         0.000    24425426.0914
       159.1704          0.000           8.5004          8.2504
  22918720.3534   -3674908.37846   1104641.63446         0.000    22918725.0174
      -349.4104          0.000          16.2504         13.2504
  24398856.8884    -952328.64243   -537285.62344         0.000    24398868.7114
      2284.8494          0.000           5.7504          4.2504
  21513176.6614  -11098198.40847  -8492019.74946         0.000    21513181.1674
     -2480.7284          0.000          22.7504         21.0004
  22960649.4204    6271251.41345   3269336.05145         0.000    22960655.0124
     -2358.6114          0.000           9.7504          9.5004
  21715178.0474  -12996203.48347  -8137211.64846         0.000    21715182.1784
       672.6244          0.000          23.0004         20.5004
  24900559.2354     907266.74244    206125.01545         0.000    24900578.6134
      -870.5864          0.000           6.7504          5.2504
  21643258.9194  -13462727.80747  -9849442.18946         0.000    21643261.6644
      1776.5274          0.000          25.0004         21.0004
  4  3  1  0 31 30.0000000  0  9G26G22G18G14G 6G17G 9G30G21
  23337351.6944    1309717.75445   1864921.15945         0.000    23337356.0274
     -4131.2584          0.000           8.7504          9.2504
  24424513.1974    -607368.35844   -377186.40345         0.000    24424517.9954
       158.7474          0.000           7.2504          7.5004
  22920710.2664   -3664451.09246   1112790.27046         0.000    22920714.2914
      -347.6544          0.000          15.7504         13.5004
  24385838.8644   -1020734.74243   -590588.36145         0.000    24385848.7544
      2275.6784          0.000           5.0004          4.7504
  21527372.0324  -11023601.32947  -8433892.15446         0.000    21527376.5864
     -2492.3404          0.000          23.0004         21.0004
  22974153.1994    6342214.27045   3324631.68745         0.000    22974160.0564
     -2372.1834          0.000           9.5004          9.0004
  21711380.1954  -13016161.03747  -8152762.92246         0.000    21711384.0444
       657.9364          0.000          22.5004         20.5004
  24905500.4654     933233.31145    226358.89745         0.000    24905516.6584
      -860.4604          0.000           7.5004          5.5004
  21633134.8954  -13515929.82047  -9890898.25246         0.000    21633137.0374
      1770.3174          0.000          25.7504         21.0004
  4  3  1  0 32  0.0000000  0  9G26G22G18G14G 6G17G 9G30G21
  23360943.2824    1433692.53545   1961524.90545         0.000    23360947.1554
     -4133.8744          0.000           9.5004          9.0004
  24423607.8814    -612125.05943   -380892.77445         0.000    24423612.0334
       158.1874          0.000           6.0004          7.0004
  22922689.9904   -3654047.12646   1120897.32846         0.000    22922693.0604
      -346.0934          0.000          15.2504         13.5004
  24372873.6104   -1088864.65643   -643675.90645         0.000    24372881.5504
      2266.1904          0.000           5.5004          4.7504
  21541633.5164  -10948656.70147  -8375493.74246         0.000    21541638.2104
     -2504.1124          0.000          22.5004         21.0004
  22987734.4084    6413583.68745   3380244.17945         0.000    22987740.4144
     -2385.9454          0.000          10.0004          9.5004
  21707666.4114  -13035676.98047  -8167970.08946         0.000    21707669.8444
       642.9514          0.000          24.0004         21.0004
  24910383.6994     958895.52244    246355.46145         0.000    24910403.8064
      -850.4914          0.000           6.7504          4.7504
  21623046.4964  -13568944.60847  -9932208.42046         0.000    21623049.0774
      1763.7964          0.000          25.0004         21.0004
  4  3  1  0 32 30.0010000  0  9G26G22G18G14G 6G17G 9G30G21
  23384550.1444    1557747.81445   2058191.37045         0.000    23384554.4034
     -4136.3334          0.000           9.0004          8.0004
  24422705.5084    -616866.02445   -384586.82345         0.000    24422709.3404
       157.7464          0.000           7.7504          7.0004
  22924660.6984   -3643690.70946   1128967.34746         0.000    22924664.7144
      -344.4444          0.000          15.2504         13.5004
  24359961.7274   -1156713.14243   -696544.07045         0.000    24359972.2424
      2256.7144          0.000           5.0004          5.0004
  21555962.1784  -10873359.12547  -8316820.30746         0.000    21555966.5234
     -2515.7214          0.000          22.7504         21.0004
  23001394.5944    6485367.86845   3436179.83645         0.000    23001400.2204
     -2399.6744          0.000          11.2504          9.7504
  21704038.1514  -13054743.35047  -8182826.92246         0.000    21704042.4414
       627.9404          0.000          24.2504         20.5004
  24915210.2524     984259.55345    266119.70545         0.000    24915225.0814
      -840.4934          0.000           7.5004          5.2504
  21612995.2024  -13621764.19347  -9973366.48246         0.000    21612997.6104
      1757.2344          0.000          25.2504         21.2504
  4  3  1  0 33  0.0010000  0  9G26G22G18G14G 6G17G 9G30G21
  23408170.6084    1681874.52745   2154913.48845         0.000    23408174.8314
     -4138.8514          0.000           8.2504          8.2504
  24421806.4854    -621590.29545   -388267.89645         0.000    24421812.0184
       157.1214          0.000           9.2504          8.0004
  22926622.4064   -3633381.48646   1137000.62046         0.000    22926625.9464
      -342.9314          0.000          15.7504         13.0004
  24347105.2634   -1224271.39842   -749186.14445         0.000    24347115.7854
      2247.0414          0.000           4.7504          5.2504
  21570356.9564  -10797714.05147  -8257876.09546         0.000    21570361.5534
     -2527.3744          0.000          23.2504         21.2504
  23015133.1234    6557564.05145   3492436.53545         0.000    23015139.6934
     -2413.5334          0.000          10.7504          9.5004
  21700496.5644  -13073354.30547  -8197328.90546         0.000    21700500.1654
       612.6664          0.000          23.2504         20.2504
  24919980.0384    1009325.39945    285651.62245         0.000    24919999.6754
      -830.6404          0.000           7.7504          5.0004
  21602982.5884  -13674380.64047 -10014366.25846         0.000    21602985.0894
      1750.4114          0.000          25.2504         21.2504
  4  3  1  0 33 30.0010000  0  9G26G22G18G14G 6G17G 9G30G21
  23431804.5404    1806071.59445   2251690.47645         0.000    23431807.0064
     -4141.0294          0.000           9.7504          9.0004
  24420909.8884    -626301.70844   -391938.99645         0.000    24420915.2284
       156.8894          0.000           7.0004          7.0004
  22928574.6594   -3623121.93146   1144995.15046         0.000    22928578.3304
      -341.1064          0.000          15.0004         13.5004
  24334303.4454   -1291542.88143   -801604.83045         0.000    24334314.6494
      2237.6174          0.000           6.0004          4.7504
  21584817.3644  -10721724.22847  -8198663.25246         0.000    21584821.8044
     -2538.6854          0.000          23.7504         21.0004
  23028950.0324    6630172.07445   3549014.17345         0.000    23028957.0054
     -2427.0964          0.000          10.7504          9.5004
  21697041.5494  -13091510.17247  -8211476.26946         0.000    21697045.0994
       597.6134          0.000          23.2504         20.2504
  24924692.8394    1034091.24145    304949.79945         0.000    24924708.1004
      -820.4914          0.000           8.5004          5.7504
  21593008.3544  -13726795.33047 -10055208.82246         0.000    21593010.6784
      1743.7984          0.000          25.0004         21.7504
  4  3  1  0 34  0.0010000  0  9G26G22G18G14G 6G17G 9G30G21
  23455451.4364    1930336.96745   2348520.65345         0.000    23455456.0664
     -4143.3684          0.000           9.0004          8.7504
  24420015.4684    -631000.94744   -395600.58645         0.000    24420020.7404
       156.3634          0.000           6.7504          5.5004
  22930517.4104   -3612912.46746   1152950.67046         0.000    22930520.7674
      -339.5634          0.000          15.7504         13.7504
  24321556.6104   -1358525.25744   -853798.31945         0.000    24321560.3324
      2227.8224          0.000           6.7504          4.7504
  21599343.0594  -10645391.23247  -8139182.98446         0.000    21599347.9394
     -2550.2124          0.000          23.0004         20.7504
  23042845.3964    6703192.39745   3605913.08745         0.000    23042851.0854
     -2440.9494          0.000          10.0004          9.5004
  21693673.7514  -13109207.77547  -8225266.52446         0.000    21693677.7754
       582.1614          0.000          23.7504         20.5004
  24929348.4474    1058557.10545    324014.19645         0.000    24929364.3884
      -810.6274          0.000           8.2504          6.5004
  21583073.1654  -13779004.87947 -10095891.53746         0.000    21583076.0044
      1736.7764          0.000          25.7504         22.0004
  4  3  1  0 34 30.0010000  0  9G26G22G18G14G 6G17G 9G30G21
  23479110.0734    2054663.99445   2445398.90445         0.000    23479114.9254
     -4145.5174          0.000           9.0004          8.0004
  24419122.4344    -635693.03845   -399256.56345         0.000    24419126.3144
       156.0434          0.000           7.5004          7.7504
  22932449.7664   -3602757.73746   1160863.51846         0.000    22932453.0564
      -337.8464          0.000          16.5004         13.5004
  24308864.4394   -1425220.36545   -905767.77645         0.000    24308871.9424
      2218.0934          0.000           7.5004          5.7504
  21613932.7354  -10568721.92947  -8079440.66746         0.000    21613937.0824
     -2561.5174          0.000          22.5004         20.7504
  23056818.4844    6776621.18845   3663130.24745         0.000    23056825.5654
     -2454.7024          0.000          10.0004          9.5004
  21690392.9074  -13126448.33947  -8238700.66446         0.000    21690396.9924
       566.7614          0.000          22.7504         20.2504
  24933946.1194    1082718.95644    342841.72545         0.000    24933964.7584
      -800.5924          0.000           6.7504          5.7504
  21573176.8904  -13831010.10847 -10136415.04446         0.000    21573178.8254
      1729.7924          0.000          26.0004         21.7504
  4  3  1  0 35  0.0010000  0  9G26G22G18G14G 6G17G 9G30G21
  23502779.7394    2179049.23344   2542322.50945         0.000    23502784.4544
     -4147.2804          0.000           7.0004          8.0004
  24418230.4934    -640379.95145   -402908.53445         0.000    24418235.5484
       156.0074          0.000           9.2504          7.5004
  22934371.3254   -3592659.51846   1168732.35546         0.000    22934374.5524
      -335.8334          0.000          15.0004         13.7504
  24296227.0144   -1491627.36644   -957512.86845         0.000    24296233.2974
      2208.5704          0.000           7.2504          6.0004
  21628585.8514  -10491719.22047  -8019438.55346         0.000    21628590.5444
     -2572.4354          0.000          22.2504         20.2504
  23070869.0684    6850457.44945   3720664.95445         0.000    23070874.9644
     -2468.1914          0.000           9.7504          8.0004
  21687199.3944  -13143230.06947  -8251777.26046         0.000    21687202.6174
       551.5454          0.000          24.7504         21.0004
  24938485.8684    1106575.59345    361431.34445         0.000    24938504.8434
      -790.3224          0.000           7.5004          6.2504
  21563319.8574  -13882808.80547 -10176777.63046         0.000    21563322.0184
      1722.9774          0.000          24.5004         21.0004
  4  3  1  0 35 30.0010000  0  9G26G22G18G14G 6G17G 9G30G21
  23526460.0804    2303490.48845   2639289.70045         0.000    23526466.5614
     -4148.8244          0.000           7.5004          6.7504
  24417339.3384    -645062.53045   -406557.13545         0.000    24417346.2284
       156.1264          0.000           8.0004          7.5004
  22936282.1284   -3582617.88746   1176557.08546         0.000    22936285.3614
      -333.6604          0.000          15.2504         13.0004
  24283644.9934   -1557743.93745  -1009031.64845         0.000    24283652.2504
      2199.1224          0.000           7.7504          5.5004
  21643301.8464  -10414386.01147  -7959178.92046         0.000    21643306.6324
     -2583.1564          0.000          21.7504         20.0004
  23084997.3054    6924701.62945   3778517.49345         0.000    23085004.2264
     -2481.4994          0.000          10.0004          9.2504
  21684093.8074  -13159549.75647  -8264493.81846         0.000    21684097.6214
       536.3794          0.000          23.5004         20.5004
  24942967.5034    1130127.35544    379783.60245         0.000    24942985.8664
      -779.8574          0.000           6.7504          5.7504
  21553502.7814  -13934397.68247 -10216976.71246         0.000    21553504.9544
      1716.2074          0.000          25.5004         21.5004
  4  3  1  0 36  0.0010000  0  9G26G22G18G14G 6G17G 9G30G21
  23550149.8914    2427981.15045   2736295.51145         0.000    23550154.5374
     -4150.6474          0.000           8.2504          8.2504
  24416447.9884    -649745.99845   -410206.44745         0.000    24416454.1794
       155.9674          0.000           9.2504          7.7504
  22938181.3034   -3572637.27746   1184334.26446         0.000    22938184.5874
      -331.8254          0.000          15.0004         13.0004
  24271117.7864   -1623572.26745  -1060325.92545         0.000    24271126.1334
      2189.2764          0.000           7.7504          7.0004
  21658079.6234  -10336728.06947  -7898666.25546         0.000    21658084.2244
     -2594.1434          0.000          21.5004         20.2504
  23099202.3454    6999349.72745   3836684.75845         0.000    23099207.5144
     -2495.1814          0.000           9.2504          8.2504
  21681075.9374  -13175408.55447  -8276851.25946         0.000    21681079.6574
       520.7514          0.000          24.0004         20.7504
  24947390.3554    1153370.07344    397894.86645         0.000    24947413.3134
      -769.7784          0.000           6.7504          5.0004
  21543725.5094  -13985777.40747 -10257012.80046         0.000    21543727.8714
      1708.9674          0.000          26.0004         22.0004
  4  3  1  0 36 30.0010000  0  9G26G22G18G14G 6G17G 9G30G21
  23573849.0024    2552520.87645   2833339.47645         0.000    23573853.8534
     -4152.0204          0.000           8.0004          8.0004
  24415556.7094    -654429.35645   -413855.67245         0.000    24415561.0814
       156.1664          0.000           8.7504          8.5004
  22940069.1194   -3562716.52546   1192064.79146         0.000    22940072.2924
      -329.6034          0.000          16.2504         13.5004
  24258646.2074   -1689108.52645  -1111392.51045         0.000    24258655.7384
      2179.7284          0.000           8.0004          5.5004
  21672919.0874  -10258746.08447  -7837901.07246         0.000    21672923.8704
     -2604.6834          0.000          21.0004         19.5004
  23113484.6784    7074403.64045   3895168.30545         0.000    23113490.2134
     -2508.4844          0.000           8.7504          9.0004
  21678146.5994  -13190802.07247  -8288846.13046         0.000    21678150.7224
       505.4114          0.000          22.2504         20.7504
  24951754.8204    1176305.56144    415766.74345         0.000    24951771.2714
      -759.3214          0.000           6.5004          5.2504
  21533988.8964  -14036943.39847 -10296882.35746         0.000    21533991.5004
      1702.0224          0.000          25.2504         21.7504
  4  3  1  0 37  0.0010000  0  9G26G22G18G14G 6G17G 9G30G21
  23597557.3114    2677109.12545   2930421.26545         0.000    23597560.4744
     -4153.6844          0.000           8.7504          7.0004
  24414665.5974    -659111.51845   -417503.94445         0.000    24414671.4604
       156.0994          0.000           8.0004          7.5004
  22941945.8704   -3552853.98646   1199749.96646         0.000    22941948.8624
      -327.7524          0.000          16.5004         13.7504
  24246230.9204   -1754348.90344  -1162228.64545         0.000    24246238.1264
      2169.7414          0.000           6.7504          6.0004
  21687820.1584  -10180440.58347  -7776883.81246         0.000    21687824.9454
     -2615.5284          0.000          21.7504         19.7504
  23127844.6744    7149865.33245   3953969.55445         0.000    23127849.8964
     -2522.1544          0.000          10.5004          9.0004
  21675306.7644  -13205725.25947  -8300474.52946         0.000    21675310.3264
       489.5894          0.000          23.5004         21.0004
  24956061.1364    1198935.78043    433400.80645         0.000    24956073.2744
      -749.2044          0.000           5.0004          4.7504
  21524293.9034  -14087890.63547 -10336581.45746         0.000    21524296.1264
      1694.5614          0.000          24.7504         21.5004
  4  3  1  0 37 30.0010000  0  9G26G22G18G14G 6G17G 9G30G21
  23621274.6974    2801744.76545   3027540.02045         0.000    23621276.9114
     -4155.2094          0.000           9.0004          8.2504
  24413774.8274    -663792.14645   -421151.03245         0.000    24413777.9854
       156.0994          0.000           9.5004          8.7504
  22943811.7274   -3543048.59646   1207390.61746         0.000    22943815.4694
      -325.8134          0.000          16.5004         14.0004
  24233872.5944   -1819289.91345  -1212831.50145         0.000    24233874.1004
      2159.7684          0.000           7.5004          6.7504
  21702782.6534  -10101812.23247  -7715614.96646         0.000    21702787.2224
     -2626.2114          0.000          21.2504         19.5004
  23142282.4994    7225736.35845   4013089.73945         0.000    23142288.9194
     -2535.7874          0.000          10.5004          8.5004
  21672557.1824  -13220174.04947  -8311733.23646         0.000    21672561.4014
       473.7664          0.000          23.2504         20.7504
  24960309.4854    1221262.09442    450797.97845         0.000    24960324.2574
      -739.0614          0.000           4.2504          4.5004
  21514641.4994  -14138614.00747 -10376106.11546         0.000    21514643.9634
      1687.1004          0.000          24.7504         21.7504
  4  3  1  0 38  0.0010000  0  9G26G22G18G14G 6G17G 9G30G21
  23645000.3204    2926423.76245   3124692.52945         0.000    23645004.0444
     -4156.5284          0.000           8.5004          7.5004
  24412883.8684    -668473.94345   -424799.00145         0.000    24412890.3724
       156.2544          0.000          10.2504          6.7504
  22945666.3064   -3533302.64646   1214984.92946         0.000    22945670.1964
      -323.7144          0.000          17.0004         14.2504
  24221571.3154   -1883931.47345  -1263200.91545         0.000    24221580.8804
      2149.8584          0.000           8.7504          7.7504
  21717805.7424  -10022865.27947  -7654097.86446         0.000    21717810.1784
     -2636.7014          0.000          20.7504         19.2504
  23156797.8914    7302014.81045   4072527.45745         0.000    23156803.1414
     -2549.2414          0.000          10.5004          8.5004
  21669898.0594  -13234147.48147  -8322621.55546         0.000    21669901.8744
       457.9684          0.000          23.7504         21.0004
  24964499.8614    1243282.77443    467957.24245         0.000    24964518.5564
      -728.7704          0.000           6.0004          4.7504
  21505031.9454  -14189112.30547 -10415455.39446         0.000    21505034.5014
      1679.6454          0.000          25.7504         22.2504
  4  3  1  0 38 30.0010000  0  9G26G22G18G14G 6G17G 9G30G21
  23668732.6274    3051137.83145   3221872.38045         0.000    23668736.8934
     -4157.5124          0.000           8.0004          7.7504
  24411991.3594    -673163.75745   -428453.29445         0.000    24411995.3234
       156.6464          0.000           8.0004          7.5004
  22947508.3784   -3523622.30246   1222528.15046         0.000    22947511.3214
      -321.3884          0.000          16.5004         13.7504
  24209326.3144   -1948277.59745  -1313340.28045         0.000    24209332.6834
      2140.1104          0.000           8.2504          8.0004
  21732887.9194   -9943607.89547  -7592338.86346         0.000    21732892.5534
     -2646.8654          0.000          20.5004         19.0004
  23171389.7114    7378694.90645   4132278.10045         0.000    23171396.0414
     -2562.4824          0.000          11.5004          9.0004
  21667328.8544  -13247648.60347  -8333141.85746         0.000    21667332.4714
       442.3214          0.000          23.5004         21.2504
  24968630.9134    1264991.84243    484873.46745         0.000    24968645.6264
      -718.2494          0.000           5.5004          5.2504
  21495464.7114  -14239388.32747 -10454631.46746         0.000    21495467.4214
      1672.3024          0.000          26.7504         22.5004
  4  3  1  0 39  0.0010000  0  9G26G22G18G14G 6G17G 9G30G21
  23692471.3844    3175885.73445   3319078.60445         0.000    23692474.9254
     -4158.7274          0.000           9.0004          8.2504
  24411097.3244    -677861.42245   -432113.72645         0.000    24411101.7264
       156.7794          0.000           8.7504          7.5004
  22949338.0564   -3514006.80346   1230020.81646         0.000    22949341.8124
      -319.3704          0.000          16.5004         13.7504
  24197137.9744   -2012325.17945  -1363246.96145         0.000    24197145.9194
      2129.9864          0.000           9.0004          8.7504
  21748028.8384   -9864041.85747  -7530339.36446         0.000    21748033.2854
     -2657.2604          0.000          20.2504         18.7504
  23186058.0924    7455777.84645   4192342.69445         0.000    23186063.9964
     -2576.0654          0.000           9.7504          8.2504
  21664850.2444  -13260673.50047  -8343291.05146         0.000    21664853.6164
       426.2574          0.000          24.5004         21.5004
  24972702.7934    1286390.68542    501548.00544         0.000    24972716.2514
      -708.0734          0.000           4.5004          4.0004
  21485940.6534  -14289437.74447 -10493630.96846         0.000    21485942.4594
      1664.5774          0.000          27.0004         22.5004
  4  3  1  0 39 30.0010000  0  9G26G22G18G14G 6G17G 9G30G21
  23716216.2164    3300665.28745   3416309.51245         0.000    23716219.9784
     -4159.6954          0.000           8.7504          7.7504
  24410201.6114    -682567.68045   -435780.82345         0.000    24410207.8454
       157.1844          0.000           7.7504          7.5004
  22951155.2394   -3504456.90846   1237462.37246         0.000    22951157.8524
      -317.1094          0.000          15.2504         13.0004
  24185006.8464   -2076072.33045  -1412919.58445         0.000    24185015.7014
      2119.9994          0.000           9.0004          8.5004
  21763228.2174   -9784168.65747  -7468100.51646         0.000    21763232.8824
     -2667.3994          0.000          20.5004         19.0004
  23200803.1854    7533263.59045   4252721.12445         0.000    23200806.7224
     -2589.4484          0.000           9.2504          8.2504
  21662462.7684  -13273219.51447  -8353067.09546         0.000    21662466.7184
       410.3184          0.000          24.2504         21.5004
  24976715.6184    1307479.30642    517980.84045         0.000    24976739.6764
      -697.6504          0.000           4.7504          4.7504
  21476460.3044  -14339257.20947 -10532451.28846         0.000    21476462.4854
      1656.9024          0.000          26.5004         22.5004
  4  3  1  0 40  0.0010000  0  9G26G22G18G14G 6G17G 9G30G21
  23739966.7584    3425475.41045   3513564.16245         0.000    23739969.2814
     -4160.9924          0.000           8.2504          8.2504
  24409304.4544    -687282.26045   -439454.36845         0.000    24409309.9544
       157.1644          0.000           9.5004          7.5004
  22952960.1454   -3494971.45446   1244853.72646         0.000    22952963.2904
      -315.2584          0.000          15.7504         13.7504
  24172933.4804   -2139515.97845  -1462355.71045         0.000    24172939.9524
      2109.5484          0.000           7.7504          8.5004
  21778485.5964   -9703990.51847  -7405624.05646         0.000    21778490.4584
     -2677.8094          0.000          20.2504         18.7504
  23215625.1784    7611153.37445   4313414.41945         0.000    23215630.8484
     -2603.2284          0.000           9.5004          8.7504
  21660167.1334  -13285282.85547  -8362467.03846         0.000    21660170.9634
       393.8864          0.000          24.5004         21.5004
  24980669.7494    1328259.08242    534173.19044         0.000    24980679.8604
      -687.6634          0.000           3.7504          3.7504
  21467024.5844  -14388842.11547 -10571088.81946         0.000    21467026.6654
      1648.7354          0.000          27.7504         23.2504
  4  3  1  0 40 30.0010000  0  9G26G22G18G14G 6G17G 9G30G21
  23763722.4094    3550312.37245   3610839.76645         0.000    23763722.5754
     -4161.8374          0.000           9.0004          7.7504
  24408405.1724    -692007.51745   -443136.30145         0.000    24408407.4194
       157.5444          0.000           9.0004          8.0004
  22954752.5364   -3485552.16846   1252193.49646         0.000    22954754.9444
      -313.0244          0.000          16.2504         13.5004
  24160917.9624   -2202655.46445  -1511554.85445         0.000    24160925.3204
      2099.4084          0.000           7.5004          8.2504
  21793800.4334   -9623510.45947  -7342912.32946         0.000    21793805.6214
     -2687.8244          0.000          20.2504         18.7504
  23230523.7874    7689445.94045   4374421.52345         0.000    23230529.7834
     -2616.5914          0.000           9.7504          8.0004
  21657963.6484  -13296862.03647  -8371489.71646         0.000    21657967.1614
       377.7154          0.000          24.2504         21.5004
  24984564.9814    1348728.85843         0.000           0.000           0.000
      -677.3344          0.000           5.5004          0.000
  21457633.8984  -14438190.45047 -10609542.01646         0.000    21457636.2134
      1640.8154          0.000          27.0004         23.0004
  4  3  1  0 41  0.0010000  0  9G26G22G18G14G 6G17G 9G30G21
  23787483.7214    3675178.72245   3708138.33545         0.000    23787486.0584
     -4162.5654          0.000           9.5004          8.2504
  24407504.6394    -696739.52245   -446823.41445         0.000    24407507.9174
       157.9794          0.000           8.0004          8.0004
  22956533.2024   -3476194.42646   1259485.31746         0.000    22956536.3354
      -310.7684          0.000          16.2504         13.2504
  24148961.6604   -2265484.14245  -1560511.78945         0.000    24148970.0714
      2089.2284          0.000           8.2504          8.2504
  21809173.1604   -9542726.19647  -7279963.55646         0.000    21809177.9534
     -2697.7304          0.000          20.7504         19.5004
  23245499.8334    7768145.69945   4435745.94845         0.000    23245506.0874
     -2630.0054          0.000           9.2504          8.0004
  21655853.7034  -13307949.54447  -8380129.26446         0.000    21655857.9334
       361.4824          0.000          24.5004         21.5004
  24988401.9744    1368893.53742         0.000           0.000           0.000
      -666.9094          0.000           4.5004          0.000
  21448289.6214  -14487294.75347 -10647805.06346         0.000    21448291.9654
      1632.8344          0.000          27.0004         23.0004
  4  3  1  0 41 30.0010000  0 10G26G22G18G14G 6G17G 9G15G30G21
  23811249.4854    3800069.12245   3805455.50645         0.000    23811252.6944
     -4163.2044          0.000           8.2504          8.2504
  24406601.9314    -701482.34945   -450519.02845         0.000    24406602.6514
       158.4804          0.000           8.7504          7.7504
  22958301.4614   -3466901.76546   1266726.43746         0.000    22958304.0294
      -308.4944          0.000          16.0004         13.2504
  24137064.3734   -2328003.28245  -1609227.55245         0.000    24137069.9514
      2078.9674          0.000           9.2504          8.7504
  21824602.8004   -9461642.94347  -7216781.79746         0.000    21824607.4754
     -2707.5524          0.000          21.0004         19.5004
  23260552.8614    7847249.71945   4497385.39445         0.000    23260559.5464
     -2643.3464          0.000           9.7504          8.7504
  21653837.2824  -13318545.62847  -8388385.89146         0.000    21653840.8034
       345.1614          0.000          23.7504         21.5004
  24845617.4464          0.000           0.000           0.000           0.000
      2660.1434          0.000           4.5004          0.000
  24992180.3694    1388750.02642         0.000           0.000           0.000
      -656.4864          0.000           3.7504          0.000
  21438991.8414  -14536154.78247 -10685877.76346         0.000    21438993.9694
      1624.7394          0.000          27.5004         23.0004
  4  3  1  0 42  0.0010000  0 10G26G22G18G14G 6G17G 9G15G30G21
  23835017.4364    3924970.48645   3902781.31745         0.000    23835020.5934
     -4163.4154          0.000           9.0004          8.7504
  24405695.0594    -706247.61645   -454232.11045         0.000    24405700.1254
       159.3424          0.000           8.7504          7.0004
  22960055.2584   -3457685.20046   1273908.23046         0.000    22960058.5824
      -305.8284          0.000          15.7504         13.5004
  24125224.2104   -2390221.77745  -1657709.07145         0.000    24125232.7894
      2069.0454          0.000           8.0004          8.2504
  21840086.6704   -9380274.66547  -7153377.94246         0.000    21840091.7294
     -2716.9084          0.000          21.2504         19.2504
  23275680.7874    7926747.09845   4559331.34545         0.000    23275687.8374
     -2656.3534          0.000          10.0004          9.0004
  21651912.8344  -13328658.40747  -8396265.91746         0.000    21651917.1964
       329.1224          0.000          23.5004         21.2504
  24830420.4444     -77197.33243         0.000           0.000           0.000
      2663.9164          0.000           5.7504          0.000
  24995898.0804    1408287.76343         0.000           0.000           0.000
      -645.8584          0.000           5.0004          0.000
  21429739.1114  -14584777.99547 -10723765.94546         0.000    21429740.8704
      1616.8944          0.000          27.2504         23.0004
  4  3  1  0 42 30.0010000  0 10G26G22G18G14G 6G17G 9G15G30G21
  23858787.2304    4049882.04845   4000115.06345         0.000    23858789.0724
     -4163.4164          0.000           8.2504          7.5004
  24404783.9834    -711034.65445   -457962.12845         0.000    24404786.6964
       160.3784          0.000           9.5004          8.0004
  22961794.7824   -3448543.71346   1281031.56846         0.000    22961797.6854
      -303.0444          0.000          16.2504         12.7504
  24113441.9784   -2452136.31645  -1705953.76345         0.000    24113446.5464
      2059.1864          0.000           8.5004          7.5004
  21855624.7464   -9298621.57247  -7089752.16946         0.000    21855629.5504
     -2726.0504          0.000          21.7504         20.2504
  23290883.8604    8006639.26745   4621584.89945         0.000    23290890.7874
     -2669.1954          0.000          10.5004          9.7504
  21650081.0944  -13338283.99247  -8403766.31146         0.000    21650085.2854
       313.1384          0.000          23.2504         21.0004
  24815203.0564    -157164.48843         0.000           0.000           0.000
      2667.7774          0.000           6.0004          0.000
  24999555.8084    1427508.53744         0.000           0.000           0.000
      -634.9384          0.000           6.2504          0.000
  21420532.3314  -14633159.67147 -10761465.89446         0.000    21420534.4214
      1609.1004          0.000          27.0004         23.0004
  4  3  1  0 43  0.0010000  0 10G26G22G18G14G 6G17G 9G15G30G21
  23882558.8584    4174803.58645   4097456.61345         0.000    23882562.0814
     -4164.3424          0.000           7.5004          7.7504
  24403869.0544    -715842.52045   -461708.41045         0.000    24403874.3844
       160.4704          0.000          10.2504          7.7504
  22963520.3854   -3439475.32546   1288097.89546         0.000    22963523.0954
      -301.2114          0.000          15.2504         13.2504
  24101718.2734   -2513743.21245  -1753958.77945         0.000    24101723.5144
      2048.2564          0.000           8.0004          7.2504
  21871216.8674   -9216684.59447  -7025905.18846         0.000    21871222.3434
     -2736.0954          0.000          22.2504         20.2504
  23306162.3484    8086927.91745   4684147.40345         0.000    23306169.7204
     -2683.0724          0.000          10.5004          8.7504
  21648342.9124  -13347417.91647  -8410883.58946         0.000    21648346.7724
       296.0724          0.000          23.5004         21.2504
  24799966.0394    -237235.09344    -27044.78055         0.000    24799970.4604
      2670.5714          0.000           6.7504          5.0004
  25003153.4294    1446414.29043        -1.47354         0.000    25003176.6184
      -625.1044          0.000           5.2504          4.2504
  21411372.4914  -14681294.62747 -10798973.59646         0.000    21411374.3954
      1600.1884          0.000          26.5004         23.2504
  4  3  1  0 43 30.0010000  0 10G26G22G18G14G 6G17G 9G15G30G21
  23906332.8934    4299737.67845   4194807.85345         0.000    23906334.2554
     -4164.4924          0.000           8.0004          8.2504
  24402950.9554    -720667.11245   -465467.67845         0.000    24402955.3844
       161.2604          0.000          10.5004          8.0004
  22965232.8534   -3430476.00146   1295110.43546         0.000    22965235.6124
      -298.6694          0.000          16.0004         13.7504
  24090054.4114   -2575035.72945  -1801718.77745         0.000    24090062.3124
      2037.9944          0.000           8.5004          7.0004
  21886863.4584   -9134461.29247  -6961835.09146         0.000    21886868.5874
     -2745.3574          0.000          21.0004         19.5004
  23321517.2174    8167617.84445   4747022.62245         0.000    23321523.7514
     -2696.1854          0.000          10.0004          8.7504
  21646699.7304  -13356052.50147  -8417611.78646         0.000    21646703.8654
       279.6344          0.000          23.2504         21.0004
  24784710.6914    -317402.18344    -89512.45145         0.000    24784718.2064
      2673.9884          0.000           6.7504          5.7504
  25006691.9054    1465010.02043     14488.98843         0.000    25006714.1254
      -614.5234          0.000           5.5004          3.0004
  21402261.2384  -14729174.49847 -10836282.54146         0.000    21402263.2614
      1591.8624          0.000          27.5004         23.2504
  4  3  1  0 44  0.0010000  0 10G26G22G18G14G 6G17G 9G15G30G21
  23930108.3374    4424678.83745   4292164.69745         0.000    23930112.9484
     -4164.8574          0.000           8.0004          8.0004
  24402028.8124    -725512.51545   -469243.23745         0.000    24402032.1604
       161.8204          0.000           9.2504          8.2504
  22966931.5714   -3421548.89546   1302066.68746         0.000    22966934.7874
      -296.4184          0.000          15.7504         13.5004
  24078450.1264   -2636015.25345  -1849234.91045         0.000    24078455.4584
      2027.3654          0.000           8.5004          7.2504
  21902563.5354   -9051957.02947  -6897546.07446         0.000    21902568.3604
     -2754.8484          0.000          20.5004         19.5004
  23336947.7584    8248705.54345   4810207.75445         0.000    23336953.7704
     -2709.6344          0.000          10.7504          9.0004
  21645151.4464  -13364188.42147  -8423951.39546         0.000    21645155.7664
       262.7924          0.000          23.5004         21.2504
  24769436.5864    -397666.81644   -152056.09745         0.000    24769443.9144
      2677.0534          0.000           6.2504          4.7504
  25010170.9054    1483292.91743         0.000           0.000           0.000
      -604.2644          0.000           6.0004          0.000
  21393198.4914  -14776799.34047 -10873392.76346         0.000    21393200.4814
      1583.1644          0.000          26.5004         23.0004
  4  3  1  0 44 30.0010000  0 10G26G22G18G14G 6G17G 9G15G30G21
  23953885.2214    4549627.42045   4389527.26545         0.000    23953888.3804
     -4164.8154          0.000           8.7504          8.2504
  24401102.9324    -730377.30745   -473033.76945         0.000    24401106.7974
       162.6764          0.000           9.0004          8.7504
  22968616.9464   -3412691.81146   1308968.38646         0.000    22968620.2294
      -293.8514          0.000          15.5004         13.5004
  24066906.1614   -2696677.45145  -1896503.79945         0.000    24066909.9504
      2016.9884          0.000           7.7504          7.2504
  21918317.1124   -8969171.47447  -6833037.86846         0.000    21918321.6174
     -2763.9454          0.000          20.2504         18.7504
  23352454.4684    8330193.43845   4873704.76945         0.000    23352460.5144
     -2722.7214          0.000           9.5004          8.7504
  21643699.0424  -13371820.64447  -8429898.52746         0.000    21643703.4034
       246.1934          0.000          24.2504         21.5004
  24754144.8894    -478024.15944   -214672.02145         0.000    24754148.9584
      2680.3254          0.000           6.7504          5.7504
  25013591.0414    1501265.41543         0.000           0.000           0.000
      -593.7124          0.000           5.7504          0.000
  21384185.2824  -14824163.75247 -10910300.03446         0.000    21384187.8134
      1574.6524          0.000          27.5004         23.5004
  4  3  1  0 45  0.0010000  0 10G26G22G18G14G 6G17G 9G15G30G21
  23977661.1764    4674571.01445   4486886.01245         0.000    23977665.0584
     -4165.0864          0.000           9.0004          7.5004
  24400171.3384    -735272.31045   -476847.93845         0.000    24400172.7404
       163.2874          0.000           9.0004          7.7504
  22970287.0714   -3403914.75846   1315807.71446         0.000    22970289.8274
      -291.6454          0.000          15.0004         13.2504
  24055421.0374   -2757030.68445  -1943531.93145         0.000    24055426.7224
      2006.1854          0.000           8.2504          7.2504
  21934121.7034   -8886117.79546  -6768320.72046         0.000    21934126.6374
     -2773.3094          0.000          18.7504         18.0004
  23368035.2644    8412071.08345   4937505.51845         0.000    23368042.0754
     -2736.1724          0.000           9.0004          8.0004
  21642341.0654  -13378956.71247  -8435459.04546         0.000    21642345.1794
       229.1644          0.000          24.5004         22.0004
  24738834.1064    -558482.12645   -277366.39645         0.000    24738840.7194
      2683.1604          0.000           7.5004          6.5004
  25016950.0864    1518918.00741         0.000           0.000           0.000
      -583.5144          0.000           3.2504          0.000
  21375220.4764  -14871274.05247 -10947009.31446         0.000    21375222.6634
      1565.6614          0.000          27.0004         23.5004
  4  3  1  0 45 30.0010000  0 10G26G22G18G14G 6G17G 9G15G30G21
  24001437.2994    4799515.68145   4584245.58245         0.000    24001440.6424
     -4164.7534          0.000           8.7504          8.0004
  24399235.2724    -740190.40245   -480680.04145         0.000    24399241.5944
       164.3984          0.000           9.2504          7.7504
  22971943.4554   -3395210.22346   1322590.56046         0.000    22971947.5044
      -288.8724          0.000          16.0004         13.0004
  24043996.5804   -2817065.03045  -1990311.57145         0.000    24044001.3694
      1995.8984          0.000           7.7504          8.0004
  21949978.4344   -8802790.07546  -6703390.05246         0.000    21949983.2804
     -2782.0644          0.000          19.5004         17.7504
  23383691.7744    8494346.53145   5001616.17745         0.000    23383698.2634
     -2749.0964          0.000           7.7504          8.2504
  21641079.4834  -13385586.21047  -8440624.82346         0.000    21641083.4404
       212.5704          0.000          23.2504         21.5004
  24723506.1854    -639030.37545   -340131.13145         0.000    24723512.8004
      2686.4964          0.000           8.0004          7.2504
  25020249.8374    1536258.68843         0.000           0.000           0.000
      -572.7714          0.000           5.7504          0.000
  21366306.0684  -14918119.43248 -10983512.15046         0.000    21366307.9034
      1557.1144          0.000          28.5004         24.0004
  4  3  1  0 46  0.0010000  0 10G26G22G18G14G 6G17G 9G15G30G21
  24025211.9654    4924452.43145   4681598.92945         0.000    24025215.2924
     -4164.3994          0.000           8.7504          7.7504
  24398293.4934    -745139.16345   -484536.11345         0.000    24398298.4084
       165.4624          0.000          10.2504          8.7504
  22973584.6274   -3386585.46146   1329311.25746         0.000    22973588.0114
      -286.1534          0.000          15.5004         13.2504
  24032631.7604   -2876785.82945  -2036846.92245         0.000    24032639.5804
      1985.4544          0.000           8.0004          7.0004
  21965885.5374   -8719197.68146  -6638253.14046         0.000    21965890.4374
     -2790.7894          0.000          19.2504         18.0004
  23399422.6134    8577012.55845   5066031.19645         0.000    23399428.8154
     -2762.0354          0.000           8.7504          8.0004
  21639913.4754  -13391713.43947  -8445399.23046         0.000    21639917.3734
       195.8594          0.000          23.5004         21.5004
  24708160.0684    -719673.53344   -402969.74845         0.000    24708165.7214
      2689.6624          0.000           6.5004          7.0004
  25023489.1014    1553281.01244         0.000           0.000           0.000
      -562.0924          0.000           7.2504          0.000
  21357441.4014  -14964703.42747 -11019811.31446         0.000    21357443.3464
      1548.4064          0.000          27.7504         24.0004
  4  3  1  0 46 30.0010000  0 10G26G22G18G14G 6G17G 9G15G30G21
  24048985.4884    5049383.29145   4778947.73445         0.000    24048988.8214
     -4164.1344          0.000           9.2504          7.5004
  24397346.4384    -750115.14245   -488413.29645         0.000    24397350.6584
       166.3954          0.000          10.2504          8.7504
  22975211.4244   -3378036.14146   1335973.13546         0.000    22975215.5014
      -283.6284          0.000          15.5004         13.2504
  24021327.7604   -2936187.16545  -2083133.31745         0.000    24021333.6804
      1974.7734          0.000           8.2504          6.5004
  21981843.3564   -8635338.93347  -6572908.67746         0.000    21981848.1144
     -2799.6294          0.000          20.5004         18.2504
  23415228.5234    8660073.11345   5130753.62345         0.000    23415235.0714
     -2775.1634          0.000           8.2504          7.7504
  21638844.3264  -13397331.59447  -8449776.95346         0.000    21638848.6504
       178.8374          0.000          22.2504         21.2504
  24692797.1474    -800405.00344   -465877.22045         0.000    24692801.9294
      2692.5464          0.000           6.5004          6.2504
  25026668.6444    1569989.32343         0.000           0.000           0.000
      -551.6144          0.000           5.2504          0.000
  21348627.9984  -15011018.14148 -11055900.63146         0.000    21348629.8744
      1539.3954          0.000          29.7504         24.5004
  4  3  1  0 47  0.0010000  0  9G26G22G18G14G 6G17G 9G15G21
  24072756.6424    5174301.75645   4876286.87745         0.000    24072760.1544
     -4163.9374          0.000           8.2504          7.2504
  24396393.1934    -755123.75245   -492315.92645         0.000    24396396.3334
       167.2954          0.000           9.5004          9.0004
  22976822.9754   -3369567.04246   1342572.51046         0.000    22976825.6354
      -281.1684          0.000          15.0004         13.7504
  24010084.0464   -2995271.27145  -2129172.53045         0.000    24010089.9034
      1963.9484          0.000           7.7504          7.0004
  21997850.6694   -8551220.07547  -6507361.53146         0.000    21997855.7824
     -2808.4864          0.000          21.0004         18.5004
  23431108.6014    8743523.67345   5195779.93745         0.000    23431114.5924
     -2788.4124          0.000           8.0004          7.5004
  21637871.6914  -13402442.57047  -8453759.46346         0.000    21637875.7144
       161.6764          0.000          23.5004         21.2504
  24677417.1724    -881226.70245   -528855.07945         0.000    24677421.8804
      2695.3284          0.000           7.5004          6.0004
  21339865.4874  -15057065.36248 -11091781.53646         0.000    21339867.0594
      1530.1944          0.000          28.2504         24.0004
  4  3  1  0 47 30.0010000  0 10G26G22G18G14G 6G17G 9G15G30G21
  24096526.3814    5299213.06745   4973620.46545         0.000    24096530.8594
     -4163.5154          0.000           7.5004          6.2504
  24395434.9844    -760158.23745   -496238.79245         0.000    24395439.0064
       168.3424          0.000           9.0004          8.2504
  22978420.6244   -3361170.95046   1349115.01746         0.000    22978423.7824
      -278.5944          0.000          16.5004         13.5004
  23998902.4494   -3054029.13344  -2174957.53145         0.000    23998907.5174
      1953.2074          0.000           7.0004          6.2504
  22013908.3714   -8466836.53347  -6441608.13046         0.000    22013912.8924
     -2817.1084          0.000          20.5004         18.2504
  23447064.3544    8827371.28145   5261115.71545         0.000    23447071.5554
     -2801.4594          0.000           9.0004          7.7504
  21636997.4264  -13407036.70847  -8457339.23346         0.000    21637001.4344
       144.5584          0.000          23.7504         21.5004
  24662021.9174    -962128.75445   -591895.43945         0.000    24662030.9624
      2698.1154          0.000           7.7504          6.0004
  25032847.6814       6393.82552         0.000           0.000           0.000
      -530.7364          0.000           4.7504          0.000
  21331155.9134  -15102834.17548 -11127445.48346         0.000    21331157.7694
      1521.0074          0.000          28.7504         24.2504
  4  3  1  0 48  0.0010000  0 10G26G22G18G14G 6G17G 9G15G30G21
  24120292.8274    5424106.86645   5070940.29745         0.000    24120294.3434
     -4162.9694          0.000           7.7504          6.0004
  24394470.1284    -765227.85845   -500188.99245         0.000    24394471.8424
       169.4134          0.000          10.7504          8.2504
  22980002.7574   -3352856.50846   1355593.88646         0.000    22980004.9874
      -275.9424          0.000          15.7504         13.5004
  23987781.6884   -3112467.62045  -2220493.69245         0.000    23987790.4394
      1942.4634          0.000           8.2504          7.0004
  22030014.3164   -8382199.33047  -6375657.07746         0.000    22030019.3444
     -2825.6064          0.000          20.5004         18.5004
  23463094.0324    8911607.45345   5326754.23145         0.000    23463100.5524
     -2814.5064          0.000           8.0004          7.7504
  21636220.4334  -13411119.76447  -8460520.77746         0.000    21636224.0184
       127.3974          0.000          24.7504         21.7504
  24646610.2454   -1043117.40645   -655003.37045         0.000    24646615.7964
      2700.8614          0.000           7.7504          6.5004
  25035847.3574      22155.69543         0.000           0.000           0.000
      -520.2244          0.000           5.7504          0.000
  21322498.4094  -15148329.46748 -11162896.29546         0.000    21322500.4114
      1511.7554          0.000          28.5004         24.7504
  4  3  1  0 48 30.0010000  0 10G26G22G18G14G 6G17G 9G15G30G21
  24144056.3304    5548984.48745   5168247.67245         0.000    24144058.5414
     -4162.2954          0.000           9.0004          7.7504
  24393499.1494    -770329.81345   -504164.37945         0.000    24393502.7184
       170.5794          0.000           9.7504          9.0004
  22981570.0134   -3344620.21846   1362011.88146         0.000    22981573.3374
      -273.2564          0.000          15.7504         13.0004
  23976722.8484   -3170581.24645  -2265776.66945         0.000    23976730.1474
      1931.6804          0.000           8.5004          7.7504
  22046168.8124   -8297306.87746  -6309507.13546         0.000    22046174.0994
     -2833.9784          0.000          19.5004         17.5004
  23479198.2744    8996235.19445   5392697.85745         0.000    23479203.2274
     -2827.4454          0.000           9.0004          7.5004
  21635541.8114  -13414685.88147  -8463299.50146         0.000    21635544.8914
       110.2174          0.000          25.0004         22.2504
  24631183.2454   -1124186.34945   -718173.77245         0.000    24631191.0544
      2703.5964          0.000           7.5004          6.2504
  25038786.8664      37603.29542         0.000           0.000           0.000
      -509.6764          0.000           4.0004          0.000
  21313894.2864  -15193544.25248 -11198128.53846         0.000    21313895.8244
      1502.4404          0.000          28.7504         24.5004
  4  3  1  0 49  0.0010000  0 10G26G22G18G14G 6G17G 9G15G30G21
  24167815.9014    5673841.93344   5265539.27945         0.000    24167819.0574
     -4161.3624          0.000           6.7504          7.0004
  24392521.3804    -775467.11145   -508167.33645         0.000    24392523.6124
       172.0604          0.000           9.7504          8.0004
  22983122.0824   -3336463.68946   1368367.70546         0.000    22983124.2754
      -270.3384          0.000          16.7504         13.5004
  23965725.7594   -3228370.50745  -2310807.00445         0.000    23965731.7624
      1921.1004          0.000           9.2504          7.7504
  22062370.8854   -8212164.42046  -6243162.38146         0.000    22062375.8404
     -2842.0324          0.000          19.2504         17.5004
  23495376.4804    9081252.04445   5458944.78245         0.000    23495390.0734
     -2840.1644          0.000           8.5004          7.5004
  21634961.5594  -13417734.93647  -8465675.31846         0.000    21634964.9854
        93.1884          0.000          25.2504         22.2504
  24615740.9524   -1205335.53944   -781406.76544         0.000    24615746.4154
      2706.4804          0.000           7.0004          4.0004
  25041665.9294      52734.68143         0.000           0.000           0.000
      -498.9034          0.000           5.5004          0.000
  21305343.6424  -15238477.90748 -11233141.70846         0.000    21305345.1424
      1493.2704          0.000          28.0004         24.0004
  4  3  1  0 49 30.0010000  0 10G26G22G18G14G 6G17G 9G15G30G21
  24191570.3534    5798672.34444   5362809.74445         0.000    24191571.3404
     -4160.5534          0.000           7.2504          7.2504
  24391535.8774    -780645.21645   -512202.04645         0.000    24391539.7424
       173.2584          0.000          10.7504          8.7504
  22984658.0034   -3328392.13546   1374657.32246         0.000    22984660.1004
      -267.6654          0.000          16.0004         13.7504
  23954789.8424   -3285838.39245  -2355586.83245         0.000    23954795.6834
      1910.2074          0.000           9.5004          8.0004
  22078619.4004   -8126778.11647  -6176627.61746         0.000    22078623.7034
     -2850.2384          0.000          20.7504         18.2504
  23511627.7714    9166653.17945         0.000           0.000           0.000
     -2853.1534          0.000           7.5004          0.000
  21634479.2624  -13420269.06847  -8467649.89446         0.000    21634482.4584
        75.8314          0.000          24.7504         21.5004
  24600282.9234   -1286567.38844   -844704.14445         0.000    24600290.7674
      2709.0634          0.000           7.2504          4.7504
  25044484.2444      67545.66743      8052.55255         0.000    25044497.5754
      -488.4094          0.000           6.0004          4.7504
  21296846.2534  -15283131.52447 -11267936.66146         0.000    21296848.0064
      1483.7274          0.000          27.7504         24.2504
  4  3  1  0 50  0.0010000  0 10G26G22G18G14G 6G17G 9G15G30G21
  24215320.6174    5923481.35044   5460063.63145         0.000    24215326.2844
     -4160.0104          0.000           6.5004          6.0004
  24390543.9834    -785857.12145   -516263.13045         0.000    24390548.9374
       174.2294          0.000          10.0004          9.2504
  22986179.1464   -3320398.28446   1380886.36446         0.000    22986181.6014
      -265.2354          0.000          16.7504         13.7504
  23943916.7114   -3342975.81245  -2400109.22745         0.000    23943922.0714
      1898.9814          0.000           8.7504          7.2504
  22094915.1274   -8041143.61947  -6109899.45846         0.000    22094919.7154
     -2858.6784          0.000          20.5004         18.5004
  23527953.5624    9252445.87645         0.000           0.000           0.000
     -2866.3554          0.000           8.2504          0.000
  21634096.8444  -13422278.30547  -8469215.46446         0.000    21634100.3354
        58.1214          0.000          23.2504         21.5004
  24584811.0674   -1367871.65544   -908057.90845         0.000    24584817.1884
      2711.2534          0.000           6.5004          6.0004
  25047243.1854      82044.25343     19350.08844         0.000    25047258.0304
      -478.1704          0.000           6.0004          4.0004
  21288404.2394  -15327494.24148 -11302504.94146         0.000    21288405.7094
      1473.8044          0.000          28.2504         24.2504
  4  3  1  0 50 30.0010000  0 10G26G22G18G14G 6G17G 9G15G30G21
  24239066.1314    6048265.51644   5557298.13745         0.000    24239068.0444
     -4159.2694          0.000           6.5004          5.7504
  24389545.1744    -791105.36145   -520352.49645         0.000    24389549.9334
       175.3044          0.000          10.2504          8.5004
  22987685.1924   -3312483.59746   1387053.74546         0.000    22987687.5334
      -262.7864          0.000          16.7504         14.0004
  23933106.4834   -3399782.34545  -2444373.72645         0.000    23933111.5324
      1887.7444          0.000           8.7504          7.0004
  22111257.5004   -7955264.02447  -6042980.30846         0.000    22111261.8984
     -2866.9654          0.000          20.5004         18.2504
  23544353.4884    9338628.05545     13453.32455         0.000    23544360.8974
     -2879.4634          0.000           8.0004          6.2504
  21633814.4964  -13423761.65147  -8470371.25046         0.000    21633817.9084
        40.3924          0.000          24.0004         21.5004
  24569325.6274   -1449247.56243   -971467.55545         0.000    24569332.6904
      2713.4404          0.000           6.0004          6.2504
  25049942.4254      96229.36843     30403.54444         0.000    25049960.7694
      -467.8604          0.000           5.2504          3.7504
  21280017.8944  -15371564.36047 -11336845.22446         0.000    21280019.6414
      1463.8164          0.000          27.0004         24.2504
  4  3  1  0 51  0.0010000  0 10G26G22G18G14G 6G17G 9G15G30G21
  24262806.2614    6173021.17943   5654510.34845         0.000    24262810.8854
     -4158.4054          0.000           6.0004          6.2504
  24388539.0384    -796392.04545   -524471.80345         0.000    24388541.4264
       176.4884          0.000          11.2504          9.0004
  22989175.8634   -3304649.68446   1393158.18646         0.000    22989178.4274
      -260.1704          0.000          16.2504         13.5004
  23922359.2584   -3456258.00545  -2488380.45545         0.000    23922365.2804
      1876.5894          0.000           9.7504          8.0004
  22127645.5654   -7869144.11646  -5975873.92246         0.000    22127650.4804
     -2875.0234          0.000          19.2504         18.2504
  23560827.2484    9425197.95645     80910.26945         0.000    23560833.9004
     -2892.5064          0.000           8.5004          7.7504
  21633632.3614  -13424718.50247  -8471116.78846         0.000    21633635.3074
        22.7144          0.000          24.2504         21.5004
  24553826.6484   -1530694.04443  -1034932.16445         0.000    24553832.9594
      2715.6314          0.000           5.5004          6.2504
  25052581.6694     110099.88242         0.000           0.000           0.000
      -457.4824          0.000           4.5004          0.000
  21271687.5984  -15415340.02648 -11370956.06446         0.000    21271689.0924
      1453.8634          0.000          28.2504         24.2504
  4  3  1  0 51 30.0010000  0 10G26G22G18G14G 6G17G 9G15G30G21
  24286541.2804    6297750.36444   5751701.97645         0.000    24286544.3814
     -4156.9654          0.000           6.2504          6.7504
  24387526.2444    -801714.05245   -528618.69745         0.000    24387530.0414
       178.1914          0.000          11.0004          9.0004
  22990651.8944   -3296892.59046   1399202.73146         0.000    22990654.3004
      -257.1014          0.000          17.7504         13.7504
  23911676.1394   -3512397.25645  -2532125.06545         0.000    23911681.6674
      1865.8664          0.000           9.5004          8.5004
  22144079.7504   -7782781.90746  -5908578.72046         0.000    22144084.6754
     -2882.5584          0.000          19.5004         18.0004
  23577375.4724    9512159.09245    148672.08645         0.000    23577383.6124
     -2905.0364          0.000           8.5004          7.5004
  21633551.5404  -13425142.93547  -8471447.44546         0.000    21633555.0174
         5.4364          0.000          25.0004         21.7504
  24538315.4784   -1612204.92943  -1098446.97045         0.000    24538322.1454
      2718.2864          0.000           5.7504          5.5004
  25055162.0074     123660.01342         0.000           0.000           0.000
      -446.6494          0.000           4.0004          0.000
  21263414.7174  -15458813.97747 -11404831.80946         0.000    21263416.7284
      1444.2574          0.000          26.5004         24.2504
  4  3  1  0 52  0.0010000  0 10G26G22G18G14G 6G17G 9G15G30G21
  24310271.5254    6422453.78044   5848873.47245         0.000    24310275.0024
     -4156.4744          0.000           6.2504          6.7504
  24386507.0884    -807069.28745   -532791.42345         0.000    24386509.2654
       178.9224          0.000          11.7504          9.2504
  22992113.8834   -3289209.49046   1405189.63046         0.000    22992116.1824
      -255.0004          0.000          16.2504         14.2504
  23901057.8594   -3568195.62745  -2575604.05445         0.000    23901063.7654
      1854.1064          0.000           8.7504          7.7504
  22160560.0104   -7696177.62246  -5841094.88846         0.000    22160565.6004
     -2890.9574          0.000          19.5004         18.2504
  23593998.6324    9599513.84545    216740.67445         0.000    23594003.8294
     -2918.5204          0.000           9.5004          8.0004
  21633573.0594  -13425029.69947  -8471359.15746         0.000    21633576.2994
       -12.9074          0.000          24.7504         21.5004
  24522793.0494   -1693774.74843  -1162007.70445         0.000    24522798.9464
      2719.8214          0.000           5.7504          6.0004
  25057684.0784     136913.29341         0.000           0.000           0.000
      -436.7754          0.000           3.0004          0.000
  21255200.3734  -15501980.31448 -11438467.84046         0.000    21255202.3734
      1433.5664          0.000          28.2504         24.7504
  4  3  1  0 52 30.0010000  0  9G26G22G18G14G 6G17G 9G15G21
  24333995.3544    6547123.64143   5946018.87945         0.000    24333999.5214
     -4155.1364          0.000           5.7504          6.5004
  24385480.3284    -812464.50145   -536995.40245         0.000    24385480.7124
       180.4014          0.000          11.5004          8.5004
  22993560.5994   -3281606.60646   1411114.04046         0.000    22993563.2474
      -252.1864          0.000          17.0004         13.7504
  23890503.5324   -3623657.41744  -2618820.81445         0.000    23890508.4914
      1843.0084          0.000           7.2504          7.2504
  22177084.7914   -7609339.49647  -5773428.84146         0.000    22177089.7964
     -2898.5724          0.000          20.0004         18.5004
  23610695.4994    9687255.93145    285111.08545         0.000    23610700.9264
     -2931.2764          0.000           8.7504          7.2504
  21633696.2004  -13424382.39647  -8470854.69746         0.000    21633699.9314
       -30.5884          0.000          25.0004         21.7504
  24507258.9594   -1775406.72844  -1225616.91045         0.000    24507266.6544
      2721.9694          0.000           7.0004          6.5004
  21247044.0354  -15544841.71447 -11471866.28346         0.000    21247046.4194
      1423.5004          0.000          26.7504         24.5004
  4  3  1  0 53  0.0010000  0  9G26G22G18G14G 6G17G 9G15G21
  24357711.7164    6671754.31043   6043133.74545         0.000    24357716.3694
     -4153.7464          0.000           5.5004          6.0004
  24384445.0454    -817904.13945   -541233.92945         0.000    24384449.0324
       181.9894          0.000          10.5004          9.0004
  22994991.4354   -3274087.53046   1416973.11346         0.000    22994994.0064
      -249.3124          0.000          16.5004         13.7504
  23880012.9024   -3678784.82345  -2661776.95545         0.000    23880016.7464
      1831.9304          0.000           8.2504          7.0004
  22193653.0424   -7522272.90047  -5705584.76246         0.000    22193657.9624
     -2906.0914          0.000          20.0004         17.7504
  23627465.2674    9775380.99145    353779.88445         0.000    23627472.2374
     -2943.9554          0.000           9.5004          7.7504
  21633920.6494  -13423202.65147  -8469935.34546         0.000    21633924.0894
       -48.3014          0.000          24.7504         22.0004
  24491712.6894   -1857102.44544  -1289275.73245         0.000    24491721.1124
      2724.1334          0.000           6.5004          7.0004
  21238945.6734  -15587398.59748 -11505027.44746         0.000    21238947.4004
      1413.3774          0.000          28.5004         24.5004
  4  3  1  0 53 30.0010000  0  9G26G22G18G14G 6G17G 9G15G21
  24381420.3544    6796344.83843   6140217.32945         0.000    24381432.3534
     -4152.2384          0.000           5.0004          5.0004
  24383401.4834    -823387.58045   -545506.62045         0.000    24383403.3874
       183.6254          0.000          10.7504          8.5004
  22996406.4964   -3266651.15546   1422767.77446         0.000    22996409.3454
      -246.4094          0.000          16.5004         13.5004
  23869586.5194   -3733574.97645  -2704470.35045         0.000    23869592.3144
      1820.8034          0.000           9.0004          8.2504
  22210264.4484   -7434979.53046  -5637563.97146         0.000    22210269.3664
     -2913.4404          0.000          18.7504         17.5004
  23644307.9894    9863889.81945    422747.67245         0.000    23644313.7284
     -2956.5894          0.000           8.7504          6.7504
  21634247.1044  -13421486.89047  -8468598.32746         0.000    21634250.4884
       -66.0464          0.000          25.0004         21.7504
  24476155.1154   -1938858.00244  -1352981.25145         0.000    24476159.6984
      2726.2534          0.000           7.2504          6.7504
  21230906.1544  -15629646.44747 -11537947.80146         0.000    21230907.9994
      1403.1704          0.000          27.7504         25.0004
  4  3  1  0 54  0.0010000  0  9G26G22G18G14G 6G17G 9G15G21
  24405121.2514    6920894.36143   6237268.97345         0.000    24405121.5494
     -4150.9074          0.000           6.0004          6.5004
  24382349.4774    -828914.72545   -549813.33545         0.000    24382351.3684
       184.9914          0.000           9.5004          8.0004
  22997805.9414   -3259296.62746   1428498.65046         0.000    22997808.2814
      -243.7734          0.000          16.0004         13.5004
  23859224.7244   -3788025.46145  -2746899.09445         0.000    23859230.5534
      1809.3634          0.000           9.5004          8.0004
  22226918.6304   -7347461.23946  -5569367.93646         0.000    22226923.4044
     -2920.9964          0.000          17.7504         17.0004
  23661223.8334    9952782.66445    492014.77745         0.000    23661232.6514
     -2969.4744          0.000           9.0004          7.2504
  21634676.1244  -13419232.17947  -8466841.35546         0.000    21634679.3354
       -84.1524          0.000          25.2504         21.7504
  24460586.6614   -2020670.01044  -1416730.70345         0.000    24460594.2784
      2727.9784          0.000           6.2504          5.7504
  21222926.2514  -15671581.05548 -11570624.07346         0.000    21222928.0524
      1392.5834          0.000          28.7504         24.7504
  4  3  1  0 54 30.0010000  0 10G26G22G18G14G 6G17G 9G15G30G21
  24428813.5134    7045398.19143   6334285.05345         0.000    24428821.3214
     -4149.6774          0.000           6.0004          5.0004
  24381288.6334    -834488.99345   -554156.82045         0.000    24381291.6604
       186.2814          0.000          10.7504          8.7504
  22999189.2814   -3252026.58746   1434163.69946         0.000    22999192.4734
      -241.2594          0.000          15.0004         13.0004
  23848927.5134   -3842137.39845  -2789064.04945         0.000    23848931.8224
      1797.7394          0.000          11.7504          8.7504
  22243614.7064   -7259722.79146  -5501000.34546         0.000    22243620.0154
     -2928.5714          0.000          18.7504         17.2504
  23678212.1484   10042056.63245    561578.79545         0.000    23678219.2984
     -2982.4544          0.000           8.2504          8.0004
  21635207.6504  -13416438.80647  -8464664.64146         0.000    21635210.8594
      -102.4514          0.000          24.5004         21.7504
  24445007.5184   -2102538.60445  -1480524.19045         0.000    24445012.4374
      2729.5534          0.000           7.5004          6.7504
  25069398.9694        768.20052         0.000           0.000           0.000
      -384.5304          0.000           3.7504          0.000
  21215006.0894  -15713201.57847 -11603055.60146         0.000    21215007.7664
      1381.7684          0.000          27.7504         25.0004
  4  3  1  0 55  0.0010000  0 10G26G22G18G14G 6G17G 9G15G30G21
  24452497.7534    7169859.74943   6431268.12745         0.000    24452501.5524
     -4147.8584          0.000           6.0004          5.5004
  24380219.6084    -840106.14645   -558533.65945         0.000    24380222.0684
       188.0804          0.000           8.2504          8.2504
  23000557.5484   -3244835.87846   1439766.93446         0.000    23000560.3024
      -238.2464          0.000          16.0004         13.7504
  23838695.9104   -3895904.25845  -2830960.10345         0.000    23838701.0184
      1786.5764          0.000          10.5004          9.2504
  22260353.1324   -7171761.88346  -5432459.42146         0.000    22260357.9404
     -2935.6004          0.000          18.7504         17.0004
  23695273.8784   10131716.16845    631443.26245         0.000    23695280.4804
     -2994.9064          0.000           9.0004          7.5004
  21635843.0284  -13413099.61547  -8462062.59946         0.000    21635845.9874
      -120.2974          0.000          25.5004         21.7504
  24429419.0254   -2184456.18145  -1544355.91845         0.000    24429427.3144
      2731.4974          0.000           7.5004          6.7504
  25071563.0534      12142.64743         0.000           0.000           0.000
      -373.8384          0.000           5.5004          0.000
  21207147.1884  -15754500.18047 -11635236.29346         0.000    21207149.0014
      1371.3494          0.000          27.0004         25.2504
  4  3  1  0 55 30.0010000  0 10G26G22G18G14G 6G17G 9G15G30G21
  24476173.0504    7294274.04744   6528214.43345         0.000    24476178.7304
     -4146.2204          0.000           7.2504          6.7504
  24379141.7484    -845769.67045   -562946.64745         0.000    24379144.6034
       189.6944          0.000          10.5004          8.5004
  23001910.1924   -3237727.42146   1445306.07146         0.000    23001913.3114
      -235.4364          0.000          16.5004         13.7504
  23828529.6644   -3949327.39145  -2872588.34145         0.000    23828534.4404
      1775.1414          0.000          10.0004          8.5004
  22277132.9404   -7083583.45646  -5363748.98846         0.000    22277137.9534
     -2942.7564          0.000          17.0004         16.5004
  23712408.3024   10221757.78945    701605.46345         0.000    23712415.4424
     -3007.6234          0.000           9.0004          7.7504
  21636582.0674  -13409215.72247  -8459036.12946         0.000    21636585.0094
      -138.4364          0.000          24.7504         21.7504
  24413821.0774   -2266423.19944  -1608226.12945         0.000    24413824.1224
      2733.1764          0.000           7.0004          5.7504
  25073668.3724      23205.53242         0.000           0.000           0.000
      -363.4534          0.000           4.5004          0.000
  21199349.6454  -15795476.39548 -11667165.77846         0.000    21199351.7254
      1360.5874          0.000          28.2504         25.5004
  4  3  1  0 56  0.0010000  0 10G26G22G18G14G 6G17G 9G15G30G21
  24499838.0624    7418634.49744   6625118.72745         0.000    24499842.6054
     -4144.5074          0.000           7.2504          6.0004
  24378054.1164    -851484.96945   -567400.01545         0.000    24378054.8154
       191.2904          0.000          10.2504          8.5004
  23003246.2314   -3230706.11846   1450777.30546         0.000    23003249.3034
      -232.6784          0.000          15.5004         13.5004
  23818428.1774   -4002410.00545  -2913951.19945         0.000    23818433.6014
      1763.6474          0.000           9.7504          9.0004
  22293952.7124   -6995195.03546  -5294874.91746         0.000    22293957.9654
     -2949.8614          0.000          17.0004         16.0004
  23729614.4264   10312176.28545    772061.28945         0.000    23729620.0194
     -3020.3124          0.000           8.5004          8.0004
  21637424.2794  -13404789.53647  -8455587.08446         0.000    21637427.5994
      -156.6844          0.000          24.5004         22.0004
  24398213.3074   -2348441.64343  -1672136.36645         0.000    24398218.9564
      2734.6974          0.000           5.7504          6.2504
  25075713.2434      33952.64942         0.000           0.000           0.000
      -353.0624          0.000           4.5004          0.000
  21191613.1634  -15836131.69448 -11698845.18947         0.000    21191615.1424
      1349.7054          0.000          28.2504         25.7504
  4  3  1  0 56 30.0010000  0 10G26G22G18G14G 6G17G 9G15G30G21
  24523492.7504    7542940.73444   6721980.75145         0.000    24523496.5574
     -4142.6034          0.000           6.5004          5.5004
  24376956.7204    -857251.29445   -571893.09845         0.000    24376959.9954
       193.1034          0.000           9.2504          8.7504
  23004566.0124   -3223770.03146   1456182.11746         0.000    23004569.8774
      -229.7524          0.000          15.2504         13.7504
  23808392.0574   -4055149.21545  -2955046.51945         0.000    23808397.1954
      1752.2594          0.000          10.7504          9.0004
  22310812.4304   -6906596.70246  -5225837.29546         0.000    22310817.5344
     -2956.6904          0.000          17.2504         16.2504
  23746892.4464   10402972.48545    842811.47745         0.000    23746899.4334
     -3032.8124          0.000           8.0004          7.7504
  21638370.3054  -13399817.73347  -8451712.88146         0.000    21638373.6154
      -174.8204          0.000          24.2504         21.5004
  24382596.5264   -2430507.53344  -1736083.64045         0.000    24382599.4374
      2736.2984          0.000           7.2504          5.5004
  25077698.4334      44386.03943         0.000           0.000           0.000
      -342.5314          0.000           5.0004          0.000
  21183938.6864  -15876461.18748 -11730270.72246         0.000    21183940.1484
      1338.8584          0.000          28.5004         25.2504
  4  3  1  0 57  0.0010000  0 10G26G22G18G14G 6G17G 9G15G30G21
  24547137.0134    7667192.47143   6818800.40045         0.000    24547139.7064
     -4140.7194          0.000           5.7504          4.7504
  24375849.7844    -863067.76445   -576425.30345         0.000    24375850.1734
       194.8234          0.000          10.0004          8.0004
  23005869.8434   -3216917.88946   1461521.52646         0.000    23005873.2764
      -226.9244          0.000          15.7504         14.5004
  23798422.0014   -4107541.82245  -2995871.73245         0.000    23798425.1484
      1740.7324          0.000          10.5004          8.7504
  22327711.7374   -6817790.34946  -5156637.57046         0.000    22327715.9834
     -2963.5574          0.000          18.2504         16.2504
  23764242.4184   10494147.31244    913856.66245         0.000    23764250.3104
     -3045.4044          0.000           7.2504          7.0004
  21639420.8464  -13394296.75147  -8447410.75946         0.000    21639424.1524
      -193.1264          0.000          24.2504         21.5004
  24366971.5124   -2512616.35844  -1800064.32745         0.000    24366976.0004
      2737.7354          0.000           7.2504          6.7504
  25079624.6434      54507.89643         0.000           0.000           0.000
      -332.1324          0.000           5.0004          0.000
  21176327.1484  -15916460.04548 -11761438.62146         0.000    21176328.3284
      1327.8464          0.000          28.5004         25.5004
  4  3  1  0 57 30.0010000  0 10G26G22G18G14G 6G17G 9G15G30G21
  24570770.4174    7791387.40943   6915575.69745         0.000    24570772.4624
     -4139.0944          0.000           5.5004          4.7504
  24374733.1914    -868935.39845   -580997.27045         0.000    24374736.0394
       196.2444          0.000          10.7504          8.5004
  23007157.6874   -3210149.75646   1466795.46846         0.000    23007161.0494
      -224.4054          0.000          15.7504         13.7504
  23788518.0404   -4159586.76145  -3036426.05545         0.000    23788523.3174
      1728.7954          0.000          10.0004          8.7504
  22344650.1804   -6728778.52646  -5087277.72746         0.000    22344655.4024
     -2970.6784          0.000          18.7504         17.0004
  23781664.3554   10585699.83945    985196.18345         0.000    23781671.1294
     -3058.2664          0.000           8.0004          6.0004
  21640576.2224  -13388224.97847  -8442679.44346         0.000    21640579.5004
      -211.8214          0.000          25.2504         21.7504
  24351338.8784   -2594766.10345  -1864076.90545         0.000    24351342.9864
      2738.7564          0.000           9.2504          7.5004
  25081491.1984      64318.33941         0.000           0.000           0.000
      -322.0264          0.000           3.5004          0.000
  21168778.9794  -15956125.73847 -11792346.91546         0.000    21168780.3624
      1316.3704          0.000          27.7504         25.2504
  4  3  1  0 58  0.0010000  0 10G26G22G18G14G 6G17G 9G15G30G21
  24594392.9704    7915524.95743   7012306.32145         0.000    24594394.2674
     -4136.9834          0.000           5.5004          4.7504
  24373607.0074    -874853.63345   -585608.77145         0.000    24373609.0544
       198.1194          0.000           9.7504          8.5004
  23008429.7494   -3203464.65246   1472004.71146         0.000    23008432.6624
      -221.4664          0.000          16.2504         13.5004
  23778680.6984   -4211281.49545  -3076707.47545         0.000    23778685.8344
      1717.2864          0.000          10.5004          9.5004
  22361627.4914   -6639562.32246  -5017758.63346         0.000    22361632.5964
     -2977.2664          0.000          18.5004         16.7504
  23799158.3134   10677630.78144   1056830.59545         0.000    23799166.1194
     -3070.6964          0.000           7.0004          6.7504
  21641837.0344  -13381599.23747  -8437516.46846         0.000    21641840.1654
      -230.1244          0.000          25.5004         21.7504
  24335699.1194   -2676953.10845  -1928118.53145         0.000    24335704.6074
      2740.1554          0.000           8.0004          6.7504
  25083299.0944      73819.28843         0.000           0.000           0.000
      -311.5504          0.000           5.2504          0.000
  21161295.2084  -15995453.08248 -11822991.55247         0.000    21161296.5344
      1305.2354          0.000          28.5004         25.7504
  4  3  1  0 58 30.0010000  0 10G26G22G18G14G 6G17G 9G15G30G21
  24618003.2504    8039598.34043   7108987.01044         0.000    24618008.5064
     -4134.3704          0.000           5.2504          3.5004
  24372469.8814    -880828.46945   -590264.26345         0.000    24372469.3034
       200.4184          0.000           9.7504          8.7504
  23009685.1464   -3196867.08746   1477145.76446         0.000    23009689.2594
      -218.1504          0.000          15.2504         13.2504
  23768909.3434   -4262629.52745  -3116718.75445         0.000    23768915.6184
      1706.1314          0.000           9.5004          8.5004
  22378642.1544   -6550149.90346  -4948086.63746         0.000    22378647.1474
     -2983.3604          0.000          18.0004         16.5004
  23816723.1154   10769934.24244   1128755.24545         0.000    23816732.8454
     -3082.6664          0.000           7.2504          6.7504
  21643202.6484  -13374422.75847  -8431924.34846         0.000    21643205.9414
      -248.1144          0.000          25.7504         22.0004
  24320051.8614   -2759179.74445  -1992191.00145         0.000    24320057.1984
      2741.8244          0.000           8.2504          7.2504
  25085047.3764      83006.17443         0.000           0.000           0.000
      -300.6804          0.000           5.7504          0.000
  21153875.2984  -16034444.81448 -11853374.66947         0.000    21153876.8094
      1294.4024          0.000          28.5004         25.7504
  4  3  1  0 59  0.0010000  0 10G26G22G18G14G 6G17G 9G15G30G21
  24641600.6594    8163603.80143   7205614.66045         0.000    24641604.2804
     -4132.4044          0.000           5.5004          5.2504
  24371321.6804    -886861.98645   -594965.55845         0.000    24371322.5074
       202.0644          0.000          10.7504          8.7504
  23010923.5484   -3190359.11446   1482216.99146         0.000    23010926.2884
      -215.4784          0.000          16.5004         13.7504
  23759203.7834   -4313631.58645  -3156460.40745         0.000    23759210.1374
      1694.2444          0.000          10.0004          8.5004
  22395693.3854   -6460544.86846  -4878264.55746         0.000    22395699.2594
     -2990.0504          0.000          17.5004         16.2504
  23834358.4764   10862607.74345   1200968.22045         0.000    23834366.7614
     -3095.3014          0.000           8.0004          7.0004
  21644673.1024  -13366695.29347  -8425902.88046         0.000    21644676.0734
      -266.8214          0.000          25.5004         22.0004
  24304397.1884   -2841445.25745  -2056293.76545         0.000    24304402.3944
      2742.7694          0.000           8.5004          6.5004
  25086735.3784      91877.87241         0.000           0.000           0.000
      -290.5314          0.000           3.2504          0.000
  21146519.6324  -16073099.00248 -11883494.75347         0.000    21146521.1044
      1282.7774          0.000          28.7504         26.0004
  4  3  1  0 59 30.0010000  0  9G26G22G18G14G 6G17G 9G15G21
  24665184.8774    8287539.57643   7302187.96745         0.000    24665189.8244
     -4130.1364          0.000           5.2504          5.2504
  24370162.1104    -892955.17545   -599713.31745         0.000    24370163.9744
       203.9804          0.000           9.0004          8.5004
  23012144.8804   -3183940.69146   1487218.44846         0.000    23012147.7134
      -212.5904          0.000          16.2504         13.5004
  23749564.4324   -4364286.08045  -3195931.29245         0.000    23749568.6334
      1682.5294          0.000          11.0004          9.2504
  22412780.7544   -6370750.05046  -4808294.61946         0.000    22412786.1714
     -2996.4374          0.000          17.0004         15.7504
  23852064.1164   10955650.66945   1273469.08545         0.000    23852071.0764
     -3107.7004          0.000           7.5004          6.5004
  21646248.7524  -13358414.87247  -8419450.54246         0.000    21646251.9294
      -285.3774          0.000          25.7504         22.2504
  24288735.6504   -2923746.69745  -2120424.52145         0.000    24288741.7424
      2743.8424          0.000           8.7504          7.0004
  21139228.7764  -16111412.52948 -11913349.38547         0.000    21139230.4074
      1271.2754          0.000          28.2504         26.2504
  4  3  1  1  0  0.0010000  0 10G26G22G18G14G 6G17G 9G15G30G21
  24688755.8744    8411406.51642   7398707.77245         0.000    24688763.6174
     -4128.0034          0.000           4.7504          5.0004
  24368991.4634    -899105.97045   -604505.97945         0.000    24368992.6164
       205.7284          0.000           9.2504          9.0004
  23013349.7284   -3177609.00346   1492152.32346         0.000    23013352.3084
      -209.9044          0.000          16.0004         13.5004
  23739991.9434   -4414589.06145  -3235128.27445         0.000    23739996.8114
      1670.5974          0.000          11.0004          9.5004
  22429904.3834   -6280764.92946  -4738176.38146         0.000    22429909.0044
     -3002.9284          0.000          17.7504         16.0004
  23869840.2784   11049064.74344   1346259.05845         0.000    23869847.5134
     -3120.2554          0.000           6.5004          6.2504
  21647930.4794  -13349577.04447  -8412563.85946         0.000    21647933.4824
      -304.1874          0.000          26.5004         22.0004
  24273068.2564   -3006079.05145  -2184579.38345         0.000    24273074.5824
      2744.6314          0.000           9.2504          7.2504
  25089933.2894       1352.71052         0.000           0.000           0.000
      -269.9694          0.000           4.7504          0.000
  21132003.8574  -16149379.53148 -11942934.00247         0.000    21132005.0754
      1259.4704          0.000          28.0004         25.7504
  4  3  1  1  0 30.0010000  0 10G26G22G18G14G 6G17G 9G15G30G21
  24712313.4714    8535203.05943   7495172.64845         0.000    24712321.0414
     -4125.2574          0.000           5.0004          5.7504
  24367809.7794    -905314.87845   -609343.90145         0.000    24367811.3704
       208.0484          0.000           8.7504          8.0004
  23014538.1634   -3171363.58346   1497018.97246         0.000    23014540.7284
      -206.6274          0.000          16.7504         13.5004
  23730486.4704   -4464539.18145  -3274050.24245         0.000    23730491.3424
      1659.2254          0.000           9.5004          8.5004
  22447063.6964   -6190592.22046  -4667911.95746         0.000    22447068.2944
     -3008.7404          0.000          17.7504         16.2504
  23887686.9244   11142849.37343   1419337.83245         0.000    23887692.9994
     -3132.2354          0.000           6.0004          6.5004
  21649718.6474  -13340179.91447  -8405241.35946         0.000    21649721.7014
      -322.4694          0.000          25.2504         22.0004
  24257395.4574   -3088439.43645  -2248756.06845         0.000    24257401.4884
      2745.9114          0.000           9.5004          7.7504
  25091443.3904       9288.03042         0.000           0.000           0.000
      -259.2034          0.000           4.0004          0.000
  21124845.4444  -16186996.95648 -11972246.22147         0.000    21124846.8374
      1248.1514          0.000          28.2504         26.0004
  4  3  1  1  1  0.0010000  0 10G26G22G18G14G 6G17G 9G15G30G21
  24735857.2854    8658927.00443   7591580.99745         0.000    24735863.3094
     -4123.1494          0.000           5.0004          4.7504
  24366616.8944    -911582.87945   -614227.90045         0.000    24366618.5574
       209.6754          0.000          10.2504          9.0004
  23015710.1014   -3165204.79746   1501818.11146         0.000    23015712.2354
      -204.0964          0.000          16.5004         13.7504
  23721048.5104   -4514135.19945  -3312696.28745         0.000    23721053.1044
      1647.0374          0.000          11.0004          9.0004
  22464258.2694   -6100234.33746  -4597503.27546         0.000    22464262.9524
     -3015.2424          0.000          17.7504         16.0004
  23905603.9304   11237003.67344   1492704.62245         0.000    23905610.7624
     -3144.8914          0.000           6.2504          6.2504
  21651613.5064  -13330222.09247  -8397481.96746         0.000    21651616.2584
      -341.5454          0.000          26.0004         21.7504
  24241717.7094   -3170825.55745  -2312952.79445         0.000    24241721.0184
      2746.3544          0.000           8.5004          7.2504
  25092893.8134      16913.05542         0.000           0.000           0.000
      -249.2764          0.000           4.0004          0.000
  21117754.1774  -16224261.56048 -12001283.51047         0.000    21117755.3804
      1235.9944          0.000          28.2504         26.0004
  4  3  1  1  1 30.0010000  0 10G26G22G18G14G 6G17G 9G15G30G21
  24759387.0554    8782576.91042   7687931.66145         0.000    24759387.3504
     -4120.3214          0.000           4.7504          5.2504
  24365412.7184    -917910.23345   -619158.17645         0.000    24365416.8544
       212.0314          0.000          10.2504          9.2504
  23016865.6324   -3159132.22146   1506550.10446         0.000    23016868.0324
      -200.8724          0.000          17.0004         14.0004
  23711678.2624   -4563375.55245  -3351065.27045         0.000    23711683.7934
      1635.5124          0.000          11.2504          9.0004
  22481487.6164   -6009693.55946  -4526952.04246         0.000    22481493.5754
     -3020.9124          0.000          16.2504         15.5004
  23923591.1994   11331527.07944   1566359.08545         0.000    23923600.1774
     -3156.8204          0.000           6.7504          6.0004
  21653615.4304  -13319701.58247  -8389284.10346         0.000    21653618.8124
      -359.9694          0.000          23.7504         21.5004
  24226035.6044   -3253234.31045  -2377167.16445         0.000    24226041.1104
      2747.4224          0.000           9.5004          7.2504
  25094285.9444      24228.85942         0.000           0.000           0.000
      -238.5884          0.000           4.2504          0.000
  21110730.6934  -16261169.98648 -12030043.25747         0.000    21110732.1534
      1224.4274          0.000          28.7504         26.2504
  4  3  1  1  2  0.0010000  0 10G26G22G18G14G 6G17G 9G15G30G21
  24782901.5064    8906146.48743   7784219.64245         0.000    24782904.9864
     -4117.5504          0.000           5.2504          5.5004
  24364196.1324    -924302.38845   -624138.91345         0.000    24364199.3884
       214.2214          0.000           9.5004          9.0004
  23018003.8854   -3153150.35846   1511211.36246         0.000    23018006.4324
      -197.8284          0.000          16.5004         14.0004
  23702375.1544   -4612263.39746  -3389159.54045         0.000    23702379.5714
      1623.7384          0.000          12.0004          9.2504
  22498750.2684   -5918977.70946  -4456264.41046         0.000    22498756.1314
     -3026.7274          0.000          15.7504         15.5004
  23941647.8314   11426414.20745   1640296.92545         0.000    23941652.6974
     -3168.8814          0.000           8.0004          6.7504
  21655723.8884  -13308621.18047  -8380649.97546         0.000    21655727.3904
      -378.6464          0.000          23.7504         21.5004
  24210348.8394   -3335667.74145  -2441400.79845         0.000    24210355.6564
      2748.2054          0.000           9.5004          7.0004
  25095618.2974      31231.50041         0.000           0.000           0.000
      -228.1584          0.000           3.0004          0.000
  21103774.6624  -16297723.97148 -12058526.82247         0.000    21103776.0324
      1212.5664          0.000          29.0004         26.2504
  4  3  1  1  2 30.0010000  0 10G26G22G18G14G 6G17G 9G15G30G21
  24806401.4594    9029639.09543   7880447.65545         0.000    24806403.2924
     -4114.9264          0.000           6.0004          5.5004
  24362968.2024    -930754.72145   -629166.53745         0.000    24362969.5164
       216.2794          0.000          10.2504          9.2504
  23019125.9144   -3147253.69646   1515806.25546         0.000    23019128.6154
      -194.9534          0.000          16.5004         14.5004
  23693140.2934   -4660792.43746  -3426974.19345         0.000    23693144.9374
      1611.8364          0.000          12.5004         10.0004
  22516046.8994   -5828083.21846  -4385437.57946         0.000    22516052.5544
     -3032.5774          0.000          15.2504         15.0004
  23959774.4404   11521669.51344   1714521.70745         0.000    23959778.4934
     -3181.1304          0.000           6.7504          6.5004
  21657940.2204  -13296973.97047  -8371574.15346         0.000    21657943.5394
      -397.5154          0.000          25.0004         21.5004
  24194658.9244   -3418118.01545  -2505647.54045         0.000    24194662.8534
      2748.8014          0.000           9.7504          8.0004
  25096892.4404      37926.96542         0.000           0.000           0.000
      -217.8684          0.000           4.5004          0.000
  21096887.7414  -16333914.75148 -12086727.37747         0.000    21096889.2154
      1200.4594          0.000          29.0004         26.7504
  4  3  1  1  3  0.0010000  0 10G26G22G18G14G 6G17G 9G15G30G21
  24829885.0974    9153046.28144   7976609.11045         0.000    24829888.2544
     -4112.3094          0.000           6.5004          6.2504
  24361727.3534    -937274.67945   -634246.89045         0.000    24361728.2764
       218.2934          0.000           9.5004          9.0004
  23020230.4804   -3141448.79446   1520329.64146         0.000    23020233.1074
      -192.1414          0.000          17.0004         14.5004
  23683972.6744   -4708968.39746  -3464513.73845         0.000    23683976.8054
      1599.7794          0.000          12.2504         10.5004
  22533375.7554   -5737019.62746  -4314478.99746         0.000    22533380.7724
     -3038.4154          0.000          15.7504         15.2504
  23977969.7224   11617285.32045   1789027.34245         0.000    23977975.2634
     -3193.3644          0.000           8.0004          6.2504
  21660263.4414  -13284765.15847  -8362060.73546         0.000    21660266.3384
      -416.5254          0.000          25.2504         21.7504
  24178965.0754   -3500589.04645  -2569910.46145         0.000    24178971.2274
      2749.1844          0.000           9.0004          7.7504
  25098107.0524      44309.04342         0.000           0.000           0.000
      -207.7164          0.000           4.5004          0.000
  21090069.1894  -16369746.30048 -12114648.00947         0.000    21090070.6694
      1188.1754          0.000          28.5004         26.5004
  4  3  1  1  3 30.0010000  0 10G26G22G18G14G 6G17G 9G15G30G21
  24853352.4984    9276367.89244   8072703.98245         0.000    24853356.3124
     -4109.1274          0.000           7.0004          5.7504
  24360473.8464    -943861.03045   -639378.96145         0.000    24360478.2964
       220.8204          0.000          10.0004          9.5004
  23021317.9164   -3135733.96846   1524782.83846         0.000    23021320.0344
      -188.8344          0.000          16.7504         14.2504
  23674872.7424   -4756788.23545  -3501775.77245         0.000    23674879.0004
      1588.2064          0.000          10.5004          9.5004
  22550736.7484   -5645787.28546  -4243388.90846         0.000    22550741.5084
     -3043.6984          0.000          16.7504         14.7504
  23996233.6584   11713262.48844   1863814.59645         0.000    23996243.4074
     -3205.1144          0.000           6.5004          5.7504
  21662694.2574  -13271991.09647  -8352106.85746         0.000    21662696.4234
      -435.0724          0.000          26.0004         22.2504
  24163267.9734   -3583076.52845  -2634186.27145         0.000    24163272.5274
      2749.9894          0.000           7.7504          7.0004
  25099262.2734      50380.19742         0.000           0.000           0.000
      -197.0384          0.000           4.0004          0.000
  21083319.9734  -16405213.37448 -12142284.62447         0.000    21083321.7354
      1176.2854          0.000          28.2504         26.2504
  4  3  1  1  4  0.0010000  0 10G26G22G18G14G 6G17G 9G15G30G21
  24876802.7084    9399599.77244   8168728.86245         0.000    24876810.3104
     -4106.1194          0.000           6.2504          5.5004
  24359207.1884    -950517.18645   -644565.48245         0.000    24359209.6824
       223.1364          0.000          10.5004          9.0004
  23022387.7854   -3130111.60446   1529163.98346         0.000    23022389.6174
      -185.7664          0.000          16.7504         13.7504
  23665840.3244   -4804253.30245  -3538761.38445         0.000    23665845.1794
      1576.3364          0.000          11.7504          9.7504
  22568128.7994   -5554391.69846  -4172171.62646         0.000    22568133.8864
     -3049.1054          0.000          15.7504         14.2504
  24014565.7214   11809597.71844   1938880.72145         0.000    24014574.5304
     -3217.0594          0.000           6.2504          5.5004
  21665232.3504  -13258653.14447  -8341713.58446         0.000    21665235.0944
      -453.9284          0.000          25.5004         22.0004
  24147567.8204   -3665580.46845  -2698474.87645         0.000    24147572.5364
      2750.4774          0.000           9.0004          8.2504
  25100358.2694      56138.42843         0.000           0.000           0.000
      -186.6584          0.000           5.5004          0.000
  21076640.1644  -16440315.77048 -12169637.08747         0.000    21076641.3664
      1164.0664          0.000          29.0004         26.5004
  4  3  1  1  4 30.0010000  0 10G26G22G18G14G 6G17G 9G15G30G21
  24900236.2054    9522743.53443   8264685.07145         0.000    24900239.7174
     -4103.2874          0.000           6.0004          6.0004
  24357927.6314    -957240.31945   -649804.11645         0.000    24357929.2964
       225.2364          0.000           9.2504          8.7504
  23023440.7004   -3124578.40646   1533475.67846         0.000    23023442.8164
      -182.9364          0.000          17.7504         13.7504
  23656876.2964   -4851359.07746  -3575467.00745         0.000    23656880.1834
      1564.2154          0.000          12.2504         10.7504
  22585552.1254   -5462831.97346  -4100826.43646         0.000    22585556.6614
     -3054.6754          0.000          16.5004         15.0004
  24032966.3604   11906293.13343   2014227.68445         0.000    24032971.9274
     -3229.1474          0.000           5.7504          5.5004
  21667878.6934  -13244746.26147  -8330876.99146         0.000    21667881.8384
      -473.0554          0.000          25.2504         21.7504
  24131865.7934   -3748094.44245  -2762771.30045         0.000    24131871.1864
      2750.6404          0.000           9.2504          7.7504
  25101395.8024       3049.88252         0.000           0.000           0.000
      -176.4734          0.000           4.7504          0.000
  21070031.0674  -16475046.79848 -12196700.17547         0.000    21070031.8234
      1151.4994          0.000          29.5004         27.0004
  4  3  1  1  5  0.0010000  0 10G26G22G18G14G 6G17G 9G15G30G21
  24923651.4514    9645791.71743   8360566.88845         0.000    24923651.3424
     -4099.9584          0.000           5.5004          4.7504
  24356634.1784    -964037.01645   -655100.16745         0.000    24356637.3994
       227.8044          0.000           9.2504          8.7504
  23024475.6064   -3119139.90546   1537713.54546         0.000    23024476.9984
      -179.6954          0.000          18.0004         14.2504
  23647979.7234   -4898110.23645  -3611896.33545         0.000    23647984.6124
      1552.4664          0.000          10.5004         10.2504
  22603005.0764   -5371116.34246  -4029359.76646         0.000    22603010.0334
     -3059.7324          0.000          16.0004         14.5004
  24051434.3294   12003342.16044   2089849.98845         0.000    24051442.1624
     -3240.8264          0.000           6.7504          5.2504
  21670632.4954  -13230274.58447  -8319600.29946         0.000    21670635.4424
      -491.7924          0.000          25.2504         21.7504
  24116161.1854   -3830621.69545  -2827078.11845         0.000    24116166.9894
      2751.1254          0.000           9.0004          8.2504
  25102372.8834       8185.47943         0.000           0.000           0.000
      -165.9644          0.000           5.0004          0.000
  21063492.0694  -16509409.25348 -12223476.06547         0.000    21063493.1964
      1139.2564          0.000          28.5004         27.0004
  4  3  1  1  5 30.0010000  0 10G26G22G18G14G 6G17G 9G15G30G21
  24947050.1404    9768752.51043   8456380.56944         0.000    24947053.6184
     -4097.1224          0.000           5.2504          4.2504
  24355328.5524    -970897.84845   -660446.15445         0.000    24355330.9204
       229.8804          0.000           9.2504          9.0004
  23025494.4474   -3113785.67046   1541885.79046         0.000    23025496.2744
      -176.9684          0.000          17.7504         14.5004
  23639152.6184   -4944495.81945  -3648040.77345         0.000    23639156.8474
      1540.2034          0.000           9.7504          9.0004
  22620488.9884   -5279237.99846  -3957766.31546         0.000    22620494.2484
     -3065.1914          0.000          16.0004         14.7504
  24069971.3874   12100753.92944   2165755.05145         0.000    24069977.5574
     -3252.9854          0.000           6.2504          6.5004
  21673495.9244  -13215226.88047  -8307874.74946         0.000    21673499.7584
      -511.0934          0.000          24.5004         21.5004
  24100456.4824   -3913149.69745  -2891385.49345         0.000    24100461.1724
      2751.0094          0.000           9.2504          8.2504
  25103292.4474      13017.86242        -0.31655         0.000    25103313.4964
      -155.8964          0.000           4.5004          4.5004
  21057025.6244  -16543390.20647 -12249954.66847         0.000    21057027.4144
      1126.4314          0.000          27.7504         26.7504
  4  3  1  1  6  0.0010000  0 10G26G22G18G14G 6G17G 9G15G30G21
  24970431.5274    9891622.43943   8552123.27145         0.000    24970430.2274
     -4094.2334          0.000           5.5004          4.5004
  24354010.1994    -977825.16045   -665843.92645         0.000    24354013.0464
       231.9114          0.000           9.0004          8.7504
  23026496.9354   -3108517.40646   1545991.01746         0.000    23026499.4604
      -174.2884          0.000          18.0004         14.7504
  23630394.9814   -4990516.35045  -3683900.75045         0.000    23630399.4854
      1527.8344          0.000          10.2504          8.7504
  22638003.2094   -5187200.46646  -3886048.81346         0.000    22638007.7214
     -3070.6464          0.000          16.2504         15.0004
  24088576.8164   12198525.61744   2241940.55945         0.000    24088586.0744
     -3265.1504          0.000           6.2504          6.2504
  21676468.9594  -13199603.32947  -8295700.49446         0.000    21676472.0214
      -530.5084          0.000          25.2504         21.7504
  24084751.8814   -3995677.30345  -2955692.58345         0.000    24084757.4434
      2750.7914          0.000           9.0004          8.0004
  25104154.1474      17546.03142      3527.87345         0.000    25104173.0794
      -145.9574          0.000           4.2504          4.7504
  21050632.1174  -16576988.06348 -12276134.76947         0.000    21050633.4734
      1113.3974          0.000          28.2504         26.7504
  4  3  1  1  6 30.0010000  0 10G26G22G18G14G 6G17G 9G15G30G21
  24993795.2264   10014399.92843   8647793.97544         0.000    24993794.1844
     -4090.6504          0.000           5.0004          4.2504
  24352679.0744    -984819.66645   -671294.07345         0.000    24352682.7594
       234.6144          0.000           9.2504          9.0004
  23027483.0794   -3103334.92146   1550029.40546         0.000    23027484.4764
      -170.9774          0.000          18.0004         14.2504
  23621707.0224   -5036170.64345  -3719475.39245         0.000    23621711.2384
      1516.0364          0.000           9.2504          8.5004
  22655547.1994   -5095006.25546  -3814209.23446         0.000    22655552.7434
     -3075.3784          0.000          16.2504         15.0004
  24107250.6104   12296656.08743   2318405.65945         0.000    24107261.0314
     -3276.6154          0.000           6.0004          6.7504
  21679551.8534  -13183402.55847  -8283076.46446         0.000    21679554.8874
      -549.3084          0.000          24.7504         22.0004
  24069047.8144   -4078201.98045  -3019997.44345         0.000    24069054.0674
      2751.0904          0.000           9.0004          8.5004
  25104958.1984      21770.58343      6819.66145         0.000    25104976.6544
      -135.3864          0.000           5.0004          6.0004
  21044312.0614  -16610200.10348 -12302014.23447         0.000    21044313.2344
      1100.9624          0.000          28.5004         27.0004
  4  3  1  1  7  0.0010000  0 10G26G22G18G14G 6G17G 9G15G30G21
  25017139.6824   10137076.00144   8743385.79744         0.000    25017139.6904
     -4087.7584          0.000           6.5004          4.0004
  24351333.7364    -991889.04545   -676802.58145         0.000    24351336.6304
       236.6474          0.000           9.7504          8.7504
  23028451.5634   -3098245.02846   1553995.66346         0.000    23028452.8564
      -168.3764          0.000          17.7504         14.5004
  23613087.6534   -5081464.78445  -3754769.38545         0.000    23613092.9574
      1503.5404          0.000          10.5004          9.0004
  22673119.1264   -5002665.35646  -3742255.34446         0.000    22673125.0374
     -3080.7014          0.000          16.0004         15.2504
  24125991.0824   12395137.33142   2395144.03645         0.000    24126001.6514
     -3288.7634          0.000           4.5004          5.2504
  21682743.4804  -13166630.36947  -8270007.16646         0.000    21682746.0934
      -568.8694          0.000          26.2504         22.2504
  24053343.5074   -4160728.00345  -3084303.29645         0.000    24053347.9924
      2750.6074          0.000           8.2504          7.7504
  25105703.1534      25685.29543      9869.94745         0.000    25105720.2794
      -125.5624          0.000           5.2504          5.2504
  21038064.6564  -16643030.25648 -12327596.12647         0.000    21038065.7434
      1087.6824          0.000          28.7504         27.5004
  4  3  1  1  7 30.0010000  0 10G26G22G18G14G 6G17G 9G15G30G21
  25040464.5024   10259648.94144   8838897.33045         0.000    25040462.9994
     -4083.8784          0.000           6.2504          5.0004
  24349973.8734    -999034.14445   -682370.06645         0.000    24349977.4344
       239.6084          0.000           9.2504          9.0004
  23029402.3764   -3093247.79646   1557889.70446         0.000    23029403.2494
      -164.8624          0.000          16.5004         14.5004
  23604537.1034   -5126397.92046  -3789782.06545         0.000    23604541.8484
      1491.9104          0.000          12.0004          9.2504
  22690718.4434   -4910180.63046  -3670189.38946         0.000    22690724.2474
     -3085.0334          0.000          17.0004         15.5004
  24144798.0774   12493968.37543   2472154.93945         0.000    24144808.5264
     -3300.0284          0.000           5.7504          6.7504
  21686044.0854  -13149285.37247  -8256491.51746         0.000    21686046.7034
      -587.5754          0.000          25.5004         22.0004
  24037639.4634   -4243252.79445  -3148608.18445         0.000    24037644.0084
      2750.9394          0.000           9.5004          8.2504
  25106389.3304      29290.77043     12679.41244         0.000    25106412.2594
      -114.8784          0.000           5.7504          3.5004
  21031890.4684  -16675475.67548 -12352878.22947         0.000    21031891.5584
      1075.2334          0.000          29.7504         27.5004
  4  3  1  1  8  0.0010000  0 10G26G22G18G14G 6G17G 9G15G30G21
  25063769.6024   10382118.31643         0.000           0.000           0.000
     -4080.5044          0.000           5.7504          0.000
  24348599.8364   -1006254.37945   -687996.15345         0.000    24348602.7324
       242.0124          0.000           9.7504          9.0004
  23030335.8314   -3088341.79146   1561712.65646         0.000    23030337.3484
      -161.9464          0.000          16.0004         14.2504
  23596055.6414   -5170967.88045  -3824511.76645         0.000    23596060.7924
      1479.6594          0.000          11.0004          9.7504
  22708345.0184   -4817552.64146  -3598011.78246         0.000    22708349.5424
     -3089.8894          0.000          17.0004         15.2504
  24163671.7464   12593149.05343   2549438.33845         0.000    24163682.5504
     -3311.7764          0.000           5.0004          6.0004
  21689454.1484  -13131365.02847  -8242527.54946         0.000    21689457.2254
      -606.9064          0.000          25.0004         21.7504
  24021936.4814   -4325772.24545  -3212908.89545         0.000    24021941.1834
      2750.5804          0.000           9.7504          9.0004
  25107017.0594      32589.17644     15249.34345         0.000    25107030.9244
      -104.7614          0.000           6.2504          5.2504
  21025790.3124  -16707531.98947 -12377857.14347         0.000    21025791.2964
      1062.0844          0.000          27.0004         26.7504
  4  3  1  1  9  0.0010000  0 10G26G22G18G14G 6G17G 9G15G30G21
  25110317.5764   10626730.44543         0.000           0.000           0.000
     -4073.6794          0.000           5.0004          0.000
  24345806.6334   -1020932.05745   -699433.06345         0.000    24345808.4054
       246.7814          0.000          10.5004          9.2504
  23032149.0314   -3078811.89946   1569138.74946         0.000    23032151.2994
      -156.1894          0.000          15.7504         13.7504
  23579299.1244   -5259023.46945  -3893126.22945         0.000    23579303.3444
      1455.0134          0.000          10.7504         10.2504
  22743675.9724   -4631887.69846  -3453337.95746         0.000    22743681.3804
     -3099.3664          0.000          15.7504         14.7504
  24201616.4594   12792546.36745   2704812.30045         0.000    24201625.9184
     -3335.2624          0.000           8.0004          6.0004
  21696601.9684  -13093802.23047  -8213257.69946         0.000    21696604.8864
      -645.7114          0.000          25.0004         21.7504
  23990533.7044   -4490793.64645  -3341496.66545         0.000    23990538.5914
      2749.5844          0.000          10.0004          8.5004
  25108095.8334      38257.91243     19666.26645         0.000    25108110.8794
       -84.6934          0.000           6.0004          5.7504
  21013812.6074  -16770474.92648 -12426903.49247         0.000    21013813.9574
      1035.4804          0.000          29.0004         27.7504
  4  3  1  1 10  0.0010000  0  9G22G18G14G 6G17G 9G15G30G21
  24342956.9574   -1035906.69145   -711101.37645         0.000    24342959.5914
       252.5624          0.000          11.7504          9.2504
  23033895.5084   -3069633.40446   1576291.00646         0.000    23033897.2974
      -149.5894          0.000          17.7504         14.2504
  23562823.1944   -5345603.99345  -3960591.32245         0.000    23562828.6794
      1431.1684          0.000          10.7504         10.2504
  22779111.9834   -4445670.89446  -3308234.08346         0.000    22779116.9514
     -3107.6384          0.000          16.5004         14.0004
  24239826.7134   12993340.04844   2861274.30245         0.000    24239838.1824
     -3357.6944          0.000           7.2504          6.2504
  21704192.5974  -13053912.66247  -8182174.79046         0.000    21704195.5044
      -683.7994          0.000          25.7504         21.7504
  23959143.2484   -4655750.37445  -3470034.01745         0.000    23959148.6674
      2749.0904          0.000           9.2504          8.5004
  25108944.3644      42717.23141     23140.92745         0.000    25108962.1814
       -63.7184          0.000           2.7504          4.5004
  21002139.7714  -16831815.78748 -12474701.50247         0.000    21002141.2064
      1009.3394          0.000          28.5004         27.2504
  4  3  1  1 10 30.0010000  0  9G22G18G14G 6G17G 9G15G30G21
  24341507.8534   -1043521.53245   -717034.88345         0.000    24341510.2774
       255.2724          0.000          11.7504          9.2504
  23034741.0754   -3065189.66646   1579753.74046         0.000    23034742.5784
      -146.4794          0.000          17.0004         14.5004
  23554688.1494   -5388353.30445  -3993902.31745         0.000    23554693.0924
      1418.9634          0.000          11.0004         10.7504
  22796865.3404   -4352376.56946  -3235537.28546         0.000    22796870.6834
     -3111.7964          0.000          15.0004         14.2504
  24259028.2384   13094243.38144   2939899.94945         0.000    24259035.4334
     -3368.9974          0.000           7.0004          6.7504
  21708151.7554  -13033106.92747  -8165962.46846         0.000    21708153.9434
      -703.0984          0.000          25.5004         22.0004
  23943451.2224   -4738212.00245  -3534289.66245         0.000    23943456.2054
      2748.5104          0.000           9.7504          8.2504
  25109280.1434      44480.77343     24514.98245         0.000    25109300.3964
       -53.6194          0.000           5.7504          6.0004
  20996416.3554  -16861892.33248 -12498137.73447         0.000    20996417.4664
       995.9254          0.000          28.5004         27.0004
  4  3  1  1 11  0.0010000  0  9G22G18G14G 6G17G 9G15G30G21
  24340042.3134   -1051223.10946   -723036.00045         0.000    24340042.5024
       257.9004          0.000          12.5004          9.2504
  23035568.0024   -3060843.81946   1583140.19646         0.000    23035569.8984
      -143.5154          0.000          16.5004         14.0004
  23546621.8204   -5430741.60746  -4026932.03445         0.000    23546627.0454
      1406.6274          0.000          12.2504         10.7504
  22814641.4354   -4258962.88746  -3162747.46846         0.000    22814646.7904
     -3116.0334          0.000          15.5004         14.0004
  24278293.3324   13195481.69744   3018786.66845         0.000    24278302.8624
     -3380.4514          0.000           6.5004          6.0004
  21712220.2684  -13011726.56047  -8149302.37746         0.000    21712222.6034
      -722.5434          0.000          25.7504         22.0004
  23927761.7274   -4820659.72945  -3598534.49045         0.000    23927765.9034
      2747.7464          0.000           8.2504          8.7504
  25109556.9174      45933.79343     25647.03645         0.000    25109572.7794
       -43.5494          0.000           6.0004          5.7504
  20990768.8484  -16891570.09748 -12521263.23547         0.000    20990770.0894
       982.3054          0.000          28.7504         27.7504
  4  3  1  1 12  0.0010000  0  9G22G18G14G 6G17G 9G15G30G21
  24337064.8084   -1066869.55346   -735227.71645         0.000    24337066.9704
       263.4224          0.000          12.7504         10.2504
  23037169.7974   -3052425.50046   1589700.10346         0.000    23037171.8624
      -137.3564          0.000          15.7504         14.0004
  23530699.4734   -5514412.91745  -4092130.18445         0.000    23530703.3334
      1382.1414          0.000          11.0004          9.7504
  22850263.7114   -4071766.87446  -3016880.59446         0.000    22850269.1864
     -3124.0134          0.000          13.7504         13.2504
  24317017.8454   13398978.13044   3177354.55445         0.000    24317025.9924
     -3402.9774          0.000           7.2504          7.0004
  21720689.8564  -12967218.08647  -8114620.32546         0.000    21720693.1454
      -761.3414          0.000          24.2504         22.0004
  23896396.5904   -4985483.10645  -3726967.97445         0.000    23896400.3204
      2746.0884          0.000           9.0004          9.0004
  25109936.9304      47930.61744     27202.62945         0.000    25109954.7114
       -23.2944          0.000           6.2504          5.7504
  20979707.3274  -16949698.38748 -12566557.91647         0.000    20979708.8934
       954.9944          0.000          28.7504         27.2504
  4  3  1  1 12 30.0010000  0  9G22G18G14G 6G17G 9G15G30G21
  24335552.8084   -1074814.49445   -741418.46345         0.000    24335554.0324
       266.1604          0.000          11.7504         10.2504
  23037945.1034   -3048350.86246   1592875.24046         0.000    23037946.7574
      -134.3644          0.000          17.0004         14.0004
  23522843.9284   -5555693.07345  -4124296.38845         0.000    23522849.3134
      1369.7804          0.000          11.0004          9.7504
  22868109.0534   -3977988.99546  -2943806.99846         0.000    22868114.7434
     -3127.9304          0.000          13.2504         13.2504
  24336476.8614   13501234.95044   3257034.81345         0.000    24336486.7314
     -3414.2124          0.000           7.2504          6.7504
  21725091.5554  -12944086.76347  -8096595.85746         0.000    21725094.4714
      -780.8404          0.000          24.2504         21.7504
  23880722.1534   -5067851.80945  -3791151.22945         0.000    23880727.1084
      2745.0744          0.000           9.5004          9.0004
  25110041.2054      48477.45943     27628.55045         0.000    25110059.6194
       -13.2524          0.000           6.0004          5.7504
  20974294.7174  -16978141.61047 -12588721.43247         0.000    20974295.7184
       941.1324          0.000          27.7504         27.5004
  4  3  1  1 13  0.0010000  0  9G22G18G14G 6G17G 9G15G30G21
  24334025.2304   -1082841.29045   -747672.95445         0.000    24334025.3404
       269.0704          0.000          11.7504          9.0004
  23038703.3754   -3044365.82646   1595980.53346         0.000    23038704.0654
      -131.2214          0.000          17.0004         14.7504
  23515059.1144   -5596601.68745  -4156173.09345         0.000    23515064.9414
      1357.5514          0.000          10.7504          9.5004
  22885976.6454   -3884094.18646  -2870642.30946         0.000    22885982.8444
     -3131.6174          0.000          14.2504         13.0004
  24356000.0984   13603829.19144   3336978.04145         0.000    24356008.1464
     -3425.2834          0.000           6.7504          5.7504
  21729604.7704  -12920369.51247  -8078114.83146         0.000    21729607.1394
      -800.2184          0.000          25.2504         21.7504
  23865053.9624   -5150188.12545  -3855309.30045         0.000    23865059.5054
      2744.1114          0.000          10.0004          9.5004
  25110088.4204      48724.14944     27820.54345         0.000    25110106.0334
        -3.1044          0.000           6.5004          5.2504
  20968961.5694  -17006167.45048 -12610559.71247         0.000    20968962.7774
       927.3334          0.000          29.0004         28.0004
  4  3  1  1 13 30.0010000  0  9G22G18G14G 6G17G 9G15G30G21
  24332481.0954   -1090954.87545   -753995.10945         0.000    24332482.8954
       272.2714          0.000          11.0004         10.5004
  23039443.8474   -3040474.36146   1599012.93546         0.000    23039446.1954
      -127.7644          0.000          17.0004         14.7504
  23507344.3514   -5637142.20945  -4187762.96145         0.000    23507349.4824
      1345.5914          0.000          10.5004          9.2504
  22903865.2724   -3790089.14746  -2797391.71246         0.000    22903871.0464
     -3134.9214          0.000          14.7504         13.5004
  24375586.6974   13706755.55545   3417179.98145         0.000    24375596.0154
     -3436.0144          0.000           7.7504          7.2504
  21734228.8484  -12896069.62147  -8059179.79546         0.000    21734231.8444
      -819.3404          0.000          24.5004         21.2504
  23849391.7094   -5232493.48845  -3919443.21145         0.000    23849397.8104
      2743.3674          0.000          10.5004          8.7504
  25110077.6544      48667.44743     27776.21245         0.000    25110097.7894
         7.3214          0.000           5.7504          5.5004
  20963707.6184  -17033777.12648 -12632073.70347         0.000    20963708.4734
       913.7414          0.000          29.2504         28.0004
  4  3  1  1 14  0.0010000  0  9G22G18G14G 6G17G 9G15G30G21
  24330919.6974   -1099159.16445   -760387.87445         0.000    24330921.3534
       274.6504          0.000          11.7504         10.2504
  23040166.0474   -3036678.95646   1601970.47446         0.000    23040167.4474
      -125.2614          0.000          17.0004         14.5004
  23499699.1244   -5677317.41145  -4219068.16945         0.000    23499703.8684
      1332.7104          0.000          11.7504          9.7504
  22921773.6754   -3695980.33546  -2724060.24746         0.000    22921779.4754
     -3139.0414          0.000          14.0004         13.2504
  24395235.5524   13810008.86545   3497636.64245         0.000    24395243.7724
     -3447.5674          0.000           8.0004          7.0004
  21738963.3284  -12871189.44647  -8039792.58746         0.000    21738965.6494
      -839.3804          0.000          24.7504         21.5004
  23833735.1654   -5314768.52845  -3983553.49845         0.000    23833739.9884
      2741.6064          0.000           9.5004          9.2504
  25110008.6024      48304.76843     27493.45945         0.000    25110027.0944
        16.8164          0.000           5.7504          5.7504
  20958532.7464  -17060971.06148 -12653263.74347         0.000    20958534.1044
       899.1474          0.000          28.0004         27.5004
  4  3  1  1 14 30.0010000  0  9G22G18G14G 6G17G 9G15G30G21
  24329341.6334   -1107451.45945   -766849.26245         0.000    24329344.5624
       277.9044          0.000          11.2504         10.2504
  23040870.4704   -3032976.73046   1604855.40946         0.000    23040872.2124
      -121.8644          0.000          16.2504         14.2504
  23492124.1984   -5717123.32146  -4250085.61745         0.000    23492128.7084
      1320.7124          0.000          12.5004         10.5004
  22939702.0814   -3601766.32346  -2650646.83646         0.000    22939707.1114
     -3142.1874          0.000          14.0004         12.7504
  24414946.9954   13913591.67744   3578350.06945         0.000    24414958.6014
     -3458.2474          0.000           6.2504          7.2504
  21743809.0404  -12845724.76347  -8019949.91446         0.000    21743811.1984
      -858.5774          0.000          24.7504         21.5004
  23818085.5624   -5397007.18445  -4047635.43645         0.000    23818089.2684
      2740.6474          0.000          10.0004          9.0004
  25109882.3034      47640.42844     26975.47645         0.000    25109900.7754
        27.1714          0.000           7.2504          7.5004
  20953438.1444  -17087743.19948 -12674125.11247         0.000    20953438.7604
       885.3504          0.000          28.5004         27.7504
  4  3  1  1 15  0.0010000  0  9G22G18G14G 6G17G 9G15G30G21
  24327746.0744   -1115835.62246   -773382.19245         0.000    24327747.7254
       281.0444          0.000          12.5004          9.5004
  23041556.6114   -3029370.59746   1607665.45146         0.000    23041557.3114
      -118.5914          0.000          16.5004         14.2504
  23484619.1644   -5756562.21346  -4280817.10345         0.000    23484623.5214
      1308.5244          0.000          13.0004         11.0004
  22957649.3044   -3507453.55246  -2577156.44046         0.000    22957654.4354
     -3145.3504          0.000          14.2504         13.0004
  24434720.2804   14017499.36044   3659316.62545         0.000    24434729.1314
     -3469.0084          0.000           7.2504          7.5004
  21748765.5564  -12819677.84047  -7999653.55046         0.000    21748768.2004
      -877.9294          0.000          24.7504         21.2504
  23802442.8894   -5479209.61345  -4111689.15445         0.000    23802447.1414
      2739.4514          0.000          10.5004          9.0004
  25109698.2564      46672.17744     26220.74545         0.000    25109715.5154
        37.3544          0.000           6.2504          6.7504
  20948423.7984  -17114093.67548 -12694657.91547         0.000    20948424.6644
       871.3064          0.000          28.7504         28.0004
  4  3  1  1 15 30.0010000  0  9G22G18G14G 6G17G 9G15G30G21
  24326132.4464   -1124314.89046   -779989.26145         0.000    24326133.5214
       284.0524          0.000          12.2504          9.7504
  23042224.1654   -3025862.32546   1610399.24746         0.000    23042224.8744
      -115.5104          0.000          16.5004         14.0004
  23477183.6234   -5795636.11346  -4311264.16845         0.000    23477188.1294
      1296.1894          0.000          13.5004         10.7504
  22975614.3464   -3413046.93546  -2503592.91946         0.000    22975619.8094
     -3148.6144          0.000          13.5004         12.7504
  24454554.6134   14121727.65545   3740532.92945         0.000    24454563.9594
     -3479.7774          0.000           7.7504          7.0004
  21753832.4844  -12793050.65547  -7978905.04946         0.000    21753834.9804
      -897.4374          0.000          23.7504         21.2504
  23786807.0084   -5561376.10445  -4175714.89045         0.000    23786811.0244
      2738.0804          0.000          10.5004          9.5004
  25109455.8064      45397.68244     25227.50345         0.000    25109476.9334
        47.4044          0.000           6.2504          6.5004
  20943489.6634  -17140022.81848 -12714862.41147         0.000    20943490.6904
       857.0654          0.000          29.0004         28.5004
  4  3  1  1 16  0.0010000  0  9G22G18G14G 6G17G 9G15G30G21
  24324501.7764   -1132883.32545   -786665.80845         0.000    24324505.0554
       287.2204          0.000          11.2504          9.7504
  23042874.3934   -3022445.32246   1613061.91346         0.000    23042874.5764
      -112.2584          0.000          17.0004         13.7504
  23469818.8844   -5834338.19546  -4341421.52545         0.000    23469822.7344
      1283.9844          0.000          14.2504         10.5004
  22993597.9954   -3318542.82846  -2429953.48046         0.000    22993603.3664
     -3151.6374          0.000          15.2504         13.7504
  24474450.8464   14226281.44243   3822002.92845         0.000    24474460.8664
     -3490.4154          0.000           6.0004          6.2504
  21759011.1844  -12765836.10847  -7957698.85446         0.000    21759014.1714
      -916.8304          0.000          24.2504         21.0004
  23771179.7944   -5643497.41445  -4239705.39145         0.000    23771183.9454
      2736.7144          0.000          11.5004         10.0004
  25109156.5404      43824.58444     24001.39645         0.000    25109175.0424
        57.4904          0.000           6.5004          5.7504
  20938637.4284  -17165521.42348 -12734731.41847         0.000    20938638.2444
       842.8774          0.000          28.5004         28.5004
  4  3  1  1 16 30.0010000  0  9G22G18G14G 6G17G 9G15G30G21
  24322852.6184   -1141549.03145   -793418.14145         0.000    24322852.3254
       290.2724          0.000          11.0004          9.5004
  23043505.8604   -3019126.93846   1615647.73346         0.000    23043505.3554
      -109.1914          0.000          17.7504         14.5004
  23462523.6094   -5872675.06646  -4371294.28745         0.000    23462527.4014
      1271.6034          0.000          13.5004         10.5004
  23011598.3684   -3223950.86246  -2356245.54746         0.000    23011603.4334
     -3154.7164          0.000          14.2504         13.2504
  24494407.5054   14331152.24345   3903719.79945         0.000    24494419.7874
     -3501.1724          0.000           8.0004          7.2504
  21764300.4194  -12738040.71747  -7936040.06346         0.000    21764303.5974
      -936.4284          0.000          23.7504         21.2504
  23755560.2954   -5725577.93045  -4303664.08545         0.000    23755564.5684
      2735.0924          0.000          10.5004         10.0004
  25108799.3244      41946.19744     22537.53345         0.000    25108820.0234
        67.5024          0.000           7.2504          5.0004
  20933866.2414  -17190593.96848 -12754268.42647         0.000    20933867.2584
       828.3944          0.000          28.7504         28.2504
  4  3  1  1 17  0.0010000  0  9G22G18G14G 6G17G 9G15G30G21
  24321184.6084   -1150313.29745   -800247.26845         0.000    24321186.0184
       293.8014          0.000           9.7504          9.0004
  23044118.5274   -3015907.21146   1618156.67946         0.000    23044119.4174
      -105.6694          0.000          18.0004         14.5004
  23455297.7414   -5910646.93146  -4400882.63345         0.000    23455301.4784
      1259.6374          0.000          12.5004         10.5004
  23029614.7774   -3129274.53746  -2282471.90346         0.000    23029619.6374
     -3157.2394          0.000          14.7504         13.7504
  24514424.1694   14436337.73945   3985681.93545         0.000    24514433.4674
     -3511.4074          0.000           7.5004          6.7504
  21769700.1884  -12709664.50247  -7913928.67146         0.000    21769702.3444
      -955.5484          0.000          24.5004         21.0004
  23739948.9634   -5807615.43045  -4367589.28945         0.000    23739953.8674
      2733.8604          0.000          10.5004          9.7504
  25108384.0314      39762.79045     20835.97545         0.000    25108401.1054
        77.8744          0.000           7.7504          6.0004
  20929176.5594  -17215238.32348 -12773471.78947         0.000    20929177.7274
       814.3244          0.000          28.0004         28.2504
  4  3  1  1 17 30.0010000  0  9G22G18G14G 6G17G 9G15G30G21
  24319498.4044   -1159173.66245   -807151.28545         0.000    24319499.7564
       296.9114          0.000          11.2504          9.0004
  23044713.0574   -3012783.02946   1620591.16946         0.000    23044713.6554
      -102.5854          0.000          19.0004         14.5004
  23448142.0774   -5948249.89346  -4430183.50145         0.000    23448144.4974
      1247.2434          0.000          13.7504         10.2504
  23047647.3184   -3034513.63546  -2208632.35046         0.000    23047652.7974
     -3160.1064          0.000          14.5004         13.5004
  24534500.8874   14541839.52045   4067890.52645         0.000    24534509.6164
     -3522.0134          0.000           7.7504          6.7504
  21775211.2094  -12680703.70247  -7891361.76146         0.000    21775213.4364
      -975.1454          0.000          24.5004         21.0004
  23724346.9934   -5889603.96945  -4431476.32445         0.000    23724350.0384
      2732.0704          0.000          11.0004         10.0004
  25107911.3704      37278.16845     18899.65945         0.000    25107931.5944
        87.8064          0.000           7.7504          5.7504
  20924569.3794  -17239448.99148 -12792337.20447         0.000    20924570.2994
       799.7344          0.000          28.0004         28.2504
  4  3  1  1 18  0.0020000  0  9G22G18G14G 6G17G 9G15G30G21
  24317793.6974   -1168131.11945   -814131.02145         0.000    24317794.0634
       300.2514          0.000          10.7504          8.7504
  23045289.5154   -3009753.70446   1622951.75446         0.000    23045290.0364
       -99.3384          0.000          18.2504         14.7504
  23441056.3824   -5985485.03546  -4459197.78445         0.000    23441060.4914
      1235.0124          0.000          12.7504         10.5004
  23065695.8804   -2939667.89546  -2134726.68746         0.000    23065700.9694
     -3162.7054          0.000          13.5004         13.2504
  24554638.1614   14647659.52344   4150346.98045         0.000    24554648.3624
     -3532.4104          0.000           6.5004          6.2504
  21780833.7054  -12651157.11847  -7868338.40446         0.000    21780835.9444
      -994.5614          0.000          24.2504         21.0004
  23708754.1524   -5971544.10045  -4495325.64745         0.000    23708757.6894
      2730.3974          0.000          10.0004          9.5004
  25107381.5844      34492.90645     16729.11945         0.000    25107399.4524
        97.8884          0.000           8.7504          7.5004
  20920045.0474  -17263224.20847 -12810863.31247         0.000    20920046.0334
       785.2194          0.000          27.7504         28.5004
  4  3  1  1 18 30.0020000  0 10G 5G22G18G14G 6G17G 9G15G30G21
  25271716.6714      -1455.05154         0.000           0.000           0.000
       291.4064          0.000           6.2504          0.000
  24316070.6104   -1177185.53945   -821186.24745         0.000    24316072.3294
       303.5134          0.000          11.7504          9.5004
  23045847.8424   -3006819.43446   1625238.26346         0.000    23045848.9294
       -96.1624          0.000          17.5004         14.7504
  23434041.2954   -6022349.21146  -4487922.99545         0.000    23434044.0354
      1222.7054          0.000          13.2504         10.5004
  23083759.0204   -2844745.73846  -2060761.46346         0.000    23083764.4454
     -3165.3194          0.000          14.0004         13.0004
  24574834.3484   14753789.56844   4233045.11345         0.000    24574848.6464
     -3542.7814          0.000           6.5004          6.5004
  21786567.4734  -12621025.89047  -7844859.46546         0.000    21786569.5134
     -1014.0884          0.000          26.0004         21.2504
  23693172.2224   -6053427.07845  -4559130.42345         0.000    23693175.1134
      2728.5534          0.000          10.7504          9.5004
  25106794.8814      31408.35845     14325.32145         0.000    25106816.4704
       107.8824          0.000           7.7504          7.5004
  20915604.4754  -17286559.38447 -12829046.54247         0.000    20915605.3234
       770.5524          0.000          27.7504         28.2504
  4  3  1  1 19  0.0020000  0 10G 5G22G18G14G 6G17G 9G15G30G21
  25270039.2854     -10268.99243         0.000           0.000           0.000
       295.8934          0.000           6.0004          0.000
  24314327.9244   -1186343.29945   -828322.03645         0.000    24314328.1514
       306.7094          0.000          11.7504         10.0004
  23046387.1114   -3003985.16646   1627446.85646         0.000    23046388.0434
       -93.1004          0.000          17.2504         15.0004
  23427095.6124   -6058848.43546  -4516363.82445         0.000    23427098.9024
      1210.2584          0.000          12.5004         11.0004
  23101835.8494   -2749751.98946  -1986740.49046         0.000    23101842.2594
     -3167.9284          0.000          14.7504         13.7504
  24595088.9114   14860226.00143   4315981.87545         0.000    24595100.3484
     -3553.2784          0.000           6.0004          7.2504
  21792411.8094  -12590313.64347  -7820927.79746         0.000    21792414.0094
     -1033.7224          0.000          25.2504         21.0004
  23677600.2014   -6135258.06545  -4622894.71245         0.000    23677603.9374
      2726.5314          0.000          11.0004         10.2504
  25106150.2474      28019.96644     11684.76845         0.000    25106167.7874
       117.7114          0.000           7.2504          6.7504
  20911246.8924  -17309458.49748 -12846889.97747         0.000    20911247.6134
       755.7164          0.000          28.5004         28.2504
  4  3  1  1 19 30.0020000  0 10G 5G22G18G14G 6G17G 9G15G30G21
  25268337.0614     -19212.07743         0.000           0.000           0.000
       300.4264          0.000           5.2504          0.000
  24312567.3704   -1195594.64545   -835530.71245         0.000    24312568.7564
       310.1594          0.000          11.7504         10.2504
  23046909.3644   -3001240.24146   1629585.81646         0.000    23046910.7974
       -89.8064          0.000          17.7504         14.7504
  23420221.4434   -6094972.09246  -4544511.99645         0.000    23420225.5614
      1198.0694          0.000          13.2504         10.7504
  23119927.8574   -2654678.55346  -1912657.39746         0.000    23119933.3124
     -3170.1924          0.000          15.0004         13.5004
  24615403.4934   14966977.54143   4399164.14445         0.000    24615417.7164
     -3563.4424          0.000           5.0004          5.7504
  21798368.7364  -12559009.70147  -7796535.05546         0.000    21798370.9144
     -1053.1184          0.000          25.2504         21.5004
  23662040.5904   -6217024.05645  -4686608.34145         0.000    23662042.7694
      2724.6614          0.000          11.7504         10.2504
  25105450.0644      24338.99045      8816.20245         0.000    25105470.7344
       127.7994          0.000           8.5004          6.2504
  20906974.7794  -17331908.44047 -12864383.40647         0.000    20906975.5234
       741.0314          0.000          27.2504         28.2504
  4  3  1  1 20  0.0020000  0 10G 5G22G18G14G 6G17G 9G15G30G21
  25266608.4624     -28294.32843     -4259.10355         0.000    25266620.5654
       305.0574          0.000           6.0004          7.0004
  24310786.5164   -1204952.62045   -842822.45645         0.000    24310788.0874
       313.7544          0.000          11.7504          9.0004
  23047412.2754   -2998597.08046   1631645.47546         0.000    23047413.6894
       -86.3884          0.000          17.7504         15.0004
  23413416.4024   -6130732.21546  -4572376.90945         0.000    23413420.0384
      1185.9764          0.000          13.5004         11.7504
  23138032.0284   -2559540.76246  -1838524.17146         0.000    23138037.7204
     -3172.2644          0.000          13.0004         13.5004
  24635775.4014   15074030.48642   4482581.19045         0.000    24635789.5834
     -3573.4384          0.000           4.7504          5.7504
  21804435.9364  -12527126.09247  -7771690.63146         0.000    21804438.6374
     -1072.4254          0.000          25.0004         21.2504
  23646491.4594   -6298734.70245  -4750278.88645         0.000    23646494.6584
      2722.7624          0.000          10.5004          9.7504
  25104691.9534      20353.60845      5710.53545         0.000    25104708.6864
       137.9194          0.000           8.0004          6.2504
  20902786.2214  -17353919.26947 -12881534.66647         0.000    20902787.2094
       726.3864          0.000          27.2504         28.0004
  4  3  1  1 20 30.0020000  0 10G 5G22G18G14G 6G17G 9G15G30G21
  25264855.5274     -37504.38943    -11435.07845         0.000    25264870.7754
       309.1604          0.000           5.2504          5.2504
  24308986.9164   -1214408.82945   -850190.81345         0.000    24308987.9554
       316.9004          0.000          11.5004          9.7504
  23047897.6584   -2996045.87346   1633633.48146         0.000    23047898.6054
       -83.4814          0.000          16.7504         14.5004
  23406682.3554   -6166119.27646  -4599951.12445         0.000    23406685.9594
      1173.3864          0.000          13.0004         11.2504
  23156149.6344   -2464332.36246  -1764335.93046         0.000    23156154.8714
     -3174.7044          0.000          14.2504         13.0004
  24656206.3814   15181392.16044   4566238.81545         0.000    24656221.7024
     -3583.7874          0.000           6.2504          5.7504
  21810615.2934  -12494653.04247  -7746386.91246         0.000    21810617.8214
     -1092.2034          0.000          24.7504         21.0004
  23630955.1504   -6380378.02546  -4813896.91245         0.000    23630959.2214
      2720.3314          0.000          12.0004         10.7504
  25103877.6984      16073.94244      2375.49245         0.000    25103901.1374
       147.6244          0.000           7.0004          6.2504
  20898683.4394  -17375479.29947 -12898334.66147         0.000    20898684.4724
       711.1734          0.000          26.2504         28.0004
  4  3  1  1 21  0.0020000  0 10G 5G22G18G14G 6G17G 9G15G30G21
  25263076.6174     -46850.01543    -18716.59945         0.000    25263091.0584
       313.7834          0.000           5.7504          4.5004
  24307166.6104   -1223973.43045   -857643.59045         0.000    24307168.1574
       320.6654          0.000           9.5004          8.7504
  23048363.7804   -2993596.03146   1635542.49946         0.000    23048364.8114
       -79.9464          0.000          17.0004         14.7504
  23400017.6154   -6201142.46246  -4627241.81545         0.000    23400020.4804
      1161.4114          0.000          13.2504         11.2504
  23174278.3604   -2369065.40246  -1690102.05346         0.000    23174284.3304
     -3176.4994          0.000          12.7504         12.7504
  24676693.7774   15289051.26943   4650128.23245         0.000    24676708.3644
     -3593.5364          0.000           6.0004          6.0004
  21816905.0064  -12461599.95947  -7720631.20246         0.000    21816907.3104
     -1111.4094          0.000          25.0004         20.7504
  23615430.3504   -6461960.97745  -4877467.92545         0.000    23615434.1674
      2718.4154          0.000          11.5004         10.0004
  25103005.8264      11491.30644     -1195.65245         0.000    25103024.8654
       157.8514          0.000           7.2504          5.5004
  20894665.2044  -17396595.17847 -12914788.56647         0.000    20894666.4024
       696.4664          0.000          27.2504         28.2504
  4  3  1  1 21 30.0020000  0 10G 5G22G18G14G 6G17G 9G15G30G21
  25261273.0574     -56325.84345    -26099.73745         0.000    25261280.8804
       317.6204          0.000           8.0004          6.7504
  24305326.1794   -1233643.84945   -865178.83745         0.000    24305328.1934
       323.7154          0.000          10.7504          9.5004
  23048811.2834   -2991244.05146   1637375.28646         0.000    23048813.3994
       -77.1514          0.000          17.0004         14.5004
  23393422.6974   -6235798.43646  -4654246.35145         0.000    23393427.4764
      1148.6874          0.000          13.2504         11.7504
  23192418.3924   -2273739.15846  -1615821.97846         0.000    23192424.4194
     -3178.8674          0.000          13.5004         13.0004
  24697238.1104   15397009.41944   4734250.54245         0.000    24697247.5174
     -3603.9684          0.000           6.5004          5.5004
  21823305.7904  -12427963.40647  -7694420.85046         0.000    21823307.7924
     -1131.3214          0.000          25.5004         21.2504
  23599918.1774   -6543477.51245  -4940987.19445         0.000    23599922.6784
      2715.7064          0.000          11.2504         10.0004
  25102077.1464       6609.58944     -4999.87145         0.000    25102092.6504
       167.3314          0.000           6.7504          6.2504
  20890732.5334  -17417261.48848 -12930892.15047         0.000    20890733.4424
       680.9734          0.000          28.2504         28.2504
  4  3  1  1 22  0.0020000  0 10G 5G22G18G14G 6G17G 9G15G30G21
  25259446.4034     -65923.02644    -33577.44545         0.000    25259453.6474
       322.2704          0.000           7.2504          6.5004
  24303466.7604   -1243413.97345   -872791.76245         0.000    24303469.0484
       327.7024          0.000           9.7504          9.0004
  23049241.5024   -2988983.01946   1639137.18346         0.000    23049243.0884
       -73.4854          0.000          17.7504         14.5004
  23386898.9904   -6270080.12646  -4680959.25046         0.000    23386902.5444
      1136.8484          0.000          13.2504         12.0004
  23210570.3694   -2178350.12046  -1541492.96346         0.000    23210576.1354
     -3180.2904          0.000          13.0004         12.5004
  24717840.2514   15505271.64643   4818609.75945         0.000    24717854.5624
     -3613.4024          0.000           5.0004          5.7504
  21829818.9334  -12393736.55047  -7667750.53546         0.000    21829821.1224
     -1150.3764          0.000          25.0004         21.0004
  23584420.4354   -6624918.18245  -5004447.33945         0.000    23584425.0664
      2713.7614          0.000          11.7504         10.7504
  25101092.8414       1436.62742     -9030.91345         0.000    25101113.1134
       177.6374          0.000           4.2504          6.0004
  20886887.0994  -17437469.35548 -12946638.52247         0.000    20886887.7364
       666.2854          0.000          28.0004         28.2504
  4  3  1  1 22 30.0020000  0 10G 5G22G18G14G 6G17G 9G15G30G21
  25257596.5894     -75641.25144    -41149.49245         0.000    25257608.7194
       325.9034          0.000           6.5004          6.2504
  24301587.9494   -1253286.24745   -880484.24645         0.000    24301589.0224
       330.7754          0.000           9.5004          9.0004
  23049654.1404   -2986814.26046   1640827.19846         0.000    23049655.6354
       -70.7694          0.000          17.0004         14.7504
  23380446.2274   -6303988.91846  -4707381.57445         0.000    23380448.9594
      1124.0774          0.000          12.5004         11.0004
  23228733.5074   -2082902.36146  -1467118.22546         0.000    23228739.5644
     -3182.5264          0.000          12.7504         12.5004
  24738499.6334   15613834.45742   4903203.13145         0.000    24738518.4164
     -3623.7424          0.000           4.2504          5.2504
  21836444.0844  -12358920.95947  -7640621.44446         0.000    21836446.7364
     -1170.3464          0.000          25.2504         21.0004
  23568937.3634   -6706281.87246  -5067847.47045         0.000    23568940.9954
      2710.8004          0.000          12.5004         10.7504
  25100052.8944      -4028.82243    -13289.94945         0.000    25100070.3354
       187.0514          0.000           5.7504          5.2504
  20883129.0354  -17457218.04047 -12962027.08247         0.000    20883129.9644
       650.5964          0.000          27.0004         28.0004
  4  3  1  1 23  0.0020000  0 10G 5G22G18G14G 6G17G 9G15G30G21
  25255724.3514     -85477.63244    -48813.49345         0.000    25255734.2214
       329.8704          0.000           7.2504          5.5004
  24299689.8314   -1263260.23145   -888256.07845         0.000    24299690.2704
       334.2504          0.000          10.5004          8.5004
  23050049.4474   -2984736.55446   1642446.24446         0.000    23050050.1644
       -67.6734          0.000          17.2504         14.5004
  23374064.6374   -6337523.63846  -4733512.42045         0.000    23374069.6274
      1111.6814          0.000          12.7504         10.7504
  23246907.5154   -1987397.62246  -1392699.08646         0.000    23246914.1004
     -3184.3254          0.000          13.2504         12.5004
  24759216.1994   15722697.05042   4988030.21245         0.000    24759236.7194
     -3633.6764          0.000           4.7504          5.2504
  21843181.4964  -12323515.40747  -7613032.66146         0.000    21843183.9474
     -1189.9614          0.000          24.0004         21.2504
  23553469.6204   -6787565.10146  -5131184.95045         0.000    23553472.8224
      2708.1444          0.000          12.2504         10.7504
  25098957.9714      -9784.69545    -17775.29945         0.000    25098980.1424
       196.7844          0.000           7.5004          6.0004
  20879459.0264  -17476503.98648 -12977055.06747         0.000    20879459.7034
       635.2044          0.000          28.0004         28.0004
  4  3  1  1 23 30.0020000  0 10G 5G22G18G14G 6G17G 9G15G30G21
  25253829.6964     -95431.34943    -56569.00645         0.000    25253839.9754
       333.8194          0.000           5.5004          5.5004
  24297771.9984   -1273338.30345   -896108.94345         0.000    24297771.0184
       337.7644          0.000          11.5004          9.2504
  23050427.2174   -2982751.03146   1643993.49446         0.000    23050428.5234
       -64.5594          0.000          17.0004         14.5004
  23367754.0044   -6370685.81746  -4759352.95245         0.000    23367758.2204
      1099.2824          0.000          13.0004         11.5004
  23265091.6204   -1891840.01246  -1318238.75246         0.000    23265098.0364
     -3186.0274          0.000          13.5004         12.5004
  24779989.1714   15831856.21842   5073088.05545         0.000    24780009.5154
     -3643.4564          0.000           4.2504          5.0004
  21850030.9304  -12287521.11447  -7584985.10646         0.000    21850033.7984
     -1209.5344          0.000          24.2504         20.7504
  23538017.4074   -6868766.49645  -5194458.63045         0.000    23538021.7294
      2705.4194          0.000          11.2504         10.5004
  25097807.5904     -15831.63044    -22487.48545         0.000    25097827.3354
       206.5064          0.000           6.2504          4.7504
  20875877.2454  -17495326.35547 -12991721.82447         0.000    20875878.0434
       619.7544          0.000          27.7504         28.2504
  4  3  1  1 24  0.0020000  0 10G 5G22G18G14G 6G17G 9G15G30G21
  25251914.1264    -105495.01543    -64410.10245         0.000    25251924.0174
       337.4784          0.000           5.7504          5.2504
  24295835.2614   -1283516.00445   -904039.47745         0.000    24295833.5014
       341.1314          0.000          11.2504          9.2504
  23050788.4024   -2980852.53246   1645472.91546         0.000    23050789.9894
       -61.6354          0.000          15.2504         14.2504
  23361515.3194   -6403469.85546  -4784898.85145         0.000    23361517.6544
      1086.7014          0.000          13.0004         11.0004
  23283286.2484   -1796227.12746  -1243735.32346         0.000    23283293.1814
     -3187.7804          0.000          13.0004         12.2504
  24800819.2904   15941315.02643   5158379.48945         0.000    24800836.5044
     -3653.4114          0.000           5.2504          4.5004
  21856993.4254  -12250932.77447  -7556474.67146         0.000    21856996.3254
     -1229.3064          0.000          24.5004         20.5004
  23522582.2774   -6949878.04545  -5257662.33145         0.000    23522586.4924
      2702.3994          0.000          11.7504         11.0004
  25096602.6864     -22163.90944    -27421.86445         0.000    25096623.5774
       216.0424          0.000           6.5004          5.7504
  20872385.0444  -17513677.93747 -13006021.72847         0.000    20872385.7444
       604.0584          0.000          27.7504         28.5004
  4  3  1  1 24 30.0020000  0 10G 5G22G18G14G 6G17G 9G15G30G21
  25249977.2604    -115670.74243    -72338.63745         0.000    25249985.2884
       340.6464          0.000           5.7504          5.7504
  24293878.6944   -1293797.42845   -912050.81145         0.000    24293878.0204
       344.0264          0.000          11.5004         10.0004
  23051132.4384   -2979044.11546   1646882.14746         0.000    23051133.1614
       -59.2044          0.000          15.7504         14.2504
  23355347.8484   -6435879.61846  -4810153.11245         0.000    23355350.8064
      1073.6664          0.000          12.7504         11.0004
  23301490.0994   -1700565.66246  -1169194.06246         0.000    23301496.0844
     -3189.9134          0.000          13.5004         12.0004
  24821705.4414   16051068.07143   5243900.20045         0.000    24821717.1014
     -3663.7254          0.000           5.7504          6.0004
  21864068.2794  -12213754.06547  -7527504.19946         0.000    21864070.6464
     -1249.5574          0.000          24.5004         20.7504
  23507164.0944   -7030900.93546  -5320796.94645         0.000    23507167.7494
      2698.8404          0.000          12.5004         10.7504
  25095343.1714     -28784.24045    -32580.82445         0.000    25095360.4794
       225.0304          0.000           7.5004          6.2504
  20868982.1294  -17531560.18647 -13019955.92247         0.000    20868982.8934
       587.8034          0.000          27.0004         28.2504
  4  3  1  1 25  0.0020000  0 10G 5G22G18G14G 6G17G 9G15G30G21
  25248020.2054    -125952.47343    -80349.80845         0.000    25248027.6844
       344.6514          0.000           5.0004          5.2504
  24291902.9604   -1304179.59045   -920140.64345         0.000    24291902.0824
       347.9534          0.000          11.0004          9.5004
  23051460.1914   -2977321.50746   1648224.50846         0.000    23051461.5754
       -55.8124          0.000          16.2504         14.7504
  23349252.3644   -6467910.89746  -4835112.43545         0.000    23349257.2374
      1061.5804          0.000          12.7504         11.2504
  23319703.4484   -1604854.04846  -1094613.71245         0.000    23319709.5454
     -3190.9904          0.000          12.2504         11.5004
  24842647.9814   16161117.72543   5329651.85045         0.000    24842665.1094
     -3673.0554          0.000           5.0004          5.0004
  21871256.1944  -12175981.09847  -7498070.67146         0.000    21871258.6554
     -1268.8134          0.000          25.0004         20.7504
  23491764.0304   -7111828.29146  -5383857.09545         0.000    23491767.7484
      2696.1544          0.000          12.7504         11.5004
  25094029.6724     -35687.73444    -37960.36145         0.000    25094049.0264
       235.0094          0.000           6.5004          5.2504
  20865669.7644  -17548966.67747 -13033519.39447         0.000    20865670.6294
       572.4494          0.000          27.7504         28.5004
  4  3  1  1 25 30.0020000  0 10G 5G22G18G14G 6G17G 9G15G30G21
  25246042.6384    -136341.78742    -88444.65745         0.000    25246052.0094
       347.8764          0.000           4.7504          5.5004
  24289907.1124   -1314666.64445   -928312.20645         0.000    24289907.7844
       351.1274          0.000          10.7504          9.2504
  23051770.9734   -2975688.19546   1649497.28046         0.000    23051772.7964
       -53.1444          0.000          17.5004         14.5004
  23343228.3214   -6499567.10946  -4859779.47845         0.000    23343231.8424
      1048.7564          0.000          13.5004         11.7504
  23337925.2174   -1509098.84746  -1019999.42945         0.000    23337931.4624
     -3192.7304          0.000          13.7504         11.7504
  24863645.8584   16271458.23542   5415630.23945         0.000    24863660.8454
     -3683.0434          0.000           4.5004          5.7504
  21878556.4894  -12137617.78447  -7468177.14546         0.000    21878558.6624
     -1288.8214          0.000          24.7504         20.5004
  23476381.9954   -7192661.20946  -5446843.68545         0.000    23476385.7044
      2692.6334          0.000          13.2504         11.2504
  25092661.7814     -42877.09144    -43562.62545         0.000    25092678.5124
       244.2044          0.000           7.0004          8.0004
  20862447.6814  -17565898.82648 -13046713.25447         0.000    20862448.3544
       556.2744          0.000          28.5004         28.7504
  4  3  1  1 26  0.0020000  0 10G 5G22G18G14G 6G17G 9G15G30G21
  25244046.3224    -146830.14743    -96616.79645         0.000    25244059.2814
       351.3884          0.000           5.0004          5.7504
  24287892.4934   -1325252.80145   -936561.07245         0.000    24287892.5444
       354.6174          0.000          10.0004          9.7504
  23052065.9954   -2974137.79146   1650705.46246         0.000    23052067.7444
       -50.2124          0.000          17.5004         15.0004
  23337276.7594   -6530842.10045  -4884149.50545         0.000    23337280.7224
      1036.2194          0.000          11.5004         10.5004
  23356155.8314   -1413296.69445   -945348.54845         0.000    23356161.7624
     -3194.0754          0.000          11.7504         11.0004
  24884700.0494   16382094.10242   5501838.59645         0.000    24884719.8694
     -3692.6934          0.000           4.5004          5.5004
  21885970.3624  -12098657.44347  -7437818.38746         0.000    21885972.9444
     -1308.5434          0.000          23.5004         20.5004
  23461019.6904   -7273390.52046  -5509749.54645         0.000    23461022.8054
      2689.3194          0.000          13.7504         11.5004
  25091240.6754     -50345.21444    -49382.06445         0.000    25091262.0144
       253.6584          0.000           6.7504          7.0004
  20859317.5214  -17582347.82847 -13059530.63447         0.000    20859318.2904
       540.3214          0.000          27.2504         28.7504
  4  3  1  1 26 30.0020000  0 10G 5G22G18G14G 6G17G 9G15G30G21
  25242030.0874    -157422.54043   -104869.93845         0.000    25242041.9734
       354.4264          0.000           5.2504          6.2504
  24285857.4904   -1335945.89145   -944893.19945         0.000    24285859.6824
       357.8684          0.000          10.7504          9.7504
  23052344.0034   -2972676.69946   1651844.03746         0.000    23052345.8514
       -47.5804          0.000          17.7504         15.0004
  23331396.4524   -6561742.73546  -4908227.79145         0.000    23331401.4114
      1023.4174          0.000          13.7504         11.5004
  23374393.7174   -1317456.60046   -870668.10545         0.000    23374400.5594
     -3195.6104          0.000          12.7504         11.0004
  24905808.8764   16493016.60942   5588270.24045         0.000    24905832.1144
     -3702.5614          0.000           4.5004          4.7504
  21893496.4514  -12059107.22147  -7406999.98646         0.000    21893498.7724
     -1328.5414          0.000          23.2504         20.5004
  23445676.2404   -7354020.56946  -5572578.06945         0.000    23445679.0724
      2685.6214          0.000          14.2504         11.7504
  25089765.4054     -58098.20445    -55423.53845         0.000    25089785.2004
       262.8244          0.000           8.2504          7.2504
  20856278.3024  -17598318.81247 -13071975.52947         0.000    20856279.2504
       524.0054          0.000          26.5004         28.7504
  4  3  1  1 27  0.0020000  0 10G 5G22G18G14G 6G17G 9G15G30G21
  25239995.8014    -168110.94444   -113197.99445         0.000    25240005.8054
       358.1564          0.000           7.2504          5.2504
  24283803.3494   -1346740.39345   -953304.38145         0.000    24283804.3134
       361.8154          0.000          11.5004         10.5004
  23052606.1474   -2971298.90146   1652917.72246         0.000    23052607.7924
       -44.2444          0.000          17.5004         15.0004
  23325588.6184   -6592262.93946  -4932009.65946         0.000    23325590.8334
      1011.2964          0.000          13.2504         12.0004
  23392639.4044   -1221575.68646   -795955.86045         0.000    23392646.3494
     -3196.3744          0.000          12.7504         11.0004
  24926972.9694   16604229.58743   5674928.13244         0.000    24926995.5764
     -3711.6324          0.000           5.7504          3.5004
  21901135.8664  -12018961.51047  -7375717.56446         0.000    21901138.2624
     -1347.8244          0.000          23.0004         20.5004
  23430353.4244   -7434542.52146  -5635322.35845         0.000    23430355.7384
      2682.5314          0.000          14.5004         11.7504
  25088237.4014     -66129.22645    -61681.64245         0.000    25088255.7784
       272.6184          0.000           8.7504          7.7504
  20853331.6534  -17613803.42147 -13084041.42647         0.000    20853332.6214
       508.3154          0.000          27.2504         28.7504
  4  3  1  1 27 30.0020000  0 10G 5G22G18G14G 6G17G 9G15G30G21
  25237942.8394    -178896.33744   -121601.49445         0.000    25237948.9004
       361.0494          0.000           6.5004          6.5004
  24281729.1674   -1357640.13845   -961797.56245         0.000    24281729.2404
       365.0634          0.000          11.7504         10.2504
  23052851.9774   -2970006.79146   1653924.62746         0.000    23052853.1784
       -41.6804          0.000          17.7504         15.0004
  23319852.5544   -6622405.94646  -4955497.61246         0.000    23319856.2884
       998.4504          0.000          14.5004         12.2504
  23410891.7544   -1125659.46046   -721216.12345         0.000    23410896.9784
     -3197.8154          0.000          12.2504         11.0004
  24948191.6134   16715728.14243   5761808.66644         0.000    24948213.5244
     -3721.3994          0.000           6.0004          4.2504
  21908888.0274  -11978223.31547  -7343973.46646         0.000    21908890.0994
     -1367.8464          0.000          22.2504         20.2504
  23415051.0994   -7514956.54146  -5697982.54545         0.000    23415054.0794
      2678.6044          0.000          13.2504         11.7504
  25086655.8394     -74440.41944    -68158.07645         0.000    25086673.0524
       281.6594          0.000           6.5004          6.5004
  20850477.4134  -17628802.55947 -13095729.04147         0.000    20850478.1554
       491.8234          0.000          27.0004         29.0004
  4  3  1  1 28  0.0020000  0 10G 5G22G18G14G 6G17G 9G15G30G21
  25235872.0274    -189776.41045   -130078.92745         0.000    25235883.4954
       364.4094          0.000           8.0004          6.5004
  24279634.7894   -1368645.98345   -970373.40245         0.000    24279635.0234
       368.8454          0.000          11.7504          9.5004
  23053081.5624   -2968800.19046   1654864.88246         0.000    23053082.8914
       -38.5884          0.000          17.5004         14.0004
  23314188.3734   -6652171.70846  -4978691.62646         0.000    23314191.9194
       986.1264          0.000          14.0004         12.7504
  23429150.3144   -1029710.81746   -646451.09445         0.000    23429155.6484
     -3198.5784          0.000          12.7504         10.7504
  24969464.1944   16827510.29943   5848910.04044         0.000    24969473.7774
     -3730.5254          0.000           5.0004          4.0004
  21916752.8964  -11936892.89647  -7311767.89246         0.000    21916755.4824
     -1387.3354          0.000          23.0004         20.2504
  23399769.8034   -7595259.99146  -5760556.56946         0.000    23399773.0964
      2675.1274          0.000          13.5004         12.0004
  25085021.0434     -83030.91144    -74852.10245         0.000    25085043.6714
       291.2144          0.000           7.2504          7.2504
  20847715.8804  -17643314.39848 -13107036.93047         0.000    20847716.8804
       475.7874          0.000          28.0004         29.0004
  4  3  1  1 28 30.0020000  0 10G 5G22G18G14G 6G17G 9G15G30G21
  25233783.1214    -200751.66945   -138630.51145         0.000    25233793.4474
       367.3384          0.000           7.5004          6.5004
  24277519.7024   -1379760.27245   -979033.76045         0.000    24277519.7864
       372.2244          0.000          11.0004          9.7504
  23053294.5364   -2967680.84546   1655737.15946         0.000    23053295.2414
       -35.9104          0.000          18.5004         14.5004
  23308595.3934   -6681562.57446  -5001593.49146         0.000    23308599.3404
       973.3874          0.000          13.0004         12.2504
  23447414.1374    -933734.55446   -571664.55045         0.000    23447420.7554
     -3199.6884          0.000          12.2504         11.5004
  24990789.8334   16939572.15642   5936229.25844         0.000    24990807.5384
     -3740.1004          0.000           4.2504          3.5004
  21924730.0544  -11894972.52047  -7279102.62346         0.000    21924732.9424
     -1407.2394          0.000          23.2504         20.5004
  23384509.6694   -7675452.08346  -5823043.83245         0.000    23384513.4114
      2671.1114          0.000          12.7504         11.5004
  25083333.0514     -91901.87245    -81764.60645         0.000    25083351.1894
       300.3004          0.000           8.2504          7.5004
  20845047.1254  -17657338.66647 -13117964.89947         0.000    20845048.2254
       459.2564          0.000          27.2504         29.0004
  4  3  1  1 29  0.0020000  0  9G 5G22G18G14G 6G 9G15G30G21
  25231677.7624    -211813.12845   -147249.23345         0.000    25231686.6834
       370.4434          0.000           9.0004          7.0004
  24275385.0324   -1390977.39845   -987774.28045         0.000    24275385.9224
       375.9994          0.000          11.0004         10.0004
  23053492.1624   -2966642.12646   1656546.59146         0.000    23053493.3134
       -32.9224          0.000          17.5004         14.2504
  23303075.0454   -6710571.92946  -5024198.05846         0.000    23303078.2054
       960.9644          0.000          14.7504         13.0004
  23465683.8784    -837726.83045   -496853.48345         0.000    23465690.8084
     -3200.3964          0.000          11.5004         11.0004
  21932820.6364  -11852456.11547  -7245972.91546         0.000    21932823.6864
     -1426.7894          0.000          23.5004         20.7504
  23369272.3684   -7755523.89246  -5885437.35345         0.000    23369275.9624
      2667.3794          0.000          12.2504         10.7504
  25081593.1164    -101045.93245    -88889.95845         0.000    25081611.7634
       309.7024          0.000           7.7504          6.7504
  20842472.7724  -17670866.93047 -13128506.37747         0.000    20842473.8434
       443.0174          0.000          27.5004         29.2504
  4  3  1  1 29 30.0020000  0  9G 5G22G18G14G 6G 9G15G30G21
  25229555.3564    -222964.49545   -155938.01545         0.000    25229565.4574
       373.3954          0.000           8.7504          7.7504
  24273229.5954   -1402303.60746   -996599.77745         0.000    24273230.7694
       379.5704          0.000          12.2504         10.2504
  23053673.4554   -2965689.10446   1657289.25746         0.000    23053674.7344
       -30.1504          0.000          17.7504         14.7504
  23297626.1574   -6739205.65746  -5046509.94546         0.000    23297629.2884
       948.4014          0.000          13.7504         12.7504
  23483957.9784    -741696.42745   -422024.79945         0.000    23483964.4144
     -3201.1934          0.000          11.7504         10.7504
  21941023.4804  -11809349.79347  -7212383.52446         0.000    21941025.8624
     -1446.5214          0.000          24.5004         21.0004
  23354057.4504   -7835478.15646  -5947739.29845         0.000    23354061.2094
      2663.3434          0.000          12.0004         11.5004
  25079800.1314    -110467.96744    -96231.83945         0.000    25079818.5084
       318.8814          0.000           6.5004          6.5004
  20839992.0914  -17683902.94747 -13138664.28947         0.000    20839992.8024
       426.4914          0.000          26.7504         29.0004
  4  3  1  1 30  0.0020000  0  9G 5G22G18G14G 6G 9G15G30G21
  25227415.4404    -234207.45545   -164698.16845         0.000    25227426.8204
       375.6944          0.000           7.5004          6.7504
  24271052.5854   -1413743.27446  -1005513.65245         0.000    24271053.5814
       382.6924          0.000          12.7504         10.7504
  23053837.7864   -2964825.19846   1657962.46346         0.000    23053838.9794
       -27.8624          0.000          17.5004         14.7504
  23292248.0254   -6767467.56746  -5068532.10146         0.000    23292251.7534
       935.3404          0.000          15.5004         13.2504
  23502235.3524    -645648.99745   -347182.82845         0.000    23502242.8334
     -3202.3544          0.000          11.7504         10.5004
  21949337.8604  -11765657.36947  -7178337.42746         0.000    21949340.3954
     -1466.7264          0.000          24.2504         21.0004
  23338864.7204   -7915316.01946  -6009950.54145         0.000    23338868.3044
      2658.7454          0.000          12.5004         11.7504
  25077953.7644    -120170.71044   -103792.43945         0.000    25077974.8864
       327.5484          0.000           6.7504          7.2504
  20837604.8004  -17696448.12647 -13148439.72947         0.000    20837605.1764
       409.4274          0.000          26.2504         28.5004
  4  3  1  1 30 30.0020000  0  9G 5G22G18G14G 6G 9G15G30G21
  25225261.3014    -245524.69944   -173516.27345         0.000    25225273.3174
       378.5094          0.000           7.2504          6.5004
  24268856.7394   -1425281.85145  -1014504.63345         0.000    24268857.7144
       386.3434          0.000          11.2504         11.2504
  23053988.0494   -2964035.14046   1658578.13946         0.000    23053988.9204
       -25.0584          0.000          16.0004         14.7504
  23286943.4944   -6795342.74446  -5090252.91746         0.000    23286947.0374
       922.7844          0.000          14.5004         13.2504
  23520518.1374    -549572.89346   -272318.49345         0.000    23520524.5114
     -3202.9384          0.000          12.2504         10.0004
  21957766.5594  -11721363.99747  -7143823.06346         0.000    21957769.0354
     -1486.3884          0.000          24.0004         21.0004
  23323697.6214   -7995019.55946  -6072057.11345         0.000    23323701.1664
      2654.5724          0.000          13.5004         11.7504
  25076057.1114    -130138.03444   -111559.20245         0.000    25076075.2564
       336.6834          0.000           7.2504          6.5004
  20835314.1474  -17708485.40247 -13157819.39847         0.000    20835314.5344
       392.8154          0.000          26.7504         28.7504
  4  3  1  1 31  0.0020000  0  9G 5G22G18G14G 6G 9G15G30G21
  25223091.8964    -256922.63144   -182397.12945         0.000    25223108.6544
       381.2204          0.000           7.2504          7.5004
  24266640.3364   -1436928.30245         0.000           0.000           0.000
       390.0154          0.000          10.7504          0.000
  23054122.7564   -2963326.84446   1659130.10246         0.000    23054123.7364
       -22.2744          0.000          17.2504         14.7504
  23281710.9024   -6822839.58046  -5111678.90346         0.000    23281714.7384
       910.2404          0.000          15.7504         13.2504
  23538804.3994    -453478.64546   -197440.07445         0.000    23538810.3024
     -3203.4284          0.000          12.2504         10.5004
  21966307.9824  -11676478.39547  -7108847.22446         0.000    21966310.5364
     -1506.0674          0.000          24.5004         21.2504
  23308555.0794   -8074594.20346  -6134063.26046         0.000    23308558.1634
      2650.2814          0.000          15.0004         12.2504
  25074108.6994    -140377.32144   -119537.89845         0.000    25074125.7014
       345.8264          0.000           6.7504          6.0004
  20833118.9594  -17720021.07147 -13166808.21047         0.000    20833119.3974
       376.1264          0.000          26.2504         28.7504
  4  3  1  1 31 30.0020000  0  9G 5G22G18G14G 6G 9G15G30G21
  25220907.1254    -268401.58345   -191341.31845         0.000    25220919.0524
       384.0964          0.000           7.7504          7.0004
  24264402.8314   -1448685.79145         0.000           0.000           0.000
       393.9144          0.000          11.5004          0.000
  23054241.6114   -2962702.09046   1659616.94846         0.000    23054242.1674
       -19.2944          0.000          17.0004         15.0004
  23276549.8294   -6849960.99046  -5132812.39446         0.000    23276552.5384
       897.9104          0.000          15.7504         12.5004
  23557093.1804    -357371.50046   -122551.54645         0.000    23557100.5014
     -3203.6154          0.000          12.7504         11.0004
  21974961.5574  -11631003.58747  -7073412.25546         0.000    21974963.8504
     -1525.5094          0.000          23.7504         20.7504
  23293437.0474   -8154039.73846  -6195968.78146         0.000    23293438.8004
      2646.1324          0.000          15.0004         12.0004
  25072108.0804    -150890.10544   -127729.57545         0.000    25072126.4894
       355.1354          0.000           7.0004          6.5004
  20831019.1474  -17731055.59847 -13175406.52447         0.000    20831019.6454
       359.5784          0.000          26.7504         28.7504
  4  3  1  1 32  0.0020000  0  9G 5G22G18G14G 6G 9G15G30G21
  25218706.5284    -279963.25444   -200349.91245         0.000    25218713.1724
       386.7644          0.000           6.7504          7.0004
  24262143.4624   -1460558.39745     -3402.54255         0.000    24262144.9554
       397.7014          0.000          11.5004         11.0004
  23054343.9714   -2962164.25046   1660036.09446         0.000    23054345.2684
       -16.4784          0.000          18.7504         15.5004
  23271459.4494   -6876710.39646  -5153655.98446         0.000    23271462.3374
       885.4564          0.000          14.5004         12.5004
  23575383.1884    -261257.88746    -47658.02745         0.000    23575388.3804
     -3203.8674          0.000          13.2504         10.7504
  21983726.4104  -11584943.74147  -7037521.41346         0.000    21983728.4534
     -1545.0754          0.000          23.5004         20.7504
  23278343.4794   -8233356.85046  -6257774.26446         0.000    23278346.2194
      2641.7334          0.000          14.5004         12.0004
  25070055.0344    -161679.11445   -136136.45845         0.000    25070077.0124
       364.2284          0.000           8.7504          6.7504
  20829014.3564  -17741590.74347 -13183615.70547         0.000    20829015.2154
       342.8404          0.000          26.7504         29.0004
  4  3  1  1 32 30.0020000  0  9G 5G22G18G14G 6G 9G15G30G21
  25216492.2734    -291597.33545   -209414.91145         0.000    25216498.9424
       389.0394          0.000           8.2504          7.0004
  24259863.6204   -1472538.79646    -12737.80445         0.000    24259864.4984
       401.2114          0.000          12.7504         11.2504
  23054431.3604   -2961705.00346   1660393.98146         0.000    23054432.7424
       -13.9434          0.000          18.0004         15.0004
  23266441.3214   -6903080.18546  -5174203.77645         0.000    23266445.7674
       872.7504          0.000          14.0004         11.7504
  23593675.4094    -165132.25546     27244.89445         0.000    23593681.4954
     -3204.2794          0.000          12.7504         11.0004
  21992604.0284  -11538291.31747  -7001168.84246         0.000    21992606.8654
     -1564.8944          0.000          23.0004         20.7504
  23263276.3754   -8312534.74046  -6319471.22046         0.000    23263279.1464
      2636.9834          0.000          14.2504         12.0004
  25067951.1664    -172735.27345   -144751.54545         0.000    25067969.6624
       373.0474          0.000           8.2504          7.2504
  20827106.4924  -17751616.58447 -13191428.02947         0.000    20827107.2144
       325.7494          0.000          27.2504         29.2504
  4  3  1  1 33  0.0020000  0  9G 5G22G18G14G 6G 9G15G30G21
  25214264.5034    -303302.28445   -218535.15445         0.000    25214270.0644
       391.3424          0.000           8.0004          6.5004
  24257563.0144   -1484628.24446    -22158.04245         0.000    24257564.0934
       404.8104          0.000          12.2504         11.0004
  23054503.7294   -2961324.73246   1660690.33146         0.000    23054504.4954
       -11.3614          0.000          17.7504         15.0004
  23261495.1764   -6929071.62946  -5194456.72746         0.000    23261499.2584
       860.0774          0.000          15.0004         13.0004
  23611969.2894     -68997.85146    102154.61645         0.000    23611975.0014
     -3204.5784          0.000          12.2504         10.5004
  22001594.2074  -11491047.46847  -6964355.40246         0.000    22001596.4984
     -1584.6494          0.000          23.5004         20.5004
  23248236.0894   -8391571.52746  -6381058.26946         0.000    23248240.4494
      2632.1904          0.000          13.5004         12.0004
  25065796.3114    -184058.56545   -153574.74345         0.000    25065815.7764
       381.9144          0.000           7.5004          6.0004
  20825295.7784  -17761131.91047 -13198842.55647         0.000    20825296.3794
       308.6484          0.000          27.2504         29.0004
  4  3  1  1 33 30.0020000  0  9G 5G22G18G14G 6G 9G15G30G21
  25212024.0864    -315073.75144   -227707.19245         0.000    25212030.9934
       393.6704          0.000           7.0004          7.0004
  24255241.9124   -1496825.14245    -31662.01745         0.000    24255244.2604
       408.5544          0.000          10.2504         10.2504
  23054561.5414   -2961020.84846   1660927.18146         0.000    23054562.4194
        -8.6664          0.000          17.7504         14.7504
  23256621.5224   -6954682.57346  -5214413.21046         0.000    23256624.1104
       847.5354          0.000          14.7504         12.7504
  23630264.6894      27144.34846    177070.45145         0.000    23630271.0004
     -3204.6594          0.000          12.2504         11.0004
  22010697.2364  -11443210.50147  -6927079.80246         0.000    22010699.2544
     -1604.2634          0.000          24.5004         20.2504
  23233223.5744   -8470462.21946  -6442531.46346         0.000    23233227.2434
      2627.3984          0.000          13.5004         12.5004
  25063591.2094    -195645.69044   -162603.50445         0.000    25063612.6534
       390.8284          0.000           6.2504          7.0004
  20823582.9604  -17770132.79047 -13205856.21647         0.000    20823583.7974
       291.6174          0.000          26.7504         29.0004
  4  3  1  1 34  0.0020000  0  9G 5G22G18G14G 6G 9G15G30G21
  25209769.9254    -326917.27144   -236935.42145         0.000    25209778.3424
       395.9324          0.000           6.7504          6.7504
  24252898.8394   -1509137.37745    -41255.86145         0.000    24252899.4944
       412.3074          0.000          11.7504         10.2504
  23054603.4824   -2960800.37346   1661099.00346         0.000    23054603.8094
        -5.9864          0.000          17.7504         14.7504
  23251818.7354   -6979920.73246  -5234079.20246         0.000    23251821.6374
       835.0434          0.000          12.5004         12.0004
  23648559.6934     123284.39145    251984.54145         0.000    23648565.7564
     -3204.6264          0.000          11.7504         10.7504
  22019911.6174  -11394788.40347  -6889348.25746         0.000    22019913.4754
     -1623.8414          0.000          23.2504         20.2504
  23218238.0534   -8549211.25746  -6503894.26846         0.000    23218241.7424
      2622.5394          0.000          13.5004         12.2504
  25061334.8114    -207502.93444   -171842.72445         0.000    25061353.0204
       399.7214          0.000           7.2504          6.2504
  20821967.0484  -17778624.34547 -13212472.99047         0.000    20821967.5484
       274.5154          0.000          26.5004         28.5004
  4  3  1  1 34 30.0020000  0  9G 5G22G18G14G 6G 9G15G30G21
  25207502.0724    -338832.92545   -246219.91145         0.000    25207511.6254
       398.0014          0.000           8.2504          7.0004
  24250533.2944   -1521567.81245    -50941.83745         0.000    24250533.6984
       415.9704          0.000          11.2504         10.2504
  23054629.2784   -2960664.70146   1661204.78346         0.000    23054630.0234
        -3.4484          0.000          18.0004         15.5004
  23247086.4434   -7004788.44246  -5253456.51846         0.000    23247089.3774
       822.4104          0.000          13.5004         12.2504
  23666853.3474     219417.71145    326893.44145         0.000    23666859.9764
     -3204.6464          0.000          11.2504          9.7504
  22029236.7874  -11345784.16947  -6851163.09146         0.000    22029239.5564
     -1643.5124          0.000          22.7504         20.7504
  23203279.6374   -8627817.90946  -6565146.13846         0.000    23203282.6364
      2617.4694          0.000          14.0004         12.2504
  25059026.7684    -219631.51544   -181293.36745         0.000    25059042.1924
       408.4194          0.000           6.5004          7.0004
  20820447.9374  -17786607.25347 -13218693.41647         0.000    20820448.5364
       257.2524          0.000          27.0004         29.2504
  4  3  1  1 35  0.0020000  0  9G 5G22G18G14G 6G 9G15G30G21
  25205222.6904    -350809.45345   -255551.83645         0.000    25205229.1864
       400.5004          0.000           7.7504          7.0004
  24248146.8714   -1534107.92345    -60713.27245         0.000    24248148.2564
       420.0964          0.000          11.5004         10.2504
  23054640.7014   -2960604.37246   1661251.84646         0.000    23054641.6324
        -0.4974          0.000          18.0004         15.0004
  23242426.3184   -7029277.28846  -5272538.65546         0.000    23242428.4304
       810.2434          0.000          14.5004         12.2504
  23685146.9024     315550.53345    401801.92945         0.000    23685154.4544
     -3204.1524          0.000          11.5004         10.0004
  22038674.3074  -11296189.49247  -6812517.85646         0.000    22038676.4724
     -1662.7234          0.000          24.2504         20.0004
  23188350.4924   -8706270.87046  -6626278.25846         0.000    23188352.0744
      2612.7694          0.000          14.7504         12.2504
  25056668.9104    -232021.51744   -190947.72945         0.000    25056688.1814
       417.6134          0.000           6.7504          5.7504
  20819027.6574  -17794070.85847 -13224509.19247         0.000    20819028.2754
       240.3764          0.000          26.5004         28.7504
  4  3  1  1 35 30.0020000  0  9G 5G22G18G14G 6G 9G15G30G21
  25202928.9604    -362861.01044   -264942.22645         0.000    25202937.6404
       402.8844          0.000           6.5004          6.7504
  24245736.4334   -1546774.53246    -70583.28145         0.000    24245735.7964
       424.2724          0.000          12.5004         10.2504
  23054634.7524   -2960635.30646   1661227.78646         0.000    23054635.6924
         2.4914          0.000          17.5004         15.2504
  23237835.2374   -7053403.57246  -5291338.24646         0.000    23237838.4364
       798.0974          0.000          14.2504         12.7504
  23703436.8424     411663.90745    476695.24045         0.000    23703443.1604
     -3203.4874          0.000          11.0004         10.5004
  22048220.9794  -11246021.13547  -6773425.58446         0.000    22048223.1924
     -1681.9024          0.000          22.7504         20.0004
  23173448.0984   -8784583.27846  -6687300.86346         0.000    23173450.6714
      2607.9784          0.000          14.0004         12.0004
  25054258.4364    -244688.02643   -200817.38145         0.000    25054279.7274
       426.7504          0.000           6.0004          6.5004
  20817703.5364  -17801029.05947 -13229931.14347         0.000    20817704.2324
       223.4324          0.000          26.5004         29.0004
  4  3  1  1 36  0.0020000  0  9G 5G22G18G14G 6G 9G15G30G21
  25200623.3524    -374974.54143   -274380.93145         0.000    25200632.8644
       404.8624          0.000           5.5004          6.5004
  24243303.9954   -1559557.28646    -80543.81145         0.000    24243305.5624
       428.1064          0.000          13.5004         10.5004
  23054613.6084   -2960746.24046   1661141.38946         0.000    23054614.5894
         5.1324          0.000          17.5004         15.0004
  23233315.0594   -7077157.12046  -5309847.40746         0.000    23233316.8674
       785.6724          0.000          14.2504         12.7504
  23721724.6694     507765.99945    551579.74945         0.000    23721732.6854
     -3203.0824          0.000          11.7504         10.5004
  22057878.7604  -11195268.99347  -6733878.41346         0.000    22057880.3824
     -1701.3704          0.000          23.0004         19.7504
  23158575.0184   -8862741.51646  -6748203.30046         0.000    23158577.8474
      2602.7654          0.000          15.5004         13.0004
  25051797.5544    -257619.29643   -210893.31045         0.000    25051817.1044
       435.5374          0.000           5.5004          5.2504
  20816477.8814  -17807469.68047 -13234949.78947         0.000    20816478.5644
       206.1344          0.000          25.5004         28.7504
  4  3  1  1 36 30.0020000  0  9G 5G22G18G14G 6G 9G15G30G21
  25198306.2454    -387148.77943   -283866.95345         0.000    25198310.6354
       406.7424          0.000           6.0004          6.2504
  24240849.2514   -1572457.55046    -90595.88345         0.000    24240850.0534
       431.9154          0.000          14.2504         10.7504
  23054577.1254   -2960937.74746   1660992.19546         0.000    23054578.1384
         7.6484          0.000          18.0004         15.2504
  23228865.5564   -7100538.84546  -5328066.82946         0.000    23228867.7504
       773.1224          0.000          13.7504         12.5004
  23740009.7334     603853.69245    626453.05445         0.000    23740016.1884
     -3202.7224          0.000          11.0004          9.2504
  22067647.3254  -11143934.58947  -6693877.54246         0.000    22067649.8544
     -1720.9134          0.000          22.0004         20.0004
  23143731.6994   -8940743.59346  -6808984.07146         0.000    23143734.3894
      2597.3834          0.000          16.5004         13.5004
  25049286.3454    -270815.00444   -221175.35145         0.000    25049302.0764
       444.1734          0.000           6.2504          5.5004
  20815350.9684  -17813391.54547 -13239564.20347         0.000    20815351.4844
       188.6634          0.000          26.7504         28.7504
  4  3  1  1 37  0.0020000  0  9G 5G22G18G14G 6G 9G15G30G21
  25195977.5154    -399384.28943   -293400.70845         0.000    25195985.1414
       409.0934          0.000           5.5004          6.2504
  24238371.4194   -1585478.70646   -100742.16345         0.000    24238371.3424
       436.2944          0.000          14.2504         10.7504
  23054524.9234   -2961211.72346   1660778.75946         0.000    23054525.7814
        10.7574          0.000          17.0004         14.7504
  23224486.1344   -7123552.17946  -5345999.17446         0.000    23224489.4044
       761.2144          0.000          15.7504         13.7504
  23758290.9384     699921.37345    701310.80345         0.000    23758296.8644
     -3201.6424          0.000           9.7504          9.7504
  22077526.0854  -11092021.30847  -6653425.60646         0.000    22077528.3914
     -1739.8454          0.000          21.7504         19.7504
  23128918.1494   -9018589.49946  -6869643.17346         0.000    23128920.5664
      2592.4874          0.000          16.5004         13.5004
  25046724.3714    -284276.91943   -231664.82845         0.000    25046742.5574
       453.4204          0.000           5.2504          5.2504
  20814322.5974  -17818795.70247 -13243775.21347         0.000    20814323.2664
       171.7484          0.000          26.2504         29.0004
  4  3  1  1 37 30.0020000  0  9G 5G22G18G14G 6G 9G15G30G21
  25193637.7714    -411677.92444   -302979.74245         0.000    25193644.5084
       410.9954          0.000           6.2504          6.7504
  24235870.7504   -1598619.96846   -110982.03845         0.000    24235870.0974
       440.3284          0.000          13.2504         11.2504
  23054457.2934   -2961566.66446   1660502.22446         0.000    23054457.3424
        13.4464          0.000          16.7504         14.7504
  23220177.0484   -7146196.30946  -5363643.85146         0.000    23220179.4954
       748.9204          0.000          15.7504         13.5004
  23776568.0044     795967.36045    776151.57745         0.000    23776575.2384
     -3200.8714          0.000           9.5004          9.5004
  22087515.0584  -11039528.91347  -6612522.39346         0.000    22087516.8824
     -1759.1224          0.000          22.7504         20.2504
  23114135.0154   -9096275.28246  -6930177.47146         0.000    23114137.1824
      2587.0954          0.000          16.2504         14.2504
  25044112.2784    -298002.85344   -242360.10945         0.000    25044128.9904
       462.1874          0.000           7.2504          5.2504
  20813393.2644  -17823679.34447 -13247580.63347         0.000    20813394.1834
       154.3584          0.000          25.2504         28.7504
  4  3  1  1 38  0.0020000  0  9G 5G22G18G14G 6G 9G15G30G21
  25191287.5114    -424026.91845   -312601.91945         0.000    25191293.2454
       412.6144          0.000           7.5004          6.7504
  24233347.1614   -1611881.14946   -121315.32145         0.000    24233347.6504
       444.1444          0.000          12.7504         10.7504
  23054374.4464   -2962001.55946   1660163.38846         0.000    23054375.3234
        15.9074          0.000          16.2504         15.0004
  23215938.2354   -7168471.01746  -5381000.67346         0.000    23215941.3104
       736.4244          0.000          16.5004         13.5004
  23794840.6234     891989.75045    850973.96345         0.000    23794848.1464
     -3200.2584          0.000          10.0004          9.7504
  22097614.1824  -10986457.49647  -6571167.98946         0.000    22097616.1834
     -1778.6044          0.000          23.0004         19.7504
  23099383.0434   -9173797.33046  -6990584.20646         0.000    23099385.8124
      2581.3944          0.000          16.5004         13.5004
  25041450.0724    -311990.96743   -253259.41245         0.000    25041470.6684
       470.7324          0.000           5.5004          5.2504
  20812563.3594  -17828040.30347 -13250978.76847         0.000    20812564.3524
       136.7084          0.000          25.2504         28.5004
  4  3  1  1 38 30.0020000  0  9G 5G22G18G14G 6G 9G15G30G21
  25188927.8194    -436425.92445   -322263.06645         0.000    25188934.0364
       414.0174          0.000           7.7504          8.2504
  24230801.2104   -1625259.76746   -131740.16245         0.000    24230802.1584
       447.8514          0.000          12.5004         10.2504
  23054277.0864   -2962512.75346   1659765.11546         0.000    23054277.3454
        18.2314          0.000          16.5004         15.0004
  23211770.2554   -7190373.76146  -5398067.65846         0.000    23211772.7554
       723.7994          0.000          16.2504         13.2504
  23813108.8454     987989.24645    925778.49245         0.000    23813115.5314
     -3199.6524          0.000           8.7504          9.5004
  22107823.8654  -10932805.00647  -6529360.82846         0.000    22107825.1324
     -1798.1664          0.000          22.7504         19.5004
  23084663.2654   -9251149.85846  -7050858.81946         0.000    23084665.4804
      2575.4774          0.000          15.0004         13.5004
  25038738.8944    -326237.04944   -264359.88045         0.000    25038755.8034
       479.0794          0.000           6.5004          5.5004
  20811833.9004  -17831873.45947 -13253965.62747         0.000    20811834.8254
       118.8894          0.000          25.0004         28.5004
  4  3  1  1 39  0.0020000  0  9G 5G22G18G14G 6G 9G15G30G21
  25186557.7824    -448879.16045   -331966.49445         0.000    25186566.4164
       415.6064          0.000           7.7504          7.7504
  24228231.4234   -1638763.21446   -142262.25445         0.000    24228231.6724
       451.8394          0.000          12.7504         10.7504
  23054164.0914   -2963106.37846   1659302.59646         0.000    23054164.7604
        20.8144          0.000          18.0004         14.7504
  23207671.6634   -7211911.68546  -5414850.37046         0.000    23207673.9794
       711.4784          0.000          15.0004         13.0004
  23831371.0464    1083956.55145   1000557.98045         0.000    23831377.9944
     -3198.6924          0.000           9.7504         10.0004
  22118142.6584  -10878579.16847  -6487106.88746         0.000    22118144.9584
     -1817.4324          0.000          22.2504         19.5004
  23069975.0074   -9328336.70346  -7111004.36246         0.000    23069977.0044
      2569.7554          0.000          16.2504         13.7504
  25035977.5824    -340746.94345   -275665.72745         0.000    25035995.9064
       487.6844          0.000           9.0004          7.0004
  20811203.8484  -17835184.33647 -13256545.50847         0.000    20811204.4144
       101.2954          0.000          25.2504         28.5004
  4  3  1  1 39 30.0020000  0  9G 5G22G18G14G 6G 9G15G30G21
  25184179.4544    -461375.57944   -341703.52045         0.000    25184187.4804
       417.4464          0.000           6.5004          8.0004
  24225639.5934   -1652382.34945   -152874.47745         0.000    24225639.1334
       456.1374          0.000          11.5004          9.7504
  23054037.3064   -2963772.58646   1658783.51546         0.000    23054038.2734
        23.6154          0.000          17.5004         14.7504
  23203644.0964   -7233075.99146  -5431341.93146         0.000    23203648.0494
       699.4724          0.000          14.0004         13.5004
  23849628.3194    1179898.43645   1075317.64745         0.000    23849635.2184
     -3197.3814          0.000           9.0004          9.2504
  22128572.1924  -10823771.49847  -6444399.56946         0.000    22128574.4094
     -1836.4014          0.000          23.2504         20.0004
  23055320.6474   -9405345.70946  -7171011.33446         0.000    23055322.8734
      2564.1844          0.000          16.2504         13.5004
  25033168.0944    -355510.06145   -287168.96545         0.000    25033180.5994
       496.5194          0.000           7.5004          6.5004
  20810675.2744  -17837961.98747 -13258709.89147         0.000    20810675.9924
        83.8934          0.000          25.2504         28.7504
  4  3  1  1 40  0.0020000  0  9G 5G22G18G14G 6G 9G15G30G21
  25181791.7734    -473921.33444   -351479.01245         0.000    25181800.4114
       418.9804          0.000           6.5004          8.5004
  24223024.1524   -1666126.28446   -163583.94045         0.000    24223024.9754
       460.1884          0.000          13.0004         11.0004
  23053895.2244   -2964519.11546   1658201.85346         0.000    23053895.7074
        26.2054          0.000          17.2504         15.0004
  23199685.9174   -7253875.64746  -5447549.36846         0.000    23199689.0714
       687.2204          0.000          14.0004         12.7504
  23867878.6814    1275803.85145   1150048.85645         0.000    23867886.4394
     -3196.2384          0.000           8.7504          9.2504
  22139110.6474  -10768391.29247  -6401246.11246         0.000    22139112.1044
     -1855.5614          0.000          22.5004         19.5004
  23040699.0424   -9482182.36646  -7230883.98946         0.000    23040701.6114
      2558.2784          0.000          16.0004         13.7504
  25030308.7234    -370533.76743   -298875.25045         0.000    25030328.5424
       505.1104          0.000           5.0004          5.7504
  20810246.9364  -17840212.75847 -13260463.72147         0.000    20810247.4414
        66.1974          0.000          25.2504         28.7504
  4  3  1  1 40 30.0020000  0  9G 5G22G18G14G 6G 9G15G30G21
  25179396.1054    -486509.15844   -361287.31245         0.000    25179401.9844
       420.3894          0.000           6.5004          7.0004
  24220385.9864   -1679990.10746   -174386.85045         0.000    24220385.1994
       464.2814          0.000          13.2504         11.2504
  23053738.8114   -2965340.64746   1657561.75646         0.000    23053740.2894
        28.7614          0.000          17.0004         14.2504
  23195798.0294   -7274306.04946  -5463469.05746         0.000    23195800.0094
       674.9824          0.000          14.0004         12.7504
  23886122.5054    1371674.90645   1224753.31945         0.000    23886129.8734
     -3194.9544          0.000           8.7504          9.2504
  22149758.8664  -10712434.34447  -6357643.26046         0.000    22149760.4814
     -1874.6994          0.000          23.0004         19.7504
  23026111.7874   -9558838.47446  -7290615.96646         0.000    23026114.4704
      2552.3014          0.000          16.7504         14.5004
  25027400.9114    -385811.75643   -310779.72943         0.000    25027418.4574
       513.6314          0.000           5.0004          3.0004
  20809920.0814  -17841930.18147 -13261801.94747         0.000    20809920.8584
        48.4874          0.000          25.2504         28.7504
  4  3  1  1 41  0.0020000  0  9G 5G22G18G14G 6G 9G15G30G21
  25176992.5234    -499138.42845   -371127.94245         0.000    25176998.9464
       421.7964          0.000           8.7504          8.0004
  24217724.5394   -1693975.89346   -185284.79245         0.000    24217724.1634
       468.3944          0.000          12.7504         11.0004
  23053568.0704   -2966237.65846         0.000           0.000           0.000
        31.3334          0.000          17.7504          0.000
  23191980.0274   -7294369.13846  -5479102.50946         0.000    23191982.5464
       662.8264          0.000          14.0004         13.2504
  23904359.1224    1467507.89545   1299428.10845         0.000    23904365.5484
     -3193.6244          0.000           9.7504         10.0004
  22160516.3774  -10655903.12847  -6313592.91646         0.000    22160518.5924
     -1893.7674          0.000          22.7504         19.7504
  23011559.1154   -9635313.04646  -7350206.49446         0.000    23011561.8584
      2546.2664          0.000          16.5004         14.0004
  25024444.7814    -401344.55644   -322882.54045         0.000    25024458.8964
       522.1444          0.000           7.2504          4.5004
  20809694.6824  -17843114.58347 -13262724.85247         0.000    20809695.8364
        30.7354          0.000          24.7504         29.0004
  4  3  1  1 41 30.0020000  0  9G 5G22G18G14G 6G 9G15G30G21
  25174580.4534    -511812.53745   -381003.47245         0.000    25174586.9614
       422.9044          0.000           7.7504          8.5004
  24215038.7174   -1708089.90446   -196282.63445         0.000    24215038.0574
       472.3474          0.000          14.2504         11.5004
  23053381.9014   -2967215.93946         0.000           0.000           0.000
        33.6764          0.000          17.0004          0.000
  23188230.6794   -7314071.53546  -5494454.94746         0.000    23188233.3784
       650.4614          0.000          14.5004         13.0004
  23922586.9974    1563294.80845   1374066.93845         0.000    23922592.8214
     -3192.3374          0.000           9.2504         10.2504
  22171381.8844  -10598804.46247  -6269100.42146         0.000    22171383.7874
     -1913.0064          0.000          22.2504         19.7504
  22997040.4064   -9711609.20046  -7409657.99546         0.000    22997042.8514
      2539.9244          0.000          16.7504         14.0004
  25021439.2884    -417136.63043   -335187.52345         0.000    25021449.8424
       530.4594          0.000           6.0004          5.7504
  20809569.9994  -17843769.77947 -13263235.37847         0.000    20809570.8844
        12.7364          0.000          25.0004         29.0004
  4  3  1  1 42  0.0020000  0  9G 5G22G18G14G 6G 9G15G30G21
  25172161.0714    -524524.65244   -390908.67645         0.000    25172165.4254
       424.1814          0.000           7.0004          7.0004
  24212329.2604   -1722328.07746   -207377.24645         0.000    24212328.9984
       476.5274          0.000          13.2504         11.2504
  23053181.3214   -2968269.88946        -0.65056         0.000    23053182.0794
        36.2204          0.000          17.2504         14.7504
  23184550.7514   -7333409.20146  -5509523.16146         0.000    23184554.3374
       638.3494          0.000          14.5004         13.2504
  23940806.3514    1659037.07545   1448671.02245         0.000    23940813.3014
     -3190.7894          0.000           8.2504          9.2504
  22182356.0384  -10541134.74747  -6224162.92346         0.000    22182357.7944
     -1931.9914          0.000          22.5004         19.7504
  22982557.0594   -9787719.46046  -7468964.63946         0.000    22982559.8774
      2533.7134          0.000          15.2504         13.5004
  25018385.5024    -433182.23244   -347690.02245         0.000    25018404.7324
       538.9184          0.000           6.2504          5.0004
  20809547.1164  -17843889.95547 -13263329.00447         0.000    20809547.9794
        -5.0904          0.000          25.2504         28.7504
  4  3  1  1 42 30.0020000  0  9G 5G22G18G14G 6G 9G15G30G21
  25169734.6404    -537273.93944   -400842.78345         0.000    25169738.9604
       425.5304          0.000           6.5004          7.2504
  24209595.8804   -1736691.86146   -218569.73245         0.000    24209594.9564
       480.8434          0.000          14.0004         11.2504
  23052966.2214   -2969400.09046      -881.30046         0.000    23052967.4554
        38.8934          0.000          18.0004         15.2504
  23180940.0084   -7352383.71446  -5524308.39246         0.000    23180942.4534
       626.3864          0.000          16.7504         14.2504
  23959016.5094    1754731.18145   1523237.56445         0.000    23959023.9924
     -3189.0184          0.000           9.2504          9.0004
  22193438.3244  -10482896.65147  -6178782.54946         0.000    22193440.6624
     -1950.7884          0.000          21.7504         19.7504
  22968109.3674   -9863642.11646  -7528125.08046         0.000    22968111.7524
      2527.5464          0.000          15.5004         14.0004
  25015283.3694    -449481.50744   -360390.14844         0.000    25015297.0564
       547.4764          0.000           6.2504          4.0004
  20809626.1534  -17843474.56647 -13263005.30847         0.000    20809626.5194
       -22.8454          0.000          24.5004         29.0004
  4  3  1  1 43  0.0020000  0  9G 5G22G18G14G 6G 9G15G30G21
  25167302.9424    -550050.97644   -410798.52545         0.000    25167310.3634
       426.1354          0.000           7.2504          8.0004
  24206839.8264   -1751174.50346   -229854.84045         0.000    24206838.9274
       484.5404          0.000          12.5004         10.7504
  23052738.1414   -2970598.71046     -1815.25646         0.000    23052739.5414
        40.8954          0.000          17.0004         15.5004
  23177399.6044   -7370988.65846  -5538805.64746         0.000    23177402.5014
       613.8034          0.000          16.5004         14.2504
  23977218.3254    1850381.40045   1597769.86745         0.000    23977226.3964
     -3187.7924          0.000           9.0004          8.7504
  22204630.0054  -10424083.84347  -6132954.35146         0.000    22204631.9134
     -1970.2014          0.000          22.2504         19.5004
  22953699.3534   -9939367.01546  -7587131.44246         0.000    22953701.3864
      2520.6424          0.000          16.0004         14.2504
  25012134.5554    -466026.08543   -373281.48044         0.000    25012148.9154
       555.3454          0.000           5.0004          3.7504
  20809808.6564  -17842515.48747 -13262257.96747         0.000    20809809.2684
       -41.2484          0.000          25.5004         29.2504
  4  3  1  1 43 30.0020000  0  9G 5G22G18G14G 6G 9G15G30G21
  25164864.8684    -562861.90545   -420780.69645         0.000    25164870.9534
       427.3064          0.000           7.5004          7.7504
  24204059.4774   -1765784.75945   -241239.40845         0.000    24204058.3434
       488.8744          0.000          11.7504         10.7504
  23052495.4344   -2971873.85546     -2808.84746         0.000    23052496.2724
        43.5314          0.000          17.0004         15.0004
  23173927.7864   -7389232.90846  -5553021.86146         0.000    23173930.8124
       601.8694          0.000          16.2504         13.7504
  23995410.0144    1945977.99245   1672260.38845         0.000    23995416.5644
     -3185.8684          0.000           9.5004          9.2504
  22215929.2734  -10364705.80347  -6086685.69746         0.000    22215930.9494
     -1988.9324          0.000          22.0004         19.2504
  22939325.9274  -10014899.68746  -7645988.02146         0.000    22939328.4394
      2514.2694          0.000          16.5004         14.5004
  25008937.7214    -482823.03442         0.000           0.000           0.000
       563.8274          0.000           4.7504          0.000
  20810093.3704  -17841019.32947 -13261092.11647         0.000    20810093.7834
       -59.1074          0.000          25.7504         29.5004
  4  3  1  1 44  0.0020000  0  9G 5G22G18G14G 6G 9G15G30G21
  25162422.0894    -575697.49445   -430782.05445         0.000    25162428.8864
       428.2144          0.000           7.7504          8.5004
  24201256.0624   -1780515.88745   -252718.11845         0.000    24201256.5644
       493.0254          0.000          11.7504         10.7504
  23052239.6934   -2973217.50346     -3855.79346         0.000    23052240.5074
        45.9134          0.000          17.5004         15.0004
  23170525.8764   -7407109.92846  -5566951.94346         0.000    23170527.7394
       589.7774          0.000          16.5004         13.5004
  24013592.1564    2041524.46445   1746711.82445         0.000    24013600.6034
     -3184.0414          0.000           9.7504          9.2504
  22227337.2514  -10304756.36147  -6039971.80346         0.000    22227339.2904
     -2007.8504          0.000          22.2504         19.2504
  22924991.0174  -10090230.02146  -7704686.92546         0.000    22924994.5134
      2507.5994          0.000          17.7504         15.0004
  25005694.5574    -499864.01644         0.000           0.000           0.000
       572.0774          0.000           7.0004          0.000
  20810481.9674  -17838977.27247 -13259500.88547         0.000    20810482.8044
       -77.2024          0.000          25.0004         29.7504
  4  3  1  1 44 30.0020000  0  9G 5G22G18G14G 6G 9G15G30G21
  25159975.0504    -588555.38844   -440800.81745         0.000    25159981.4904
       428.9904          0.000           6.7504          7.2504
  24198429.6744   -1795368.42146   -264291.47245         0.000    24198429.0934
       497.2074          0.000          13.0004         11.0004
  23051971.0604   -2974629.17946     -4955.77646         0.000    23051971.1724
        48.2424          0.000          18.2504         14.7504
  23167193.6394   -7424620.73046  -5580596.61146         0.000    23167196.6024
       577.6644          0.000          16.5004         13.7504
  24031764.3914    2137018.88345   1821122.73945         0.000    24031771.6174
     -3182.1864          0.000          10.0004          9.7504
  22238853.6824  -10244236.92847  -5992813.76246         0.000    22238855.8284
     -2026.7314          0.000          21.7504         19.0004
  22910695.0864  -10165355.38246  -7763226.12046         0.000    22910698.4584
      2500.8074          0.000          16.5004         15.0004
  25002405.1774    -517147.84844      -451.65955         0.000    25002421.8924
       580.2154          0.000           7.0004          5.7504
  20810974.6574  -17836388.18847 -13257483.40947         0.000    20810975.1924
       -95.3724          0.000          25.7504         29.5004
  4  3  1  1 45  0.0020000  0  9G 5G22G18G14G 6G 9G15G30G21
  25157522.0704    -601444.52045   -450843.97645         0.000    25157527.1394
       430.1414          0.000           9.0004          8.2504
  24195578.1214   -1810353.30146   -275967.94345         0.000    24195577.8764
       501.7074          0.000          13.2504         11.0004
  23051687.6244   -2976118.58146     -6116.32146         0.000    23051687.7354
        50.9544          0.000          17.7504         15.2504
  23163928.9774   -7441776.45546  -5593964.61846         0.000    23163930.5214
       565.9474          0.000          16.0004         13.2504
  24049924.2004    2232447.75945   1895482.56545         0.000    24049931.5604
     -3179.8454          0.000           9.7504          9.7504
  22250476.2914  -10183159.45347  -5945220.88146         0.000    22250478.8154
     -2045.2034          0.000          21.2504         19.0004
  22896436.7174  -10240283.41146  -7821611.53346         0.000    22896439.8024
      2494.2794          0.000          17.2504         15.5004
  24999067.5584    -534684.01543    -14115.58545         0.000    24999084.3844
       588.7394          0.000           5.7504          5.2504
  20811569.6654  -17833261.33947 -13255046.88947         0.000    20811570.6854
      -113.1974          0.000          25.5004         29.2504
  4  3  1  1 45 30.0020000  0  9G 5G22G18G14G 6G 9G15G30G21
  25155065.0244    -614355.19645   -460903.94145         0.000    25155069.3954
       430.5744          0.000           7.7504          7.2504
  24192702.6184   -1825463.91846   -287742.36045         0.000    24192702.4164
       505.6374          0.000          13.5004         11.0004
  23051390.7824   -2977678.41046     -7331.74146         0.000    23051392.3594
        53.0224          0.000          17.7504         15.2504
  23160733.0324   -7458570.92146  -5607051.16146         0.000    23160735.6084
       553.6614          0.000          16.0004         13.2504
  24068072.3014    2327815.64745   1969794.80445         0.000    24068081.7494
     -3178.0154          0.000           9.0004          9.5004
  22262206.1514  -10121518.40247  -5897188.85646         0.000    22262207.8844
     -2064.2284          0.000          21.0004         18.7504
  22882217.7894  -10315004.18546  -7879835.48546         0.000    22882219.9944
      2487.0814          0.000          16.2504         14.7504
  24995683.6294    -552464.49644    -27969.75045         0.000    24995701.2204
       596.5744          0.000           6.7504          5.2504
  20812268.5294  -17829588.79347 -13252185.16247         0.000    20812269.3304
      -131.6704          0.000          26.2504         29.5004
  4  3  1  1 46  0.0020000  0  9G 5G22G18G14G 6G 9G15G30G21
  25152605.2054    -627279.53045   -470974.52545         0.000    25152612.0814
       431.2144          0.000           7.5004          7.2504
  24189804.2444   -1840694.98146   -299610.65845         0.000    24189803.0714
       509.8964          0.000          13.0004         11.5004
  23051081.7684   -2979302.16146     -8596.96046         0.000    23051082.4874
        55.3814          0.000          18.0004         15.5004
  23157606.7544   -7474999.22546  -5619852.31546         0.000    23157608.4034
       541.7034          0.000          16.0004         13.5004
  24086209.3774    2423125.32245   2044061.74445         0.000    24086217.1744
     -3175.7854          0.000           9.2504         10.0004
  22274044.0734  -10059309.27547  -5848714.16846         0.000    22274046.2024
     -2082.8924          0.000          20.2504         17.5004
  22868039.8134  -10389509.52746  -7937891.52546         0.000    22868042.6674
      2480.0894          0.000          16.7504         14.5004
  24992254.4194    -570482.24344    -42008.94945         0.000    24992267.0414
       604.7454          0.000           6.2504          5.5004
  20813072.5974  -17825363.32147 -13248892.56947         0.000    20813073.7234
      -149.8844          0.000          25.5004         29.2504
