     2.10           OBSERVATION DATA    G (GPS)             RINEX VERSION / TYPE
teqc  2002Mar14                         20040302 01:27:28UTCPGM / RUN BY / DATE
HP-UX 10.20|PA-RISC|cc A.10.32.03|=+|=|                     COMMENT
teqc  2002Mar14     GRD/NGS/NOAA        20040302 01:24:42UTCCOMMENT
BIT 2 OF LLI FLAGS DATA COLLECTED UNDER A/S CONDITION       COMMENT
MANA                                                        MARKER NAME
41201S001                                                   MARKER NUMBER
G. Medina           INETER                                  OBSERVER / AGENCY
3935A26606          TRIMBLE 4000SSI     7.29                REC # / TYPE / VERS
0220191257          TRM29659.00     UNAV                    ANT # / TYPE
   408026.0542 -6223016.5795  1333566.9255                  APPROX POSITION XYZ
        0.0000        0.0000        0.0000                  ANTENNA: DELTA H/E/N
     1     1                                                WAVELENGTH FACT L1/2
     9    C1    L1    L2    P1    P2    D1    D2    S1    S2# / TYPES OF OBSERV
    30.0000                                                 INTERVAL
 SNR is mapped to RINEX snr flag value [1-9]                COMMENT
  L1: 3 -> 1; 8 -> 5; 40 -> 9                               COMMENT
  L2: 1 -> 1; 5 -> 5; 60 -> 9                               COMMENT
teqc windowed: delta = 86400.000 sec                        COMMENT
Forced Modulo Decimation to 30 seconds                      COMMENT
  2004     3     1     0     0    0.0000000     GPS         TIME OF FIRST OBS
                                                            END OF HEADER
 04  3  1  0  0  0.0000000  0  9G26G22G18G 6G17G 9G29G30G21
  21903666.9324   -6224350.45646  -4005782.60746                  21903670.9294
     -3773.2944                         17.0004         15.2504
  24497590.0364    -223389.46844    -77992.66845                  24497596.5164
       277.8214                          7.2504          5.2504
  22784560.9924   -4379937.20946    555264.44746                  22784565.2684
      -384.4834                         16.0004         12.7504
  20782409.5194  -14938404.52247 -11484388.24446                  20782414.1744
     -1601.3904                         26.0004         24.0004
  22273727.9304    2661458.34345    456511.62545                  22273732.8874
     -1534.1644                         11.2504         11.2504
  22093173.4794  -11009844.38646  -6589404.68446                  22093179.4154
      1398.8674                         18.5004         17.0004
  23821749.3294    7892301.10345   6249705.35745                  23821752.9214
     -3887.7124                          8.7504          9.2504
  24487187.7964    9763634.08145   4817474.55745                  24487205.0964
     -1447.0924                          8.2504          8.0004
  22320186.7284   -9905467.95146  -7077556.18046                  22320189.7284
      1993.1704                         17.7504         14.7504
 04  3  1  0  0 30.0000000  0  9G26G22G18G 6G17G 9G29G30G21
  21925232.3694   -6111023.53846  -3917475.91246                  21925235.9924
     -3781.9134                         17.5004         15.2504
  24496012.1154    -231680.71043    -84453.30245                  24496017.7424
       274.8064                          5.2504          4.7504
  22786756.6454   -4368398.52046    564255.65746                  22786761.1454
      -384.8684                         14.2504         12.5004
  20791596.8414  -14890124.79347 -11446767.67946                  20791601.6134
     -1617.3824                         26.2504         24.2504
  22282520.8334    2707665.55246    492517.24245                  22282525.6774
     -1546.4614                         12.5004         11.0004
  22085210.7894  -11051688.08246  -6622010.06446                  22085215.9154
      1390.5674                         19.2504         16.7504
  23843947.7604    8008954.38245   6340604.01045                  23843952.4644
     -3889.2724                          8.5004          8.7504
  24495424.2604    9806916.19045   4851200.69945                  24495443.3504
     -1438.5014                          7.5004          7.2504
  22308809.5724   -9965254.91646  -7124143.33146                  22308813.1664
      1992.4924                         17.7504         14.5004
 04  3  1  0  1  0.0000000  0  9G26G22G18G 6G17G 9G29G30G21
  21946848.4844   -5997430.31646  -3828961.70746                  21946852.3674
     -3790.8444                         17.2504         14.7504
  24494452.9854    -239873.18443    -90836.79545                  24494459.0044
       271.4704                          5.5004          5.0004
  22788955.9494   -4356840.47146    573262.02246                  22788960.3144
      -385.5574                         15.2504         12.5004
  20800876.8894  -14841357.97647 -11408767.55246                  20800881.3854
     -1633.6554                         27.2504         25.0004
  22291385.7074    2754250.69746    528817.34645                  22291389.8044
     -1559.1414                         12.2504         11.2504
  22077297.3774  -11093272.83046  -6654413.66946                  22077303.1944
      1381.8124                         19.5004         17.7504
  23866156.4114    8125662.38345   6431545.33445                  23866161.4104
     -3891.1354                          7.5004          7.0004
  24503613.1234    9849948.51644   4884732.24845                  24503632.3144
     -1430.1994                          7.2504          7.5004
  22297438.1414  -10025011.81846  -7170707.07046                  22297441.1854
      1991.3704                         18.0004         14.7504
 04  3  1  0  1 30.0000000  0  9G26G22G18G 6G17G 9G29G30G21
  21968514.5294   -5883574.61146  -3740242.96646                  21968518.3254
     -3799.5404                         17.5004         15.2504
  24492912.2604    -247969.34344    -97145.27445                  24492919.6444
       268.2504                          6.5004          4.7504
  22791158.6274   -4345265.19146    582281.76246                  22791162.1524
      -386.1264                         14.7504         12.7504
  20810249.2324  -14792106.23347 -11370389.57046                  20810254.2654
     -1649.8024                         26.7504         25.0004
  22300322.6164    2801214.28946    565412.37745                  22300327.4884
     -1571.7924                         13.0004         11.2504
  22069433.7344  -11134596.10447  -6686613.50446                  22069439.7304
      1373.0384                         20.0004         18.0004
  23888374.9554    8242421.91045   6522526.81645                  23888379.9944
     -3892.8134                          7.7504          8.2504
  24511754.1444    9892729.25345   4918067.74145                  24511771.6064
     -1421.8514                          8.0004          6.7504
  22286072.7544  -10084737.14346  -7217246.19646                  22286075.7064
      1990.2804                         18.5004         14.7504
 04  3  1  0  2  0.0000000  0  9G26G22G18G 6G17G 9G29G30G21
  21990229.6364   -5769460.86446  -3651323.15646                  21990234.0484
     -3808.0944                         16.2504         14.2504
  24491389.3324    -255971.57045   -103380.61445                  24491394.1384
       265.1474                          7.5004          6.7504
  22793364.0814   -4333675.16146    591313.02946                  22793368.0564
      -386.6084                         14.5004         12.0004
  20819713.2044  -14742372.90347 -11331636.31646                  20819717.6044
     -1665.8464                         27.5004         25.2504
  22309331.4974    2848556.08246    602302.08945                  22309337.0644
     -1584.4164                         12.5004         11.5004
  22061620.2214  -11175656.08947  -6718608.20246                  22061626.0824
      1364.1884                         20.7504         18.2504
  23910602.5624    8359229.13744   6613545.47845                  23910607.4984
     -3894.3714                          7.0004          7.7504
  24519846.8264    9935255.85745   4951205.24545                  24519863.2414
     -1413.3264                          8.0004          6.5004
  22274713.5244  -10144430.03046  -7263760.03946                  22274716.6134
      1989.1664                         18.5004         14.7504
 04  3  1  0  2 30.0000000  0  9G26G22G18G 6G17G 9G29G30G21
  22011994.4044   -5655086.07946  -3562199.94646                  22011999.1994
     -3816.7514                         16.2504         14.7504
  24489885.2864    -263874.52645   -109538.55345                  24489891.6744
       261.8544                          7.7504          6.0004
  22795573.3604   -4322065.26246    600359.79046                  22795577.0374
      -387.2404                         15.7504         12.7504
  20829269.7444  -14692152.88247 -11292503.82346                  20829274.6154
     -1682.0164                         26.0004         24.7504
  22318413.7404    2896283.36146    639492.17945                  22318420.5684
     -1597.2684                         12.0004         11.2504
  22053858.6374  -11216443.02047  -6750390.11846                  22053864.2814
      1355.0384                         20.0004         18.0004
  23932840.0944    8476088.20045   6704604.48345                  23932845.8324
     -3896.0884                          7.5004          7.5004
  24527892.0464    9977533.54745   4984148.71445                  24527909.8654
     -1405.0294                          7.5004          7.0004
  22263362.0764  -10204081.94146  -7310241.96946                  22263365.4764
      1987.7364                         17.7504         15.2504
 04  3  1  0  3  0.0000000  0  9G26G22G18G 6G17G 9G29G30G21
  22033806.4094   -5540463.22046  -3472883.42446                  22033810.5974
     -3824.9044                         17.0004         14.5004
  24488397.9644    -271689.91945   -115628.24845                  24488405.7534
       259.0074                          7.7504          5.7504
  22797784.1684   -4310447.04746    609413.02446                  22797789.7674
      -387.4504                         14.2504         12.5004
  20838916.5554  -14641458.34847 -11253001.58346                  20838921.3854
     -1697.7604                         25.5004         24.7504
  22327567.5714    2944387.31245    676975.78245                  22327573.8424
     -1609.8174                         11.0004         11.2504
  22046147.7394  -11256963.70047  -6781964.56846                  22046152.7134
      1346.1614                         21.7504         18.5004
  23955085.1094    8592986.78945   6795694.31745                  23955092.4124
     -3897.3214                          8.0004          8.0004
  24535887.7864   10019551.16245   5016889.61445                  24535906.7144
     -1396.2904                          7.7504          8.2504
  22252017.0774  -10263699.88446  -7356697.41046                  22252020.8914
      1986.6264                         17.5004         14.7504
 04  3  1  0  3 30.0000000  0  9G26G22G18G 6G17G 9G29G30G21
  22055667.0354   -5425584.75746  -3383367.72546                  22055671.0654
     -3833.4044                         16.2504         14.0004
  24486929.1124    -279407.97545   -121642.18645                  24486934.5904
       255.7644                          7.7504          7.0004
  22799998.3704   -4298810.73346    618480.36846                  22800002.8884
      -388.0744                         14.7504         12.7504
  20848655.4564  -14590279.90847 -11213122.27346                  20848660.6274
     -1713.8984                         26.2504         24.2504
  22336795.3314    2992879.87945    714762.20145                  22336800.2874
     -1622.8094                         11.2504         10.7504
  22038490.1804  -11297204.10347  -6813320.63046                  22038496.0024
      1336.7344                         20.2504         18.2504
  23977339.2974    8709933.18245   6886821.40645                  23977345.9184
     -3898.8934                          8.0004          8.7504
  24543835.9064   10061318.44245   5049435.45445                  24543853.7544
     -1387.9514                          8.0004          8.0004
  22240680.9404  -10323271.03846  -7403116.41546                  22240684.2184
      1984.9954                         16.7504         14.5004
 04  3  1  0  4  0.0000000  0  9G26G22G18G 6G17G 9G29G30G21
  22077574.7124   -5310459.20246  -3293659.50546                  22077578.8554
     -3841.6164                         16.0004         14.0004
  24485477.4994    -287035.57945   -127585.57445                  24485483.1144
       252.7314                          9.0004          6.7504
  22802214.8494   -4287162.67146    627556.86546                  22802218.8284
      -388.4564                         14.5004         12.5004
  20858485.1484  -14538624.48647 -11172871.29446                  20858490.2294
     -1729.7774                         27.0004         24.7504
  22346096.1804    3041756.47746    752847.83945                  22346102.2564
     -1635.6564                         12.2504         10.5004
  22030885.5694  -11337166.25046  -6844459.84046                  22030891.4994
      1327.3874                         19.5004         18.2504
  23999601.0184    8826919.72644   6977979.77245                  23999606.8204
     -3900.1944                          6.7504          8.0004
  24551735.2234   10102829.01245   5081781.34645                  24551752.9814
     -1379.4014                          8.2504          7.2504
  22229353.2434  -10382798.00746  -7449500.97846                  22229356.5614
      1983.4614                         18.2504         14.5004
 04  3  1  0  4 30.0000000  0  9G26G22G18G 6G17G 9G29G30G21
  22099528.5654   -5195090.74046  -3203761.99246                  22099532.8974
     -3849.4104                         15.7504         14.0004
  24484042.6664    -294574.90945   -133460.19745                  24484050.1014
       250.0594                          9.7504          6.7504
  22804433.0514   -4275505.43046    636640.50846                  22804437.1364
      -388.5104                         15.2504         13.0004
  20868405.0834  -14486495.06047 -11132250.95346                  20868409.9184
     -1745.3314                         27.7504         25.2504
  22355470.2344    3091017.41545    791232.97645                  22355476.1334
     -1648.2594                         11.7504         11.2504
  22023334.2914  -11376847.97246  -6875380.56246                  22023339.5624
      1318.2124                         19.5004         17.2504
  24021869.7974    8943943.02044   7069166.78145                  24021872.2614
     -3901.1684                          7.2504          8.0004
  24559585.2694   10144080.64845   5113925.33545                  24559600.7504
     -1370.5184                          8.7504          7.5004
  22218034.2354  -10442279.50746  -7495850.10946                  22218037.0484
      1982.1284                         18.7504         15.7504
 04  3  1  0  5  0.0000000  0  9G26G22G18G 6G17G 9G29G30G21
  22121527.9594   -5079483.01646  -3113678.03646                  22121531.8134
     -3857.8564                         15.2504         14.0004
  24482624.3604    -302027.80445   -139267.40745                  24482630.4974
       246.6924                         11.5004          6.0004
  22806652.7164   -4263840.74246    645729.95446                  22806658.3244
      -389.2384                         15.5004         13.0004
  20878414.7264  -14433894.00047 -11091263.10846                  20878419.8724
     -1761.5164                         26.5004         24.5004
  22364917.4924    3140662.82946    829917.73845                  22364923.3724
     -1661.5394                         13.0004         11.0004
  22015836.9214  -11416246.50546  -6906080.60846                  22015842.5494
      1308.2294                         19.5004         17.7504
  24044145.0824    9061000.35245   7160380.33245                  24044150.2544
     -3902.7864                          7.7504          8.0004
  24567385.7164   10185071.87345   5145866.46145                  24567403.3444
     -1362.3234                          9.0004          7.0004
  22206724.2064  -10501713.76946  -7542162.44646                  22206727.3664
      1980.0194                         19.0004         16.0004
 04  3  1  0  5 30.0000000  0  9G26G22G18G 6G17G 9G29G30G21
  22143573.0654   -4963635.08546  -3023406.91046                  22143577.1734
     -3865.7144                         15.2504         13.5004
  24481222.9724    -309391.49945   -145005.19045                  24481228.6094
       243.8284                         10.5004          7.5004
  22808874.3614   -4252165.99446    654827.25946                  22808877.4814
      -389.4714                         16.5004         13.2504
  20888514.5844  -14380818.78447 -11049905.79346                  20888519.5574
     -1777.2054                         26.0004         24.5004
  22374438.8704    3190697.86846    868906.07645                  22374445.1664
     -1674.4964                         12.2504         11.0004
  22008394.7774  -11455354.70346  -6936554.42546                  22008399.9074
      1298.5874                         19.2504         17.2504
  24066427.0184    9178093.40244   7251621.64945                  24066433.3864
     -3903.8144                          6.5004          7.5004
  24575137.1704   10225805.60445   5177607.00645                  24575156.0834
     -1353.6464                          9.0004          8.2504
  22195424.4224  -10561094.26446  -7588432.87446                  22195427.6424
      1978.2744                         19.2504         15.7504
 04  3  1  0  6  0.0000000  0  9G26G22G18G 6G17G 9G29G30G21
  22165662.7294   -4847553.05146  -2932953.35946                  22165667.0384
     -3873.0794                         15.0004         13.5004
  24479837.6644    -316670.32445   -150676.81345                  24479844.3154
       241.4474                         10.5004          7.5004
  22811097.0854   -4240485.31046    663929.15946                  22811101.8454
      -389.2424                         16.0004         13.0004
  20898703.6744  -14327274.64047 -11008183.08246                  20898708.9494
     -1792.4044                         26.0004         24.2504
  22384033.9794    3241120.53046    908196.47545                  22384039.5294
     -1687.0304                         12.2504         10.7504
  22001007.9244  -11494172.32847  -6966801.81246                  22001013.1234
      1289.2414                         20.0004         17.7504
  24088714.8304    9295216.83444   7342886.72245                  24088719.1294
     -3904.4094                          6.7504          7.0004
  24582838.9284   10266277.90945   5209143.81345                  24582855.8124
     -1344.4974                          8.7504          8.5004
  22184134.7504  -10620421.45346  -7634661.75646                  22184138.2214
      1976.8554                         19.2504         15.5004
 04  3  1  0  6 30.0000000  0  9G26G22G18G 6G17G 9G29G30G21
  22187796.9024   -4731237.21446  -2842317.64346                  22187801.2364
     -3881.1444                         15.0004         13.7504
  24478468.8534    -323862.56345   -156280.99245                  24478472.8254
       238.2404                          9.2504          8.0004
  22813321.3364   -4228796.87246    673037.12246                  22813326.1314
      -389.8094                         16.2504         13.5004
  20908982.2664  -14273260.31047 -10966093.99846                  20908987.0694
     -1808.3764                         27.0004         24.7504
  22393703.5654    3291934.70045    947791.91545                  22393709.5634
     -1700.4174                         11.7504         10.7504
  21993677.5864  -11532693.22247  -6996818.00746                  21993682.6204
      1278.9694                         20.2504         17.7504
  24111008.6104    9412371.18845   7434175.82945                  24111012.2944
     -3905.7204                          7.7504          7.2504
  24590491.0944   10306490.47944   5240478.26045                  24590508.2164
     -1336.1604                          7.2504          7.5004
  22172856.2864  -10679689.85946  -7680844.86046                  22172859.6334
      1974.5224                         18.7504         16.0004
 04  3  1  0  7  0.0000000  0  9G26G22G18G 6G17G 9G29G30G21
  22209975.5994   -4614687.32146  -2751499.50846                  22209979.7394
     -3888.7214                         14.7504         13.2504
  24477116.7914    -330966.33145   -161816.16245                  24477125.3054
       235.4444                          9.0004          7.2504
  22815547.4614   -4217098.49946    682152.80846                  22815551.6544
      -389.9854                         16.5004         13.5004
  20919350.6094  -14218774.43947 -10923637.47346                  20919355.4064
     -1823.9194                         26.5004         24.5004
  22403448.4674    3343144.58445    987695.70745                  22403454.0204
     -1713.4584                         11.7504         11.0004
  21986405.0164  -11570910.59147  -7026597.67246                  21986410.2184
      1268.9524                         21.2504         18.2504
  24133308.4764    9529557.55245   7525489.92845                  24133313.5854
     -3906.6064                          8.0004          7.7504
  24598094.4584   10346445.99444   5271612.36845                  24598110.8064
     -1327.4394                          6.5004          6.7504
  22161590.1064  -10738893.77046  -7726977.68946                  22161593.7104
      1972.5054                         19.5004         16.5004
 04  3  1  0  7 30.0000000  0  9G26G22G18G 6G17G 9G29G30G21
  22232196.6944   -4497914.57046  -2660507.73546                  22232201.2714
     -3896.5544                         14.7504         13.0004
  24475780.0314    -337990.94745   -167289.69145                  24475785.2144
       232.3764                          9.7504          7.7504
  22817773.6974   -4205399.54546    691268.97046                  22817777.6774
      -390.4144                         17.5004         14.0004
  20929806.8864  -14163826.39247 -10880820.81646                  20929811.3534
     -1839.7384                         26.5004         24.2504
  22413267.4094    3394743.25746   1027902.42045                  22413273.3714
     -1726.8964                         12.5004         11.0004
  21979189.2214  -11608829.53146  -7056144.79546                  21979195.1264
      1258.5014                         19.5004         18.5004
  24155612.3914    9646765.65744   7616820.92745                  24155616.5284
     -3907.7294                          7.2504          7.7504
  24605647.0134   10386135.14944   5302538.98245                  24605664.6864
     -1318.9834                          6.7504          6.5004
  22150335.1504  -10798038.81247  -7773064.64546                  22150337.7744
      1970.0384                         20.5004         16.5004
 04  3  1  0  8  0.0000000  0  9G26G22G18G 6G17G 9G29G30G21
  22254459.7594   -4380921.08646  -2569343.94846                  22254463.8374
     -3903.4754                         14.5004         13.0004
  24474458.2494    -344936.55145   -172701.62145                  24474462.3694
       230.1564                          8.2504          6.5004
  22819999.9094   -4193700.32846    700385.29246                  22820003.5484
      -390.0304                         16.0004         13.0004
  20940350.8784  -14108417.34647 -10837644.93446                  20940355.6484
     -1854.6864                         26.0004         23.7504
  22423160.6244    3446732.30545   1068413.34045                  22423166.7764
     -1739.5474                         11.2504         11.2504
  21972031.0264  -11646445.72847  -7085456.02146                  21972036.2364
      1248.7454                         21.0004         18.2504
  24177920.3194    9763994.26645   7708167.93845                  24177928.6724
     -3907.9814                          7.7504          7.5004
  24613148.9814   10425558.02144   5333258.06445                  24613168.1524
     -1309.6604                          6.2504          6.7504
  22139092.1624  -10857120.94247  -7819102.58846                  22139095.0714
      1968.2784                         20.0004         16.0004
 04  3  1  0  8 30.0000000  0  9G26G22G18G 6G17G 9G29G30G21
  22276764.5194   -4263708.39946  -2478009.39646                  22276769.3054
     -3910.6024                         13.2504         12.5004
  24473151.3814    -351803.17345   -178052.04645                  24473156.6424
       227.6934                          7.7504          6.2504
  22822226.2444   -4182000.24446    709502.31346                  22822230.3894
      -389.9024                         15.5004         13.5004
  20950982.5204  -14052547.66547 -10794110.11346                  20950986.8274
     -1869.8924                         26.2504         23.7504
  22433128.6074    3499114.18546   1109230.40645                  22433134.5274
     -1752.5224                         12.0004         10.7504
  21964931.3454  -11683754.38446  -7114527.62346                  21964937.4684
      1238.5624                         19.7504         17.7504
  24200232.0474    9881242.55145   7799530.40245                  24200242.3574
     -3908.4724                          8.2504          5.2504
  24620600.3034   10464715.18744   5363770.10845                  24620617.5234
     -1300.6794                          6.2504          7.0004
  22127861.7734  -10916136.69646  -7865088.80746                  22127864.4234
      1966.1644                         19.2504         15.5004
 04  3  1  0  9  0.0000000  0  9G26G22G18G 6G17G 9G29G30G21
  22299110.0234   -4146281.95446  -2386508.25746                  22299114.6354
     -3917.8424                         14.2504         12.5004
  24471858.7974    -358594.45545   -183343.71845                  24471862.8084
       225.0624                          7.7504          6.5004
  22824452.1594   -4170302.63746    718617.37546                  22824455.5454
      -389.9534                         15.5004         13.0004
  20961700.9304  -13996222.02847 -10750220.01946                  20961705.1894
     -1885.2124                         26.0004         23.7504
  22443171.0224    3551887.69745   1150352.61445                  22443176.5234
     -1765.7484                         11.0004         10.2504
  21957890.3214  -11720754.58047  -7143358.83746                  21957896.0444
      1228.0614                         20.0004         18.0004
  24222546.6374    9998506.03645   7890904.44345                  24222551.0434
     -3909.1124                          9.0004          8.7504
  24628000.4464   10503603.37443   5394072.54145                  24628019.5774
     -1291.8564                          5.5004          6.5004
  22116644.0684  -10975085.69947  -7911023.00946                  22116646.8444
      1963.7344                         20.2504         16.0004
 04  3  1  0  9 30.0000000  0  9G26G22G18G 6G17G 9G29G30G21
  22321495.5824   -4028645.09046  -2294843.12646                  22321499.9154
     -3924.6654                         14.7504         13.0004
  24470580.4484    -365311.53245   -188577.68545                  24470585.8004
       222.7154                          8.2504          6.2504
  22826677.2934   -4158608.96746    727729.38546                  22826682.4354
      -389.6614                         14.5004         12.7504
  20972505.8734  -13939441.67147 -10705975.57746                  20972510.4084
     -1900.1684                         26.5004         23.7504
  22453288.0884    3605053.44945   1191780.46245                  22453294.5214
     -1778.6724                         11.2504         10.5004
  21950908.6114  -11757443.30347  -7171947.35846                  21950914.1704
      1217.7754                         20.2504         18.0004
  24244863.6314   10115782.29945   7982288.58645                  24244867.2814
     -3909.3484                          9.0004          8.2504
  24635349.2304   10542221.52644   5424164.62845                  24635371.7754
     -1282.7154                          6.5004          5.7504
  22105439.5424  -11033965.42946  -7956903.23946                  22105442.5494
      1961.5234                         18.7504         16.0004
 04  3  1  0 10  0.0000000  0  9G26G22G18G 6G17G 9G29G30G21
  22343922.0864   -3910793.06846  -2203010.36946                  22343926.0704
     -3931.5874                         14.0004         13.0004
  24469317.3714    -371948.02944   -193748.83445                  24469322.5784
       220.2604                          7.2504          7.2504
  22828902.9644   -4146912.65846    736843.45846                  22828906.0854
      -389.5344                         16.0004         13.2504
  20983398.2904  -13882201.73447 -10661373.04246                  20983402.4854
     -1915.2904                         26.5004         24.0004
  22463481.4204    3658619.92645   1233520.56545                  22463487.3864
     -1791.8864                         10.7504         10.2504
  21943988.2224  -11793809.76947  -7200284.76146                  21943992.9604
      1207.1784                         21.0004         18.0004
  24267183.9734   10233076.67444   8073686.83545                  24267188.8424
     -3909.7124                          7.2504          7.7504
  24642647.8904   10580576.23943   5454051.36044                  24642666.6964
     -1273.7264                          5.5004          3.5004
  22094250.0934  -11092765.84346  -8002721.66746                  22094253.3704
      1959.0304                         18.7504         16.0004
 04  3  1  0 10 30.0000000  0  9G26G22G18G 6G17G 9G29G30G21
  22366386.4964   -3792741.79046  -2111022.33246                  22366390.4884
     -3938.4664                         14.0004         12.7504
  24468066.9044    -378518.17945   -198868.25945                  24468073.3024
       217.7624                          7.5004          6.7504
  22831126.4614   -4135227.60246    745948.75246                  22831130.4604
      -389.4154                         14.7504         12.5004
  20994375.5264  -13824516.04747 -10616423.16146                  20994380.0864
     -1930.3874                         26.0004         24.0004
  22473748.7784    3712575.07946   1275563.51145                  22473754.9414
     -1805.1324                         12.0004         10.5004
  21937127.4044  -11829863.36447  -7228378.38446                  21937132.5074
      1196.4074                         21.0004         18.0004
  24289504.9334   10350374.41744   8165087.71645                  24289511.9854
     -3910.0964                          7.0004          7.7504
  24649893.8144   10618653.89443   5483722.32445                  24649910.0694
     -1264.7694                          5.5004          6.0004
  22083073.8584  -11151497.04046  -8048486.15346                  22083076.9104
      1956.3864                         19.7504         16.5004
 04  3  1  0 11  0.0000000  0  9G26G22G18G 6G17G 9G29G30G21
  22388889.8494   -3674485.79446  -2018874.76946                  22388893.9074
     -3945.2184                         15.0004         12.7504
  24466830.5654    -385014.66844   -203930.31245                  24466837.4394
       215.3744                          6.7504          6.5004
  22833349.2704   -4123546.59046    755050.90546                  22833353.0564
      -389.2414                         16.0004         12.7504
  21005438.6974  -13766378.64447 -10571121.29146                  21005443.5704
     -1945.3654                         26.0004         23.5004
  22484091.9404    3766928.49646   1317916.80045                  22484097.7204
     -1818.3994                         12.2504         11.0004
  21930328.3534  -11865592.30247  -7256219.02946                  21930333.4444
      1185.5584                         21.2504         18.5004
  24311827.7604   10467681.68045   8256495.97045                  24311831.6234
     -3910.3264                          7.7504          7.0004
  24657088.6234   10656462.26643   5513183.37445                  24657107.6864
     -1255.7364                          6.0004          6.2504
  22071912.9664  -11210147.72247  -8094187.92146                  22071916.1074
      1953.6884                         20.2504         16.7504
 04  3  1  0 11 30.0000000  0  9G26G22G18G 6G17G 9G29G30G21
  22411430.9444   -3556031.45046  -1926572.66746                  22411435.2234
     -3952.0534                         14.5004         12.5004
  24465607.1874    -391442.32444   -208938.70845                  24465611.9224
       212.8214                          6.2504          6.5004
  22835570.4204   -4111874.23846    764146.29946                  22835574.1244
      -389.2324                         15.5004         13.0004
  21016586.8424  -13707794.77747 -10525471.51246                  21016591.7114
     -1960.5154                         25.0004         23.7504
  22494510.3734    3821677.35846   1360578.23345                  22494517.0174
     -1831.8364                         13.0004         11.5004
  21923591.0594  -11900996.82247  -7283806.88046                  21923595.9494
      1174.4034                         21.0004         18.7504
  24334151.3554   10584992.99445   8347907.44645                  24334154.8204
     -3910.7164                          8.0004          7.5004
  24664231.4054   10693997.07643   5542431.21045                  24664251.4194
     -1246.8864                          6.0004          5.7504
  22060767.2714  -11268718.52147  -8139827.44046                  22060770.9504
      1950.7104                         20.0004         17.0004
 04  3  1  0 12  0.0000000  0  9G26G22G18G 6G17G 9G29G30G21
  22434008.4894   -3437385.74846  -1834121.44746                  22434012.5324
     -3958.1084                         14.2504         12.5004
  24464396.0844    -397805.86644   -213897.17945                  24464403.4274
       210.9694                          6.2504          5.7504
  22837789.0144   -4100215.07746    773231.41346                  22837793.3104
      -388.5024                         15.7504         12.5004
  21027818.8614  -13648770.12747 -10479478.28346                  21027823.3654
     -1974.9044                         26.2504         23.7504
  22505003.4874    3876818.78446   1403545.55245                  22505008.9154
     -1844.6614                         12.0004         11.0004
  21916915.3934  -11936077.43147  -7311142.33746                  21916920.1784
      1163.8234                         21.5004         19.0004
  24356474.5744   10702302.46044   8439317.46745                  24356478.6574
     -3910.3484                          7.2504          7.5004
  24671321.2744   10731253.86944   5571462.53945                  24671335.5594
     -1237.3394                          6.5004          6.0004
  22049636.5004  -11327210.89847  -8185405.82646                  22049639.7644
      1948.3124                         20.5004         17.2504
 04  3  1  0 12 30.0000000  0  9G26G22G18G 6G17G 9G29G30G21
  22456623.1864   -3318544.65446  -1741517.97746                  22456627.2624
     -3964.2794                         14.0004         12.2504
  24463198.2834    -404100.00244   -218801.53645                  24463203.8964
       208.9604                          6.7504          6.7504
  22840006.1284   -4088563.71146    782310.44446                  22840009.6674
      -387.9504                         15.2504         12.7504
  21039135.6104  -13589300.13147 -10433138.01846                  21039140.5244
     -1989.4464                         26.2504         23.7504
  22515572.7524    3932360.43446   1446824.75445                  22515577.7974
     -1857.7394                         12.7504         10.7504
  21910303.2194  -11970824.36247  -7338217.78146                  21910307.9184
      1152.9294                         21.5004         19.2504
  24378798.3424   10819614.71944   8530729.66845                  24378799.1204
     -3910.1034                          7.0004          6.2504
  24678359.2634   10768238.35244   5600281.69845                  24678375.7564
     -1227.9904                          7.0004          5.5004
  22038522.4514  -11385615.31747  -8230915.68546                  22038525.3284
      1945.6214                         21.5004         17.5004
 04  3  1  0 13  0.0000000  0  9G26G22G18G 6G17G 9G29G30G21
  22479273.3644   -3199517.21646  -1648769.31746                  22479277.7254
     -3970.4664                         14.0004         12.2504
  24462012.2724    -410331.76344   -223657.32645                  24462018.0864
       206.8974                          6.2504          6.5004
  22842220.5014   -4076926.79346    791378.23046                  22842225.6454
      -387.4444                         15.5004         13.0004
  21050535.6484  -13529392.53747 -10386456.77746                  21050540.3814
     -2004.0084                         26.2504         23.7504
  22526217.1804    3988297.13546   1490411.78045                  22526222.7944
     -1870.9774                         12.7504         10.7504
  21903754.0354  -12005240.16747  -7365035.19746                  21903759.0884
      1141.8304                         21.2504         19.2504
  24401121.1134   10936921.82044   8622137.85045                  24401127.8524
     -3909.9404                          6.7504          6.2504
  24685344.1774   10804943.91643   5628883.51745                  24685362.8384
     -1218.6764                          5.0004          4.5004
  22027424.5024  -11443935.01047  -8276359.50746                  22027428.1684
      1942.7364                         21.0004         17.2504
 04  3  1  0 13 30.0000000  0  9G26G22G18G 6G17G 9G29G30G21
  22501959.3104   -3080301.80446  -1555874.14846                  22501963.5464
     -3976.9794                         13.5004         12.5004
  24460838.7494    -416498.00044   -228461.91245                  24460841.5104
       204.4074                          6.5004          6.7504
  22844432.8284   -4065300.82646    800437.50146                  22844436.8534
      -387.3664                         16.5004         13.2504
  21062019.5344  -13469044.25747 -10339432.13346                  21062024.0454
     -2018.9614                         26.0004         23.7504
  22536937.7974    4044634.40645   1534310.95945                  22536944.0114
     -1884.6034                         11.7504         10.5004
  21897269.3074  -12039317.19847  -7391588.64146                  21897273.9224
      1130.1964                         21.0004         18.7504
  24423443.3094   11054226.21644   8713543.99745                  24423449.0574
     -3910.0874                          6.2504          6.0004
  24692276.5974   10841374.48042   5657271.00444                  24692291.8444
     -1209.7914                          4.0004          3.7504
  22016344.0994  -11502162.57847  -8321731.55346                  22016346.7104
      1939.3264                         20.2504         16.7504
 04  3  1  0 14  0.0000000  0  9G26G22G18G 6G17G 9G29G30G21
  22524679.2824   -2960907.51446  -1462839.59346                  22524683.2834
     -3982.4364                         14.0004         12.5004
  24459676.3624    -422605.68944   -233221.07245                  24459682.0184
       202.9234                          6.7504          6.0004
  22846641.7294   -4053692.83346    809482.74646                  22846646.1394
      -386.2914                         15.5004         12.7504
  21073585.7304  -13408263.38447 -10292070.41246                  21073590.6824
     -2032.8924                         25.0004         23.5004
  22547733.6264    4101366.87746   1578518.03145                  22547738.9794
     -1897.3514                         13.0004         10.5004
  21890848.5264  -12073058.14247  -7417880.18746                  21890853.3244
      1119.3774                         20.2504         18.5004
  24445763.4214   11171519.64243   8804941.48945                  24445770.2504
     -3909.2524                          6.0004          6.0004
  24699155.3264   10877523.15842   5685438.66544                  24699177.2084
     -1199.9454                          3.7504          4.0004
  22005280.5414  -11560301.44847  -8367034.48146                  22005283.0414
      1936.7724                         20.2504         16.5004
 04  3  1  0 14 30.0000000  0  9G26G22G18G 6G17G 9G29G30G21
  22547434.0124   -2841330.45046  -1369662.65746                  22547438.9974
     -3989.0164                         13.2504         12.2504
  24458526.1534    -428649.36345   -237930.22645                  24458530.3684
       200.2964                          8.0004          7.5004
  22848848.3264   -4042097.01046    818518.50346                  22848852.3004
      -386.4204                         15.7504         12.7504
  21085235.1174  -13347045.37747 -10244368.06346                  21085239.6604
     -2047.9774                         25.2504         23.5004
  22558606.1064    4158501.94846   1623038.85545                  22558611.9104
     -1911.3374                         13.5004         10.7504
  21884493.6584  -12106452.78647  -7443901.89846                  21884498.0664
      1107.2324                         21.5004         18.7504
  24468082.3394   11288806.89243   8896334.20545                  24468086.3634
     -3909.5594                          5.5004          6.0004
  24705981.5404   10913395.97241   5713391.73745                  24706000.4244
     -1191.2304                          3.5004          5.5004
  21994235.6864  -11618342.10246  -8412260.87046                  21994238.8454
      1932.9074                         19.7504         17.2504
 04  3  1  0 15  0.0000000  0  9G26G22G18G 6G17G 9G29G30G21
  22570222.4414   -2721576.42246  -1276347.81946                  22570227.1364
     -3995.0264                         13.0004         12.2504
  24457387.3554    -434633.03745   -242592.76145                  24457394.7014
       198.1824                          9.5004          7.7504
  22851051.7814   -4030517.50046    827541.56446                  22851054.9624
      -386.0054                         16.2504         13.2504
  21096966.6914  -13285395.45847 -10196329.16846                  21096971.3424
     -2062.4744                         24.7504         23.2504
  22569554.7654    4216037.58346   1667871.81645                  22569560.4344
     -1924.8494                         12.0004         11.2504
  21878204.7234  -12139500.88347  -7469653.56346                  21878209.5934
      1095.4974                         20.5004         18.7504
  24490399.1864   11406082.99043   8987718.32245                  24490403.8174
     -3909.3264                          5.7504          6.0004
  24712754.4434   10948989.35241   5741126.78144                  24712782.3644
     -1182.0444                          3.0004          4.2504
  21983209.5294  -11676284.71247  -8457410.85046                  21983212.7654
      1929.4554                         20.5004         17.2504
 04  3  1  0 15 30.0000000  0  8G26G22G18G 6G17G 9G29G21
  22593045.2754   -2601641.36446  -1182891.89245                  22593049.8154
     -4000.7834                         13.0004         11.7504
  24456261.1114    -440550.96145   -247204.01745                  24456268.0644
       196.2054                          9.2504          8.5004
  22853253.3614   -4018947.84746    836556.93546                  22853257.0864
      -385.4464                         15.7504         13.0004
  21108781.3674  -13223308.97647 -10147950.08446                  21108786.3254
     -2076.7624                         24.7504         22.7504
  22580581.1474    4273981.60245   1713022.98445                  22580587.6994
     -1938.2494                         11.0004         11.0004
  21871983.7104  -12172192.13346  -7495127.18346                  21871988.6074
      1083.7634                         19.5004         18.7504
  24512714.9284   11523353.00244   9079097.62545                  24512721.8874
     -3908.8444                          6.2504          5.5004
  21972203.8804  -11734119.43647  -8502476.76646                  21972206.9244
      1926.0174                         20.2504         17.2504
 04  3  1  0 16  0.0000000  0  8G26G22G18G 6G17G 9G29G21
  22615901.2174   -2481532.49146  -1089300.56345                  22615905.0304
     -4006.3144                         12.2504         11.5004
  24455146.3674    -446408.50645   -251768.22145                  24455154.9444
       194.4454                         10.0004          9.0004
  22855452.0014   -4007393.66046    845560.27246                  22855455.1734
      -384.7024                         16.2504         13.2504
  21120677.9824  -13160791.83947 -10099235.43046                  21120682.5834
     -2090.8904                         25.0004         22.7504
  22591684.5284    4332330.37145   1758489.54045                  22591690.9614
     -1951.5354                         11.2504         10.2504
  21865830.3744  -12204527.79147  -7520323.71346                  21865835.3624
      1072.0714                         21.2504         19.2504
  24535028.2864   11640610.48344   9170467.19045                  24535033.4224
     -3908.1544                          6.2504          5.7504
  21961218.4164  -11791847.96747  -8547459.93946                  21961221.3784
      1922.6544                         21.2504         17.2504
 04  3  1  0 16 30.0000000  0  9G26G22G18G 6G17G 9G29G30G21
  22638789.1324   -2361255.59046   -995578.27045                  22638792.7784
     -4012.1124                         12.2504         11.7504
  24454042.3044    -452210.07645   -256288.76045                  24454048.6024
       192.3734                         10.0004          8.5004
  22857647.0024   -3995858.56046    854548.71446                  22857651.1744
      -384.2744                         15.0004         12.0004
  21132655.6824  -13097848.58747 -10050188.71846                  21132660.2804
     -2105.2994                         25.0004         22.5004
  22602864.5784    4391081.75146   1804269.82945                  22602869.9674
     -1965.1994                         12.0004         10.2504
  21859744.7974  -12236507.42047  -7545242.80846                  21859749.6974
      1059.9134                         22.2504         19.7504
  24557338.1754   11757850.61643   9261823.28445                  24557343.9574
     -3907.7864                          5.5004          5.2504
  24732758.5624      25463.61452
     -1154.0994                          4.7504
  21950253.1734  -11849470.30047  -8592360.36246                  21950255.9854
      1918.8314                         21.5004         18.0004
 04  3  1  0 17  0.0000000  0  9G26G22G18G 6G17G 9G29G30G21
  22661708.6934   -2240812.51446   -901726.49345                  22661714.2894
     -4017.5184                         12.7504         11.7504
  24452948.9134    -457955.76245   -260765.79345                  24452953.9964
       190.5954                          9.2504          8.2504
  22859838.2854   -3984342.72546    863522.14546                  22859841.6494
      -383.5364                         15.0004         12.7504
  21144714.2724  -13034480.21947 -10000810.77346                  21144718.9844
     -2119.3614                         24.7504         22.7504
  22614121.5314    4450237.19045   1850364.92645                  22614127.6764
     -1978.5974                         11.7504         10.2504
  21853727.7784  -12268126.91647  -7569881.29946                  21853732.3724
      1047.9344                         21.7504         19.7504
  24579644.7214   11875072.42043   9353164.95445                  24579646.9174
     -3907.1114                          6.0004          6.5004
  24739319.4414      59942.91742
     -1144.6014                          4.0004
  21939308.8454  -11906982.68547  -8637175.13146                  21939312.0674
      1915.1994                         20.5004         17.7504
 04  3  1  0 17 30.0000000  0  9G26G22G18G 6G17G 9G29G30G21
  22684657.5974   -2120214.91045   -807754.30945                  22684661.4074
     -4022.5774                         11.7504         10.7504
  24451864.2064    -463655.47745   -265207.00945                  24451869.8974
       189.1134                          8.7504          7.7504
  22862024.0264   -3972855.94046    872472.94646                  22862028.6154
      -382.5334                         15.2504         12.5004
  21156851.7484  -12970697.37047  -9951109.83346                  21156856.8404
     -2133.0704                         25.2504         23.0004
  22625453.8564    4509788.76246   1896768.77845                  22625460.5634
     -1991.7754                         12.2504         10.2504
  21847778.2494  -12299391.56147  -7594243.25746                  21847783.5904
      1036.0794                         21.0004         19.5004
  24601945.7314   11992265.16244   9444483.97845                  24601951.8374
     -3906.0244                          6.5004          5.7504
  24745825.4664      94131.57842     15067.77455                  24745847.1654
     -1135.0114                          4.2504          4.7504
  21928384.3754  -11964390.77547  -8681908.62546                  21928387.5444
      1911.7164                         21.7504         18.5004
 04  3  1  0 18  0.0000000  0  9G26G22G18G 6G17G 9G29G30G21
  22707636.1154   -1999462.05946   -713661.15346                  22707639.3754
     -4027.7984                         12.2504         12.0004
  24450788.7764    -469306.67445   -269610.38645                  24450794.5574
       187.4474                          9.2504          8.7504
  22864204.9094   -3961395.05746    881403.55846                  22864210.3354
      -381.7274                         15.0004         12.7504
  21169068.2374  -12906499.42547  -9901085.45946                  21169073.1254
     -2146.9614                         25.7504         23.0004
  22636862.4174    4569740.84046   1943484.63645                  22636868.1264
     -2005.2164                         12.2504         10.7504
  21841897.5254  -12330294.71747  -7618323.56446                  21841902.2824
      1023.9094                         21.7504         19.2504
  24624241.4754   12109430.41343   9535781.68045                  24624247.8584
     -3905.1534                          6.0004          5.7504
  24752276.6694     128032.65542     41484.35545                  24752302.1534
     -1125.4054                          4.5004          4.5004
  21917480.9364  -12021688.44247  -8726556.07946                  21917483.7194
      1907.9124                         21.2504         18.2504
 04  3  1  0 18 30.0000000  0  9G26G22G18G 6G17G 9G29G30G21
  22730645.2634   -1878548.14746   -619442.48746                  22730649.0514
     -4032.8754                         12.5004         12.0004
  24449724.0204    -474901.76145   -273970.01345                  24449730.4944
       185.8144                         10.0004          8.7504
  22866382.3604   -3949952.35146    890320.00046                  22866387.0824
      -380.8744                         16.0004         13.5004
  21181365.0124  -12841879.46447  -9850732.23046                  21181369.5874
     -2160.7884                         25.0004         23.2504
  22648348.9364    4630102.95046   1990520.01545                  22648354.6514
     -2018.6614                         12.5004         11.0004
  21836087.8604  -12360824.37847  -7642112.81346                  21836092.3084
      1011.6244                         21.7504         19.2504
  24646533.3534   12226575.18544   9627063.40545                  24646537.1014
     -3904.2154                          6.5004          6.5004
  24758674.6694     161654.41542     67683.20844                  24758690.4534
     -1115.8114                          4.2504          4.0004
  21906600.7994  -12078863.72647  -8771108.16446                  21906603.2264
      1904.0014                         21.7504         18.5004
 04  3  1  0 19  0.0000000  0  9G26G22G18G 6G17G 9G29G30G21
  22753683.4854   -1757481.40046   -525104.72646                  22753687.8654
     -4037.9404                         13.0004         12.0004
  24448668.7454    -480447.32445   -278291.12145                  24448675.1654
       184.1824                          9.5004          8.0004
  22868555.2014   -3938534.23146    899217.29446                  22868558.3974
      -380.0484                         17.7504         13.7504
  21193740.6694  -12776844.91147  -9800055.93946                  21193745.5134
     -2174.5794                         25.2504         23.0004
  22659912.5424    4690870.22345   2037871.10745                  22659918.2514
     -2032.1874                         11.2504         10.0004
  21830348.8144  -12390982.93547  -7665612.92046                  21830353.4284
       999.2004                         20.7504         19.0004
  24668819.9064   12343691.97944   9718323.27745                  24668824.1594
     -3903.2894                          6.5004          6.0004
  24765018.2994     194990.68242
     -1106.2654                          3.7504
  21895743.4574  -12135919.29747  -8815566.98146                  21895746.4254
      1899.9784                         23.0004         18.7504
 04  3  1  0 19 30.0000000  0  9G26G22G18G 6G17G 9G29G30G21
  22776749.7074   -1636267.64546   -430652.42246                  22776753.9324
     -4043.1434                         13.0004         12.0004
  24447622.0524    -485947.54245   -282576.79445                  24447625.0854
       182.3434                          9.0004          7.5004
  22870722.6914   -3927144.41046    908092.51746                  22870725.8134
      -379.4344                         18.2504         14.2504
  21206194.2844  -12711400.71547  -9749060.46346                  21206199.0684
     -2188.5334                         25.2504         22.7504
  22671552.7544    4752040.29445   2085536.11945                  22671558.0864
     -2045.9814                         10.7504         10.0004
  21824680.4494  -12420769.94947  -7688823.49146                  21824685.7294
       986.4134                         20.5004         18.7504
  24691100.2034   12460775.92944   9809557.61045                  24691104.0004
     -3902.4914                          6.2504          6.0004
  24771306.9774     228037.98942
     -1097.0334                          4.2504
  21884908.7504  -12192855.73747  -8859932.95746                  21884911.6154
      1895.5954                         21.7504         18.7504
 04  3  1  0 20  0.0000000  0  9G26G22G18G 6G17G 9G29G30G21
  22799844.2124   -1514904.87545   -336084.01945                  22799849.2914
     -4047.8214                         11.5004         11.2504
  24446584.6444    -491398.79345   -286824.36545                  24446588.1174
       180.9774                          9.0004          7.7504
  22872885.4094   -3915779.31546    916948.51446                  22872888.4604
      -378.3604                         17.7504         14.2504
  21218726.3124  -12645544.37747  -9697743.84046                  21218731.4284
     -2201.9934                         24.7504         22.5004
  22683270.6224    4813618.32745   2133518.92545                  22683276.7924
     -2059.3264                         11.2504         10.2504
  21819084.3054  -12450177.60347  -7711738.46746                  21819088.6564
       973.9644                         22.0004         19.2504
  24713374.7994   12577829.87444   9900768.53045                  24713381.8144
     -3901.1944                          7.2504          6.0004
  24777541.5354     260800.53443      5935.90155                  24777553.4464
     -1087.2724                          5.0004          5.5004
  21874098.1844  -12249665.02947  -8904199.86446                  21874100.9274
      1891.5624                         20.5004         18.2504
 04  3  1  0 20 30.0000000  0  9G26G22G18G 6G17G 9G29G30G21
  22822964.3064   -1393407.53445   -241410.71445                  22822968.2124
     -4052.2024                         11.5004         11.0004
  24445554.0634    -496813.90645   -291043.78745                  24445557.5214
       179.8424                          9.2504          7.2504
  22875041.1214   -3904450.93446    925775.86446                  22875044.0924
      -377.0514                         17.2504         13.5004
  21231334.1744  -12579289.60147  -9646116.73446                  21231338.8034
     -2215.2024                         25.0004         22.5004
  22695064.0784    4875593.48645   2181811.22945                  22695070.1684
     -2072.5264                         11.2504         10.2504
  21813558.7634  -12479214.18547  -7734364.30646                  21813563.6814
       961.6024                         20.5004         19.2504
  24735641.1144   12694840.19144   9991945.48345                  24735645.5144
     -3899.6614                          7.0004          6.5004
  24783719.4424     293266.10442     31233.81944                  24783741.7464
     -1077.2664                          4.5004          3.7504
  21863310.1954  -12306355.83547  -8948374.46246                  21863313.3424
      1887.6174                         21.5004         18.5004
 04  3  1  0 21  0.0000000  0  9G26G22G18G 6G17G 9G29G30G21
  22846111.2054   -1271769.41445   -146627.76445                  22846114.4394
     -4057.1244                         11.7504         11.0004
  24444531.8164    -502184.94845   -295228.78345                  24444538.1314
       178.1144                          8.5004          7.2504
  22877191.3014   -3893151.26446    934580.86846                  22877195.9464
      -376.3624                         16.2504         13.5004
  21244019.2414  -12512629.07247  -9594173.46246                  21244023.9504
     -2228.9474                         25.5004         23.0004
  22706935.0234    4937975.45845   2230420.55245                  22706941.3224
     -2086.3854                         11.2504         10.5004
  21808106.1334  -12507867.60147  -7756691.56546                  21808110.2384
       948.4924                         21.5004         19.2504
  24757900.4754   12811814.18044  10083094.17245                  24757905.7214
     -3898.6964                          6.7504          5.5004
  24789842.6114     325443.36142     56307.13245                  24789862.2464
     -1067.9744                          4.2504          5.0004
  21852547.0584  -12362916.26147  -8992447.45246                  21852549.7694
      1882.9454                         22.0004         18.7504
 04  3  1  0 21 30.0000000  0  9G26G22G18G 6G17G 9G29G30G21
  22869284.7634   -1149991.06845    -51735.49445                  22869288.1404
     -4061.4714                         10.7504         10.2504
  24443518.1564    -507510.82345   -299378.65345                  24443524.8374
       176.9374                          8.2504          7.0004
  22879336.3204   -3881878.92646    943364.53246                  22879340.5954
      -375.1384                         17.5004         13.7504
  21256781.4134  -12445563.30747  -9541914.41946                  21256786.4504
     -2242.1174                         24.5004         22.5004
  22718883.9284    5000766.85445   2279348.87345                  22718890.3484
     -2099.7504                         11.7504         10.5004
  21802727.4124  -12536132.48547  -7778716.06346                  21802732.0354
       935.7934                         21.7504         19.5004
  24780152.8884   12928752.17943  10174214.75145                  24780156.4064
     -3897.1484                          5.7504          5.7504
  24795911.1854     357334.08242
     -1058.0594                          3.7504
  21841809.7354  -12419341.15147  -9036414.82946                  21841812.6274
      1878.6874                         22.7504         19.0004
 04  3  1  0 22  0.0000000  0  9G26G22G18G 6G17G 9G29G30G21
  22892483.6074   -1028080.03845     43260.08445                  22892488.0994
     -4065.9564                         10.7504         10.0004
  24442511.8804    -512797.60745   -303498.06045                  24442512.7014
       175.5324                          8.0004          7.0004
  22881475.1014   -3870639.49946    952122.60246                  22881479.3324
      -374.1664                         17.0004         13.7504
  21269619.3554  -12378099.30247  -9489345.06846                  21269624.0604
     -2255.4874                         24.2504         22.5004
  22730909.9854    5063963.61846   2328593.07545                  22730915.9374
     -2113.3974                         12.2504         11.0004
  21797422.2944  -12564010.65747  -7800439.23046                  21797426.8424
       922.7094                         21.2504         19.2504
  24802397.3004   13045647.56943  10265302.08445                  24802404.5574
     -3895.8664                          5.7504          5.2504
  24801924.0794     388932.75542
     -1048.5054                          4.0004
  21831097.8114  -12475632.58347  -9080278.22146                  21831100.5184
      1874.0544                         22.7504         19.0004
 04  3  1  0 22 30.0000000  0 10G26G22G18G14G 6G17G 9G29G30G21
  22915705.5144    -906047.92045    138350.06845                  22915710.9244
     -4069.6594                         10.7504         10.2504
  24441511.3094    -518054.83245   -307594.46145                  24441518.3344
       174.8584                          8.0004          7.2504
  22883605.7644   -3859442.71846    960847.43546                  22883610.1034
      -372.4314                         17.5004         14.0004
  24627967.3834     -21911.78752
      2433.8294                          3.7504
  21282531.0814  -12310247.73247  -9436473.70746                  21282535.5884
     -2268.0784                         24.7504         22.2504
  22743011.5014    5127557.34945   2378146.62045                  22743018.0194
     -2126.3504                         10.2504         10.2504
  21792189.7534  -12591507.48047  -7821865.25446                  21792194.2414
       910.2484                         21.5004         19.2504
  24824631.5514   13162489.58443  10356347.86944                  24824631.6474
     -3893.7424                          6.0004          4.0004
  24807879.7644     420230.37143
     -1038.1774                          5.5004
  21820410.1764  -12531796.23347  -9124042.02646                  21820413.0914
      1870.0384                         22.2504         18.2504
 04  3  1  0 23  0.0000000  0 10G26G22G18G14G 6G17G 9G29G30G21
  22938951.7234    -783888.36745    233539.34145                  22938955.9134
     -4074.2544                         10.7504         10.5004
  24440517.8584    -523274.70844   -311661.71745                  24440522.3024
       173.1814                          7.0004          6.7504
  22885729.8244   -3848280.30246    969545.48046                  22885733.8724
      -371.7004                         17.0004         14.2504
  24614096.9684     -94796.17841
      2425.1184                          2.5004
  21295517.9104  -12242001.54647  -9383294.86946                  21295522.7894
     -2281.6144                         24.5004         22.5004
  22755190.3794    5191557.81645   2428017.10045                  22755196.7054
     -2140.3384                         10.2504         10.0004
  21787032.0994  -12618610.79747  -7842984.65746                  21787036.5734
       896.6574                         21.7504         19.7504
  24846857.1164   13279285.82043  10447357.95445                  24846857.0604
     -3892.6264                          6.0004          5.0004
  24813779.8584     451235.60742     11246.44353                  24813802.1534
     -1028.8244                          4.7504          3.0004
  21809749.1244  -12587820.12847  -9167696.93546                  21809751.5984
      1864.9234                         23.2504         18.7504
 04  3  1  0 23 30.0000000  0 10G26G22G18G14G 6G17G 9G29G30G21
  22962222.6424    -661598.84245    328829.93845                  22962226.6224
     -4078.6104                         11.0004         10.5004
  24439532.2684    -528453.32445   -315696.80145                  24439535.9974
       171.7774                          8.5004          7.0004
  22887848.2674   -3837147.49446    978220.45346                  22887851.4084
      -370.7684                         16.0004         14.0004
  24600274.7534    -167427.73141
      2416.6614                          2.2504
  21308580.4704  -12173357.42247  -9329805.93946                  21308585.0104
     -2294.8974                         24.5004         22.2504
  22767447.7144    5255970.71045   2478208.87845                  22767452.7514
     -2154.1424                         10.2504          9.2504
  21781950.9454  -12645312.21747  -7863790.87646                  21781955.7754
       883.1464                         21.5004         19.7504
  24869074.5094   13396039.33743  10538334.80145                  24869077.4414
     -3891.1944                          5.0004          4.5004
  24819625.1084     481953.29242     35182.37044                  24819641.2924
     -1019.2994                          4.5004          4.2504
  21799116.2204  -12643696.06847  -9211236.57146                  21799118.3444
      1859.8594                         22.7504         18.7504
 04  3  1  0 24  0.0000000  0  9G26G22G18G 6G17G 9G29G30G21
  22985516.6834    -539187.82545    424215.17745                  22985521.6864
     -4082.2424                         10.7504         11.0004
  24438553.2664    -533597.29545   -319704.86645                  24438557.1664
       171.0054                          7.5004          6.5004
  22889959.8394   -3826050.68546    986867.38146                  22889963.6484
      -369.1854                         16.2504         13.2504
  21321717.1114  -12104324.05047  -9276013.69746                  21321721.8454
     -2307.5074                         23.7504         22.5004
  22779782.5074    5320790.62045   2528717.85545                  22779788.0924
     -2167.3704                          9.2504          9.7504
  21776945.7694  -12671614.38047  -7884285.99846                  21776950.3964
       870.1504                         22.2504         20.0004
  24891282.2884   13512742.88443  10629272.65845                  24891289.3624
     -3889.1494                          5.0004          4.7504
  24825414.4244     512377.13642     58889.25945                  24825437.5314
     -1009.1334                          4.5004          4.5004
  21788510.9664  -12699426.73847  -9254663.00346                  21788513.4264
      1855.3314                         22.5004         19.2504
 04  3  1  0 24 30.0000000  0 10G26G22G18G14G 6G17G 9G29G30G21
  23008832.6124    -416661.55345    519690.17745                  23008837.0684
     -4086.0794                         10.5004         10.5004
  24437579.9674    -538711.20944   -323689.64645                  24437584.8094
       170.0084                          7.2504          7.0004
  22892063.5954   -3814994.60346    995482.57046                  22892067.2244
      -367.8294                         14.2504         12.7504
  24572771.2554     -38438.31652
      2400.3934                          3.7504
  21334926.8204  -12034906.53947  -9221922.13546                  21334931.4784
     -2320.2764                         23.2504         22.2504
  22792194.2034    5386014.47345   2579541.60145                  22792200.6194
     -2180.8274                         10.0004          9.5004
  21772016.4594  -12697517.81447  -7904470.42646                  21772021.2984
       856.7804                         22.7504         20.2504
  24913479.5714   13629390.94843  10720167.31145                  24913480.1984
     -3887.3274                          5.0004          5.7504
  24831147.1874     542503.24642     82364.39144                  24831164.9054
      -999.2454                          4.7504          3.7504
  21777933.2684  -12755012.63147  -9297976.61246                  21777936.2244
      1850.4464                         23.7504         19.5004
 04  3  1  0 25  0.0000000  0 10G26G22G18G14G 6G17G 9G29G30G21
  23032171.6544    -294014.07645    615259.67545                  23032175.3314
     -4090.1514                         11.0004         10.7504
  24436613.7644    -543787.81645   -327645.27045                  24436619.2184
       168.6944                          7.5004          6.7504
  22894161.1744   -3803971.13646   1004072.33946                  22894165.7844
      -366.8294                         14.5004         12.0004
  24559093.0664    -110314.62042
      2391.5944                          4.5004
  21348210.7954  -11965098.83347  -9167526.51246                  21348215.5074
     -2333.3324                         24.2504         22.2504
  22804684.6084    5451651.76345   2630687.47345                  22804690.4254
     -2194.7394                         10.7504         10.0004
  21767165.3154  -12723010.48847  -7924334.77646                  21767170.1774
       842.9414                         22.0004         20.0004
  24935667.7164   13745990.51943  10811024.16745                  24935671.6034
     -3885.7534                          5.0004          4.5004
  24836824.8914     572339.96742
      -989.6394                          4.2504
  21767385.3154  -12810442.29947  -9341168.50446                  21767387.8754
      1845.1064                         23.0004         19.5004
 04  3  1  0 25 30.0000000  0 10G26G22G18G14G 6G17G 9G29G30G21
  23055531.8904    -171255.29545    710915.90445                  23055535.7904
     -4094.1034                         11.2504         10.5004
  24435653.1844    -548835.21545   -331578.09345                  24435659.3484
       167.4584                          8.0004          7.7504
  22896251.1344   -3792988.08346   1012630.63046                  22896253.7644
      -365.7344                         15.7504         12.5004
  24545463.5304    -181937.68743
      2382.8514                          5.5004
  21361567.1924  -11894910.52547  -9112834.32646                  21361572.2844
     -2346.2514                         24.2504         22.2504
  22817252.3794    5517695.45245   2682150.06645                  22817258.8234
     -2208.5464                         10.0004          9.5004
  21762391.5484  -12748096.60047  -7943882.32346                  21762396.0494
       829.0714                         21.5004         19.7504
  24957844.9394   13862532.55243  10901836.22745                  24957851.3424
     -3884.0974                          6.0004          5.7504
  24842445.9374     601879.54642
      -980.0224                          4.7504
  21756866.2904  -12865719.84147  -9384241.86746                  21756869.0914
      1839.7054                         22.5004         19.5004
 04  3  1  0 26  0.0000000  0 10G26G22G18G14G 6G17G 9G29G30G21
  23078913.3434     -48384.79445    806659.19945                  23078917.0664
     -4097.2394                         11.0004         10.0004
  24434698.4694    -553851.45145   -335486.70645                  24434705.2864
       166.9714                          8.2504          6.7504
  22898333.8204   -3782043.42246   1021159.01246                  22898337.1584
      -363.8954                         16.0004         12.7504
  24531883.0384    -253302.22943
      2374.7794                          5.5004
  21374996.2704  -11824340.17947  -9057844.44646                  21375000.9674
     -2358.4244                         24.5004         22.0004
  22829898.2004    5584149.20345   2733932.15945                  22829903.7164
     -2221.6904                         10.7504          9.5004
  21757696.2764  -12772770.19047  -7963108.42746                  21757700.7764
       815.8154                         22.7504         20.2504
  24980011.3074   13979018.48142  10992604.57145                  24980013.9984
     -3881.6454                          4.7504          5.5004
  24848011.1644     631125.06043
      -969.6614                          5.2504
  21746377.3984  -12920839.05647  -9427191.84346                  21746380.1504
      1834.9054                         23.2504         19.7504
 04  3  1  0 26 30.0000000  0 10G26G22G18G14G 6G17G 9G29G30G21
  23102314.8234      74590.79145    902484.33545                  23102318.6544
     -4101.0094                         11.5004         10.5004
  24433748.7964    -558841.42144   -339374.84845                  24433751.8894
       165.8064                          7.0004          7.2504
  22900408.3754   -3771141.59246   1029654.01546                  22900411.4644
      -362.7914                         16.5004         12.7504
  24518351.2724    -324409.90943    -48006.42955                  24518361.0004
      2365.8594                          5.0004          4.7504
  21388496.9054  -11753393.88847  -9002561.61846                  21388502.0454
     -2371.2094                         23.7504         21.7504
  22842621.2664    5651009.38245   2786030.97145                  22842627.0374
     -2235.5714                          9.2504          9.5004
  21753079.3894  -12797031.92347  -7982013.59946                  21753083.5024
       801.7224                         22.2504         20.2504
  25002166.0334   14095442.58143  11083324.72345                  25002170.9444
     -3879.8564                          5.7504          6.0004
  24853519.7434     660072.15644     13504.80555                  24853540.6224
      -960.0344                          7.2504          5.0004
  21735918.4464  -12975801.15847  -9470019.39446                  21735921.0094
      1829.3174                         24.7504         20.2504
 04  3  1  0 27  0.0000000  0 10G26G22G18G14G 6G17G 9G29G30G21
  23125737.7744     197679.18445    998397.42045                  23125740.0664
     -4104.7894                         11.2504          9.7504
  24432805.7374    -563795.90743   -343235.25945                  24432806.7224
       164.5694                          6.0004          6.0004
  22902476.7104   -3760272.48846   1038123.52046                  22902479.8054
      -361.7544                         16.5004         13.0004
  24504870.6384    -395248.30643   -103204.22945                  24504878.5084
      2356.7614                          5.2504          5.2504
  21402070.5204  -11682064.07947  -8946979.95946                  21402074.9104
     -2384.0364                         24.5004         21.7504
  22855423.7554    5718286.79945   2838454.85845                  22855429.7084
     -2249.5394                          9.5004          9.2504
  21748543.4334  -12820868.39047  -8000587.40846                  21748547.4394
       787.4254                         23.5004         20.5004
  25024310.6884   14211813.65643  11174003.47145                  25024313.3534
     -3878.1474                          5.7504          6.0004
  24858973.2064     688730.77743     35836.33444                  24858993.3564
      -950.4884                          5.5004          4.2504
  21725492.0014  -13030592.35747  -9512713.79046                  21725494.2224
      1823.4894                         23.7504         20.2504
 04  3  1  0 27 30.0000000  0 10G26G22G18G14G 6G17G 9G29G30G21
  23149180.2114     320870.26945   1094390.48345                  23149184.0694
     -4107.8894                         11.5004         10.0004
  24431867.8384    -568723.63745   -347074.84145                  24431874.6374
       164.0024                          8.0004          6.5004
  22904537.0904   -3749444.95546   1046560.65046                  22904539.7424
      -360.0444                         16.5004         13.2504
  24491440.0934    -465822.76743   -158196.35245                  24491451.1434
      2348.2414                          5.0004          5.5004
  21415715.3194  -11610360.21147  -8891106.82146                  21415719.9484
     -2396.1564                         23.5004         21.5004
  22868304.1354    5785974.23445   2891198.30645                  22868309.1744
     -2262.9144                          7.7504          8.7504
  21744087.5394  -12844284.03347  -8018833.30046                  21744092.3084
       773.6534                         23.7504         20.2504
  25046443.5704   14328122.47743  11264633.81245                  25046455.4064
     -3875.7154                          5.2504          5.2504
  24864370.3804     717093.24944     57937.12945                  24864391.7574
      -940.2884                          6.2504          4.7504
  21715097.1844  -13085217.27847  -9555278.58546                  21715099.6014
      1818.1934                         24.2504         19.5004
 04  3  1  0 28  0.0000000  0 10G26G22G18G14G 6G17G 9G29G30G21
  23172641.3414     444159.33545   1190459.90045                  23172644.5994
     -4111.2744                         11.0004         10.0004
  24430934.6454    -573627.56045   -350895.98845                  24430940.6544
       163.0584                          9.0004          7.7504
  22906589.0284   -3738661.53446   1054963.37746                  22906593.4964
      -358.7494                         16.0004         13.2504
  24478059.7494    -536133.49643   -212982.98045                  24478070.2354
      2339.2334                          5.5004          5.0004
  21429430.4624  -11538286.72547  -8834945.66646                  21429434.9244
     -2408.6164                         24.7504         21.7504
  22881262.3744    5854070.18545   2944260.00345                  22881269.1934
     -2276.7064                          8.2504          9.2504
  21739711.9174  -12867277.85547  -8036750.49946                  21739716.7094
       759.3664                         22.0004         20.0004
  25068563.8464   14444365.06743  11355212.41645                  25068566.8444
     -3873.6534                          5.7504          6.5004
  24869710.6474     745157.02044     79805.10145                  24869730.0024
      -930.5154                          6.2504          5.2504
  21704734.1544  -13139675.03247  -9597713.13046                  21704736.9334
      1812.4114                         24.2504         20.0004
 04  3  1  0 28 30.0000000  0 10G26G22G18G14G 6G17G 9G29G30G21
  23196121.9314     567550.81345   1286609.13145                  23196124.8334
     -4114.4234                         11.2504          9.2504
  24430007.1044    -578501.50145   -354693.67445                  24430010.8544
       162.2904                          8.5004          7.7504
  22908633.7854   -3727915.45146   1063337.05346                  22908637.7514
      -357.2774                         16.0004         13.2504
  24464731.3594    -606171.07143   -267556.88445                  24464742.4174
      2330.3224                          5.7504          5.7504
  21443216.8414  -11465838.80647  -8778492.76246                  21443221.0004
     -2420.8404                         24.0004         21.2504
  22894299.8004    5922582.04645   2997645.83345                  22894305.8694
     -2290.3494                          8.2504          9.2504
  21735418.5044  -12889839.67047  -8054331.08246                  21735423.2444
       745.1424                         22.7504         19.5004
  25090672.5384   14560546.81644  11445743.73145                  25090675.2534
     -3871.3914                          6.2504          5.5004
  24874995.4214     772929.10844    101445.81745                  24875015.0024
      -920.5734                          6.7504          5.5004
  21694404.8724  -13193955.57247  -9640009.59946                  21694407.2104
      1806.6604                         25.2504         20.5004
 04  3  1  0 29  0.0000000  0 10G26G22G18G14G 6G17G 9G29G30G21
  23219619.0754     691029.11645   1382826.02445                  23219621.9134
     -4117.2714                         10.5004          9.2504
  24429082.4134    -583360.01045   -358479.36845                  24429086.4984
       161.7914                          7.5004          6.7504
  22910668.8084   -3717220.77746   1071670.62446                  22910672.8004
      -355.5354                         15.5004         13.5004
  24451452.9394    -675946.58844   -321926.49545                  24451465.1424
      2321.5394                          6.5004          5.7504
  21457071.4924  -11393032.02347  -8721760.20746                  21457076.6704
     -2432.7984                         23.0004         21.2504
  22907413.9324    5991496.86545   3051345.64245                  22907421.2174
     -2303.8224                          9.2504         10.0004
  21731205.3224  -12911979.86547  -8071583.11746                  21731209.1444
       731.0234                         23.0004         19.7504
  25112766.8174   14676653.09744  11536216.22245                  25112767.9724
     -3868.8754                          6.2504          5.5004
  24880222.2104     800396.04744    122848.74445                  24880234.9354
      -910.3784                          7.2504          6.2504
  21684107.4904  -13248068.59347  -9682175.51346                  21684109.0484
      1801.0394                         23.7504         20.5004
 04  3  1  0 29 30.0000000  0 10G26G22G18G14G 6G17G 9G29G30G21
  23243132.8144     814595.04645   1479111.18245                  23243135.6774
     -4120.4674                          9.5004          9.0004
  24428161.2124    -588200.44745   -362250.97045                  24428163.3864
       160.8964                          8.2504          7.5004
  22912694.6634   -3706574.37446   1079966.59346                  22912698.4174
      -354.2394                         16.2504         13.2504
  24438225.4844    -745454.41844   -376087.53845                  24438233.0094
      2312.2704                          7.2504          6.0004
  21470994.8794  -11319864.08247  -8664746.23346                  21470999.6764
     -2445.0744                         23.2504         21.2504
  22920605.4794    6060818.67045   3105362.59245                  22920611.4494
     -2317.6814                         10.2504          9.5004
  21727073.6794  -12933691.64747  -8088501.32646                  21727077.8504
       716.3824                         23.0004         20.0004
  25134847.0714   14792685.82443  11626631.28145                  25134851.2774
     -3866.6804                          5.7504          5.2504
  24885391.4034     827561.25843    144016.53244                  24885412.4074
      -900.6344                          6.0004          4.2504
  21673843.1614  -13302007.69847  -9724205.92546                  21673845.0774
      1794.8564                         24.5004         20.2504
 04  3  1  0 30  0.0000000  0 10G26G22G18G14G 6G17G 9G29G30G21
  23266663.4054     938249.75445   1575465.53445                  23266668.1914
     -4123.2784                          9.7504          9.2504
  24427243.9524    -593020.08345   -366006.36345                  24427247.4204
       160.3134                          7.7504          7.0004
  22914711.9574   -3695973.03346   1088227.44946                  22914715.7814
      -352.6044                         15.7504         13.0004
  24425050.0344    -814688.87644   -430035.64645                  24425060.4454
      2303.2614                          6.7504          6.0004
  21484987.1164  -11246334.38947  -8607450.37446                  21484992.2794
     -2456.9714                         22.7504         20.5004
  22933875.2324    6130551.38145   3159699.71345                  22933880.6364
     -2331.2844                         10.0004          9.5004
  21723024.8204  -12954968.22347  -8105080.40846                  21723028.7074
       701.9354                         23.2504         20.0004
  25156913.6724   14908646.99643  11716990.84845                  25156914.4954
     -3864.1324                          5.0004          6.0004
  24890503.8784     854428.06044    164951.85645                  24890523.8724
      -890.5854                          6.2504          5.0004
  21663613.2484  -13355766.01047  -9766095.45346                  21663615.2454
      1788.9104                         24.2504         20.5004
 04  3  1  0 30 30.0000000  0  9G26G22G18G14G 6G17G 9G30G21
  23290211.0604    1061993.83745   1671889.50545                  23290215.6164
     -4126.0834                          9.7504          9.5004
  24426330.9064    -597816.99444   -369744.11745                  24426336.0374
       159.7334                          7.2504          7.0004
  22916721.0644   -3685414.69946   1096454.80946                  22916725.0484
      -351.0074                         15.7504         13.7504
  24411927.5874    -883644.80144   -483766.59445                  24411935.8614
      2294.0714                          6.7504          6.0004
  21499048.2964  -11172442.39747  -8549872.20646                  21499052.5534
     -2468.8964                         22.7504         21.2504
  22947223.8044    6200698.28045   3214359.61845                  22947230.1934
     -2344.9324                          9.2504          9.0004
  21719059.8914  -12975803.77347  -8121315.83646                  21719063.9894
       687.3424                         23.5004         20.5004
  24895560.1834     880999.33145    185656.85345                  24895578.4414
      -880.5774                          7.5004          4.7504
  21653418.8154  -13409337.73247  -9807839.58946                  21653421.2914
      1782.7824                         23.5004         20.2504
 04  3  1  0 31  0.0000000  0  9G26G22G18G14G 6G17G 9G30G21
  23313773.6644    1185816.13045   1768374.43345                  23313777.3304
     -4128.7764                         10.0004          9.5004
  24425420.4014    -602600.53845   -373471.36245                  24425425.8864
       159.1704                          8.5004          8.2504
  22918720.3114   -3674908.37846   1104641.63446                  22918724.9754
      -349.4104                         16.2504         13.2504
  24398856.7504    -952328.64243   -537285.62344                  24398868.5734
      2284.8494                          5.7504          4.2504
  21513176.4664  -11098198.40847  -8492019.74946                  21513180.9724
     -2480.7284                         22.7504         21.0004
  22960649.6624    6271251.41345   3269336.05145                  22960655.2544
     -2358.6114                          9.7504          9.5004
  21715177.8924  -12996203.48347  -8137211.64846                  21715182.0234
       672.6244                         23.0004         20.5004
  24900558.5984     907266.74244    206125.01545                  24900577.9764
      -870.5864                          6.7504          5.2504
  21643258.9704  -13462727.80747  -9849442.18946                  21643261.7154
      1776.5274                         25.0004         21.0004
 04  3  1  0 31 30.0000000  0  9G26G22G18G14G 6G17G 9G30G21
  23337351.2824    1309717.75445   1864921.15945                  23337355.6154
     -4131.2584                          8.7504          9.2504
  24424512.9924    -607368.35844   -377186.40345                  24424517.7904
       158.7474                          7.2504          7.5004
  22920710.2244   -3664451.09246   1112790.27046                  22920714.2494
      -347.6544                         15.7504         13.5004
  24385838.7264   -1020734.74243   -590588.36145                  24385848.6164
      2275.6784                          5.0004          4.7504
  21527371.8374  -11023601.32947  -8433892.15446                  21527376.3914
     -2492.3404                         23.0004         21.0004
  22974153.4414    6342214.27045   3324631.68745                  22974160.2984
     -2372.1834                          9.5004          9.0004
  21711380.0404  -13016161.03747  -8152762.92246                  21711383.8894
       657.9364                         22.5004         20.5004
  24905499.8284     933233.31145    226358.89745                  24905516.0214
      -860.4604                          7.5004          5.5004
  21633134.9464  -13515929.82047  -9890898.25246                  21633137.0884
      1770.3174                         25.7504         21.0004
 04  3  1  0 32  0.0000000  0  9G26G22G18G14G 6G17G 9G30G21
  23360942.8704    1433692.53545   1961524.90545                  23360946.7434
     -4133.8744                          9.5004          9.0004
  24423607.6764    -612125.05943   -380892.77445                  24423611.8284
       158.1874                          6.0004          7.0004
  22922689.9484   -3654047.12646   1120897.32846                  22922693.0184
      -346.0934                         15.2504         13.5004
  24372873.4724   -1088864.65643   -643675.90645                  24372881.4124
      2266.1904                          5.5004          4.7504
  21541633.3214  -10948656.70147  -8375493.74246                  21541638.0154
     -2504.1124                         22.5004         21.0004
  22987734.6504    6413583.68745   3380244.17945                  22987740.6564
     -2385.9454                         10.0004          9.5004
  21707666.2564  -13035676.98047  -8167970.08946                  21707669.6894
       642.9514                         24.0004         21.0004
  24910383.0624     958895.52244    246355.46145                  24910403.1694
      -850.4914                          6.7504          4.7504
  21623046.5474  -13568944.60847  -9932208.42046                  21623049.1284
      1763.7964                         25.0004         21.0004
 04  3  1  0 32 30.0010000  0  9G26G22G18G14G 6G17G 9G30G21
  23384549.7324    1557747.81445   2058191.37045                  23384553.9914
     -4136.3334                          9.0004          8.0004
  24422705.3034    -616866.02445   -384586.82345                  24422709.1354
       157.7464                          7.7504          7.0004
  22924660.6564   -3643690.70946   1128967.34746                  22924664.6724
      -344.4444                         15.2504         13.5004
  24359961.5894   -1156713.14243   -696544.07045                  24359972.1044
      2256.7144                          5.0004          5.0004
  21555961.9834  -10873359.12547  -8316820.30746                  21555966.3284
     -2515.7214                         22.7504         21.0004
  23001394.8364    6485367.86845   3436179.83645                  23001400.4624
     -2399.6744                         11.2504          9.7504
  21704037.9964  -13054743.35047  -8182826.92246                  21704042.2864
       627.9404                         24.2504         20.5004
  24915209.6154     984259.55345    266119.70545                  24915224.4444
      -840.4934                          7.5004          5.2504
  21612995.2534  -13621764.19347  -9973366.48246                  21612997.6614
      1757.2344                         25.2504         21.2504
 04  3  1  0 33  0.0010000  0  9G26G22G18G14G 6G17G 9G30G21
  23408170.1964    1681874.52745   2154913.48845                  23408174.4194
     -4138.8514                          8.2504          8.2504
  24421806.2804    -621590.29545   -388267.89645                  24421811.8134
       157.1214                          9.2504          8.0004
  22926622.3644   -3633381.48646   1137000.62046                  22926625.9044
      -342.9314                         15.7504         13.0004
  24347105.1254   -1224271.39842   -749186.14445                  24347115.6474
      2247.0414                          4.7504          5.2504
  21570356.7614  -10797714.05147  -8257876.09546                  21570361.3584
     -2527.3744                         23.2504         21.2504
  23015133.3654    6557564.05145   3492436.53545                  23015139.9354
     -2413.5334                         10.7504          9.5004
  21700496.4094  -13073354.30547  -8197328.90546                  21700500.0104
       612.6664                         23.2504         20.2504
  24919979.4014    1009325.39945    285651.62245                  24919999.0384
      -830.6404                          7.7504          5.0004
  21602982.6394  -13674380.64047 -10014366.25846                  21602985.1404
      1750.4114                         25.2504         21.2504
 04  3  1  0 33 30.0010000  0  9G26G22G18G14G 6G17G 9G30G21
  23431804.1284    1806071.59445   2251690.47645                  23431806.5944
     -4141.0294                          9.7504          9.0004
  24420909.6834    -626301.70844   -391938.99645                  24420915.0234
       156.8894                          7.0004          7.0004
  22928574.6174   -3623121.93146   1144995.15046                  22928578.2884
      -341.1064                         15.0004         13.5004
  24334303.3074   -1291542.88143   -801604.83045                  24334314.5114
      2237.6174                          6.0004          4.7504
  21584817.1694  -10721724.22847  -8198663.25246                  21584821.6094
     -2538.6854                         23.7504         21.0004
  23028950.2744    6630172.07445   3549014.17345                  23028957.2474
     -2427.0964                         10.7504          9.5004
  21697041.3944  -13091510.17247  -8211476.26946                  21697044.9444
       597.6134                         23.2504         20.2504
  24924692.2024    1034091.24145    304949.79945                  24924707.4634
      -820.4914                          8.5004          5.7504
  21593008.4054  -13726795.33047 -10055208.82246                  21593010.7294
      1743.7984                         25.0004         21.7504
 04  3  1  0 34  0.0010000  0  9G26G22G18G14G 6G17G 9G30G21
  23455451.0244    1930336.96745   2348520.65345                  23455455.6544
     -4143.3684                          9.0004          8.7504
  24420015.2634    -631000.94744   -395600.58645                  24420020.5354
       156.3634                          6.7504          5.5004
  22930517.3684   -3612912.46746   1152950.67046                  22930520.7254
      -339.5634                         15.7504         13.7504
  24321556.4724   -1358525.25744   -853798.31945                  24321560.1944
      2227.8224                          6.7504          4.7504
  21599342.8644  -10645391.23247  -8139182.98446                  21599347.7444
     -2550.2124                         23.0004         20.7504
  23042845.6384    6703192.39745   3605913.08745                  23042851.3274
     -2440.9494                         10.0004          9.5004
  21693673.5964  -13109207.77547  -8225266.52446                  21693677.6204
       582.1614                         23.7504         20.5004
  24929347.8104    1058557.10545    324014.19645                  24929363.7514
      -810.6274                          8.2504          6.5004
  21583073.2164  -13779004.87947 -10095891.53746                  21583076.0554
      1736.7764                         25.7504         22.0004
 04  3  1  0 34 30.0010000  0  9G26G22G18G14G 6G17G 9G30G21
  23479109.6614    2054663.99445   2445398.90445                  23479114.5134
     -4145.5174                          9.0004          8.0004
  24419122.2294    -635693.03845   -399256.56345                  24419126.1094
       156.0434                          7.5004          7.7504
  22932449.7244   -3602757.73746   1160863.51846                  22932453.0144
      -337.8464                         16.5004         13.5004
  24308864.3014   -1425220.36545   -905767.77645                  24308871.8044
      2218.0934                          7.5004          5.7504
  21613932.5404  -10568721.92947  -8079440.66746                  21613936.8874
     -2561.5174                         22.5004         20.7504
  23056818.7264    6776621.18845   3663130.24745                  23056825.8074
     -2454.7024                         10.0004          9.5004
  21690392.7524  -13126448.33947  -8238700.66446                  21690396.8374
       566.7614                         22.7504         20.2504
  24933945.4824    1082718.95644    342841.72545                  24933964.1214
      -800.5924                          6.7504          5.7504
  21573176.9414  -13831010.10847 -10136415.04446                  21573178.8764
      1729.7924                         26.0004         21.7504
 04  3  1  0 35  0.0010000  0  9G26G22G18G14G 6G17G 9G30G21
  23502779.3274    2179049.23344   2542322.50945                  23502784.0424
     -4147.2804                          7.0004          8.0004
  24418230.2884    -640379.95145   -402908.53445                  24418235.3434
       156.0074                          9.2504          7.5004
  22934371.2834   -3592659.51846   1168732.35546                  22934374.5104
      -335.8334                         15.0004         13.7504
  24296226.8764   -1491627.36644   -957512.86845                  24296233.1594
      2208.5704                          7.2504          6.0004
  21628585.6564  -10491719.22047  -8019438.55346                  21628590.3494
     -2572.4354                         22.2504         20.2504
  23070869.3104    6850457.44945   3720664.95445                  23070875.2064
     -2468.1914                          9.7504          8.0004
  21687199.2394  -13143230.06947  -8251777.26046                  21687202.4624
       551.5454                         24.7504         21.0004
  24938485.2314    1106575.59345    361431.34445                  24938504.2064
      -790.3224                          7.5004          6.2504
  21563319.9084  -13882808.80547 -10176777.63046                  21563322.0694
      1722.9774                         24.5004         21.0004
 04  3  1  0 35 30.0010000  0  9G26G22G18G14G 6G17G 9G30G21
  23526459.6684    2303490.48845   2639289.70045                  23526466.1494
     -4148.8244                          7.5004          6.7504
  24417339.1334    -645062.53045   -406557.13545                  24417346.0234
       156.1264                          8.0004          7.5004
  22936282.0864   -3582617.88746   1176557.08546                  22936285.3194
      -333.6604                         15.2504         13.0004
  24283644.8554   -1557743.93745  -1009031.64845                  24283652.1124
      2199.1224                          7.7504          5.5004
  21643301.6514  -10414386.01147  -7959178.92046                  21643306.4374
     -2583.1564                         21.7504         20.0004
  23084997.5474    6924701.62945   3778517.49345                  23085004.4684
     -2481.4994                         10.0004          9.2504
  21684093.6524  -13159549.75647  -8264493.81846                  21684097.4664
       536.3794                         23.5004         20.5004
  24942966.8664    1130127.35544    379783.60245                  24942985.2294
      -779.8574                          6.7504          5.7504
  21553502.8324  -13934397.68247 -10216976.71246                  21553505.0054
      1716.2074                         25.5004         21.5004
 04  3  1  0 36  0.0010000  0  9G26G22G18G14G 6G17G 9G30G21
  23550149.4794    2427981.15045   2736295.51145                  23550154.1254
     -4150.6474                          8.2504          8.2504
  24416447.7834    -649745.99845   -410206.44745                  24416453.9744
       155.9674                          9.2504          7.7504
  22938181.2614   -3572637.27746   1184334.26446                  22938184.5454
      -331.8254                         15.0004         13.0004
  24271117.6484   -1623572.26745  -1060325.92545                  24271125.9954
      2189.2764                          7.7504          7.0004
  21658079.4284  -10336728.06947  -7898666.25546                  21658084.0294
     -2594.1434                         21.5004         20.2504
  23099202.5874    6999349.72745   3836684.75845                  23099207.7564
     -2495.1814                          9.2504          8.2504
  21681075.7824  -13175408.55447  -8276851.25946                  21681079.5024
       520.7514                         24.0004         20.7504
  24947389.7184    1153370.07344    397894.86645                  24947412.6764
      -769.7784                          6.7504          5.0004
  21543725.5604  -13985777.40747 -10257012.80046                  21543727.9224
      1708.9674                         26.0004         22.0004
 04  3  1  0 36 30.0010000  0  9G26G22G18G14G 6G17G 9G30G21
  23573848.5904    2552520.87645   2833339.47645                  23573853.4414
     -4152.0204                          8.0004          8.0004
  24415556.5044    -654429.35645   -413855.67245                  24415560.8764
       156.1664                          8.7504          8.5004
  22940069.0774   -3562716.52546   1192064.79146                  22940072.2504
      -329.6034                         16.2504         13.5004
  24258646.0694   -1689108.52645  -1111392.51045                  24258655.6004
      2179.7284                          8.0004          5.5004
  21672918.8924  -10258746.08447  -7837901.07246                  21672923.6754
     -2604.6834                         21.0004         19.5004
  23113484.9204    7074403.64045   3895168.30545                  23113490.4554
     -2508.4844                          8.7504          9.0004
  21678146.4444  -13190802.07247  -8288846.13046                  21678150.5674
       505.4114                         22.2504         20.7504
  24951754.1834    1176305.56144    415766.74345                  24951770.6344
      -759.3214                          6.5004          5.2504
  21533988.9474  -14036943.39847 -10296882.35746                  21533991.5514
      1702.0224                         25.2504         21.7504
 04  3  1  0 37  0.0010000  0  9G26G22G18G14G 6G17G 9G30G21
  23597556.8994    2677109.12545   2930421.26545                  23597560.0624
     -4153.6844                          8.7504          7.0004
  24414665.3924    -659111.51845   -417503.94445                  24414671.2554
       156.0994                          8.0004          7.5004
  22941945.8284   -3552853.98646   1199749.96646                  22941948.8204
      -327.7524                         16.5004         13.7504
  24246230.7824   -1754348.90344  -1162228.64545                  24246237.9884
      2169.7414                          6.7504          6.0004
  21687819.9634  -10180440.58347  -7776883.81246                  21687824.7504
     -2615.5284                         21.7504         19.7504
  23127844.9164    7149865.33245   3953969.55445                  23127850.1384
     -2522.1544                         10.5004          9.0004
  21675306.6094  -13205725.25947  -8300474.52946                  21675310.1714
       489.5894                         23.5004         21.0004
  24956060.4994    1198935.78043    433400.80645                  24956072.6374
      -749.2044                          5.0004          4.7504
  21524293.9544  -14087890.63547 -10336581.45746                  21524296.1774
      1694.5614                         24.7504         21.5004
 04  3  1  0 37 30.0010000  0  9G26G22G18G14G 6G17G 9G30G21
  23621274.2854    2801744.76545   3027540.02045                  23621276.4994
     -4155.2094                          9.0004          8.2504
  24413774.6224    -663792.14645   -421151.03245                  24413777.7804
       156.0994                          9.5004          8.7504
  22943811.6854   -3543048.59646   1207390.61746                  22943815.4274
      -325.8134                         16.5004         14.0004
  24233872.4564   -1819289.91345  -1212831.50145                  24233873.9624
      2159.7684                          7.5004          6.7504
  21702782.4584  -10101812.23247  -7715614.96646                  21702787.0274
     -2626.2114                         21.2504         19.5004
  23142282.7414    7225736.35845   4013089.73945                  23142289.1614
     -2535.7874                         10.5004          8.5004
  21672557.0274  -13220174.04947  -8311733.23646                  21672561.2464
       473.7664                         23.2504         20.7504
  24960308.8484    1221262.09442    450797.97845                  24960323.6204
      -739.0614                          4.2504          4.5004
  21514641.5504  -14138614.00747 -10376106.11546                  21514644.0144
      1687.1004                         24.7504         21.7504
 04  3  1  0 38  0.0010000  0  9G26G22G18G14G 6G17G 9G30G21
  23644999.9084    2926423.76245   3124692.52945                  23645003.6324
     -4156.5284                          8.5004          7.5004
  24412883.6634    -668473.94345   -424799.00145                  24412890.1674
       156.2544                         10.2504          6.7504
  22945666.2644   -3533302.64646   1214984.92946                  22945670.1544
      -323.7144                         17.0004         14.2504
  24221571.1774   -1883931.47345  -1263200.91545                  24221580.7424
      2149.8584                          8.7504          7.7504
  21717805.5474  -10022865.27947  -7654097.86446                  21717809.9834
     -2636.7014                         20.7504         19.2504
  23156798.1334    7302014.81045   4072527.45745                  23156803.3834
     -2549.2414                         10.5004          8.5004
  21669897.9044  -13234147.48147  -8322621.55546                  21669901.7194
       457.9684                         23.7504         21.0004
  24964499.2244    1243282.77443    467957.24245                  24964517.9194
      -728.7704                          6.0004          4.7504
  21505031.9964  -14189112.30547 -10415455.39446                  21505034.5524
      1679.6454                         25.7504         22.2504
 04  3  1  0 38 30.0010000  0  9G26G22G18G14G 6G17G 9G30G21
  23668732.2154    3051137.83145   3221872.38045                  23668736.4814
     -4157.5124                          8.0004          7.7504
  24411991.1544    -673163.75745   -428453.29445                  24411995.1184
       156.6464                          8.0004          7.5004
  22947508.3364   -3523622.30246   1222528.15046                  22947511.2794
      -321.3884                         16.5004         13.7504
  24209326.1764   -1948277.59745  -1313340.28045                  24209332.5454
      2140.1104                          8.2504          8.0004
  21732887.7244   -9943607.89547  -7592338.86346                  21732892.3584
     -2646.8654                         20.5004         19.0004
  23171389.9534    7378694.90645   4132278.10045                  23171396.2834
     -2562.4824                         11.5004          9.0004
  21667328.6994  -13247648.60347  -8333141.85746                  21667332.3164
       442.3214                         23.5004         21.2504
  24968630.2764    1264991.84243    484873.46745                  24968644.9894
      -718.2494                          5.5004          5.2504
  21495464.7624  -14239388.32747 -10454631.46746                  21495467.4724
      1672.3024                         26.7504         22.5004
 04  3  1  0 39  0.0010000  0  9G26G22G18G14G 6G17G 9G30G21
  23692470.9724    3175885.73445   3319078.60445                  23692474.5134
     -4158.7274                          9.0004          8.2504
  24411097.1194    -677861.42245   -432113.72645                  24411101.5214
       156.7794                          8.7504          7.5004
  22949338.0144   -3514006.80346   1230020.81646                  22949341.7704
      -319.3704                         16.5004         13.7504
  24197137.8364   -2012325.17945  -1363246.96145                  24197145.7814
      2129.9864                          9.0004          8.7504
  21748028.6434   -9864041.85747  -7530339.36446                  21748033.0904
     -2657.2604                         20.2504         18.7504
  23186058.3344    7455777.84645   4192342.69445                  23186064.2384
     -2576.0654                          9.7504          8.2504
  21664850.0894  -13260673.50047  -8343291.05146                  21664853.4614
       426.2574                         24.5004         21.5004
  24972702.1564    1286390.68542    501548.00544                  24972715.6144
      -708.0734                          4.5004          4.0004
  21485940.7044  -14289437.74447 -10493630.96846                  21485942.5104
      1664.5774                         27.0004         22.5004
 04  3  1  0 39 30.0010000  0  9G26G22G18G14G 6G17G 9G30G21
  23716215.8044    3300665.28745   3416309.51245                  23716219.5664
     -4159.6954                          8.7504          7.7504
  24410201.4064    -682567.68045   -435780.82345                  24410207.6404
       157.1844                          7.7504          7.5004
  22951155.1974   -3504456.90846   1237462.37246                  22951157.8104
      -317.1094                         15.2504         13.0004
  24185006.7084   -2076072.33045  -1412919.58445                  24185015.5634
      2119.9994                          9.0004          8.5004
  21763228.0224   -9784168.65747  -7468100.51646                  21763232.6874
     -2667.3994                         20.5004         19.0004
  23200803.4274    7533263.59045   4252721.12445                  23200806.9644
     -2589.4484                          9.2504          8.2504
  21662462.6134  -13273219.51447  -8353067.09546                  21662466.5634
       410.3184                         24.2504         21.5004
  24976714.9814    1307479.30642    517980.84045                  24976739.0394
      -697.6504                          4.7504          4.7504
  21476460.3554  -14339257.20947 -10532451.28846                  21476462.5364
      1656.9024                         26.5004         22.5004
 04  3  1  0 40  0.0010000  0  9G26G22G18G14G 6G17G 9G30G21
  23739966.3464    3425475.41045   3513564.16245                  23739968.8694
     -4160.9924                          8.2504          8.2504
  24409304.2494    -687282.26045   -439454.36845                  24409309.7494
       157.1644                          9.5004          7.5004
  22952960.1034   -3494971.45446   1244853.72646                  22952963.2484
      -315.2584                         15.7504         13.7504
  24172933.3424   -2139515.97845  -1462355.71045                  24172939.8144
      2109.5484                          7.7504          8.5004
  21778485.4014   -9703990.51847  -7405624.05646                  21778490.2634
     -2677.8094                         20.2504         18.7504
  23215625.4204    7611153.37445   4313414.41945                  23215631.0904
     -2603.2284                          9.5004          8.7504
  21660166.9784  -13285282.85547  -8362467.03846                  21660170.8084
       393.8864                         24.5004         21.5004
  24980669.1124    1328259.08242    534173.19044                  24980679.2234
      -687.6634                          3.7504          3.7504
  21467024.6354  -14388842.11547 -10571088.81946                  21467026.7164
      1648.7354                         27.7504         23.2504
 04  3  1  0 40 30.0010000  0  9G26G22G18G14G 6G17G 9G30G21
  23763721.9974    3550312.37245   3610839.76645                  23763722.1634
     -4161.8374                          9.0004          7.7504
  24408404.9674    -692007.51745   -443136.30145                  24408407.2144
       157.5444                          9.0004          8.0004
  22954752.4944   -3485552.16846   1252193.49646                  22954754.9024
      -313.0244                         16.2504         13.5004
  24160917.8244   -2202655.46445  -1511554.85445                  24160925.1824
      2099.4084                          7.5004          8.2504
  21793800.2384   -9623510.45947  -7342912.32946                  21793805.4264
     -2687.8244                         20.2504         18.7504
  23230524.0294    7689445.94045   4374421.52345                  23230530.0254
     -2616.5914                          9.7504          8.0004
  21657963.4934  -13296862.03647  -8371489.71646                  21657967.0064
       377.7154                         24.2504         21.5004
  24984564.3444    1348728.85843
      -677.3344                          5.5004
  21457633.9494  -14438190.45047 -10609542.01646                  21457636.2644
      1640.8154                         27.0004         23.0004
 04  3  1  0 41  0.0010000  0  9G26G22G18G14G 6G17G 9G30G21
  23787483.3094    3675178.72245   3708138.33545                  23787485.6464
     -4162.5654                          9.5004          8.2504
  24407504.4344    -696739.52245   -446823.41445                  24407507.7124
       157.9794                          8.0004          8.0004
  22956533.1604   -3476194.42646   1259485.31746                  22956536.2934
      -310.7684                         16.2504         13.2504
  24148961.5224   -2265484.14245  -1560511.78945                  24148969.9334
      2089.2284                          8.2504          8.2504
  21809172.9654   -9542726.19647  -7279963.55646                  21809177.7584
     -2697.7304                         20.7504         19.5004
  23245500.0754    7768145.69945   4435745.94845                  23245506.3294
     -2630.0054                          9.2504          8.0004
  21655853.5484  -13307949.54447  -8380129.26446                  21655857.7784
       361.4824                         24.5004         21.5004
  24988401.3374    1368893.53742
      -666.9094                          4.5004
  21448289.6724  -14487294.75347 -10647805.06346                  21448292.0164
      1632.8344                         27.0004         23.0004
 04  3  1  0 41 30.0010000  0 10G26G22G18G14G 6G17G 9G15G30G21
  23811249.0734    3800069.12245   3805455.50645                  23811252.2824
     -4163.2044                          8.2504          8.2504
  24406601.7264    -701482.34945   -450519.02845                  24406602.4464
       158.4804                          8.7504          7.7504
  22958301.4194   -3466901.76546   1266726.43746                  22958303.9874
      -308.4944                         16.0004         13.2504
  24137064.2354   -2328003.28245  -1609227.55245                  24137069.8134
      2078.9674                          9.2504          8.7504
  21824602.6054   -9461642.94347  -7216781.79746                  21824607.2804
     -2707.5524                         21.0004         19.5004
  23260553.1034    7847249.71945   4497385.39445                  23260559.7884
     -2643.3464                          9.7504          8.7504
  21653837.1274  -13318545.62847  -8388385.89146                  21653840.6484
       345.1614                         23.7504         21.5004
  24845617.7104
      2660.1434                          4.5004
  24992179.7324    1388750.02642
      -656.4864                          3.7504
  21438991.8924  -14536154.78247 -10685877.76346                  21438994.0204
      1624.7394                         27.5004         23.0004
 04  3  1  0 42  0.0010000  0 10G26G22G18G14G 6G17G 9G15G30G21
  23835017.0244    3924970.48645   3902781.31745                  23835020.1814
     -4163.4154                          9.0004          8.7504
  24405694.8544    -706247.61645   -454232.11045                  24405699.9204
       159.3424                          8.7504          7.0004
  22960055.2164   -3457685.20046   1273908.23046                  22960058.5404
      -305.8284                         15.7504         13.5004
  24125224.0724   -2390221.77745  -1657709.07145                  24125232.6514
      2069.0454                          8.0004          8.2504
  21840086.4754   -9380274.66547  -7153377.94246                  21840091.5344
     -2716.9084                         21.2504         19.2504
  23275681.0294    7926747.09845   4559331.34545                  23275688.0794
     -2656.3534                         10.0004          9.0004
  21651912.6794  -13328658.40747  -8396265.91746                  21651917.0414
       329.1224                         23.5004         21.2504
  24830420.7084     -77197.33243
      2663.9164                          5.7504
  24995897.4434    1408287.76343
      -645.8584                          5.0004
  21429739.1624  -14584777.99547 -10723765.94546                  21429740.9214
      1616.8944                         27.2504         23.0004
 04  3  1  0 42 30.0010000  0 10G26G22G18G14G 6G17G 9G15G30G21
  23858786.8184    4049882.04845   4000115.06345                  23858788.6604
     -4163.4164                          8.2504          7.5004
  24404783.7784    -711034.65445   -457962.12845                  24404786.4914
       160.3784                          9.5004          8.0004
  22961794.7404   -3448543.71346   1281031.56846                  22961797.6434
      -303.0444                         16.2504         12.7504
  24113441.8404   -2452136.31645  -1705953.76345                  24113446.4084
      2059.1864                          8.5004          7.5004
  21855624.5514   -9298621.57247  -7089752.16946                  21855629.3554
     -2726.0504                         21.7504         20.2504
  23290884.1024    8006639.26745   4621584.89945                  23290891.0294
     -2669.1954                         10.5004          9.7504
  21650080.9394  -13338283.99247  -8403766.31146                  21650085.1304
       313.1384                         23.2504         21.0004
  24815203.3204    -157164.48843
      2667.7774                          6.0004
  24999555.1714    1427508.53744
      -634.9384                          6.2504
  21420532.3824  -14633159.67147 -10761465.89446                  21420534.4724
      1609.1004                         27.0004         23.0004
 04  3  1  0 43  0.0010000  0 10G26G22G18G14G 6G17G 9G15G30G21
  23882558.4464    4174803.58645   4097456.61345                  23882561.6694
     -4164.3424                          7.5004          7.7504
  24403868.8494    -715842.52045   -461708.41045                  24403874.1794
       160.4704                         10.2504          7.7504
  22963520.3434   -3439475.32546   1288097.89546                  22963523.0534
      -301.2114                         15.2504         13.2504
  24101718.1354   -2513743.21245  -1753958.77945                  24101723.3764
      2048.2564                          8.0004          7.2504
  21871216.6724   -9216684.59447  -7025905.18846                  21871222.1484
     -2736.0954                         22.2504         20.2504
  23306162.5904    8086927.91745   4684147.40345                  23306169.9624
     -2683.0724                         10.5004          8.7504
  21648342.7574  -13347417.91647  -8410883.58946                  21648346.6174
       296.0724                         23.5004         21.2504
  24799966.3034    -237235.09344    -27044.78055                  24799970.7244
      2670.5714                          6.7504          5.0004
  25003152.7924    1446414.29043        -1.47354                  25003175.9814
      -625.1044                          5.2504          4.2504
  21411372.5424  -14681294.62747 -10798973.59646                  21411374.4464
      1600.1884                         26.5004         23.2504
 04  3  1  0 43 30.0010000  0 10G26G22G18G14G 6G17G 9G15G30G21
  23906332.4814    4299737.67845   4194807.85345                  23906333.8434
     -4164.4924                          8.0004          8.2504
  24402950.7504    -720667.11245   -465467.67845                  24402955.1794
       161.2604                         10.5004          8.0004
  22965232.8114   -3430476.00146   1295110.43546                  22965235.5704
      -298.6694                         16.0004         13.7504
  24090054.2734   -2575035.72945  -1801718.77745                  24090062.1744
      2037.9944                          8.5004          7.0004
  21886863.2634   -9134461.29247  -6961835.09146                  21886868.3924
     -2745.3574                         21.0004         19.5004
  23321517.4594    8167617.84445   4747022.62245                  23321523.9934
     -2696.1854                         10.0004          8.7504
  21646699.5754  -13356052.50147  -8417611.78646                  21646703.7104
       279.6344                         23.2504         21.0004
  24784710.9554    -317402.18344    -89512.45145                  24784718.4704
      2673.9884                          6.7504          5.7504
  25006691.2684    1465010.02043     14488.98843                  25006713.4884
      -614.5234                          5.5004          3.0004
  21402261.2894  -14729174.49847 -10836282.54146                  21402263.3124
      1591.8624                         27.5004         23.2504
 04  3  1  0 44  0.0010000  0 10G26G22G18G14G 6G17G 9G15G30G21
  23930107.9254    4424678.83745   4292164.69745                  23930112.5364
     -4164.8574                          8.0004          8.0004
  24402028.6074    -725512.51545   -469243.23745                  24402031.9554
       161.8204                          9.2504          8.2504
  22966931.5294   -3421548.89546   1302066.68746                  22966934.7454
      -296.4184                         15.7504         13.5004
  24078449.9884   -2636015.25345  -1849234.91045                  24078455.3204
      2027.3654                          8.5004          7.2504
  21902563.3404   -9051957.02947  -6897546.07446                  21902568.1654
     -2754.8484                         20.5004         19.5004
  23336948.0004    8248705.54345   4810207.75445                  23336954.0124
     -2709.6344                         10.7504          9.0004
  21645151.2914  -13364188.42147  -8423951.39546                  21645155.6114
       262.7924                         23.5004         21.2504
  24769436.8504    -397666.81644   -152056.09745                  24769444.1784
      2677.0534                          6.2504          4.7504
  25010170.2684    1483292.91743
      -604.2644                          6.0004
  21393198.5424  -14776799.34047 -10873392.76346                  21393200.5324
      1583.1644                         26.5004         23.0004
 04  3  1  0 44 30.0010000  0 10G26G22G18G14G 6G17G 9G15G30G21
  23953884.8094    4549627.42045   4389527.26545                  23953887.9684
     -4164.8154                          8.7504          8.2504
  24401102.7274    -730377.30745   -473033.76945                  24401106.5924
       162.6764                          9.0004          8.7504
  22968616.9044   -3412691.81146   1308968.38646                  22968620.1874
      -293.8514                         15.5004         13.5004
  24066906.0234   -2696677.45145  -1896503.79945                  24066909.8124
      2016.9884                          7.7504          7.2504
  21918316.9174   -8969171.47447  -6833037.86846                  21918321.4224
     -2763.9454                         20.2504         18.7504
  23352454.7104    8330193.43845   4873704.76945                  23352460.7564
     -2722.7214                          9.5004          8.7504
  21643698.8874  -13371820.64447  -8429898.52746                  21643703.2484
       246.1934                         24.2504         21.5004
  24754145.1534    -478024.15944   -214672.02145                  24754149.2224
      2680.3254                          6.7504          5.7504
  25013590.4044    1501265.41543
      -593.7124                          5.7504
  21384185.3334  -14824163.75247 -10910300.03446                  21384187.8644
      1574.6524                         27.5004         23.5004
 04  3  1  0 45  0.0010000  0 10G26G22G18G14G 6G17G 9G15G30G21
  23977660.7644    4674571.01445   4486886.01245                  23977664.6464
     -4165.0864                          9.0004          7.5004
  24400171.1334    -735272.31045   -476847.93845                  24400172.5354
       163.2874                          9.0004          7.7504
  22970287.0294   -3403914.75846   1315807.71446                  22970289.7854
      -291.6454                         15.0004         13.2504
  24055420.8994   -2757030.68445  -1943531.93145                  24055426.5844
      2006.1854                          8.2504          7.2504
  21934121.5084   -8886117.79546  -6768320.72046                  21934126.4424
     -2773.3094                         18.7504         18.0004
  23368035.5064    8412071.08345   4937505.51845                  23368042.3174
     -2736.1724                          9.0004          8.0004
  21642340.9104  -13378956.71247  -8435459.04546                  21642345.0244
       229.1644                         24.5004         22.0004
  24738834.3704    -558482.12645   -277366.39645                  24738840.9834
      2683.1604                          7.5004          6.5004
  25016949.4494    1518918.00741
      -583.5144                          3.2504
  21375220.5274  -14871274.05247 -10947009.31446                  21375222.7144
      1565.6614                         27.0004         23.5004
 04  3  1  0 45 30.0010000  0 10G26G22G18G14G 6G17G 9G15G30G21
  24001436.8874    4799515.68145   4584245.58245                  24001440.2304
     -4164.7534                          8.7504          8.0004
  24399235.0674    -740190.40245   -480680.04145                  24399241.3894
       164.3984                          9.2504          7.7504
  22971943.4134   -3395210.22346   1322590.56046                  22971947.4624
      -288.8724                         16.0004         13.0004
  24043996.4424   -2817065.03045  -1990311.57145                  24044001.2314
      1995.8984                          7.7504          8.0004
  21949978.2394   -8802790.07546  -6703390.05246                  21949983.0854
     -2782.0644                         19.5004         17.7504
  23383692.0164    8494346.53145   5001616.17745                  23383698.5054
     -2749.0964                          7.7504          8.2504
  21641079.3284  -13385586.21047  -8440624.82346                  21641083.2854
       212.5704                         23.2504         21.5004
  24723506.4494    -639030.37545   -340131.13145                  24723513.0644
      2686.4964                          8.0004          7.2504
  25020249.2004    1536258.68843
      -572.7714                          5.7504
  21366306.1194  -14918119.43248 -10983512.15046                  21366307.9544
      1557.1144                         28.5004         24.0004
 04  3  1  0 46  0.0010000  0 10G26G22G18G14G 6G17G 9G15G30G21
  24025211.5534    4924452.43145   4681598.92945                  24025214.8804
     -4164.3994                          8.7504          7.7504
  24398293.2884    -745139.16345   -484536.11345                  24398298.2034
       165.4624                         10.2504          8.7504
  22973584.5854   -3386585.46146   1329311.25746                  22973587.9694
      -286.1534                         15.5004         13.2504
  24032631.6224   -2876785.82945  -2036846.92245                  24032639.4424
      1985.4544                          8.0004          7.0004
  21965885.3424   -8719197.68146  -6638253.14046                  21965890.2424
     -2790.7894                         19.2504         18.0004
  23399422.8554    8577012.55845   5066031.19645                  23399429.0574
     -2762.0354                          8.7504          8.0004
  21639913.3204  -13391713.43947  -8445399.23046                  21639917.2184
       195.8594                         23.5004         21.5004
  24708160.3324    -719673.53344   -402969.74845                  24708165.9854
      2689.6624                          6.5004          7.0004
  25023488.4644    1553281.01244
      -562.0924                          7.2504
  21357441.4524  -14964703.42747 -11019811.31446                  21357443.3974
      1548.4064                         27.7504         24.0004
 04  3  1  0 46 30.0010000  0 10G26G22G18G14G 6G17G 9G15G30G21
  24048985.0764    5049383.29145   4778947.73445                  24048988.4094
     -4164.1344                          9.2504          7.5004
  24397346.2334    -750115.14245   -488413.29645                  24397350.4534
       166.3954                         10.2504          8.7504
  22975211.3824   -3378036.14146   1335973.13546                  22975215.4594
      -283.6284                         15.5004         13.2504
  24021327.6224   -2936187.16545  -2083133.31745                  24021333.5424
      1974.7734                          8.2504          6.5004
  21981843.1614   -8635338.93347  -6572908.67746                  21981847.9194
     -2799.6294                         20.5004         18.2504
  23415228.7654    8660073.11345   5130753.62345                  23415235.3134
     -2775.1634                          8.2504          7.7504
  21638844.1714  -13397331.59447  -8449776.95346                  21638848.4954
       178.8374                         22.2504         21.2504
  24692797.4114    -800405.00344   -465877.22045                  24692802.1934
      2692.5464                          6.5004          6.2504
  25026668.0074    1569989.32343
      -551.6144                          5.2504
  21348628.0494  -15011018.14148 -11055900.63146                  21348629.9254
      1539.3954                         29.7504         24.5004
 04  3  1  0 47  0.0010000  0  9G26G22G18G14G 6G17G 9G15G21
  24072756.2304    5174301.75645   4876286.87745                  24072759.7424
     -4163.9374                          8.2504          7.2504
  24396392.9884    -755123.75245   -492315.92645                  24396396.1284
       167.2954                          9.5004          9.0004
  22976822.9334   -3369567.04246   1342572.51046                  22976825.5934
      -281.1684                         15.0004         13.7504
  24010083.9084   -2995271.27145  -2129172.53045                  24010089.7654
      1963.9484                          7.7504          7.0004
  21997850.4744   -8551220.07547  -6507361.53146                  21997855.5874
     -2808.4864                         21.0004         18.5004
  23431108.8434    8743523.67345   5195779.93745                  23431114.8344
     -2788.4124                          8.0004          7.5004
  21637871.5364  -13402442.57047  -8453759.46346                  21637875.5594
       161.6764                         23.5004         21.2504
  24677417.4364    -881226.70245   -528855.07945                  24677422.1444
      2695.3284                          7.5004          6.0004
  21339865.5384  -15057065.36248 -11091781.53646                  21339867.1104
      1530.1944                         28.2504         24.0004
 04  3  1  0 47 30.0010000  0 10G26G22G18G14G 6G17G 9G15G30G21
  24096525.9694    5299213.06745   4973620.46545                  24096530.4474
     -4163.5154                          7.5004          6.2504
  24395434.7794    -760158.23745   -496238.79245                  24395438.8014
       168.3424                          9.0004          8.2504
  22978420.5824   -3361170.95046   1349115.01746                  22978423.7404
      -278.5944                         16.5004         13.5004
  23998902.3114   -3054029.13344  -2174957.53145                  23998907.3794
      1953.2074                          7.0004          6.2504
  22013908.1764   -8466836.53347  -6441608.13046                  22013912.6974
     -2817.1084                         20.5004         18.2504
  23447064.5964    8827371.28145   5261115.71545                  23447071.7974
     -2801.4594                          9.0004          7.7504
  21636997.2714  -13407036.70847  -8457339.23346                  21637001.2794
       144.5584                         23.7504         21.5004
  24662022.1814    -962128.75445   -591895.43945                  24662031.2264
      2698.1154                          7.7504          6.0004
  25032847.0444       6393.82552
      -530.7364                          4.7504
  21331155.9644  -15102834.17548 -11127445.48346                  21331157.8204
      1521.0074                         28.7504         24.2504
 04  3  1  0 48  0.0010000  0 10G26G22G18G14G 6G17G 9G15G30G21
  24120292.4154    5424106.86645   5070940.29745                  24120293.9314
     -4162.9694                          7.7504          6.0004
  24394469.9234    -765227.85845   -500188.99245                  24394471.6374
       169.4134                         10.7504          8.2504
  22980002.7154   -3352856.50846   1355593.88646                  22980004.9454
      -275.9424                         15.7504         13.5004
  23987781.5504   -3112467.62045  -2220493.69245                  23987790.3014
      1942.4634                          8.2504          7.0004
  22030014.1214   -8382199.33047  -6375657.07746                  22030019.1494
     -2825.6064                         20.5004         18.5004
  23463094.2744    8911607.45345   5326754.23145                  23463100.7944
     -2814.5064                          8.0004          7.7504
  21636220.2784  -13411119.76447  -8460520.77746                  21636223.8634
       127.3974                         24.7504         21.7504
  24646610.5094   -1043117.40645   -655003.37045                  24646616.0604
      2700.8614                          7.7504          6.5004
  25035846.7204      22155.69543
      -520.2244                          5.7504
  21322498.4604  -15148329.46748 -11162896.29546                  21322500.4624
      1511.7554                         28.5004         24.7504
 04  3  1  0 48 30.0010000  0 10G26G22G18G14G 6G17G 9G15G30G21
  24144055.9184    5548984.48745   5168247.67245                  24144058.1294
     -4162.2954                          9.0004          7.7504
  24393498.9444    -770329.81345   -504164.37945                  24393502.5134
       170.5794                          9.7504          9.0004
  22981569.9714   -3344620.21846   1362011.88146                  22981573.2954
      -273.2564                         15.7504         13.0004
  23976722.7104   -3170581.24645  -2265776.66945                  23976730.0094
      1931.6804                          8.5004          7.7504
  22046168.6174   -8297306.87746  -6309507.13546                  22046173.9044
     -2833.9784                         19.5004         17.5004
  23479198.5164    8996235.19445   5392697.85745                  23479203.4694
     -2827.4454                          9.0004          7.5004
  21635541.6564  -13414685.88147  -8463299.50146                  21635544.7364
       110.2174                         25.0004         22.2504
  24631183.5094   -1124186.34945   -718173.77245                  24631191.3184
      2703.5964                          7.5004          6.2504
  25038786.2294      37603.29542
      -509.6764                          4.0004
  21313894.3374  -15193544.25248 -11198128.53846                  21313895.8754
      1502.4404                         28.7504         24.5004
 04  3  1  0 49  0.0010000  0 10G26G22G18G14G 6G17G 9G15G30G21
  24167815.4894    5673841.93344   5265539.27945                  24167818.6454
     -4161.3624                          6.7504          7.0004
  24392521.1754    -775467.11145   -508167.33645                  24392523.4074
       172.0604                          9.7504          8.0004
  22983122.0404   -3336463.68946   1368367.70546                  22983124.2334
      -270.3384                         16.7504         13.5004
  23965725.6214   -3228370.50745  -2310807.00445                  23965731.6244
      1921.1004                          9.2504          7.7504
  22062370.6904   -8212164.42046  -6243162.38146                  22062375.6454
     -2842.0324                         19.2504         17.5004
  23495376.7224    9081252.04445   5458944.78245                  23495390.3154
     -2840.1644                          8.5004          7.5004
  21634961.4044  -13417734.93647  -8465675.31846                  21634964.8304
        93.1884                         25.2504         22.2504
  24615741.2164   -1205335.53944   -781406.76544                  24615746.6794
      2706.4804                          7.0004          4.0004
  25041665.2924      52734.68143
      -498.9034                          5.5004
  21305343.6934  -15238477.90748 -11233141.70846                  21305345.1934
      1493.2704                         28.0004         24.0004
 04  3  1  0 49 30.0010000  0 10G26G22G18G14G 6G17G 9G15G30G21
  24191569.9414    5798672.34444   5362809.74445                  24191570.9284
     -4160.5534                          7.2504          7.2504
  24391535.6724    -780645.21645   -512202.04645                  24391539.5374
       173.2584                         10.7504          8.7504
  22984657.9614   -3328392.13546   1374657.32246                  22984660.0584
      -267.6654                         16.0004         13.7504
  23954789.7044   -3285838.39245  -2355586.83245                  23954795.5454
      1910.2074                          9.5004          8.0004
  22078619.2054   -8126778.11647  -6176627.61746                  22078623.5084
     -2850.2384                         20.7504         18.2504
  23511628.0134    9166653.17945
     -2853.1534                          7.5004
  21634479.1074  -13420269.06847  -8467649.89446                  21634482.3034
        75.8314                         24.7504         21.5004
  24600283.1874   -1286567.38844   -844704.14445                  24600291.0314
      2709.0634                          7.2504          4.7504
  25044483.6074      67545.66743      8052.55255                  25044496.9384
      -488.4094                          6.0004          4.7504
  21296846.3044  -15283131.52447 -11267936.66146                  21296848.0574
      1483.7274                         27.7504         24.2504
 04  3  1  0 50  0.0010000  0 10G26G22G18G14G 6G17G 9G15G30G21
  24215320.2054    5923481.35044   5460063.63145                  24215325.8724
     -4160.0104                          6.5004          6.0004
  24390543.7784    -785857.12145   -516263.13045                  24390548.7324
       174.2294                         10.0004          9.2504
  22986179.1044   -3320398.28446   1380886.36446                  22986181.5594
      -265.2354                         16.7504         13.7504
  23943916.5734   -3342975.81245  -2400109.22745                  23943921.9334
      1898.9814                          8.7504          7.2504
  22094914.9324   -8041143.61947  -6109899.45846                  22094919.5204
     -2858.6784                         20.5004         18.5004
  23527953.8044    9252445.87645
     -2866.3554                          8.2504
  21634096.6894  -13422278.30547  -8469215.46446                  21634100.1804
        58.1214                         23.2504         21.5004
  24584811.3314   -1367871.65544   -908057.90845                  24584817.4524
      2711.2534                          6.5004          6.0004
  25047242.5484      82044.25343     19350.08844                  25047257.3934
      -478.1704                          6.0004          4.0004
  21288404.2904  -15327494.24148 -11302504.94146                  21288405.7604
      1473.8044                         28.2504         24.2504
 04  3  1  0 50 30.0010000  0 10G26G22G18G14G 6G17G 9G15G30G21
  24239065.7194    6048265.51644   5557298.13745                  24239067.6324
     -4159.2694                          6.5004          5.7504
  24389544.9694    -791105.36145   -520352.49645                  24389549.7284
       175.3044                         10.2504          8.5004
  22987685.1504   -3312483.59746   1387053.74546                  22987687.4914
      -262.7864                         16.7504         14.0004
  23933106.3454   -3399782.34545  -2444373.72645                  23933111.3944
      1887.7444                          8.7504          7.0004
  22111257.3054   -7955264.02447  -6042980.30846                  22111261.7034
     -2866.9654                         20.5004         18.2504
  23544353.7304    9338628.05545     13453.32455                  23544361.1394
     -2879.4634                          8.0004          6.2504
  21633814.3414  -13423761.65147  -8470371.25046                  21633817.7534
        40.3924                         24.0004         21.5004
  24569325.8914   -1449247.56243   -971467.55545                  24569332.9544
      2713.4404                          6.0004          6.2504
  25049941.7884      96229.36843     30403.54444                  25049960.1324
      -467.8604                          5.2504          3.7504
  21280017.9454  -15371564.36047 -11336845.22446                  21280019.6924
      1463.8164                         27.0004         24.2504
 04  3  1  0 51  0.0010000  0 10G26G22G18G14G 6G17G 9G15G30G21
  24262805.8494    6173021.17943   5654510.34845                  24262810.4734
     -4158.4054                          6.0004          6.2504
  24388538.8334    -796392.04545   -524471.80345                  24388541.2214
       176.4884                         11.2504          9.0004
  22989175.8214   -3304649.68446   1393158.18646                  22989178.3854
      -260.1704                         16.2504         13.5004
  23922359.1204   -3456258.00545  -2488380.45545                  23922365.1424
      1876.5894                          9.7504          8.0004
  22127645.3704   -7869144.11646  -5975873.92246                  22127650.2854
     -2875.0234                         19.2504         18.2504
  23560827.4904    9425197.95645     80910.26945                  23560834.1424
     -2892.5064                          8.5004          7.7504
  21633632.2064  -13424718.50247  -8471116.78846                  21633635.1524
        22.7144                         24.2504         21.5004
  24553826.9124   -1530694.04443  -1034932.16445                  24553833.2234
      2715.6314                          5.5004          6.2504
  25052581.0324     110099.88242
      -457.4824                          4.5004
  21271687.6494  -15415340.02648 -11370956.06446                  21271689.1434
      1453.8634                         28.2504         24.2504
 04  3  1  0 51 30.0010000  0 10G26G22G18G14G 6G17G 9G15G30G21
  24286540.8684    6297750.36444   5751701.97645                  24286543.9694
     -4156.9654                          6.2504          6.7504
  24387526.0394    -801714.05245   -528618.69745                  24387529.8364
       178.1914                         11.0004          9.0004
  22990651.8524   -3296892.59046   1399202.73146                  22990654.2584
      -257.1014                         17.7504         13.7504
  23911676.0014   -3512397.25645  -2532125.06545                  23911681.5294
      1865.8664                          9.5004          8.5004
  22144079.5554   -7782781.90746  -5908578.72046                  22144084.4804
     -2882.5584                         19.5004         18.0004
  23577375.7144    9512159.09245    148672.08645                  23577383.8544
     -2905.0364                          8.5004          7.5004
  21633551.3854  -13425142.93547  -8471447.44546                  21633554.8624
         5.4364                         25.0004         21.7504
  24538315.7424   -1612204.92943  -1098446.97045                  24538322.4094
      2718.2864                          5.7504          5.5004
  25055161.3704     123660.01342
      -446.6494                          4.0004
  21263414.7684  -15458813.97747 -11404831.80946                  21263416.7794
      1444.2574                         26.5004         24.2504
 04  3  1  0 52  0.0010000  0 10G26G22G18G14G 6G17G 9G15G30G21
  24310271.1134    6422453.78044   5848873.47245                  24310274.5904
     -4156.4744                          6.2504          6.7504
  24386506.8834    -807069.28745   -532791.42345                  24386509.0604
       178.9224                         11.7504          9.2504
  22992113.8414   -3289209.49046   1405189.63046                  22992116.1404
      -255.0004                         16.2504         14.2504
  23901057.7214   -3568195.62745  -2575604.05445                  23901063.6274
      1854.1064                          8.7504          7.7504
  22160559.8154   -7696177.62246  -5841094.88846                  22160565.4054
     -2890.9574                         19.5004         18.2504
  23593998.8744    9599513.84545    216740.67445                  23594004.0714
     -2918.5204                          9.5004          8.0004
  21633572.9044  -13425029.69947  -8471359.15746                  21633576.1444
       -12.9074                         24.7504         21.5004
  24522793.3134   -1693774.74843  -1162007.70445                  24522799.2104
      2719.8214                          5.7504          6.0004
  25057683.4414     136913.29341
      -436.7754                          3.0004
  21255200.4244  -15501980.31448 -11438467.84046                  21255202.4244
      1433.5664                         28.2504         24.7504
 04  3  1  0 52 30.0010000  0  9G26G22G18G14G 6G17G 9G15G21
  24333994.9424    6547123.64143   5946018.87945                  24333999.1094
     -4155.1364                          5.7504          6.5004
  24385480.1234    -812464.50145   -536995.40245                  24385480.5074
       180.4014                         11.5004          8.5004
  22993560.5574   -3281606.60646   1411114.04046                  22993563.2054
      -252.1864                         17.0004         13.7504
  23890503.3944   -3623657.41744  -2618820.81445                  23890508.3534
      1843.0084                          7.2504          7.2504
  22177084.5964   -7609339.49647  -5773428.84146                  22177089.6014
     -2898.5724                         20.0004         18.5004
  23610695.7414    9687255.93145    285111.08545                  23610701.1684
     -2931.2764                          8.7504          7.2504
  21633696.0454  -13424382.39647  -8470854.69746                  21633699.7764
       -30.5884                         25.0004         21.7504
  24507259.2234   -1775406.72844  -1225616.91045                  24507266.9184
      2721.9694                          7.0004          6.5004
  21247044.0864  -15544841.71447 -11471866.28346                  21247046.4704
      1423.5004                         26.7504         24.5004
 04  3  1  0 53  0.0010000  0  9G26G22G18G14G 6G17G 9G15G21
  24357711.3044    6671754.31043   6043133.74545                  24357715.9574
     -4153.7464                          5.5004          6.0004
  24384444.8404    -817904.13945   -541233.92945                  24384448.8274
       181.9894                         10.5004          9.0004
  22994991.3934   -3274087.53046   1416973.11346                  22994993.9644
      -249.3124                         16.5004         13.7504
  23880012.7644   -3678784.82345  -2661776.95545                  23880016.6084
      1831.9304                          8.2504          7.0004
  22193652.8474   -7522272.90047  -5705584.76246                  22193657.7674
     -2906.0914                         20.0004         17.7504
  23627465.5094    9775380.99145    353779.88445                  23627472.4794
     -2943.9554                          9.5004          7.7504
  21633920.4944  -13423202.65147  -8469935.34546                  21633923.9344
       -48.3014                         24.7504         22.0004
  24491712.9534   -1857102.44544  -1289275.73245                  24491721.3764
      2724.1334                          6.5004          7.0004
  21238945.7244  -15587398.59748 -11505027.44746                  21238947.4514
      1413.3774                         28.5004         24.5004
 04  3  1  0 53 30.0010000  0  9G26G22G18G14G 6G17G 9G15G21
  24381419.9424    6796344.83843   6140217.32945                  24381431.9414
     -4152.2384                          5.0004          5.0004
  24383401.2784    -823387.58045   -545506.62045                  24383403.1824
       183.6254                         10.7504          8.5004
  22996406.4544   -3266651.15546   1422767.77446                  22996409.3034
      -246.4094                         16.5004         13.5004
  23869586.3814   -3733574.97645  -2704470.35045                  23869592.1764
      1820.8034                          9.0004          8.2504
  22210264.2534   -7434979.53046  -5637563.97146                  22210269.1714
     -2913.4404                         18.7504         17.5004
  23644308.2314    9863889.81945    422747.67245                  23644313.9704
     -2956.5894                          8.7504          6.7504
  21634246.9494  -13421486.89047  -8468598.32746                  21634250.3334
       -66.0464                         25.0004         21.7504
  24476155.3794   -1938858.00244  -1352981.25145                  24476159.9624
      2726.2534                          7.2504          6.7504
  21230906.2054  -15629646.44747 -11537947.80146                  21230908.0504
      1403.1704                         27.7504         25.0004
 04  3  1  0 54  0.0010000  0  9G26G22G18G14G 6G17G 9G15G21
  24405120.8394    6920894.36143   6237268.97345                  24405121.1374
     -4150.9074                          6.0004          6.5004
  24382349.2724    -828914.72545   -549813.33545                  24382351.1634
       184.9914                          9.5004          8.0004
  22997805.8994   -3259296.62746   1428498.65046                  22997808.2394
      -243.7734                         16.0004         13.5004
  23859224.5864   -3788025.46145  -2746899.09445                  23859230.4154
      1809.3634                          9.5004          8.0004
  22226918.4354   -7347461.23946  -5569367.93646                  22226923.2094
     -2920.9964                         17.7504         17.0004
  23661224.0754    9952782.66445    492014.77745                  23661232.8934
     -2969.4744                          9.0004          7.2504
  21634675.9694  -13419232.17947  -8466841.35546                  21634679.1804
       -84.1524                         25.2504         21.7504
  24460586.9254   -2020670.01044  -1416730.70345                  24460594.5424
      2727.9784                          6.2504          5.7504
  21222926.3024  -15671581.05548 -11570624.07346                  21222928.1034
      1392.5834                         28.7504         24.7504
 04  3  1  0 54 30.0010000  0 10G26G22G18G14G 6G17G 9G15G30G21
  24428813.1014    7045398.19143   6334285.05345                  24428820.9094
     -4149.6774                          6.0004          5.0004
  24381288.4284    -834488.99345   -554156.82045                  24381291.4554
       186.2814                         10.7504          8.7504
  22999189.2394   -3252026.58746   1434163.69946                  22999192.4314
      -241.2594                         15.0004         13.0004
  23848927.3754   -3842137.39845  -2789064.04945                  23848931.6844
      1797.7394                         11.7504          8.7504
  22243614.5114   -7259722.79146  -5501000.34546                  22243619.8204
     -2928.5714                         18.7504         17.2504
  23678212.3904   10042056.63245    561578.79545                  23678219.5404
     -2982.4544                          8.2504          8.0004
  21635207.4954  -13416438.80647  -8464664.64146                  21635210.7044
      -102.4514                         24.5004         21.7504
  24445007.7824   -2102538.60445  -1480524.19045                  24445012.7014
      2729.5534                          7.5004          6.7504
  25069398.3324        768.20052
      -384.5304                          3.7504
  21215006.1404  -15713201.57847 -11603055.60146                  21215007.8174
      1381.7684                         27.7504         25.0004
 04  3  1  0 55  0.0010000  0 10G26G22G18G14G 6G17G 9G15G30G21
  24452497.3414    7169859.74943   6431268.12745                  24452501.1404
     -4147.8584                          6.0004          5.5004
  24380219.4034    -840106.14645   -558533.65945                  24380221.8634
       188.0804                          8.2504          8.2504
  23000557.5064   -3244835.87846   1439766.93446                  23000560.2604
      -238.2464                         16.0004         13.7504
  23838695.7724   -3895904.25845  -2830960.10345                  23838700.8804
      1786.5764                         10.5004          9.2504
  22260352.9374   -7171761.88346  -5432459.42146                  22260357.7454
     -2935.6004                         18.7504         17.0004
  23695274.1204   10131716.16845    631443.26245                  23695280.7224
     -2994.9064                          9.0004          7.5004
  21635842.8734  -13413099.61547  -8462062.59946                  21635845.8324
      -120.2974                         25.5004         21.7504
  24429419.2894   -2184456.18145  -1544355.91845                  24429427.5784
      2731.4974                          7.5004          6.7504
  25071562.4164      12142.64743
      -373.8384                          5.5004
  21207147.2394  -15754500.18047 -11635236.29346                  21207149.0524
      1371.3494                         27.0004         25.2504
 04  3  1  0 55 30.0010000  0 10G26G22G18G14G 6G17G 9G15G30G21
  24476172.6384    7294274.04744   6528214.43345                  24476178.3184
     -4146.2204                          7.2504          6.7504
  24379141.5434    -845769.67045   -562946.64745                  24379144.3984
       189.6944                         10.5004          8.5004
  23001910.1504   -3237727.42146   1445306.07146                  23001913.2694
      -235.4364                         16.5004         13.7504
  23828529.5264   -3949327.39145  -2872588.34145                  23828534.3024
      1775.1414                         10.0004          8.5004
  22277132.7454   -7083583.45646  -5363748.98846                  22277137.7584
     -2942.7564                         17.0004         16.5004
  23712408.5444   10221757.78945    701605.46345                  23712415.6844
     -3007.6234                          9.0004          7.7504
  21636581.9124  -13409215.72247  -8459036.12946                  21636584.8544
      -138.4364                         24.7504         21.7504
  24413821.3414   -2266423.19944  -1608226.12945                  24413824.3864
      2733.1764                          7.0004          5.7504
  25073667.7354      23205.53242
      -363.4534                          4.5004
  21199349.6964  -15795476.39548 -11667165.77846                  21199351.7764
      1360.5874                         28.2504         25.5004
 04  3  1  0 56  0.0010000  0 10G26G22G18G14G 6G17G 9G15G30G21
  24499837.6504    7418634.49744   6625118.72745                  24499842.1934
     -4144.5074                          7.2504          6.0004
  24378053.9114    -851484.96945   -567400.01545                  24378054.6104
       191.2904                         10.2504          8.5004
  23003246.1894   -3230706.11846   1450777.30546                  23003249.2614
      -232.6784                         15.5004         13.5004
  23818428.0394   -4002410.00545  -2913951.19945                  23818433.4634
      1763.6474                          9.7504          9.0004
  22293952.5174   -6995195.03546  -5294874.91746                  22293957.7704
     -2949.8614                         17.0004         16.0004
  23729614.6684   10312176.28545    772061.28945                  23729620.2614
     -3020.3124                          8.5004          8.0004
  21637424.1244  -13404789.53647  -8455587.08446                  21637427.4444
      -156.6844                         24.5004         22.0004
  24398213.5714   -2348441.64343  -1672136.36645                  24398219.2204
      2734.6974                          5.7504          6.2504
  25075712.6064      33952.64942
      -353.0624                          4.5004
  21191613.2144  -15836131.69448 -11698845.18947                  21191615.1934
      1349.7054                         28.2504         25.7504
 04  3  1  0 56 30.0010000  0 10G26G22G18G14G 6G17G 9G15G30G21
  24523492.3384    7542940.73444   6721980.75145                  24523496.1454
     -4142.6034                          6.5004          5.5004
  24376956.5154    -857251.29445   -571893.09845                  24376959.7904
       193.1034                          9.2504          8.7504
  23004565.9704   -3223770.03146   1456182.11746                  23004569.8354
      -229.7524                         15.2504         13.7504
  23808391.9194   -4055149.21545  -2955046.51945                  23808397.0574
      1752.2594                         10.7504          9.0004
  22310812.2354   -6906596.70246  -5225837.29546                  22310817.3394
     -2956.6904                         17.2504         16.2504
  23746892.6884   10402972.48545    842811.47745                  23746899.6754
     -3032.8124                          8.0004          7.7504
  21638370.1504  -13399817.73347  -8451712.88146                  21638373.4604
      -174.8204                         24.2504         21.5004
  24382596.7904   -2430507.53344  -1736083.64045                  24382599.7014
      2736.2984                          7.2504          5.5004
  25077697.7964      44386.03943
      -342.5314                          5.0004
  21183938.7374  -15876461.18748 -11730270.72246                  21183940.1994
      1338.8584                         28.5004         25.2504
 04  3  1  0 57  0.0010000  0 10G26G22G18G14G 6G17G 9G15G30G21
  24547136.6014    7667192.47143   6818800.40045                  24547139.2944
     -4140.7194                          5.7504          4.7504
  24375849.5794    -863067.76445   -576425.30345                  24375849.9684
       194.8234                         10.0004          8.0004
  23005869.8014   -3216917.88946   1461521.52646                  23005873.2344
      -226.9244                         15.7504         14.5004
  23798421.8634   -4107541.82245  -2995871.73245                  23798425.0104
      1740.7324                         10.5004          8.7504
  22327711.5424   -6817790.34946  -5156637.57046                  22327715.7884
     -2963.5574                         18.2504         16.2504
  23764242.6604   10494147.31244    913856.66245                  23764250.5524
     -3045.4044                          7.2504          7.0004
  21639420.6914  -13394296.75147  -8447410.75946                  21639423.9974
      -193.1264                         24.2504         21.5004
  24366971.7764   -2512616.35844  -1800064.32745                  24366976.2644
      2737.7354                          7.2504          6.7504
  25079624.0064      54507.89643
      -332.1324                          5.0004
  21176327.1994  -15916460.04548 -11761438.62146                  21176328.3794
      1327.8464                         28.5004         25.5004
 04  3  1  0 57 30.0010000  0 10G26G22G18G14G 6G17G 9G15G30G21
  24570770.0054    7791387.40943   6915575.69745                  24570772.0504
     -4139.0944                          5.5004          4.7504
  24374732.9864    -868935.39845   -580997.27045                  24374735.8344
       196.2444                         10.7504          8.5004
  23007157.6454   -3210149.75646   1466795.46846                  23007161.0074
      -224.4054                         15.7504         13.7504
  23788517.9024   -4159586.76145  -3036426.05545                  23788523.1794
      1728.7954                         10.0004          8.7504
  22344649.9854   -6728778.52646  -5087277.72746                  22344655.2074
     -2970.6784                         18.7504         17.0004
  23781664.5974   10585699.83945    985196.18345                  23781671.3714
     -3058.2664                          8.0004          6.0004
  21640576.0674  -13388224.97847  -8442679.44346                  21640579.3454
      -211.8214                         25.2504         21.7504
  24351339.1424   -2594766.10345  -1864076.90545                  24351343.2504
      2738.7564                          9.2504          7.5004
  25081490.5614      64318.33941
      -322.0264                          3.5004
  21168779.0304  -15956125.73847 -11792346.91546                  21168780.4134
      1316.3704                         27.7504         25.2504
 04  3  1  0 58  0.0010000  0 10G26G22G18G14G 6G17G 9G15G30G21
  24594392.5584    7915524.95743   7012306.32145                  24594393.8554
     -4136.9834                          5.5004          4.7504
  24373606.8024    -874853.63345   -585608.77145                  24373608.8494
       198.1194                          9.7504          8.5004
  23008429.7074   -3203464.65246   1472004.71146                  23008432.6204
      -221.4664                         16.2504         13.5004
  23778680.5604   -4211281.49545  -3076707.47545                  23778685.6964
      1717.2864                         10.5004          9.5004
  22361627.2964   -6639562.32246  -5017758.63346                  22361632.4014
     -2977.2664                         18.5004         16.7504
  23799158.5554   10677630.78144   1056830.59545                  23799166.3614
     -3070.6964                          7.0004          6.7504
  21641836.8794  -13381599.23747  -8437516.46846                  21641840.0104
      -230.1244                         25.5004         21.7504
  24335699.3834   -2676953.10845  -1928118.53145                  24335704.8714
      2740.1554                          8.0004          6.7504
  25083298.4574      73819.28843
      -311.5504                          5.2504
  21161295.2594  -15995453.08248 -11822991.55247                  21161296.5854
      1305.2354                         28.5004         25.7504
 04  3  1  0 58 30.0010000  0 10G26G22G18G14G 6G17G 9G15G30G21
  24618002.8384    8039598.34043   7108987.01044                  24618008.0944
     -4134.3704                          5.2504          3.5004
  24372469.6764    -880828.46945   -590264.26345                  24372469.0984
       200.4184                          9.7504          8.7504
  23009685.1044   -3196867.08746   1477145.76446                  23009689.2174
      -218.1504                         15.2504         13.2504
  23768909.2054   -4262629.52745  -3116718.75445                  23768915.4804
      1706.1314                          9.5004          8.5004
  22378641.9594   -6550149.90346  -4948086.63746                  22378646.9524
     -2983.3604                         18.0004         16.5004
  23816723.3574   10769934.24244   1128755.24545                  23816733.0874
     -3082.6664                          7.2504          6.7504
  21643202.4934  -13374422.75847  -8431924.34846                  21643205.7864
      -248.1144                         25.7504         22.0004
  24320052.1254   -2759179.74445  -1992191.00145                  24320057.4624
      2741.8244                          8.2504          7.2504
  25085046.7394      83006.17443
      -300.6804                          5.7504
  21153875.3494  -16034444.81448 -11853374.66947                  21153876.8604
      1294.4024                         28.5004         25.7504
 04  3  1  0 59  0.0010000  0 10G26G22G18G14G 6G17G 9G15G30G21
  24641600.2474    8163603.80143   7205614.66045                  24641603.8684
     -4132.4044                          5.5004          5.2504
  24371321.4754    -886861.98645   -594965.55845                  24371322.3024
       202.0644                         10.7504          8.7504
  23010923.5064   -3190359.11446   1482216.99146                  23010926.2464
      -215.4784                         16.5004         13.7504
  23759203.6454   -4313631.58645  -3156460.40745                  23759209.9994
      1694.2444                         10.0004          8.5004
  22395693.1904   -6460544.86846  -4878264.55746                  22395699.0644
     -2990.0504                         17.5004         16.2504
  23834358.7184   10862607.74345   1200968.22045                  23834367.0034
     -3095.3014                          8.0004          7.0004
  21644672.9474  -13366695.29347  -8425902.88046                  21644675.9184
      -266.8214                         25.5004         22.0004
  24304397.4524   -2841445.25745  -2056293.76545                  24304402.6584
      2742.7694                          8.5004          6.5004
  25086734.7414      91877.87241
      -290.5314                          3.2504
  21146519.6834  -16073099.00248 -11883494.75347                  21146521.1554
      1282.7774                         28.7504         26.0004
 04  3  1  0 59 30.0010000  0  9G26G22G18G14G 6G17G 9G15G21
  24665184.4654    8287539.57643   7302187.96745                  24665189.4124
     -4130.1364                          5.2504          5.2504
  24370161.9054    -892955.17545   -599713.31745                  24370163.7694
       203.9804                          9.0004          8.5004
  23012144.8384   -3183940.69146   1487218.44846                  23012147.6714
      -212.5904                         16.2504         13.5004
  23749564.2944   -4364286.08045  -3195931.29245                  23749568.4954
      1682.5294                         11.0004          9.2504
  22412780.5594   -6370750.05046  -4808294.61946                  22412785.9764
     -2996.4374                         17.0004         15.7504
  23852064.3584   10955650.66945   1273469.08545                  23852071.3184
     -3107.7004                          7.5004          6.5004
  21646248.5974  -13358414.87247  -8419450.54246                  21646251.7744
      -285.3774                         25.7504         22.2504
  24288735.9144   -2923746.69745  -2120424.52145                  24288742.0064
      2743.8424                          8.7504          7.0004
  21139228.8274  -16111412.52948 -11913349.38547                  21139230.4584
      1271.2754                         28.2504         26.2504
 04  3  1  1  0  0.0010000  0 10G26G22G18G14G 6G17G 9G15G30G21
  24688755.4624    8411406.51642   7398707.77245                  24688763.2054
     -4128.0034                          4.7504          5.0004
  24368991.2584    -899105.97045   -604505.97945                  24368992.4114
       205.7284                          9.2504          9.0004
  23013349.6864   -3177609.00346   1492152.32346                  23013352.2664
      -209.9044                         16.0004         13.5004
  23739991.8054   -4414589.06145  -3235128.27445                  23739996.6734
      1670.5974                         11.0004          9.5004
  22429904.1884   -6280764.92946  -4738176.38146                  22429908.8094
     -3002.9284                         17.7504         16.0004
  23869840.5204   11049064.74344   1346259.05845                  23869847.7554
     -3120.2554                          6.5004          6.2504
  21647930.3244  -13349577.04447  -8412563.85946                  21647933.3274
      -304.1874                         26.5004         22.0004
  24273068.5204   -3006079.05145  -2184579.38345                  24273074.8464
      2744.6314                          9.2504          7.2504
  25089932.6524       1352.71052
      -269.9694                          4.7504
  21132003.9084  -16149379.53148 -11942934.00247                  21132005.1264
      1259.4704                         28.0004         25.7504
 04  3  1  1  0 30.0010000  0 10G26G22G18G14G 6G17G 9G15G30G21
  24712313.0594    8535203.05943   7495172.64845                  24712320.6294
     -4125.2574                          5.0004          5.7504
  24367809.5744    -905314.87845   -609343.90145                  24367811.1654
       208.0484                          8.7504          8.0004
  23014538.1214   -3171363.58346   1497018.97246                  23014540.6864
      -206.6274                         16.7504         13.5004
  23730486.3324   -4464539.18145  -3274050.24245                  23730491.2044
      1659.2254                          9.5004          8.5004
  22447063.5014   -6190592.22046  -4667911.95746                  22447068.0994
     -3008.7404                         17.7504         16.2504
  23887687.1664   11142849.37343   1419337.83245                  23887693.2414
     -3132.2354                          6.0004          6.5004
  21649718.4924  -13340179.91447  -8405241.35946                  21649721.5464
      -322.4694                         25.2504         22.0004
  24257395.7214   -3088439.43645  -2248756.06845                  24257401.7524
      2745.9114                          9.5004          7.7504
  25091442.7534       9288.03042
      -259.2034                          4.0004
  21124845.4954  -16186996.95648 -11972246.22147                  21124846.8884
      1248.1514                         28.2504         26.0004
 04  3  1  1  1  0.0010000  0 10G26G22G18G14G 6G17G 9G15G30G21
  24735856.8734    8658927.00443   7591580.99745                  24735862.8974
     -4123.1494                          5.0004          4.7504
  24366616.6894    -911582.87945   -614227.90045                  24366618.3524
       209.6754                         10.2504          9.0004
  23015710.0594   -3165204.79746   1501818.11146                  23015712.1934
      -204.0964                         16.5004         13.7504
  23721048.3724   -4514135.19945  -3312696.28745                  23721052.9664
      1647.0374                         11.0004          9.0004
  22464258.0744   -6100234.33746  -4597503.27546                  22464262.7574
     -3015.2424                         17.7504         16.0004
  23905604.1724   11237003.67344   1492704.62245                  23905611.0044
     -3144.8914                          6.2504          6.2504
  21651613.3514  -13330222.09247  -8397481.96746                  21651616.1034
      -341.5454                         26.0004         21.7504
  24241717.9734   -3170825.55745  -2312952.79445                  24241721.2824
      2746.3544                          8.5004          7.2504
  25092893.1764      16913.05542
      -249.2764                          4.0004
  21117754.2284  -16224261.56048 -12001283.51047                  21117755.4314
      1235.9944                         28.2504         26.0004
 04  3  1  1  1 30.0010000  0 10G26G22G18G14G 6G17G 9G15G30G21
  24759386.6434    8782576.91042   7687931.66145                  24759386.9384
     -4120.3214                          4.7504          5.2504
  24365412.5134    -917910.23345   -619158.17645                  24365416.6494
       212.0314                         10.2504          9.2504
  23016865.5904   -3159132.22146   1506550.10446                  23016867.9904
      -200.8724                         17.0004         14.0004
  23711678.1244   -4563375.55245  -3351065.27045                  23711683.6554
      1635.5124                         11.2504          9.0004
  22481487.4214   -6009693.55946  -4526952.04246                  22481493.3804
     -3020.9124                         16.2504         15.5004
  23923591.4414   11331527.07944   1566359.08545                  23923600.4194
     -3156.8204                          6.7504          6.0004
  21653615.2754  -13319701.58247  -8389284.10346                  21653618.6574
      -359.9694                         23.7504         21.5004
  24226035.8684   -3253234.31045  -2377167.16445                  24226041.3744
      2747.4224                          9.5004          7.2504
  25094285.3074      24228.85942
      -238.5884                          4.2504
  21110730.7444  -16261169.98648 -12030043.25747                  21110732.2044
      1224.4274                         28.7504         26.2504
 04  3  1  1  2  0.0010000  0 10G26G22G18G14G 6G17G 9G15G30G21
  24782901.0944    8906146.48743   7784219.64245                  24782904.5744
     -4117.5504                          5.2504          5.5004
  24364195.9274    -924302.38845   -624138.91345                  24364199.1834
       214.2214                          9.5004          9.0004
  23018003.8434   -3153150.35846   1511211.36246                  23018006.3904
      -197.8284                         16.5004         14.0004
  23702375.0164   -4612263.39746  -3389159.54045                  23702379.4334
      1623.7384                         12.0004          9.2504
  22498750.0734   -5918977.70946  -4456264.41046                  22498755.9364
     -3026.7274                         15.7504         15.5004
  23941648.0734   11426414.20745   1640296.92545                  23941652.9394
     -3168.8814                          8.0004          6.7504
  21655723.7334  -13308621.18047  -8380649.97546                  21655727.2354
      -378.6464                         23.7504         21.5004
  24210349.1034   -3335667.74145  -2441400.79845                  24210355.9204
      2748.2054                          9.5004          7.0004
  25095617.6604      31231.50041
      -228.1584                          3.0004
  21103774.7134  -16297723.97148 -12058526.82247                  21103776.0834
      1212.5664                         29.0004         26.2504
 04  3  1  1  2 30.0010000  0 10G26G22G18G14G 6G17G 9G15G30G21
  24806401.0474    9029639.09543   7880447.65545                  24806402.8804
     -4114.9264                          6.0004          5.5004
  24362967.9974    -930754.72145   -629166.53745                  24362969.3114
       216.2794                         10.2504          9.2504
  23019125.8724   -3147253.69646   1515806.25546                  23019128.5734
      -194.9534                         16.5004         14.5004
  23693140.1554   -4660792.43746  -3426974.19345                  23693144.7994
      1611.8364                         12.5004         10.0004
  22516046.7044   -5828083.21846  -4385437.57946                  22516052.3594
     -3032.5774                         15.2504         15.0004
  23959774.6824   11521669.51344   1714521.70745                  23959778.7354
     -3181.1304                          6.7504          6.5004
  21657940.0654  -13296973.97047  -8371574.15346                  21657943.3844
      -397.5154                         25.0004         21.5004
  24194659.1884   -3418118.01545  -2505647.54045                  24194663.1174
      2748.8014                          9.7504          8.0004
  25096891.8034      37926.96542
      -217.8684                          4.5004
  21096887.7924  -16333914.75148 -12086727.37747                  21096889.2664
      1200.4594                         29.0004         26.7504
 04  3  1  1  3  0.0010000  0 10G26G22G18G14G 6G17G 9G15G30G21
  24829884.6854    9153046.28144   7976609.11045                  24829887.8424
     -4112.3094                          6.5004          6.2504
  24361727.1484    -937274.67945   -634246.89045                  24361728.0714
       218.2934                          9.5004          9.0004
  23020230.4384   -3141448.79446   1520329.64146                  23020233.0654
      -192.1414                         17.0004         14.5004
  23683972.5364   -4708968.39746  -3464513.73845                  23683976.6674
      1599.7794                         12.2504         10.5004
  22533375.5604   -5737019.62746  -4314478.99746                  22533380.5774
     -3038.4154                         15.7504         15.2504
  23977969.9644   11617285.32045   1789027.34245                  23977975.5054
     -3193.3644                          8.0004          6.2504
  21660263.2864  -13284765.15847  -8362060.73546                  21660266.1834
      -416.5254                         25.2504         21.7504
  24178965.3394   -3500589.04645  -2569910.46145                  24178971.4914
      2749.1844                          9.0004          7.7504
  25098106.4154      44309.04342
      -207.7164                          4.5004
  21090069.2404  -16369746.30048 -12114648.00947                  21090070.7204
      1188.1754                         28.5004         26.5004
 04  3  1  1  3 30.0010000  0 10G26G22G18G14G 6G17G 9G15G30G21
  24853352.0864    9276367.89244   8072703.98245                  24853355.9004
     -4109.1274                          7.0004          5.7504
  24360473.6414    -943861.03045   -639378.96145                  24360478.0914
       220.8204                         10.0004          9.5004
  23021317.8744   -3135733.96846   1524782.83846                  23021319.9924
      -188.8344                         16.7504         14.2504
  23674872.6044   -4756788.23545  -3501775.77245                  23674878.8624
      1588.2064                         10.5004          9.5004
  22550736.5534   -5645787.28546  -4243388.90846                  22550741.3134
     -3043.6984                         16.7504         14.7504
  23996233.9004   11713262.48844   1863814.59645                  23996243.6494
     -3205.1144                          6.5004          5.7504
  21662694.1024  -13271991.09647  -8352106.85746                  21662696.2684
      -435.0724                         26.0004         22.2504
  24163268.2374   -3583076.52845  -2634186.27145                  24163272.7914
      2749.9894                          7.7504          7.0004
  25099261.6364      50380.19742
      -197.0384                          4.0004
  21083320.0244  -16405213.37448 -12142284.62447                  21083321.7864
      1176.2854                         28.2504         26.2504
 04  3  1  1  4  0.0010000  0 10G26G22G18G14G 6G17G 9G15G30G21
  24876802.2964    9399599.77244   8168728.86245                  24876809.8984
     -4106.1194                          6.2504          5.5004
  24359206.9834    -950517.18645   -644565.48245                  24359209.4774
       223.1364                         10.5004          9.0004
  23022387.7434   -3130111.60446   1529163.98346                  23022389.5754
      -185.7664                         16.7504         13.7504
  23665840.1864   -4804253.30245  -3538761.38445                  23665845.0414
      1576.3364                         11.7504          9.7504
  22568128.6044   -5554391.69846  -4172171.62646                  22568133.6914
     -3049.1054                         15.7504         14.2504
  24014565.9634   11809597.71844   1938880.72145                  24014574.7724
     -3217.0594                          6.2504          5.5004
  21665232.1954  -13258653.14447  -8341713.58446                  21665234.9394
      -453.9284                         25.5004         22.0004
  24147568.0844   -3665580.46845  -2698474.87645                  24147572.8004
      2750.4774                          9.0004          8.2504
  25100357.6324      56138.42843
      -186.6584                          5.5004
  21076640.2154  -16440315.77048 -12169637.08747                  21076641.4174
      1164.0664                         29.0004         26.5004
 04  3  1  1  4 30.0010000  0 10G26G22G18G14G 6G17G 9G15G30G21
  24900235.7934    9522743.53443   8264685.07145                  24900239.3054
     -4103.2874                          6.0004          6.0004
  24357927.4264    -957240.31945   -649804.11645                  24357929.0914
       225.2364                          9.2504          8.7504
  23023440.6584   -3124578.40646   1533475.67846                  23023442.7744
      -182.9364                         17.7504         13.7504
  23656876.1584   -4851359.07746  -3575467.00745                  23656880.0454
      1564.2154                         12.2504         10.7504
  22585551.9304   -5462831.97346  -4100826.43646                  22585556.4664
     -3054.6754                         16.5004         15.0004
  24032966.6024   11906293.13343   2014227.68445                  24032972.1694
     -3229.1474                          5.7504          5.5004
  21667878.5384  -13244746.26147  -8330876.99146                  21667881.6834
      -473.0554                         25.2504         21.7504
  24131866.0574   -3748094.44245  -2762771.30045                  24131871.4504
      2750.6404                          9.2504          7.7504
  25101395.1654       3049.88252
      -176.4734                          4.7504
  21070031.1184  -16475046.79848 -12196700.17547                  21070031.8744
      1151.4994                         29.5004         27.0004
 04  3  1  1  5  0.0010000  0 10G26G22G18G14G 6G17G 9G15G30G21
  24923651.0394    9645791.71743   8360566.88845                  24923650.9304
     -4099.9584                          5.5004          4.7504
  24356633.9734    -964037.01645   -655100.16745                  24356637.1944
       227.8044                          9.2504          8.7504
  23024475.5644   -3119139.90546   1537713.54546                  23024476.9564
      -179.6954                         18.0004         14.2504
  23647979.5854   -4898110.23645  -3611896.33545                  23647984.4744
      1552.4664                         10.5004         10.2504
  22603004.8814   -5371116.34246  -4029359.76646                  22603009.8384
     -3059.7324                         16.0004         14.5004
  24051434.5714   12003342.16044   2089849.98845                  24051442.4044
     -3240.8264                          6.7504          5.2504
  21670632.3404  -13230274.58447  -8319600.29946                  21670635.2874
      -491.7924                         25.2504         21.7504
  24116161.4494   -3830621.69545  -2827078.11845                  24116167.2534
      2751.1254                          9.0004          8.2504
  25102372.2464       8185.47943
      -165.9644                          5.0004
  21063492.1204  -16509409.25348 -12223476.06547                  21063493.2474
      1139.2564                         28.5004         27.0004
 04  3  1  1  5 30.0010000  0 10G26G22G18G14G 6G17G 9G15G30G21
  24947049.7284    9768752.51043   8456380.56944                  24947053.2064
     -4097.1224                          5.2504          4.2504
  24355328.3474    -970897.84845   -660446.15445                  24355330.7154
       229.8804                          9.2504          9.0004
  23025494.4054   -3113785.67046   1541885.79046                  23025496.2324
      -176.9684                         17.7504         14.5004
  23639152.4804   -4944495.81945  -3648040.77345                  23639156.7094
      1540.2034                          9.7504          9.0004
  22620488.7934   -5279237.99846  -3957766.31546                  22620494.0534
     -3065.1914                         16.0004         14.7504
  24069971.6294   12100753.92944   2165755.05145                  24069977.7994
     -3252.9854                          6.2504          6.5004
  21673495.7694  -13215226.88047  -8307874.74946                  21673499.6034
      -511.0934                         24.5004         21.5004
  24100456.7464   -3913149.69745  -2891385.49345                  24100461.4364
      2751.0094                          9.2504          8.2504
  25103291.8104      13017.86242         -.31655                  25103312.8594
      -155.8964                          4.5004          4.5004
  21057025.6754  -16543390.20647 -12249954.66847                  21057027.4654
      1126.4314                         27.7504         26.7504
 04  3  1  1  6  0.0010000  0 10G26G22G18G14G 6G17G 9G15G30G21
  24970431.1154    9891622.43943   8552123.27145                  24970429.8154
     -4094.2334                          5.5004          4.5004
  24354009.9944    -977825.16045   -665843.92645                  24354012.8414
       231.9114                          9.0004          8.7504
  23026496.8934   -3108517.40646   1545991.01746                  23026499.4184
      -174.2884                         18.0004         14.7504
  23630394.8434   -4990516.35045  -3683900.75045                  23630399.3474
      1527.8344                         10.2504          8.7504
  22638003.0144   -5187200.46646  -3886048.81346                  22638007.5264
     -3070.6464                         16.2504         15.0004
  24088577.0584   12198525.61744   2241940.55945                  24088586.3164
     -3265.1504                          6.2504          6.2504
  21676468.8044  -13199603.32947  -8295700.49446                  21676471.8664
      -530.5084                         25.2504         21.7504
  24084752.1454   -3995677.30345  -2955692.58345                  24084757.7074
      2750.7914                          9.0004          8.0004
  25104153.5104      17546.03142      3527.87345                  25104172.4424
      -145.9574                          4.2504          4.7504
  21050632.1684  -16576988.06348 -12276134.76947                  21050633.5244
      1113.3974                         28.2504         26.7504
 04  3  1  1  6 30.0010000  0 10G26G22G18G14G 6G17G 9G15G30G21
  24993794.8144   10014399.92843   8647793.97544                  24993793.7724
     -4090.6504                          5.0004          4.2504
  24352678.8694    -984819.66645   -671294.07345                  24352682.5544
       234.6144                          9.2504          9.0004
  23027483.0374   -3103334.92146   1550029.40546                  23027484.4344
      -170.9774                         18.0004         14.2504
  23621706.8844   -5036170.64345  -3719475.39245                  23621711.1004
      1516.0364                          9.2504          8.5004
  22655547.0044   -5095006.25546  -3814209.23446                  22655552.5484
     -3075.3784                         16.2504         15.0004
  24107250.8524   12296656.08743   2318405.65945                  24107261.2734
     -3276.6154                          6.0004          6.7504
  21679551.6984  -13183402.55847  -8283076.46446                  21679554.7324
      -549.3084                         24.7504         22.0004
  24069048.0784   -4078201.98045  -3019997.44345                  24069054.3314
      2751.0904                          9.0004          8.5004
  25104957.5614      21770.58343      6819.66145                  25104976.0174
      -135.3864                          5.0004          6.0004
  21044312.1124  -16610200.10348 -12302014.23447                  21044313.2854
      1100.9624                         28.5004         27.0004
 04  3  1  1  7  0.0010000  0 10G26G22G18G14G 6G17G 9G15G30G21
  25017139.2704   10137076.00144   8743385.79744                  25017139.2784
     -4087.7584                          6.5004          4.0004
  24351333.5314    -991889.04545   -676802.58145                  24351336.4254
       236.6474                          9.7504          8.7504
  23028451.5214   -3098245.02846   1553995.66346                  23028452.8144
      -168.3764                         17.7504         14.5004
  23613087.5154   -5081464.78445  -3754769.38545                  23613092.8194
      1503.5404                         10.5004          9.0004
  22673118.9314   -5002665.35646  -3742255.34446                  22673124.8424
     -3080.7014                         16.0004         15.2504
  24125991.3244   12395137.33142   2395144.03645                  24126001.8934
     -3288.7634                          4.5004          5.2504
  21682743.3254  -13166630.36947  -8270007.16646                  21682745.9384
      -568.8694                         26.2504         22.2504
  24053343.7714   -4160728.00345  -3084303.29645                  24053348.2564
      2750.6074                          8.2504          7.7504
  25105702.5164      25685.29543      9869.94745                  25105719.6424
      -125.5624                          5.2504          5.2504
  21038064.7074  -16643030.25648 -12327596.12647                  21038065.7944
      1087.6824                         28.7504         27.5004
 04  3  1  1  7 30.0010000  0 10G26G22G18G14G 6G17G 9G15G30G21
  25040464.0904   10259648.94144   8838897.33045                  25040462.5874
     -4083.8784                          6.2504          5.0004
  24349973.6684    -999034.14445   -682370.06645                  24349977.2294
       239.6084                          9.2504          9.0004
  23029402.3344   -3093247.79646   1557889.70446                  23029403.2074
      -164.8624                         16.5004         14.5004
  23604536.9654   -5126397.92046  -3789782.06545                  23604541.7104
      1491.9104                         12.0004          9.2504
  22690718.2484   -4910180.63046  -3670189.38946                  22690724.0524
     -3085.0334                         17.0004         15.5004
  24144798.3194   12493968.37543   2472154.93945                  24144808.7684
     -3300.0284                          5.7504          6.7504
  21686043.9304  -13149285.37247  -8256491.51746                  21686046.5484
      -587.5754                         25.5004         22.0004
  24037639.7274   -4243252.79445  -3148608.18445                  24037644.2724
      2750.9394                          9.5004          8.2504
  25106388.6934      29290.77043     12679.41244                  25106411.6224
      -114.8784                          5.7504          3.5004
  21031890.5194  -16675475.67548 -12352878.22947                  21031891.6094
      1075.2334                         29.7504         27.5004
 04  3  1  1  8  0.0010000  0 10G26G22G18G14G 6G17G 9G15G30G21
  25063769.1904   10382118.31643
     -4080.5044                          5.7504
  24348599.6314   -1006254.37945   -687996.15345                  24348602.5274
       242.0124                          9.7504          9.0004
  23030335.7894   -3088341.79146   1561712.65646                  23030337.3064
      -161.9464                         16.0004         14.2504
  23596055.5034   -5170967.88045  -3824511.76645                  23596060.6544
      1479.6594                         11.0004          9.7504
  22708344.8234   -4817552.64146  -3598011.78246                  22708349.3474
     -3089.8894                         17.0004         15.2504
  24163671.9884   12593149.05343   2549438.33845                  24163682.7924
     -3311.7764                          5.0004          6.0004
  21689453.9934  -13131365.02847  -8242527.54946                  21689457.0704
      -606.9064                         25.0004         21.7504
  24021936.7454   -4325772.24545  -3212908.89545                  24021941.4474
      2750.5804                          9.7504          9.0004
  25107016.4224      32589.17644     15249.34345                  25107030.2874
      -104.7614                          6.2504          5.2504
  21025790.3634  -16707531.98947 -12377857.14347                  21025791.3474
      1062.0844                         27.0004         26.7504
 04  3  1  1  9  0.0010000  0 10G26G22G18G14G 6G17G 9G15G30G21
  25110317.1644   10626730.44543
     -4073.6794                          5.0004
  24345806.4284   -1020932.05745   -699433.06345                  24345808.2004
       246.7814                         10.5004          9.2504
  23032148.9894   -3078811.89946   1569138.74946                  23032151.2574
      -156.1894                         15.7504         13.7504
  23579298.9864   -5259023.46945  -3893126.22945                  23579303.2064
      1455.0134                         10.7504         10.2504
  22743675.7774   -4631887.69846  -3453337.95746                  22743681.1854
     -3099.3664                         15.7504         14.7504
  24201616.7014   12792546.36745   2704812.30045                  24201626.1604
     -3335.2624                          8.0004          6.0004
  21696601.8134  -13093802.23047  -8213257.69946                  21696604.7314
      -645.7114                         25.0004         21.7504
  23990533.9684   -4490793.64645  -3341496.66545                  23990538.8554
      2749.5844                         10.0004          8.5004
  25108095.1964      38257.91243     19666.26645                  25108110.2424
       -84.6934                          6.0004          5.7504
  21013812.6584  -16770474.92648 -12426903.49247                  21013814.0084
      1035.4804                         29.0004         27.7504
 04  3  1  1 10  0.0010000  0  9G22G18G14G 6G17G 9G15G30G21
  24342956.7524   -1035906.69145   -711101.37645                  24342959.3864
       252.5624                         11.7504          9.2504
  23033895.4664   -3069633.40446   1576291.00646                  23033897.2554
      -149.5894                         17.7504         14.2504
  23562823.0564   -5345603.99345  -3960591.32245                  23562828.5414
      1431.1684                         10.7504         10.2504
  22779111.7884   -4445670.89446  -3308234.08346                  22779116.7564
     -3107.6384                         16.5004         14.0004
  24239826.9554   12993340.04844   2861274.30245                  24239838.4244
     -3357.6944                          7.2504          6.2504
  21704192.4424  -13053912.66247  -8182174.79046                  21704195.3494
      -683.7994                         25.7504         21.7504
  23959143.5124   -4655750.37445  -3470034.01745                  23959148.9314
      2749.0904                          9.2504          8.5004
  25108943.7274      42717.23141     23140.92745                  25108961.5444
       -63.7184                          2.7504          4.5004
  21002139.8224  -16831815.78748 -12474701.50247                  21002141.2574
      1009.3394                         28.5004         27.2504
 04  3  1  1 10 30.0010000  0  9G22G18G14G 6G17G 9G15G30G21
  24341507.6484   -1043521.53245   -717034.88345                  24341510.0724
       255.2724                         11.7504          9.2504
  23034741.0334   -3065189.66646   1579753.74046                  23034742.5364
      -146.4794                         17.0004         14.5004
  23554688.0114   -5388353.30445  -3993902.31745                  23554692.9544
      1418.9634                         11.0004         10.7504
  22796865.1454   -4352376.56946  -3235537.28546                  22796870.4884
     -3111.7964                         15.0004         14.2504
  24259028.4804   13094243.38144   2939899.94945                  24259035.6754
     -3368.9974                          7.0004          6.7504
  21708151.6004  -13033106.92747  -8165962.46846                  21708153.7884
      -703.0984                         25.5004         22.0004
  23943451.4864   -4738212.00245  -3534289.66245                  23943456.4694
      2748.5104                          9.7504          8.2504
  25109279.5064      44480.77343     24514.98245                  25109299.7594
       -53.6194                          5.7504          6.0004
  20996416.4064  -16861892.33248 -12498137.73447                  20996417.5174
       995.9254                         28.5004         27.0004
 04  3  1  1 11  0.0010000  0  9G22G18G14G 6G17G 9G15G30G21
  24340042.1084   -1051223.10946   -723036.00045                  24340042.2974
       257.9004                         12.5004          9.2504
  23035567.9604   -3060843.81946   1583140.19646                  23035569.8564
      -143.5154                         16.5004         14.0004
  23546621.6824   -5430741.60746  -4026932.03445                  23546626.9074
      1406.6274                         12.2504         10.7504
  22814641.2404   -4258962.88746  -3162747.46846                  22814646.5954
     -3116.0334                         15.5004         14.0004
  24278293.5744   13195481.69744   3018786.66845                  24278303.1044
     -3380.4514                          6.5004          6.0004
  21712220.1134  -13011726.56047  -8149302.37746                  21712222.4484
      -722.5434                         25.7504         22.0004
  23927761.9914   -4820659.72945  -3598534.49045                  23927766.1674
      2747.7464                          8.2504          8.7504
  25109556.2804      45933.79343     25647.03645                  25109572.1424
       -43.5494                          6.0004          5.7504
  20990768.8994  -16891570.09748 -12521263.23547                  20990770.1404
       982.3054                         28.7504         27.7504
 04  3  1  1 12  0.0010000  0  9G22G18G14G 6G17G 9G15G30G21
  24337064.6034   -1066869.55346   -735227.71645                  24337066.7654
       263.4224                         12.7504         10.2504
  23037169.7554   -3052425.50046   1589700.10346                  23037171.8204
      -137.3564                         15.7504         14.0004
  23530699.3354   -5514412.91745  -4092130.18445                  23530703.1954
      1382.1414                         11.0004          9.7504
  22850263.5164   -4071766.87446  -3016880.59446                  22850268.9914
     -3124.0134                         13.7504         13.2504
  24317018.0874   13398978.13044   3177354.55445                  24317026.2344
     -3402.9774                          7.2504          7.0004
  21720689.7014  -12967218.08647  -8114620.32546                  21720692.9904
      -761.3414                         24.2504         22.0004
  23896396.8544   -4985483.10645  -3726967.97445                  23896400.5844
      2746.0884                          9.0004          9.0004
  25109936.2934      47930.61744     27202.62945                  25109954.0744
       -23.2944                          6.2504          5.7504
  20979707.3784  -16949698.38748 -12566557.91647                  20979708.9444
       954.9944                         28.7504         27.2504
 04  3  1  1 12 30.0010000  0  9G22G18G14G 6G17G 9G15G30G21
  24335552.6034   -1074814.49445   -741418.46345                  24335553.8274
       266.1604                         11.7504         10.2504
  23037945.0614   -3048350.86246   1592875.24046                  23037946.7154
      -134.3644                         17.0004         14.0004
  23522843.7904   -5555693.07345  -4124296.38845                  23522849.1754
      1369.7804                         11.0004          9.7504
  22868108.8584   -3977988.99546  -2943806.99846                  22868114.5484
     -3127.9304                         13.2504         13.2504
  24336477.1034   13501234.95044   3257034.81345                  24336486.9734
     -3414.2124                          7.2504          6.7504
  21725091.4004  -12944086.76347  -8096595.85746                  21725094.3164
      -780.8404                         24.2504         21.7504
  23880722.4174   -5067851.80945  -3791151.22945                  23880727.3724
      2745.0744                          9.5004          9.0004
  25110040.5684      48477.45943     27628.55045                  25110058.9824
       -13.2524                          6.0004          5.7504
  20974294.7684  -16978141.61047 -12588721.43247                  20974295.7694
       941.1324                         27.7504         27.5004
 04  3  1  1 13  0.0010000  0  9G22G18G14G 6G17G 9G15G30G21
  24334025.0254   -1082841.29045   -747672.95445                  24334025.1354
       269.0704                         11.7504          9.0004
  23038703.3334   -3044365.82646   1595980.53346                  23038704.0234
      -131.2214                         17.0004         14.7504
  23515058.9764   -5596601.68745  -4156173.09345                  23515064.8034
      1357.5514                         10.7504          9.5004
  22885976.4504   -3884094.18646  -2870642.30946                  22885982.6494
     -3131.6174                         14.2504         13.0004
  24356000.3404   13603829.19144   3336978.04145                  24356008.3884
     -3425.2834                          6.7504          5.7504
  21729604.6154  -12920369.51247  -8078114.83146                  21729606.9844
      -800.2184                         25.2504         21.7504
  23865054.2264   -5150188.12545  -3855309.30045                  23865059.7694
      2744.1114                         10.0004          9.5004
  25110087.7834      48724.14944     27820.54345                  25110105.3964
        -3.1044                          6.5004          5.2504
  20968961.6204  -17006167.45048 -12610559.71247                  20968962.8284
       927.3334                         29.0004         28.0004
 04  3  1  1 13 30.0010000  0  9G22G18G14G 6G17G 9G15G30G21
  24332480.8904   -1090954.87545   -753995.10945                  24332482.6904
       272.2714                         11.0004         10.5004
  23039443.8054   -3040474.36146   1599012.93546                  23039446.1534
      -127.7644                         17.0004         14.7504
  23507344.2134   -5637142.20945  -4187762.96145                  23507349.3444
      1345.5914                         10.5004          9.2504
  22903865.0774   -3790089.14746  -2797391.71246                  22903870.8514
     -3134.9214                         14.7504         13.5004
  24375586.9394   13706755.55545   3417179.98145                  24375596.2574
     -3436.0144                          7.7504          7.2504
  21734228.6934  -12896069.62147  -8059179.79546                  21734231.6894
      -819.3404                         24.5004         21.2504
  23849391.9734   -5232493.48845  -3919443.21145                  23849398.0744
      2743.3674                         10.5004          8.7504
  25110077.0174      48667.44743     27776.21245                  25110097.1524
         7.3214                          5.7504          5.5004
  20963707.6694  -17033777.12648 -12632073.70347                  20963708.5244
       913.7414                         29.2504         28.0004
 04  3  1  1 14  0.0010000  0  9G22G18G14G 6G17G 9G15G30G21
  24330919.4924   -1099159.16445   -760387.87445                  24330921.1484
       274.6504                         11.7504         10.2504
  23040166.0054   -3036678.95646   1601970.47446                  23040167.4054
      -125.2614                         17.0004         14.5004
  23499698.9864   -5677317.41145  -4219068.16945                  23499703.7304
      1332.7104                         11.7504          9.7504
  22921773.4804   -3695980.33546  -2724060.24746                  22921779.2804
     -3139.0414                         14.0004         13.2504
  24395235.7944   13810008.86545   3497636.64245                  24395244.0144
     -3447.5674                          8.0004          7.0004
  21738963.1734  -12871189.44647  -8039792.58746                  21738965.4944
      -839.3804                         24.7504         21.5004
  23833735.4294   -5314768.52845  -3983553.49845                  23833740.2524
      2741.6064                          9.5004          9.2504
  25110007.9654      48304.76843     27493.45945                  25110026.4574
        16.8164                          5.7504          5.7504
  20958532.7974  -17060971.06148 -12653263.74347                  20958534.1554
       899.1474                         28.0004         27.5004
 04  3  1  1 14 30.0010000  0  9G22G18G14G 6G17G 9G15G30G21
  24329341.4284   -1107451.45945   -766849.26245                  24329344.3574
       277.9044                         11.2504         10.2504
  23040870.4284   -3032976.73046   1604855.40946                  23040872.1704
      -121.8644                         16.2504         14.2504
  23492124.0604   -5717123.32146  -4250085.61745                  23492128.5704
      1320.7124                         12.5004         10.5004
  22939701.8864   -3601766.32346  -2650646.83646                  22939706.9164
     -3142.1874                         14.0004         12.7504
  24414947.2374   13913591.67744   3578350.06945                  24414958.8434
     -3458.2474                          6.2504          7.2504
  21743808.8854  -12845724.76347  -8019949.91446                  21743811.0434
      -858.5774                         24.7504         21.5004
  23818085.8264   -5397007.18445  -4047635.43645                  23818089.5324
      2740.6474                         10.0004          9.0004
  25109881.6664      47640.42844     26975.47645                  25109900.1384
        27.1714                          7.2504          7.5004
  20953438.1954  -17087743.19948 -12674125.11247                  20953438.8114
       885.3504                         28.5004         27.7504
 04  3  1  1 15  0.0010000  0  9G22G18G14G 6G17G 9G15G30G21
  24327745.8694   -1115835.62246   -773382.19245                  24327747.5204
       281.0444                         12.5004          9.5004
  23041556.5694   -3029370.59746   1607665.45146                  23041557.2694
      -118.5914                         16.5004         14.2504
  23484619.0264   -5756562.21346  -4280817.10345                  23484623.3834
      1308.5244                         13.0004         11.0004
  22957649.1094   -3507453.55246  -2577156.44046                  22957654.2404
     -3145.3504                         14.2504         13.0004
  24434720.5224   14017499.36044   3659316.62545                  24434729.3734
     -3469.0084                          7.2504          7.5004
  21748765.4014  -12819677.84047  -7999653.55046                  21748768.0454
      -877.9294                         24.7504         21.2504
  23802443.1534   -5479209.61345  -4111689.15445                  23802447.4054
      2739.4514                         10.5004          9.0004
  25109697.6194      46672.17744     26220.74545                  25109714.8784
        37.3544                          6.2504          6.7504
  20948423.8494  -17114093.67548 -12694657.91547                  20948424.7154
       871.3064                         28.7504         28.0004
 04  3  1  1 15 30.0010000  0  9G22G18G14G 6G17G 9G15G30G21
  24326132.2414   -1124314.89046   -779989.26145                  24326133.3164
       284.0524                         12.2504          9.7504
  23042224.1234   -3025862.32546   1610399.24746                  23042224.8324
      -115.5104                         16.5004         14.0004
  23477183.4854   -5795636.11346  -4311264.16845                  23477187.9914
      1296.1894                         13.5004         10.7504
  22975614.1514   -3413046.93546  -2503592.91946                  22975619.6144
     -3148.6144                         13.5004         12.7504
  24454554.8554   14121727.65545   3740532.92945                  24454564.2014
     -3479.7774                          7.7504          7.0004
  21753832.3294  -12793050.65547  -7978905.04946                  21753834.8254
      -897.4374                         23.7504         21.2504
  23786807.2724   -5561376.10445  -4175714.89045                  23786811.2884
      2738.0804                         10.5004          9.5004
  25109455.1694      45397.68244     25227.50345                  25109476.2964
        47.4044                          6.2504          6.5004
  20943489.7144  -17140022.81848 -12714862.41147                  20943490.7414
       857.0654                         29.0004         28.5004
 04  3  1  1 16  0.0010000  0  9G22G18G14G 6G17G 9G15G30G21
  24324501.5714   -1132883.32545   -786665.80845                  24324504.8504
       287.2204                         11.2504          9.7504
  23042874.3514   -3022445.32246   1613061.91346                  23042874.5344
      -112.2584                         17.0004         13.7504
  23469818.7464   -5834338.19546  -4341421.52545                  23469822.5964
      1283.9844                         14.2504         10.5004
  22993597.8004   -3318542.82846  -2429953.48046                  22993603.1714
     -3151.6374                         15.2504         13.7504
  24474451.0884   14226281.44243   3822002.92845                  24474461.1084
     -3490.4154                          6.0004          6.2504
  21759011.0294  -12765836.10847  -7957698.85446                  21759014.0164
      -916.8304                         24.2504         21.0004
  23771180.0584   -5643497.41445  -4239705.39145                  23771184.2094
      2736.7144                         11.5004         10.0004
  25109155.9034      43824.58444     24001.39645                  25109174.4054
        57.4904                          6.5004          5.7504
  20938637.4794  -17165521.42348 -12734731.41847                  20938638.2954
       842.8774                         28.5004         28.5004
 04  3  1  1 16 30.0010000  0  9G22G18G14G 6G17G 9G15G30G21
  24322852.4134   -1141549.03145   -793418.14145                  24322852.1204
       290.2724                         11.0004          9.5004
  23043505.8184   -3019126.93846   1615647.73346                  23043505.3134
      -109.1914                         17.7504         14.5004
  23462523.4714   -5872675.06646  -4371294.28745                  23462527.2634
      1271.6034                         13.5004         10.5004
  23011598.1734   -3223950.86246  -2356245.54746                  23011603.2384
     -3154.7164                         14.2504         13.2504
  24494407.7474   14331152.24345   3903719.79945                  24494420.0294
     -3501.1724                          8.0004          7.2504
  21764300.2644  -12738040.71747  -7936040.06346                  21764303.4424
      -936.4284                         23.7504         21.2504
  23755560.5594   -5725577.93045  -4303664.08545                  23755564.8324
      2735.0924                         10.5004         10.0004
  25108798.6874      41946.19744     22537.53345                  25108819.3864
        67.5024                          7.2504          5.0004
  20933866.2924  -17190593.96848 -12754268.42647                  20933867.3094
       828.3944                         28.7504         28.2504
 04  3  1  1 17  0.0010000  0  9G22G18G14G 6G17G 9G15G30G21
  24321184.4034   -1150313.29745   -800247.26845                  24321185.8134
       293.8014                          9.7504          9.0004
  23044118.4854   -3015907.21146   1618156.67946                  23044119.3754
      -105.6694                         18.0004         14.5004
  23455297.6034   -5910646.93146  -4400882.63345                  23455301.3404
      1259.6374                         12.5004         10.5004
  23029614.5824   -3129274.53746  -2282471.90346                  23029619.4424
     -3157.2394                         14.7504         13.7504
  24514424.4114   14436337.73945   3985681.93545                  24514433.7094
     -3511.4074                          7.5004          6.7504
  21769700.0334  -12709664.50247  -7913928.67146                  21769702.1894
      -955.5484                         24.5004         21.0004
  23739949.2274   -5807615.43045  -4367589.28945                  23739954.1314
      2733.8604                         10.5004          9.7504
  25108383.3944      39762.79045     20835.97545                  25108400.4684
        77.8744                          7.7504          6.0004
  20929176.6104  -17215238.32348 -12773471.78947                  20929177.7784
       814.3244                         28.0004         28.2504
 04  3  1  1 17 30.0010000  0  9G22G18G14G 6G17G 9G15G30G21
  24319498.1994   -1159173.66245   -807151.28545                  24319499.5514
       296.9114                         11.2504          9.0004
  23044713.0154   -3012783.02946   1620591.16946                  23044713.6134
      -102.5854                         19.0004         14.5004
  23448141.9394   -5948249.89346  -4430183.50145                  23448144.3594
      1247.2434                         13.7504         10.2504
  23047647.1234   -3034513.63546  -2208632.35046                  23047652.6024
     -3160.1064                         14.5004         13.5004
  24534501.1294   14541839.52045   4067890.52645                  24534509.8584
     -3522.0134                          7.7504          6.7504
  21775211.0544  -12680703.70247  -7891361.76146                  21775213.2814
      -975.1454                         24.5004         21.0004
  23724347.2574   -5889603.96945  -4431476.32445                  23724350.3024
      2732.0704                         11.0004         10.0004
  25107910.7334      37278.16845     18899.65945                  25107930.9574
        87.8064                          7.7504          5.7504
  20924569.4304  -17239448.99148 -12792337.20447                  20924570.3504
       799.7344                         28.0004         28.2504
 04  3  1  1 18  0.0020000  0  9G22G18G14G 6G17G 9G15G30G21
  24317793.4924   -1168131.11945   -814131.02145                  24317793.8584
       300.2514                         10.7504          8.7504
  23045289.4734   -3009753.70446   1622951.75446                  23045289.9944
       -99.3384                         18.2504         14.7504
  23441056.2444   -5985485.03546  -4459197.78445                  23441060.3534
      1235.0124                         12.7504         10.5004
  23065695.6854   -2939667.89546  -2134726.68746                  23065700.7744
     -3162.7054                         13.5004         13.2504
  24554638.4034   14647659.52344   4150346.98045                  24554648.6044
     -3532.4104                          6.5004          6.2504
  21780833.5504  -12651157.11847  -7868338.40446                  21780835.7894
      -994.5614                         24.2504         21.0004
  23708754.4164   -5971544.10045  -4495325.64745                  23708757.9534
      2730.3974                         10.0004          9.5004
  25107380.9474      34492.90645     16729.11945                  25107398.8154
        97.8884                          8.7504          7.5004
  20920045.0984  -17263224.20847 -12810863.31247                  20920046.0844
       785.2194                         27.7504         28.5004
 04  3  1  1 18 30.0020000  0 10G 5G22G18G14G 6G17G 9G15G30G21
  25271716.9154      -1455.05154
       291.4064                          6.2504
  24316070.4054   -1177185.53945   -821186.24745                  24316072.1244
       303.5134                         11.7504          9.5004
  23045847.8004   -3006819.43446   1625238.26346                  23045848.8874
       -96.1624                         17.5004         14.7504
  23434041.1574   -6022349.21146  -4487922.99545                  23434043.8974
      1222.7054                         13.2504         10.5004
  23083758.8254   -2844745.73846  -2060761.46346                  23083764.2504
     -3165.3194                         14.0004         13.0004
  24574834.5904   14753789.56844   4233045.11345                  24574848.8884
     -3542.7814                          6.5004          6.5004
  21786567.3184  -12621025.89047  -7844859.46546                  21786569.3584
     -1014.0884                         26.0004         21.2504
  23693172.4864   -6053427.07845  -4559130.42345                  23693175.3774
      2728.5534                         10.7504          9.5004
  25106794.2444      31408.35845     14325.32145                  25106815.8334
       107.8824                          7.7504          7.5004
  20915604.5264  -17286559.38447 -12829046.54247                  20915605.3744
       770.5524                         27.7504         28.2504
 04  3  1  1 19  0.0020000  0 10G 5G22G18G14G 6G17G 9G15G30G21
  25270039.5294     -10268.99243
       295.8934                          6.0004
  24314327.7194   -1186343.29945   -828322.03645                  24314327.9464
       306.7094                         11.7504         10.0004
  23046387.0694   -3003985.16646   1627446.85646                  23046388.0014
       -93.1004                         17.2504         15.0004
  23427095.4744   -6058848.43546  -4516363.82445                  23427098.7644
      1210.2584                         12.5004         11.0004
  23101835.6544   -2749751.98946  -1986740.49046                  23101842.0644
     -3167.9284                         14.7504         13.7504
  24595089.1534   14860226.00143   4315981.87545                  24595100.5904
     -3553.2784                          6.0004          7.2504
  21792411.6544  -12590313.64347  -7820927.79746                  21792413.8544
     -1033.7224                         25.2504         21.0004
  23677600.4654   -6135258.06545  -4622894.71245                  23677604.2014
      2726.5314                         11.0004         10.2504
  25106149.6104      28019.96644     11684.76845                  25106167.1504
       117.7114                          7.2504          6.7504
  20911246.9434  -17309458.49748 -12846889.97747                  20911247.6644
       755.7164                         28.5004         28.2504
 04  3  1  1 19 30.0020000  0 10G 5G22G18G14G 6G17G 9G15G30G21
  25268337.3054     -19212.07743
       300.4264                          5.2504
  24312567.1654   -1195594.64545   -835530.71245                  24312568.5514
       310.1594                         11.7504         10.2504
  23046909.3224   -3001240.24146   1629585.81646                  23046910.7554
       -89.8064                         17.7504         14.7504
  23420221.3054   -6094972.09246  -4544511.99645                  23420225.4234
      1198.0694                         13.2504         10.7504
  23119927.6624   -2654678.55346  -1912657.39746                  23119933.1174
     -3170.1924                         15.0004         13.5004
  24615403.7354   14966977.54143   4399164.14445                  24615417.9584
     -3563.4424                          5.0004          5.7504
  21798368.5814  -12559009.70147  -7796535.05546                  21798370.7594
     -1053.1184                         25.2504         21.5004
  23662040.8544   -6217024.05645  -4686608.34145                  23662043.0334
      2724.6614                         11.7504         10.2504
  25105449.4274      24338.99045      8816.20245                  25105470.0974
       127.7994                          8.5004          6.2504
  20906974.8304  -17331908.44047 -12864383.40647                  20906975.5744
       741.0314                         27.2504         28.2504
 04  3  1  1 20  0.0020000  0 10G 5G22G18G14G 6G17G 9G15G30G21
  25266608.7064     -28294.32843     -4259.10355                  25266620.8094
       305.0574                          6.0004          7.0004
  24310786.3114   -1204952.62045   -842822.45645                  24310787.8824
       313.7544                         11.7504          9.0004
  23047412.2334   -2998597.08046   1631645.47546                  23047413.6474
       -86.3884                         17.7504         15.0004
  23413416.2644   -6130732.21546  -4572376.90945                  23413419.9004
      1185.9764                         13.5004         11.7504
  23138031.8334   -2559540.76246  -1838524.17146                  23138037.5254
     -3172.2644                         13.0004         13.5004
  24635775.6434   15074030.48642   4482581.19045                  24635789.8254
     -3573.4384                          4.7504          5.7504
  21804435.7814  -12527126.09247  -7771690.63146                  21804438.4824
     -1072.4254                         25.0004         21.2504
  23646491.7234   -6298734.70245  -4750278.88645                  23646494.9224
      2722.7624                         10.5004          9.7504
  25104691.3164      20353.60845      5710.53545                  25104708.0494
       137.9194                          8.0004          6.2504
  20902786.2724  -17353919.26947 -12881534.66647                  20902787.2604
       726.3864                         27.2504         28.0004
 04  3  1  1 20 30.0020000  0 10G 5G22G18G14G 6G17G 9G15G30G21
  25264855.7714     -37504.38943    -11435.07845                  25264871.0194
       309.1604                          5.2504          5.2504
  24308986.7114   -1214408.82945   -850190.81345                  24308987.7504
       316.9004                         11.5004          9.7504
  23047897.6164   -2996045.87346   1633633.48146                  23047898.5634
       -83.4814                         16.7504         14.5004
  23406682.2174   -6166119.27646  -4599951.12445                  23406685.8214
      1173.3864                         13.0004         11.2504
  23156149.4394   -2464332.36246  -1764335.93046                  23156154.6764
     -3174.7044                         14.2504         13.0004
  24656206.6234   15181392.16044   4566238.81545                  24656221.9444
     -3583.7874                          6.2504          5.7504
  21810615.1384  -12494653.04247  -7746386.91246                  21810617.6664
     -1092.2034                         24.7504         21.0004
  23630955.4144   -6380378.02546  -4813896.91245                  23630959.4854
      2720.3314                         12.0004         10.7504
  25103877.0614      16073.94244      2375.49245                  25103900.5004
       147.6244                          7.0004          6.2504
  20898683.4904  -17375479.29947 -12898334.66147                  20898684.5234
       711.1734                         26.2504         28.0004
 04  3  1  1 21  0.0020000  0 10G 5G22G18G14G 6G17G 9G15G30G21
  25263076.8614     -46850.01543    -18716.59945                  25263091.3024
       313.7834                          5.7504          4.5004
  24307166.4054   -1223973.43045   -857643.59045                  24307167.9524
       320.6654                          9.5004          8.7504
  23048363.7384   -2993596.03146   1635542.49946                  23048364.7694
       -79.9464                         17.0004         14.7504
  23400017.4774   -6201142.46246  -4627241.81545                  23400020.3424
      1161.4114                         13.2504         11.2504
  23174278.1654   -2369065.40246  -1690102.05346                  23174284.1354
     -3176.4994                         12.7504         12.7504
  24676694.0194   15289051.26943   4650128.23245                  24676708.6064
     -3593.5364                          6.0004          6.0004
  21816904.8514  -12461599.95947  -7720631.20246                  21816907.1554
     -1111.4094                         25.0004         20.7504
  23615430.6144   -6461960.97745  -4877467.92545                  23615434.4314
      2718.4154                         11.5004         10.0004
  25103005.1894      11491.30644     -1195.65245                  25103024.2284
       157.8514                          7.2504          5.5004
  20894665.2554  -17396595.17847 -12914788.56647                  20894666.4534
       696.4664                         27.2504         28.2504
 04  3  1  1 21 30.0020000  0 10G 5G22G18G14G 6G17G 9G15G30G21
  25261273.3014     -56325.84345    -26099.73745                  25261281.1244
       317.6204                          8.0004          6.7504
  24305325.9744   -1233643.84945   -865178.83745                  24305327.9884
       323.7154                         10.7504          9.5004
  23048811.2414   -2991244.05146   1637375.28646                  23048813.3574
       -77.1514                         17.0004         14.5004
  23393422.5594   -6235798.43646  -4654246.35145                  23393427.3384
      1148.6874                         13.2504         11.7504
  23192418.1974   -2273739.15846  -1615821.97846                  23192424.2244
     -3178.8674                         13.5004         13.0004
  24697238.3524   15397009.41944   4734250.54245                  24697247.7594
     -3603.9684                          6.5004          5.5004
  21823305.6354  -12427963.40647  -7694420.85046                  21823307.6374
     -1131.3214                         25.5004         21.2504
  23599918.4414   -6543477.51245  -4940987.19445                  23599922.9424
      2715.7064                         11.2504         10.0004
  25102076.5094       6609.58944     -4999.87145                  25102092.0134
       167.3314                          6.7504          6.2504
  20890732.5844  -17417261.48848 -12930892.15047                  20890733.4934
       680.9734                         28.2504         28.2504
 04  3  1  1 22  0.0020000  0 10G 5G22G18G14G 6G17G 9G15G30G21
  25259446.6474     -65923.02644    -33577.44545                  25259453.8914
       322.2704                          7.2504          6.5004
  24303466.5554   -1243413.97345   -872791.76245                  24303468.8434
       327.7024                          9.7504          9.0004
  23049241.4604   -2988983.01946   1639137.18346                  23049243.0464
       -73.4854                         17.7504         14.5004
  23386898.8524   -6270080.12646  -4680959.25046                  23386902.4064
      1136.8484                         13.2504         12.0004
  23210570.1744   -2178350.12046  -1541492.96346                  23210575.9404
     -3180.2904                         13.0004         12.5004
  24717840.4934   15505271.64643   4818609.75945                  24717854.8044
     -3613.4024                          5.0004          5.7504
  21829818.7784  -12393736.55047  -7667750.53546                  21829820.9674
     -1150.3764                         25.0004         21.0004
  23584420.6994   -6624918.18245  -5004447.33945                  23584425.3304
      2713.7614                         11.7504         10.7504
  25101092.2044       1436.62742     -9030.91345                  25101112.4764
       177.6374                          4.2504          6.0004
  20886887.1504  -17437469.35548 -12946638.52247                  20886887.7874
       666.2854                         28.0004         28.2504
 04  3  1  1 22 30.0020000  0 10G 5G22G18G14G 6G17G 9G15G30G21
  25257596.8334     -75641.25144    -41149.49245                  25257608.9634
       325.9034                          6.5004          6.2504
  24301587.7444   -1253286.24745   -880484.24645                  24301588.8174
       330.7754                          9.5004          9.0004
  23049654.0984   -2986814.26046   1640827.19846                  23049655.5934
       -70.7694                         17.0004         14.7504
  23380446.0894   -6303988.91846  -4707381.57445                  23380448.8214
      1124.0774                         12.5004         11.0004
  23228733.3124   -2082902.36146  -1467118.22546                  23228739.3694
     -3182.5264                         12.7504         12.5004
  24738499.8754   15613834.45742   4903203.13145                  24738518.6584
     -3623.7424                          4.2504          5.2504
  21836443.9294  -12358920.95947  -7640621.44446                  21836446.5814
     -1170.3464                         25.2504         21.0004
  23568937.6274   -6706281.87246  -5067847.47045                  23568941.2594
      2710.8004                         12.5004         10.7504
  25100052.2574      -4028.82243    -13289.94945                  25100069.6984
       187.0514                          5.7504          5.2504
  20883129.0864  -17457218.04047 -12962027.08247                  20883130.0154
       650.5964                         27.0004         28.0004
 04  3  1  1 23  0.0020000  0 10G 5G22G18G14G 6G17G 9G15G30G21
  25255724.5954     -85477.63244    -48813.49345                  25255734.4654
       329.8704                          7.2504          5.5004
  24299689.6264   -1263260.23145   -888256.07845                  24299690.0654
       334.2504                         10.5004          8.5004
  23050049.4054   -2984736.55446   1642446.24446                  23050050.1224
       -67.6734                         17.2504         14.5004
  23374064.4994   -6337523.63846  -4733512.42045                  23374069.4894
      1111.6814                         12.7504         10.7504
  23246907.3204   -1987397.62246  -1392699.08646                  23246913.9054
     -3184.3254                         13.2504         12.5004
  24759216.4414   15722697.05042   4988030.21245                  24759236.9614
     -3633.6764                          4.7504          5.2504
  21843181.3414  -12323515.40747  -7613032.66146                  21843183.7924
     -1189.9614                         24.0004         21.2504
  23553469.8844   -6787565.10146  -5131184.95045                  23553473.0864
      2708.1444                         12.2504         10.7504
  25098957.3344      -9784.69545    -17775.29945                  25098979.5054
       196.7844                          7.5004          6.0004
  20879459.0774  -17476503.98648 -12977055.06747                  20879459.7544
       635.2044                         28.0004         28.0004
 04  3  1  1 23 30.0020000  0 10G 5G22G18G14G 6G17G 9G15G30G21
  25253829.9404     -95431.34943    -56569.00645                  25253840.2194
       333.8194                          5.5004          5.5004
  24297771.7934   -1273338.30345   -896108.94345                  24297770.8134
       337.7644                         11.5004          9.2504
  23050427.1754   -2982751.03146   1643993.49446                  23050428.4814
       -64.5594                         17.0004         14.5004
  23367753.8664   -6370685.81746  -4759352.95245                  23367758.0824
      1099.2824                         13.0004         11.5004
  23265091.4254   -1891840.01246  -1318238.75246                  23265097.8414
     -3186.0274                         13.5004         12.5004
  24779989.4134   15831856.21842   5073088.05545                  24780009.7574
     -3643.4564                          4.2504          5.0004
  21850030.7754  -12287521.11447  -7584985.10646                  21850033.6434
     -1209.5344                         24.2504         20.7504
  23538017.6714   -6868766.49645  -5194458.63045                  23538021.9934
      2705.4194                         11.2504         10.5004
  25097806.9534     -15831.63044    -22487.48545                  25097826.6984
       206.5064                          6.2504          4.7504
  20875877.2964  -17495326.35547 -12991721.82447                  20875878.0944
       619.7544                         27.7504         28.2504
 04  3  1  1 24  0.0020000  0 10G 5G22G18G14G 6G17G 9G15G30G21
  25251914.3704    -105495.01543    -64410.10245                  25251924.2614
       337.4784                          5.7504          5.2504
  24295835.0564   -1283516.00445   -904039.47745                  24295833.2964
       341.1314                         11.2504          9.2504
  23050788.3604   -2980852.53246   1645472.91546                  23050789.9474
       -61.6354                         15.2504         14.2504
  23361515.1814   -6403469.85546  -4784898.85145                  23361517.5164
      1086.7014                         13.0004         11.0004
  23283286.0534   -1796227.12746  -1243735.32346                  23283292.9864
     -3187.7804                         13.0004         12.2504
  24800819.5324   15941315.02643   5158379.48945                  24800836.7464
     -3653.4114                          5.2504          4.5004
  21856993.2704  -12250932.77447  -7556474.67146                  21856996.1704
     -1229.3064                         24.5004         20.5004
  23522582.5414   -6949878.04545  -5257662.33145                  23522586.7564
      2702.3994                         11.7504         11.0004
  25096602.0494     -22163.90944    -27421.86445                  25096622.9404
       216.0424                          6.5004          5.7504
  20872385.0954  -17513677.93747 -13006021.72847                  20872385.7954
       604.0584                         27.7504         28.5004
 04  3  1  1 24 30.0020000  0 10G 5G22G18G14G 6G17G 9G15G30G21
  25249977.5044    -115670.74243    -72338.63745                  25249985.5324
       340.6464                          5.7504          5.7504
  24293878.4894   -1293797.42845   -912050.81145                  24293877.8154
       344.0264                         11.5004         10.0004
  23051132.3964   -2979044.11546   1646882.14746                  23051133.1194
       -59.2044                         15.7504         14.2504
  23355347.7104   -6435879.61846  -4810153.11245                  23355350.6684
      1073.6664                         12.7504         11.0004
  23301489.9044   -1700565.66246  -1169194.06246                  23301495.8894
     -3189.9134                         13.5004         12.0004
  24821705.6834   16051068.07143   5243900.20045                  24821717.3434
     -3663.7254                          5.7504          6.0004
  21864068.1244  -12213754.06547  -7527504.19946                  21864070.4914
     -1249.5574                         24.5004         20.7504
  23507164.3584   -7030900.93546  -5320796.94645                  23507168.0134
      2698.8404                         12.5004         10.7504
  25095342.5344     -28784.24045    -32580.82445                  25095359.8424
       225.0304                          7.5004          6.2504
  20868982.1804  -17531560.18647 -13019955.92247                  20868982.9444
       587.8034                         27.0004         28.2504
 04  3  1  1 25  0.0020000  0 10G 5G22G18G14G 6G17G 9G15G30G21
  25248020.4494    -125952.47343    -80349.80845                  25248027.9284
       344.6514                          5.0004          5.2504
  24291902.7554   -1304179.59045   -920140.64345                  24291901.8774
       347.9534                         11.0004          9.5004
  23051460.1494   -2977321.50746   1648224.50846                  23051461.5334
       -55.8124                         16.2504         14.7504
  23349252.2264   -6467910.89746  -4835112.43545                  23349257.0994
      1061.5804                         12.7504         11.2504
  23319703.2534   -1604854.04846  -1094613.71245                  23319709.3504
     -3190.9904                         12.2504         11.5004
  24842648.2234   16161117.72543   5329651.85045                  24842665.3514
     -3673.0554                          5.0004          5.0004
  21871256.0394  -12175981.09847  -7498070.67146                  21871258.5004
     -1268.8134                         25.0004         20.7504
  23491764.2944   -7111828.29146  -5383857.09545                  23491768.0124
      2696.1544                         12.7504         11.5004
  25094029.0354     -35687.73444    -37960.36145                  25094048.3894
       235.0094                          6.5004          5.2504
  20865669.8154  -17548966.67747 -13033519.39447                  20865670.6804
       572.4494                         27.7504         28.5004
 04  3  1  1 25 30.0020000  0 10G 5G22G18G14G 6G17G 9G15G30G21
  25246042.8824    -136341.78742    -88444.65745                  25246052.2534
       347.8764                          4.7504          5.5004
  24289906.9074   -1314666.64445   -928312.20645                  24289907.5794
       351.1274                         10.7504          9.2504
  23051770.9314   -2975688.19546   1649497.28046                  23051772.7544
       -53.1444                         17.5004         14.5004
  23343228.1834   -6499567.10946  -4859779.47845                  23343231.7044
      1048.7564                         13.5004         11.7504
  23337925.0224   -1509098.84746  -1019999.42945                  23337931.2674
     -3192.7304                         13.7504         11.7504
  24863646.1004   16271458.23542   5415630.23945                  24863661.0874
     -3683.0434                          4.5004          5.7504
  21878556.3344  -12137617.78447  -7468177.14546                  21878558.5074
     -1288.8214                         24.7504         20.5004
  23476382.2594   -7192661.20946  -5446843.68545                  23476385.9684
      2692.6334                         13.2504         11.2504
  25092661.1444     -42877.09144    -43562.62545                  25092677.8754
       244.2044                          7.0004          8.0004
  20862447.7324  -17565898.82648 -13046713.25447                  20862448.4054
       556.2744                         28.5004         28.7504
 04  3  1  1 26  0.0020000  0 10G 5G22G18G14G 6G17G 9G15G30G21
  25244046.5664    -146830.14743    -96616.79645                  25244059.5254
       351.3884                          5.0004          5.7504
  24287892.2884   -1325252.80145   -936561.07245                  24287892.3394
       354.6174                         10.0004          9.7504
  23052065.9534   -2974137.79146   1650705.46246                  23052067.7024
       -50.2124                         17.5004         15.0004
  23337276.6214   -6530842.10045  -4884149.50545                  23337280.5844
      1036.2194                         11.5004         10.5004
  23356155.6364   -1413296.69445   -945348.54845                  23356161.5674
     -3194.0754                         11.7504         11.0004
  24884700.2914   16382094.10242   5501838.59645                  24884720.1114
     -3692.6934                          4.5004          5.5004
  21885970.2074  -12098657.44347  -7437818.38746                  21885972.7894
     -1308.5434                         23.5004         20.5004
  23461019.9544   -7273390.52046  -5509749.54645                  23461023.0694
      2689.3194                         13.7504         11.5004
  25091240.0384     -50345.21444    -49382.06445                  25091261.3774
       253.6584                          6.7504          7.0004
  20859317.5724  -17582347.82847 -13059530.63447                  20859318.3414
       540.3214                         27.2504         28.7504
 04  3  1  1 26 30.0020000  0 10G 5G22G18G14G 6G17G 9G15G30G21
  25242030.3314    -157422.54043   -104869.93845                  25242042.2174
       354.4264                          5.2504          6.2504
  24285857.2854   -1335945.89145   -944893.19945                  24285859.4774
       357.8684                         10.7504          9.7504
  23052343.9614   -2972676.69946   1651844.03746                  23052345.8094
       -47.5804                         17.7504         15.0004
  23331396.3144   -6561742.73546  -4908227.79145                  23331401.2734
      1023.4174                         13.7504         11.5004
  23374393.5224   -1317456.60046   -870668.10545                  23374400.3644
     -3195.6104                         12.7504         11.0004
  24905809.1184   16493016.60942   5588270.24045                  24905832.3564
     -3702.5614                          4.5004          4.7504
  21893496.2964  -12059107.22147  -7406999.98646                  21893498.6174
     -1328.5414                         23.2504         20.5004
  23445676.5044   -7354020.56946  -5572578.06945                  23445679.3364
      2685.6214                         14.2504         11.7504
  25089764.7684     -58098.20445    -55423.53845                  25089784.5634
       262.8244                          8.2504          7.2504
  20856278.3534  -17598318.81247 -13071975.52947                  20856279.3014
       524.0054                         26.5004         28.7504
 04  3  1  1 27  0.0020000  0 10G 5G22G18G14G 6G17G 9G15G30G21
  25239996.0454    -168110.94444   -113197.99445                  25240006.0494
       358.1564                          7.2504          5.2504
  24283803.1444   -1346740.39345   -953304.38145                  24283804.1084
       361.8154                         11.5004         10.5004
  23052606.1054   -2971298.90146   1652917.72246                  23052607.7504
       -44.2444                         17.5004         15.0004
  23325588.4804   -6592262.93946  -4932009.65946                  23325590.6954
      1011.2964                         13.2504         12.0004
  23392639.2094   -1221575.68646   -795955.86045                  23392646.1544
     -3196.3744                         12.7504         11.0004
  24926973.2114   16604229.58743   5674928.13244                  24926995.8184
     -3711.6324                          5.7504          3.5004
  21901135.7114  -12018961.51047  -7375717.56446                  21901138.1074
     -1347.8244                         23.0004         20.5004
  23430353.6884   -7434542.52146  -5635322.35845                  23430356.0024
      2682.5314                         14.5004         11.7504
  25088236.7644     -66129.22645    -61681.64245                  25088255.1414
       272.6184                          8.7504          7.7504
  20853331.7044  -17613803.42147 -13084041.42647                  20853332.6724
       508.3154                         27.2504         28.7504
 04  3  1  1 27 30.0020000  0 10G 5G22G18G14G 6G17G 9G15G30G21
  25237943.0834    -178896.33744   -121601.49445                  25237949.1444
       361.0494                          6.5004          6.5004
  24281728.9624   -1357640.13845   -961797.56245                  24281729.0354
       365.0634                         11.7504         10.2504
  23052851.9354   -2970006.79146   1653924.62746                  23052853.1364
       -41.6804                         17.7504         15.0004
  23319852.4164   -6622405.94646  -4955497.61246                  23319856.1504
       998.4504                         14.5004         12.2504
  23410891.5594   -1125659.46046   -721216.12345                  23410896.7834
     -3197.8154                         12.2504         11.0004
  24948191.8554   16715728.14243   5761808.66644                  24948213.7664
     -3721.3994                          6.0004          4.2504
  21908887.8724  -11978223.31547  -7343973.46646                  21908889.9444
     -1367.8464                         22.2504         20.2504
  23415051.3634   -7514956.54146  -5697982.54545                  23415054.3434
      2678.6044                         13.2504         11.7504
  25086655.2024     -74440.41944    -68158.07645                  25086672.4154
       281.6594                          6.5004          6.5004
  20850477.4644  -17628802.55947 -13095729.04147                  20850478.2064
       491.8234                         27.0004         29.0004
 04  3  1  1 28  0.0020000  0 10G 5G22G18G14G 6G17G 9G15G30G21
  25235872.2714    -189776.41045   -130078.92745                  25235883.7394
       364.4094                          8.0004          6.5004
  24279634.5844   -1368645.98345   -970373.40245                  24279634.8184
       368.8454                         11.7504          9.5004
  23053081.5204   -2968800.19046   1654864.88246                  23053082.8494
       -38.5884                         17.5004         14.0004
  23314188.2354   -6652171.70846  -4978691.62646                  23314191.7814
       986.1264                         14.0004         12.7504
  23429150.1194   -1029710.81746   -646451.09445                  23429155.4534
     -3198.5784                         12.7504         10.7504
  24969464.4364   16827510.29943   5848910.04044                  24969474.0194
     -3730.5254                          5.0004          4.0004
  21916752.7414  -11936892.89647  -7311767.89246                  21916755.3274
     -1387.3354                         23.0004         20.2504
  23399770.0674   -7595259.99146  -5760556.56946                  23399773.3604
      2675.1274                         13.5004         12.0004
  25085020.4064     -83030.91144    -74852.10245                  25085043.0344
       291.2144                          7.2504          7.2504
  20847715.9314  -17643314.39848 -13107036.93047                  20847716.9314
       475.7874                         28.0004         29.0004
 04  3  1  1 28 30.0020000  0 10G 5G22G18G14G 6G17G 9G15G30G21
  25233783.3654    -200751.66945   -138630.51145                  25233793.6914
       367.3384                          7.5004          6.5004
  24277519.4974   -1379760.27245   -979033.76045                  24277519.5814
       372.2244                         11.0004          9.7504
  23053294.4944   -2967680.84546   1655737.15946                  23053295.1994
       -35.9104                         18.5004         14.5004
  23308595.2554   -6681562.57446  -5001593.49146                  23308599.2024
       973.3874                         13.0004         12.2504
  23447413.9424    -933734.55446   -571664.55045                  23447420.5604
     -3199.6884                         12.2504         11.5004
  24990790.0754   16939572.15642   5936229.25844                  24990807.7804
     -3740.1004                          4.2504          3.5004
  21924729.8994  -11894972.52047  -7279102.62346                  21924732.7874
     -1407.2394                         23.2504         20.5004
  23384509.9334   -7675452.08346  -5823043.83245                  23384513.6754
      2671.1114                         12.7504         11.5004
  25083332.4144     -91901.87245    -81764.60645                  25083350.5524
       300.3004                          8.2504          7.5004
  20845047.1764  -17657338.66647 -13117964.89947                  20845048.2764
       459.2564                         27.2504         29.0004
 04  3  1  1 29  0.0020000  0  9G 5G22G18G14G 6G 9G15G30G21
  25231678.0064    -211813.12845   -147249.23345                  25231686.9274
       370.4434                          9.0004          7.0004
  24275384.8274   -1390977.39845   -987774.28045                  24275385.7174
       375.9994                         11.0004         10.0004
  23053492.1204   -2966642.12646   1656546.59146                  23053493.2714
       -32.9224                         17.5004         14.2504
  23303074.9074   -6710571.92946  -5024198.05846                  23303078.0674
       960.9644                         14.7504         13.0004
  23465683.6834    -837726.83045   -496853.48345                  23465690.6134
     -3200.3964                         11.5004         11.0004
  21932820.4814  -11852456.11547  -7245972.91546                  21932823.5314
     -1426.7894                         23.5004         20.7504
  23369272.6324   -7755523.89246  -5885437.35345                  23369276.2264
      2667.3794                         12.2504         10.7504
  25081592.4794    -101045.93245    -88889.95845                  25081611.1264
       309.7024                          7.7504          6.7504
  20842472.8234  -17670866.93047 -13128506.37747                  20842473.8944
       443.0174                         27.5004         29.2504
 04  3  1  1 29 30.0020000  0  9G 5G22G18G14G 6G 9G15G30G21
  25229555.6004    -222964.49545   -155938.01545                  25229565.7014
       373.3954                          8.7504          7.7504
  24273229.3904   -1402303.60746   -996599.77745                  24273230.5644
       379.5704                         12.2504         10.2504
  23053673.4134   -2965689.10446   1657289.25746                  23053674.6924
       -30.1504                         17.7504         14.7504
  23297626.0194   -6739205.65746  -5046509.94546                  23297629.1504
       948.4014                         13.7504         12.7504
  23483957.7834    -741696.42745   -422024.79945                  23483964.2194
     -3201.1934                         11.7504         10.7504
  21941023.3254  -11809349.79347  -7212383.52446                  21941025.7074
     -1446.5214                         24.5004         21.0004
  23354057.7144   -7835478.15646  -5947739.29845                  23354061.4734
      2663.3434                         12.0004         11.5004
  25079799.4944    -110467.96744    -96231.83945                  25079817.8714
       318.8814                          6.5004          6.5004
  20839992.1424  -17683902.94747 -13138664.28947                  20839992.8534
       426.4914                         26.7504         29.0004
 04  3  1  1 30  0.0020000  0  9G 5G22G18G14G 6G 9G15G30G21
  25227415.6844    -234207.45545   -164698.16845                  25227427.0644
       375.6944                          7.5004          6.7504
  24271052.3804   -1413743.27446  -1005513.65245                  24271053.3764
       382.6924                         12.7504         10.7504
  23053837.7444   -2964825.19846   1657962.46346                  23053838.9374
       -27.8624                         17.5004         14.7504
  23292247.8874   -6767467.56746  -5068532.10146                  23292251.6154
       935.3404                         15.5004         13.2504
  23502235.1574    -645648.99745   -347182.82845                  23502242.6384
     -3202.3544                         11.7504         10.5004
  21949337.7054  -11765657.36947  -7178337.42746                  21949340.2404
     -1466.7264                         24.2504         21.0004
  23338864.9844   -7915316.01946  -6009950.54145                  23338868.5684
      2658.7454                         12.5004         11.7504
  25077953.1274    -120170.71044   -103792.43945                  25077974.2494
       327.5484                          6.7504          7.2504
  20837604.8514  -17696448.12647 -13148439.72947                  20837605.2274
       409.4274                         26.2504         28.5004
 04  3  1  1 30 30.0020000  0  9G 5G22G18G14G 6G 9G15G30G21
  25225261.5454    -245524.69944   -173516.27345                  25225273.5614
       378.5094                          7.2504          6.5004
  24268856.5344   -1425281.85145  -1014504.63345                  24268857.5094
       386.3434                         11.2504         11.2504
  23053988.0074   -2964035.14046   1658578.13946                  23053988.8784
       -25.0584                         16.0004         14.7504
  23286943.3564   -6795342.74446  -5090252.91746                  23286946.8994
       922.7844                         14.5004         13.2504
  23520517.9424    -549572.89346   -272318.49345                  23520524.3164
     -3202.9384                         12.2504         10.0004
  21957766.4044  -11721363.99747  -7143823.06346                  21957768.8804
     -1486.3884                         24.0004         21.0004
  23323697.8854   -7995019.55946  -6072057.11345                  23323701.4304
      2654.5724                         13.5004         11.7504
  25076056.4744    -130138.03444   -111559.20245                  25076074.6194
       336.6834                          7.2504          6.5004
  20835314.1984  -17708485.40247 -13157819.39847                  20835314.5854
       392.8154                         26.7504         28.7504
 04  3  1  1 31  0.0020000  0  9G 5G22G18G14G 6G 9G15G30G21
  25223092.1404    -256922.63144   -182397.12945                  25223108.8984
       381.2204                          7.2504          7.5004
  24266640.1314   -1436928.30245
       390.0154                         10.7504
  23054122.7144   -2963326.84446   1659130.10246                  23054123.6944
       -22.2744                         17.2504         14.7504
  23281710.7644   -6822839.58046  -5111678.90346                  23281714.6004
       910.2404                         15.7504         13.2504
  23538804.2044    -453478.64546   -197440.07445                  23538810.1074
     -3203.4284                         12.2504         10.5004
  21966307.8274  -11676478.39547  -7108847.22446                  21966310.3814
     -1506.0674                         24.5004         21.2504
  23308555.3434   -8074594.20346  -6134063.26046                  23308558.4274
      2650.2814                         15.0004         12.2504
  25074108.0624    -140377.32144   -119537.89845                  25074125.0644
       345.8264                          6.7504          6.0004
  20833119.0104  -17720021.07147 -13166808.21047                  20833119.4484
       376.1264                         26.2504         28.7504
 04  3  1  1 31 30.0020000  0  9G 5G22G18G14G 6G 9G15G30G21
  25220907.3694    -268401.58345   -191341.31845                  25220919.2964
       384.0964                          7.7504          7.0004
  24264402.6264   -1448685.79145
       393.9144                         11.5004
  23054241.5694   -2962702.09046   1659616.94846                  23054242.1254
       -19.2944                         17.0004         15.0004
  23276549.6914   -6849960.99046  -5132812.39446                  23276552.4004
       897.9104                         15.7504         12.5004
  23557092.9854    -357371.50046   -122551.54645                  23557100.3064
     -3203.6154                         12.7504         11.0004
  21974961.4024  -11631003.58747  -7073412.25546                  21974963.6954
     -1525.5094                         23.7504         20.7504
  23293437.3114   -8154039.73846  -6195968.78146                  23293439.0644
      2646.1324                         15.0004         12.0004
  25072107.4434    -150890.10544   -127729.57545                  25072125.8524
       355.1354                          7.0004          6.5004
  20831019.1984  -17731055.59847 -13175406.52447                  20831019.6964
       359.5784                         26.7504         28.7504
 04  3  1  1 32  0.0020000  0  9G 5G22G18G14G 6G 9G15G30G21
  25218706.7724    -279963.25444   -200349.91245                  25218713.4164
       386.7644                          6.7504          7.0004
  24262143.2574   -1460558.39745     -3402.54255                  24262144.7504
       397.7014                         11.5004         11.0004
  23054343.9294   -2962164.25046   1660036.09446                  23054345.2264
       -16.4784                         18.7504         15.5004
  23271459.3114   -6876710.39646  -5153655.98446                  23271462.1994
       885.4564                         14.5004         12.5004
  23575382.9934    -261257.88746    -47658.02745                  23575388.1854
     -3203.8674                         13.2504         10.7504
  21983726.2554  -11584943.74147  -7037521.41346                  21983728.2984
     -1545.0754                         23.5004         20.7504
  23278343.7434   -8233356.85046  -6257774.26446                  23278346.4834
      2641.7334                         14.5004         12.0004
  25070054.3974    -161679.11445   -136136.45845                  25070076.3754
       364.2284                          8.7504          6.7504
  20829014.4074  -17741590.74347 -13183615.70547                  20829015.2664
       342.8404                         26.7504         29.0004
 04  3  1  1 32 30.0020000  0  9G 5G22G18G14G 6G 9G15G30G21
  25216492.5174    -291597.33545   -209414.91145                  25216499.1864
       389.0394                          8.2504          7.0004
  24259863.4154   -1472538.79646    -12737.80445                  24259864.2934
       401.2114                         12.7504         11.2504
  23054431.3184   -2961705.00346   1660393.98146                  23054432.7004
       -13.9434                         18.0004         15.0004
  23266441.1834   -6903080.18546  -5174203.77645                  23266445.6294
       872.7504                         14.0004         11.7504
  23593675.2144    -165132.25546     27244.89445                  23593681.3004
     -3204.2794                         12.7504         11.0004
  21992603.8734  -11538291.31747  -7001168.84246                  21992606.7104
     -1564.8944                         23.0004         20.7504
  23263276.6394   -8312534.74046  -6319471.22046                  23263279.4104
      2636.9834                         14.2504         12.0004
  25067950.5294    -172735.27345   -144751.54545                  25067969.0254
       373.0474                          8.2504          7.2504
  20827106.5434  -17751616.58447 -13191428.02947                  20827107.2654
       325.7494                         27.2504         29.2504
 04  3  1  1 33  0.0020000  0  9G 5G22G18G14G 6G 9G15G30G21
  25214264.7474    -303302.28445   -218535.15445                  25214270.3084
       391.3424                          8.0004          6.5004
  24257562.8094   -1484628.24446    -22158.04245                  24257563.8884
       404.8104                         12.2504         11.0004
  23054503.6874   -2961324.73246   1660690.33146                  23054504.4534
       -11.3614                         17.7504         15.0004
  23261495.0384   -6929071.62946  -5194456.72746                  23261499.1204
       860.0774                         15.0004         13.0004
  23611969.0944     -68997.85146    102154.61645                  23611974.8064
     -3204.5784                         12.2504         10.5004
  22001594.0524  -11491047.46847  -6964355.40246                  22001596.3434
     -1584.6494                         23.5004         20.5004
  23248236.3534   -8391571.52746  -6381058.26946                  23248240.7134
      2632.1904                         13.5004         12.0004
  25065795.6744    -184058.56545   -153574.74345                  25065815.1394
       381.9144                          7.5004          6.0004
  20825295.8294  -17761131.91047 -13198842.55647                  20825296.4304
       308.6484                         27.2504         29.0004
 04  3  1  1 33 30.0020000  0  9G 5G22G18G14G 6G 9G15G30G21
  25212024.3304    -315073.75144   -227707.19245                  25212031.2374
       393.6704                          7.0004          7.0004
  24255241.7074   -1496825.14245    -31662.01745                  24255244.0554
       408.5544                         10.2504         10.2504
  23054561.4994   -2961020.84846   1660927.18146                  23054562.3774
        -8.6664                         17.7504         14.7504
  23256621.3844   -6954682.57346  -5214413.21046                  23256623.9724
       847.5354                         14.7504         12.7504
  23630264.4944      27144.34846    177070.45145                  23630270.8054
     -3204.6594                         12.2504         11.0004
  22010697.0814  -11443210.50147  -6927079.80246                  22010699.0994
     -1604.2634                         24.5004         20.2504
  23233223.8384   -8470462.21946  -6442531.46346                  23233227.5074
      2627.3984                         13.5004         12.5004
  25063590.5724    -195645.69044   -162603.50445                  25063612.0164
       390.8284                          6.2504          7.0004
  20823583.0114  -17770132.79047 -13205856.21647                  20823583.8484
       291.6174                         26.7504         29.0004
 04  3  1  1 34  0.0020000  0  9G 5G22G18G14G 6G 9G15G30G21
  25209770.1694    -326917.27144   -236935.42145                  25209778.5864
       395.9324                          6.7504          6.7504
  24252898.6344   -1509137.37745    -41255.86145                  24252899.2894
       412.3074                         11.7504         10.2504
  23054603.4404   -2960800.37346   1661099.00346                  23054603.7674
        -5.9864                         17.7504         14.7504
  23251818.5974   -6979920.73246  -5234079.20246                  23251821.4994
       835.0434                         12.5004         12.0004
  23648559.4984     123284.39145    251984.54145                  23648565.5614
     -3204.6264                         11.7504         10.7504
  22019911.4624  -11394788.40347  -6889348.25746                  22019913.3204
     -1623.8414                         23.2504         20.2504
  23218238.3174   -8549211.25746  -6503894.26846                  23218242.0064
      2622.5394                         13.5004         12.2504
  25061334.1744    -207502.93444   -171842.72445                  25061352.3834
       399.7214                          7.2504          6.2504
  20821967.0994  -17778624.34547 -13212472.99047                  20821967.5994
       274.5154                         26.5004         28.5004
 04  3  1  1 34 30.0020000  0  9G 5G22G18G14G 6G 9G15G30G21
  25207502.3164    -338832.92545   -246219.91145                  25207511.8694
       398.0014                          8.2504          7.0004
  24250533.0894   -1521567.81245    -50941.83745                  24250533.4934
       415.9704                         11.2504         10.2504
  23054629.2364   -2960664.70146   1661204.78346                  23054629.9814
        -3.4484                         18.0004         15.5004
  23247086.3054   -7004788.44246  -5253456.51846                  23247089.2394
       822.4104                         13.5004         12.2504
  23666853.1524     219417.71145    326893.44145                  23666859.7814
     -3204.6464                         11.2504          9.7504
  22029236.6324  -11345784.16947  -6851163.09146                  22029239.4014
     -1643.5124                         22.7504         20.7504
  23203279.9014   -8627817.90946  -6565146.13846                  23203282.9004
      2617.4694                         14.0004         12.2504
  25059026.1314    -219631.51544   -181293.36745                  25059041.5554
       408.4194                          6.5004          7.0004
  20820447.9884  -17786607.25347 -13218693.41647                  20820448.5874
       257.2524                         27.0004         29.2504
 04  3  1  1 35  0.0020000  0  9G 5G22G18G14G 6G 9G15G30G21
  25205222.9344    -350809.45345   -255551.83645                  25205229.4304
       400.5004                          7.7504          7.0004
  24248146.6664   -1534107.92345    -60713.27245                  24248148.0514
       420.0964                         11.5004         10.2504
  23054640.6594   -2960604.37246   1661251.84646                  23054641.5904
         -.4974                         18.0004         15.0004
  23242426.1804   -7029277.28846  -5272538.65546                  23242428.2924
       810.2434                         14.5004         12.2504
  23685146.7074     315550.53345    401801.92945                  23685154.2594
     -3204.1524                         11.5004         10.0004
  22038674.1524  -11296189.49247  -6812517.85646                  22038676.3174
     -1662.7234                         24.2504         20.0004
  23188350.7564   -8706270.87046  -6626278.25846                  23188352.3384
      2612.7694                         14.7504         12.2504
  25056668.2734    -232021.51744   -190947.72945                  25056687.5444
       417.6134                          6.7504          5.7504
  20819027.7084  -17794070.85847 -13224509.19247                  20819028.3264
       240.3764                         26.5004         28.7504
 04  3  1  1 35 30.0020000  0  9G 5G22G18G14G 6G 9G15G30G21
  25202929.2044    -362861.01044   -264942.22645                  25202937.8844
       402.8844                          6.5004          6.7504
  24245736.2284   -1546774.53246    -70583.28145                  24245735.5914
       424.2724                         12.5004         10.2504
  23054634.7104   -2960635.30646   1661227.78646                  23054635.6504
         2.4914                         17.5004         15.2504
  23237835.0994   -7053403.57246  -5291338.24646                  23237838.2984
       798.0974                         14.2504         12.7504
  23703436.6474     411663.90745    476695.24045                  23703442.9654
     -3203.4874                         11.0004         10.5004
  22048220.8244  -11246021.13547  -6773425.58446                  22048223.0374
     -1681.9024                         22.7504         20.0004
  23173448.3624   -8784583.27846  -6687300.86346                  23173450.9354
      2607.9784                         14.0004         12.0004
  25054257.7994    -244688.02643   -200817.38145                  25054279.0904
       426.7504                          6.0004          6.5004
  20817703.5874  -17801029.05947 -13229931.14347                  20817704.2834
       223.4324                         26.5004         29.0004
 04  3  1  1 36  0.0020000  0  9G 5G22G18G14G 6G 9G15G30G21
  25200623.5964    -374974.54143   -274380.93145                  25200633.1084
       404.8624                          5.5004          6.5004
  24243303.7904   -1559557.28646    -80543.81145                  24243305.3574
       428.1064                         13.5004         10.5004
  23054613.5664   -2960746.24046   1661141.38946                  23054614.5474
         5.1324                         17.5004         15.0004
  23233314.9214   -7077157.12046  -5309847.40746                  23233316.7294
       785.6724                         14.2504         12.7504
  23721724.4744     507765.99945    551579.74945                  23721732.4904
     -3203.0824                         11.7504         10.5004
  22057878.6054  -11195268.99347  -6733878.41346                  22057880.2274
     -1701.3704                         23.0004         19.7504
  23158575.2824   -8862741.51646  -6748203.30046                  23158578.1114
      2602.7654                         15.5004         13.0004
  25051796.9174    -257619.29643   -210893.31045                  25051816.4674
       435.5374                          5.5004          5.2504
  20816477.9324  -17807469.68047 -13234949.78947                  20816478.6154
       206.1344                         25.5004         28.7504
 04  3  1  1 36 30.0020000  0  9G 5G22G18G14G 6G 9G15G30G21
  25198306.4894    -387148.77943   -283866.95345                  25198310.8794
       406.7424                          6.0004          6.2504
  24240849.0464   -1572457.55046    -90595.88345                  24240849.8484
       431.9154                         14.2504         10.7504
  23054577.0834   -2960937.74746   1660992.19546                  23054578.0964
         7.6484                         18.0004         15.2504
  23228865.4184   -7100538.84546  -5328066.82946                  23228867.6124
       773.1224                         13.7504         12.5004
  23740009.5384     603853.69245    626453.05445                  23740015.9934
     -3202.7224                         11.0004          9.2504
  22067647.1704  -11143934.58947  -6693877.54246                  22067649.6994
     -1720.9134                         22.0004         20.0004
  23143731.9634   -8940743.59346  -6808984.07146                  23143734.6534
      2597.3834                         16.5004         13.5004
  25049285.7084    -270815.00444   -221175.35145                  25049301.4394
       444.1734                          6.2504          5.5004
  20815351.0194  -17813391.54547 -13239564.20347                  20815351.5354
       188.6634                         26.7504         28.7504
 04  3  1  1 37  0.0020000  0  9G 5G22G18G14G 6G 9G15G30G21
  25195977.7594    -399384.28943   -293400.70845                  25195985.3854
       409.0934                          5.5004          6.2504
  24238371.2144   -1585478.70646   -100742.16345                  24238371.1374
       436.2944                         14.2504         10.7504
  23054524.8814   -2961211.72346   1660778.75946                  23054525.7394
        10.7574                         17.0004         14.7504
  23224485.9964   -7123552.17946  -5345999.17446                  23224489.2664
       761.2144                         15.7504         13.7504
  23758290.7434     699921.37345    701310.80345                  23758296.6694
     -3201.6424                          9.7504          9.7504
  22077525.9304  -11092021.30847  -6653425.60646                  22077528.2364
     -1739.8454                         21.7504         19.7504
  23128918.4134   -9018589.49946  -6869643.17346                  23128920.8304
      2592.4874                         16.5004         13.5004
  25046723.7344    -284276.91943   -231664.82845                  25046741.9204
       453.4204                          5.2504          5.2504
  20814322.6484  -17818795.70247 -13243775.21347                  20814323.3174
       171.7484                         26.2504         29.0004
 04  3  1  1 37 30.0020000  0  9G 5G22G18G14G 6G 9G15G30G21
  25193638.0154    -411677.92444   -302979.74245                  25193644.7524
       410.9954                          6.2504          6.7504
  24235870.5454   -1598619.96846   -110982.03845                  24235869.8924
       440.3284                         13.2504         11.2504
  23054457.2514   -2961566.66446   1660502.22446                  23054457.3004
        13.4464                         16.7504         14.7504
  23220176.9104   -7146196.30946  -5363643.85146                  23220179.3574
       748.9204                         15.7504         13.5004
  23776567.8094     795967.36045    776151.57745                  23776575.0434
     -3200.8714                          9.5004          9.5004
  22087514.9034  -11039528.91347  -6612522.39346                  22087516.7274
     -1759.1224                         22.7504         20.2504
  23114135.2794   -9096275.28246  -6930177.47146                  23114137.4464
      2587.0954                         16.2504         14.2504
  25044111.6414    -298002.85344   -242360.10945                  25044128.3534
       462.1874                          7.2504          5.2504
  20813393.3154  -17823679.34447 -13247580.63347                  20813394.2344
       154.3584                         25.2504         28.7504
 04  3  1  1 38  0.0020000  0  9G 5G22G18G14G 6G 9G15G30G21
  25191287.7554    -424026.91845   -312601.91945                  25191293.4894
       412.6144                          7.5004          6.7504
  24233346.9564   -1611881.14946   -121315.32145                  24233347.4454
       444.1444                         12.7504         10.7504
  23054374.4044   -2962001.55946   1660163.38846                  23054375.2814
        15.9074                         16.2504         15.0004
  23215938.0974   -7168471.01746  -5381000.67346                  23215941.1724
       736.4244                         16.5004         13.5004
  23794840.4284     891989.75045    850973.96345                  23794847.9514
     -3200.2584                         10.0004          9.7504
  22097614.0274  -10986457.49647  -6571167.98946                  22097616.0284
     -1778.6044                         23.0004         19.7504
  23099383.3074   -9173797.33046  -6990584.20646                  23099386.0764
      2581.3944                         16.5004         13.5004
  25041449.4354    -311990.96743   -253259.41245                  25041470.0314
       470.7324                          5.5004          5.2504
  20812563.4104  -17828040.30347 -13250978.76847                  20812564.4034
       136.7084                         25.2504         28.5004
 04  3  1  1 38 30.0020000  0  9G 5G22G18G14G 6G 9G15G30G21
  25188928.0634    -436425.92445   -322263.06645                  25188934.2804
       414.0174                          7.7504          8.2504
  24230801.0054   -1625259.76746   -131740.16245                  24230801.9534
       447.8514                         12.5004         10.2504
  23054277.0444   -2962512.75346   1659765.11546                  23054277.3034
        18.2314                         16.5004         15.0004
  23211770.1174   -7190373.76146  -5398067.65846                  23211772.6174
       723.7994                         16.2504         13.2504
  23813108.6504     987989.24645    925778.49245                  23813115.3364
     -3199.6524                          8.7504          9.5004
  22107823.7104  -10932805.00647  -6529360.82846                  22107824.9774
     -1798.1664                         22.7504         19.5004
  23084663.5294   -9251149.85846  -7050858.81946                  23084665.7444
      2575.4774                         15.0004         13.5004
  25038738.2574    -326237.04944   -264359.88045                  25038755.1664
       479.0794                          6.5004          5.5004
  20811833.9514  -17831873.45947 -13253965.62747                  20811834.8764
       118.8894                         25.0004         28.5004
 04  3  1  1 39  0.0020000  0  9G 5G22G18G14G 6G 9G15G30G21
  25186558.0264    -448879.16045   -331966.49445                  25186566.6604
       415.6064                          7.7504          7.7504
  24228231.2184   -1638763.21446   -142262.25445                  24228231.4674
       451.8394                         12.7504         10.7504
  23054164.0494   -2963106.37846   1659302.59646                  23054164.7184
        20.8144                         18.0004         14.7504
  23207671.5254   -7211911.68546  -5414850.37046                  23207673.8414
       711.4784                         15.0004         13.0004
  23831370.8514    1083956.55145   1000557.98045                  23831377.7994
     -3198.6924                          9.7504         10.0004
  22118142.5034  -10878579.16847  -6487106.88746                  22118144.8034
     -1817.4324                         22.2504         19.5004
  23069975.2714   -9328336.70346  -7111004.36246                  23069977.2684
      2569.7554                         16.2504         13.7504
  25035976.9454    -340746.94345   -275665.72745                  25035995.2694
       487.6844                          9.0004          7.0004
  20811203.8994  -17835184.33647 -13256545.50847                  20811204.4654
       101.2954                         25.2504         28.5004
 04  3  1  1 39 30.0020000  0  9G 5G22G18G14G 6G 9G15G30G21
  25184179.6984    -461375.57944   -341703.52045                  25184187.7244
       417.4464                          6.5004          8.0004
  24225639.3884   -1652382.34945   -152874.47745                  24225638.9284
       456.1374                         11.5004          9.7504
  23054037.2644   -2963772.58646   1658783.51546                  23054038.2314
        23.6154                         17.5004         14.7504
  23203643.9584   -7233075.99146  -5431341.93146                  23203647.9114
       699.4724                         14.0004         13.5004
  23849628.1244    1179898.43645   1075317.64745                  23849635.0234
     -3197.3814                          9.0004          9.2504
  22128572.0374  -10823771.49847  -6444399.56946                  22128574.2544
     -1836.4014                         23.2504         20.0004
  23055320.9114   -9405345.70946  -7171011.33446                  23055323.1374
      2564.1844                         16.2504         13.5004
  25033167.4574    -355510.06145   -287168.96545                  25033179.9624
       496.5194                          7.5004          6.5004
  20810675.3254  -17837961.98747 -13258709.89147                  20810676.0434
        83.8934                         25.2504         28.7504
 04  3  1  1 40  0.0020000  0  9G 5G22G18G14G 6G 9G15G30G21
  25181792.0174    -473921.33444   -351479.01245                  25181800.6554
       418.9804                          6.5004          8.5004
  24223023.9474   -1666126.28446   -163583.94045                  24223024.7704
       460.1884                         13.0004         11.0004
  23053895.1824   -2964519.11546   1658201.85346                  23053895.6654
        26.2054                         17.2504         15.0004
  23199685.7794   -7253875.64746  -5447549.36846                  23199688.9334
       687.2204                         14.0004         12.7504
  23867878.4864    1275803.85145   1150048.85645                  23867886.2444
     -3196.2384                          8.7504          9.2504
  22139110.4924  -10768391.29247  -6401246.11246                  22139111.9494
     -1855.5614                         22.5004         19.5004
  23040699.3064   -9482182.36646  -7230883.98946                  23040701.8754
      2558.2784                         16.0004         13.7504
  25030308.0864    -370533.76743   -298875.25045                  25030327.9054
       505.1104                          5.0004          5.7504
  20810246.9874  -17840212.75847 -13260463.72147                  20810247.4924
        66.1974                         25.2504         28.7504
 04  3  1  1 40 30.0020000  0  9G 5G22G18G14G 6G 9G15G30G21
  25179396.3494    -486509.15844   -361287.31245                  25179402.2284
       420.3894                          6.5004          7.0004
  24220385.7814   -1679990.10746   -174386.85045                  24220384.9944
       464.2814                         13.2504         11.2504
  23053738.7694   -2965340.64746   1657561.75646                  23053740.2474
        28.7614                         17.0004         14.2504
  23195797.8914   -7274306.04946  -5463469.05746                  23195799.8714
       674.9824                         14.0004         12.7504
  23886122.3104    1371674.90645   1224753.31945                  23886129.6784
     -3194.9544                          8.7504          9.2504
  22149758.7114  -10712434.34447  -6357643.26046                  22149760.3264
     -1874.6994                         23.0004         19.7504
  23026112.0514   -9558838.47446  -7290615.96646                  23026114.7344
      2552.3014                         16.7504         14.5004
  25027400.2744    -385811.75643   -310779.72943                  25027417.8204
       513.6314                          5.0004          3.0004
  20809920.1324  -17841930.18147 -13261801.94747                  20809920.9094
        48.4874                         25.2504         28.7504
 04  3  1  1 41  0.0020000  0  9G 5G22G18G14G 6G 9G15G30G21
  25176992.7674    -499138.42845   -371127.94245                  25176999.1904
       421.7964                          8.7504          8.0004
  24217724.3344   -1693975.89346   -185284.79245                  24217723.9584
       468.3944                         12.7504         11.0004
  23053568.0284   -2966237.65846
        31.3334                         17.7504
  23191979.8894   -7294369.13846  -5479102.50946                  23191982.4084
       662.8264                         14.0004         13.2504
  23904358.9274    1467507.89545   1299428.10845                  23904365.3534
     -3193.6244                          9.7504         10.0004
  22160516.2224  -10655903.12847  -6313592.91646                  22160518.4374
     -1893.7674                         22.7504         19.7504
  23011559.3794   -9635313.04646  -7350206.49446                  23011562.1224
      2546.2664                         16.5004         14.0004
  25024444.1444    -401344.55644   -322882.54045                  25024458.2594
       522.1444                          7.2504          4.5004
  20809694.7334  -17843114.58347 -13262724.85247                  20809695.8874
        30.7354                         24.7504         29.0004
 04  3  1  1 41 30.0020000  0  9G 5G22G18G14G 6G 9G15G30G21
  25174580.6974    -511812.53745   -381003.47245                  25174587.2054
       422.9044                          7.7504          8.5004
  24215038.5124   -1708089.90446   -196282.63445                  24215037.8524
       472.3474                         14.2504         11.5004
  23053381.8594   -2967215.93946
        33.6764                         17.0004
  23188230.5414   -7314071.53546  -5494454.94746                  23188233.2404
       650.4614                         14.5004         13.0004
  23922586.8024    1563294.80845   1374066.93845                  23922592.6264
     -3192.3374                          9.2504         10.2504
  22171381.7294  -10598804.46247  -6269100.42146                  22171383.6324
     -1913.0064                         22.2504         19.7504
  22997040.6704   -9711609.20046  -7409657.99546                  22997043.1154
      2539.9244                         16.7504         14.0004
  25021438.6514    -417136.63043   -335187.52345                  25021449.2054
       530.4594                          6.0004          5.7504
  20809570.0504  -17843769.77947 -13263235.37847                  20809570.9354
        12.7364                         25.0004         29.0004
 04  3  1  1 42  0.0020000  0  9G 5G22G18G14G 6G 9G15G30G21
  25172161.3154    -524524.65244   -390908.67645                  25172165.6694
       424.1814                          7.0004          7.0004
  24212329.0554   -1722328.07746   -207377.24645                  24212328.7934
       476.5274                         13.2504         11.2504
  23053181.2794   -2968269.88946         -.65056                  23053182.0374
        36.2204                         17.2504         14.7504
  23184550.6134   -7333409.20146  -5509523.16146                  23184554.1994
       638.3494                         14.5004         13.2504
  23940806.1564    1659037.07545   1448671.02245                  23940813.1064
     -3190.7894                          8.2504          9.2504
  22182355.8834  -10541134.74747  -6224162.92346                  22182357.6394
     -1931.9914                         22.5004         19.7504
  22982557.3234   -9787719.46046  -7468964.63946                  22982560.1414
      2533.7134                         15.2504         13.5004
  25018384.8654    -433182.23244   -347690.02245                  25018404.0954
       538.9184                          6.2504          5.0004
  20809547.1674  -17843889.95547 -13263329.00447                  20809548.0304
        -5.0904                         25.2504         28.7504
 04  3  1  1 42 30.0020000  0  9G 5G22G18G14G 6G 9G15G30G21
  25169734.8844    -537273.93944   -400842.78345                  25169739.2044
       425.5304                          6.5004          7.2504
  24209595.6754   -1736691.86146   -218569.73245                  24209594.7514
       480.8434                         14.0004         11.2504
  23052966.1794   -2969400.09046      -881.30046                  23052967.4134
        38.8934                         18.0004         15.2504
  23180939.8704   -7352383.71446  -5524308.39246                  23180942.3154
       626.3864                         16.7504         14.2504
  23959016.3144    1754731.18145   1523237.56445                  23959023.7974
     -3189.0184                          9.2504          9.0004
  22193438.1694  -10482896.65147  -6178782.54946                  22193440.5074
     -1950.7884                         21.7504         19.7504
  22968109.6314   -9863642.11646  -7528125.08046                  22968112.0164
      2527.5464                         15.5004         14.0004
  25015282.7324    -449481.50744   -360390.14844                  25015296.4194
       547.4764                          6.2504          4.0004
  20809626.2044  -17843474.56647 -13263005.30847                  20809626.5704
       -22.8454                         24.5004         29.0004
 04  3  1  1 43  0.0020000  0  9G 5G22G18G14G 6G 9G15G30G21
  25167303.1864    -550050.97644   -410798.52545                  25167310.6074
       426.1354                          7.2504          8.0004
  24206839.6214   -1751174.50346   -229854.84045                  24206838.7224
       484.5404                         12.5004         10.7504
  23052738.0994   -2970598.71046     -1815.25646                  23052739.4994
        40.8954                         17.0004         15.5004
  23177399.4664   -7370988.65846  -5538805.64746                  23177402.3634
       613.8034                         16.5004         14.2504
  23977218.1304    1850381.40045   1597769.86745                  23977226.2014
     -3187.7924                          9.0004          8.7504
  22204629.8504  -10424083.84347  -6132954.35146                  22204631.7584
     -1970.2014                         22.2504         19.5004
  22953699.6174   -9939367.01546  -7587131.44246                  22953701.6504
      2520.6424                         16.0004         14.2504
  25012133.9184    -466026.08543   -373281.48044                  25012148.2784
       555.3454                          5.0004          3.7504
  20809808.7074  -17842515.48747 -13262257.96747                  20809809.3194
       -41.2484                         25.5004         29.2504
 04  3  1  1 43 30.0020000  0  9G 5G22G18G14G 6G 9G15G30G21
  25164865.1124    -562861.90545   -420780.69645                  25164871.1974
       427.3064                          7.5004          7.7504
  24204059.2724   -1765784.75945   -241239.40845                  24204058.1384
       488.8744                         11.7504         10.7504
  23052495.3924   -2971873.85546     -2808.84746                  23052496.2304
        43.5314                         17.0004         15.0004
  23173927.6484   -7389232.90846  -5553021.86146                  23173930.6744
       601.8694                         16.2504         13.7504
  23995409.8194    1945977.99245   1672260.38845                  23995416.3694
     -3185.8684                          9.5004          9.2504
  22215929.1184  -10364705.80347  -6086685.69746                  22215930.7944
     -1988.9324                         22.0004         19.2504
  22939326.1914  -10014899.68746  -7645988.02146                  22939328.7034
      2514.2694                         16.5004         14.5004
  25008937.0844    -482823.03442
       563.8274                          4.7504
  20810093.4214  -17841019.32947 -13261092.11647                  20810093.8344
       -59.1074                         25.7504         29.5004
 04  3  1  1 44  0.0020000  0  9G 5G22G18G14G 6G 9G15G30G21
  25162422.3334    -575697.49445   -430782.05445                  25162429.1304
       428.2144                          7.7504          8.5004
  24201255.8574   -1780515.88745   -252718.11845                  24201256.3594
       493.0254                         11.7504         10.7504
  23052239.6514   -2973217.50346     -3855.79346                  23052240.4654
        45.9134                         17.5004         15.0004
  23170525.7384   -7407109.92846  -5566951.94346                  23170527.6014
       589.7774                         16.5004         13.5004
  24013591.9614    2041524.46445   1746711.82445                  24013600.4084
     -3184.0414                          9.7504          9.2504
  22227337.0964  -10304756.36147  -6039971.80346                  22227339.1354
     -2007.8504                         22.2504         19.2504
  22924991.2814  -10090230.02146  -7704686.92546                  22924994.7774
      2507.5994                         17.7504         15.0004
  25005693.9204    -499864.01644
       572.0774                          7.0004
  20810482.0184  -17838977.27247 -13259500.88547                  20810482.8554
       -77.2024                         25.0004         29.7504
 04  3  1  1 44 30.0020000  0  9G 5G22G18G14G 6G 9G15G30G21
  25159975.2944    -588555.38844   -440800.81745                  25159981.7344
       428.9904                          6.7504          7.2504
  24198429.4694   -1795368.42146   -264291.47245                  24198428.8884
       497.2074                         13.0004         11.0004
  23051971.0184   -2974629.17946     -4955.77646                  23051971.1304
        48.2424                         18.2504         14.7504
  23167193.5014   -7424620.73046  -5580596.61146                  23167196.4644
       577.6644                         16.5004         13.7504
  24031764.1964    2137018.88345   1821122.73945                  24031771.4224
     -3182.1864                         10.0004          9.7504
  22238853.5274  -10244236.92847  -5992813.76246                  22238855.6734
     -2026.7314                         21.7504         19.0004
  22910695.3504  -10165355.38246  -7763226.12046                  22910698.7224
      2500.8074                         16.5004         15.0004
  25002404.5404    -517147.84844      -451.65955                  25002421.2554
       580.2154                          7.0004          5.7504
  20810974.7084  -17836388.18847 -13257483.40947                  20810975.2434
       -95.3724                         25.7504         29.5004
 04  3  1  1 45  0.0020000  0  9G 5G22G18G14G 6G 9G15G30G21
  25157522.3144    -601444.52045   -450843.97645                  25157527.3834
       430.1414                          9.0004          8.2504
  24195577.9164   -1810353.30146   -275967.94345                  24195577.6714
       501.7074                         13.2504         11.0004
  23051687.5824   -2976118.58146     -6116.32146                  23051687.6934
        50.9544                         17.7504         15.2504
  23163928.8394   -7441776.45546  -5593964.61846                  23163930.3834
       565.9474                         16.0004         13.2504
  24049924.0054    2232447.75945   1895482.56545                  24049931.3654
     -3179.8454                          9.7504          9.7504
  22250476.1364  -10183159.45347  -5945220.88146                  22250478.6604
     -2045.2034                         21.2504         19.0004
  22896436.9814  -10240283.41146  -7821611.53346                  22896440.0664
      2494.2794                         17.2504         15.5004
  24999066.9214    -534684.01543    -14115.58545                  24999083.7474
       588.7394                          5.7504          5.2504
  20811569.7164  -17833261.33947 -13255046.88947                  20811570.7364
      -113.1974                         25.5004         29.2504
 04  3  1  1 45 30.0020000  0  9G 5G22G18G14G 6G 9G15G30G21
  25155065.2684    -614355.19645   -460903.94145                  25155069.6394
       430.5744                          7.7504          7.2504
  24192702.4134   -1825463.91846   -287742.36045                  24192702.2114
       505.6374                         13.5004         11.0004
  23051390.7404   -2977678.41046     -7331.74146                  23051392.3174
        53.0224                         17.7504         15.2504
  23160732.8944   -7458570.92146  -5607051.16146                  23160735.4704
       553.6614                         16.0004         13.2504
  24068072.1064    2327815.64745   1969794.80445                  24068081.5544
     -3178.0154                          9.0004          9.5004
  22262205.9964  -10121518.40247  -5897188.85646                  22262207.7294
     -2064.2284                         21.0004         18.7504
  22882218.0534  -10315004.18546  -7879835.48546                  22882220.2584
      2487.0814                         16.2504         14.7504
  24995682.9924    -552464.49644    -27969.75045                  24995700.5834
       596.5744                          6.7504          5.2504
  20812268.5804  -17829588.79347 -13252185.16247                  20812269.3814
      -131.6704                         26.2504         29.5004
 04  3  1  1 46  0.0020000  0  9G 5G22G18G14G 6G 9G15G30G21
  25152605.4494    -627279.53045   -470974.52545                  25152612.3254
       431.2144                          7.5004          7.2504
  24189804.0394   -1840694.98146   -299610.65845                  24189802.8664
       509.8964                         13.0004         11.5004
  23051081.7264   -2979302.16146     -8596.96046                  23051082.4454
        55.3814                         18.0004         15.5004
  23157606.6164   -7474999.22546  -5619852.31546                  23157608.2654
       541.7034                         16.0004         13.5004
  24086209.1824    2423125.32245   2044061.74445                  24086216.9794
     -3175.7854                          9.2504         10.0004
  22274043.9184  -10059309.27547  -5848714.16846                  22274046.0474
     -2082.8924                         20.2504         17.5004
  22868040.0774  -10389509.52746  -7937891.52546                  22868042.9314
      2480.0894                         16.7504         14.5004
  24992253.7824    -570482.24344    -42008.94945                  24992266.4044
       604.7454                          6.2504          5.5004
  20813072.6484  -17825363.32147 -13248892.56947                  20813073.7744
      -149.8844                         25.5004         29.2504
 04  3  1  1 46 30.0020000  0  9G 5G22G18G14G 6G 9G15G30G21
  25150142.6644    -640220.66645   -481058.20445                  25150149.9044
       431.6914                          8.0004          6.2504
  24186881.6164   -1856052.27746   -311577.31945                  24186880.6384
       514.0814                         12.7504         10.2504
  23050759.6954   -2980994.49646     -9915.62846                  23050760.4584
        57.6064                         17.7504         15.7504
  23154548.8504   -7491067.61946  -5632373.04946                  23154550.4824
       529.6714                         16.2504         14.5004
  24104333.8274    2518369.44945   2118277.58345                  24104341.2474
     -3173.6144                          9.7504          9.2504
  22285988.7154   -9996538.58146  -5799801.89346                  22285990.2284
     -2101.6514                         19.7504         18.2504
  22853902.6804  -10463801.70446  -7995781.49246                  22853905.3934
      2472.8644                         16.7504         15.0004
  24988778.7924    -588741.36045    -56236.15245                  24988793.2224
       612.6574                          7.5004          6.2504
  20813981.1854  -17820588.90147 -13245172.23647                  20813981.7344
      -168.2544                         25.5004         29.2504
 04  3  1  1 47  0.0020000  0  9G 5G22G18G14G 6G 9G15G30G21
  25147677.5564    -653173.33444   -491150.83645                  25147682.6394
       432.4594                          6.5004          6.7504
  24183935.6204   -1871533.05845
       518.6024                         11.7504
  23050425.2184   -2982752.14646    -11285.19246                  23050426.0154
        60.1854                         17.7504         15.5004
  23151560.0004   -7506773.81146  -5644611.56546                  23151563.7334
       518.0224                         16.0004         13.0004
  24122446.0504    2613548.40445   2192442.58645                  24122453.7874
     -3171.0084                          9.7504          9.0004
  22298040.6834   -9933204.80246  -5750450.85446                  22298043.0344
     -2119.9774                         19.5004         18.0004
  22839806.9584  -10537874.88446  -8053500.81846                  22839809.8194
      2465.9504                         16.5004         14.5004
  24985258.6364    -607237.44544    -70648.02545                  24985274.9234
       621.0064                          7.0004          6.0004
  20814994.9354  -17815261.52247 -13241021.01847                  20814995.4184
      -186.2864                         26.2504         29.5004
 04  3  1  1 47 30.0020000  0  9G 5G22G18G14G 6G 9G15G30G21
  25145209.7144    -666141.00745   -501255.21045                  25145215.3424
       432.2174                          7.7504          6.2504
  24180965.1234   -1887142.90846
       522.2064                         13.0004
  23050077.6114   -2984578.88646    -12708.60046                  23050079.0224
        61.7624                         18.0004         15.7504
  23148638.9404   -7522123.54646  -5656572.28746                  23148641.2094
       505.4514                         16.0004         14.0004
  24140544.5094    2708654.83445   2266551.10045                  24140554.1774
     -3169.2364                         10.0004          9.2504
  22310198.5344   -9869314.56847  -5700666.21746                  22310200.4614
     -2139.2044                         20.0004         18.2504
  22825752.5134  -10611731.12946  -8111051.09146                  22825756.1404
      2457.9724                         16.7504         14.7504
  24981692.7124    -625974.56845    -85247.72245                  24981708.8454
       628.3094                          8.2504          6.2504
  20816113.2304  -17809384.92747 -13236441.83647                  20816113.5784
      -205.3314                         26.0004         29.5004
 04  3  1  1 48  0.0020000  0  9G 5G22G18G14G 6G 9G15G30G21
  25142741.1944    -679111.51544   -511361.76345                  25142748.1844
       432.4654                          6.2504          6.0004
  24177971.8084   -1902872.68746
       526.4124                         13.2504
  23049718.6814   -2986465.18346    -14178.41446                  23049719.7794
        63.9444                         18.5004         15.7504
  23145787.3184   -7537108.37246  -5668248.67246                  23145790.0224
       493.5024                         14.7504         13.7504
  24158630.2674    2803694.95645   2340607.95545                  24158639.5914
     -3166.8154                          8.7504          8.0004
  22322463.8094   -9804859.83546  -5650441.72146                  22322466.3844
     -2157.8134                         19.5004         18.0004
  22811741.6744  -10685358.46646  -8168422.99646                  22811744.3054
      2450.4664                         18.5004         15.2504
  24978082.9504    -644941.89645   -100026.80845                  24978098.9764
       636.1824                          7.5004          5.7504
  20817338.0474  -17802948.54047 -13231426.45847                  20817338.7294
      -223.8004                         26.7504         29.7504
