     2.10           OBSERVATION DATA    G (GPS)             RINEX VERSION / TYPE
teqc  2004Jan13     gpsops              20040302 00:03:49UTCPGM / RUN BY / DATE
Linux 2.0.36|Pentium II|gcc -static|Linux|486/DX+           COMMENT
BIT 2 OF LLI FLAGS DATA COLLECTED UNDER A/S CONDITION       COMMENT
CC2nonCC ESOC Version 6.5, 21 Mar 2012                      COMMENT
CC2nonCC executed 20151123 090148.405                       COMMENT
CC C1, P2 converted to non-CC type                          COMMENT
 average P1-C1 biases applied by CC2nonCC by PRN (ps):      COMMENT
    49          83  1603  -814   652  -551  -447   516 -1531COMMENT
   775        1649   460  -880  -283  -808   141 -5558  -931COMMENT
  -171   683         375   779  1373    84  -124   942  2124COMMENT
  -193                                                      COMMENT
ZAMB                                                        MARKER NAME
34601M001                                                   MARKER NUMBER
GGN                 JPL                                     OBSERVER / AGENCY
T145                ROGUE SNR-8000      3.2.32.11           REC # / TYPE / VERS
372                 AOAD/M_T        NONE                    ANT # / TYPE
  5422185.0218  2920890.1107 -1676726.9836                  APPROX POSITION XYZ
        0.0540        0.0000        0.0000                  ANTENNA: DELTA H/E/N
     1     1                                                WAVELENGTH FACT L1/2
     6    L1    L2    P2    C1    S1    S2                  # / TYPES OF OBSERV
    30.0000                                                 INTERVAL
                                                            COMMENT
This data is provided as a public service by NASA/JPL.      COMMENT
No warranty is expressed or implied regarding suitability   COMMENT
for use.  For further information, contact:                 COMMENT
Dave Stowers, NASA/JPL m/s 238-600                          COMMENT
4800 Oak Grove Drive, Pasadena CA 91109 USA                 COMMENT
                                                            COMMENT
    P1 =    P1  TurboRogue; =    Y1  Benchmark              COMMENT
    L1 = L1(P1) TurboRogue; = L1(Y1) Benchmark              COMMENT
    P2 =    P2  TurboRogue; =    Y2  Benchmark              COMMENT
    L2 = L2(P2) TurboRogue; = L2(Y2) Benchmark              COMMENT
 SNR is mapped to RINEX snr flag value [1,4-9]              COMMENT
    SNR:  >=316 >=100 >=31.6 >=10 >=3.2    >0 bad=0         COMMENT
L1 & L2:      9     8     7     6     5     4     1         COMMENT
teqc windowed: start @ 2004 Mar  1 00:00:00.000             COMMENT
teqc windowed: delta = 86399.000 sec                        COMMENT
  2004     3     1     0     0    0.0000000     GPS         TIME OF FIRST OBS
                                                            END OF HEADER
  4  3  1  0  0  0.0000000  0  8G 4G24G17G 8G13G 7G10G20
 -15210387.25849 -11852213.75246  21881555.514    21881553.571         523.000
        26.000
 -13082511.00248 -10194132.22445  22997940.188    22997936.608         293.000
         9.000
   -901411.67347         0.000           0.000    24707426.190          99.000
         0.000
  -2295560.87048         0.000           0.000    24815225.604         108.000
         0.000
 -10426045.56549  -8124134.17846  22985194.674    22985193.136         323.000
        10.000
 -23810771.89249 -18553815.41647  20528585.968    20528583.241         720.000
        64.000
  -8024179.31548  -6252590.89645  23825501.963    23825497.830         204.000
         5.000
    108509.13348     84599.87344  24899688.524    24899687.897         142.000
         2.000
  4  3  1  0  0 30.0000000  0  8G 4G24G17G 8G13G 7G10G20
 -15202856.41249 -11846345.54746  21882988.229    21882986.592         519.000
        26.000
 -13111703.23648 -10216879.38845  22992383.915    22992381.433         292.000
         9.000
   -955904.84648   -744859.61944  24697059.433    24697056.929         106.000
         1.000
  -2258867.94848         0.000           0.000    24822208.057         117.000
         0.000
 -10462882.33749  -8152838.12446  22978184.239    22978183.302         320.000
        10.000
 -23831671.01749 -18570100.43947  20524609.135    20524606.450         726.000
        64.000
  -8119740.97148  -6327054.40645  23807316.156    23807312.879         217.000
         5.000
    211532.61348    164877.94444  24919292.907    24919292.727         140.000
         2.000
  4  3  1  0  1  0.0000000  0  8G 4G24G17G 8G13G 7G10G20
 -15195279.58149 -11840441.50746  21884429.994    21884428.378         514.000
        26.000
 -13140752.67648 -10239515.27845  22986856.394    22986853.710         300.000
         9.000
  -1010181.60848         0.000           0.000    24686728.117         100.000
         0.000
  -2222466.97948         0.000           0.000    24829134.376         118.000
         0.000
 -10499437.69649  -8181322.78346  22971228.075    22971227.103         320.000
        10.000
 -23852271.05149 -18586152.40047  20520688.959    20520686.207         722.000
        64.000
  -8215089.19948  -6401351.64745  23789172.035    23789168.363         215.000
         4.000
    314603.68248    245193.06144  24938910.161    24938906.741         141.000
         2.000
  4  3  1  0  1 30.0000000  0  8G 4G24G17G 8G13G 7G10G20
 -15187648.20649 -11834494.96746  21885882.222    21885880.586         515.000
        26.000
 -13169650.76248 -10262033.22245  22981356.703    22981354.522         301.000
         9.000
  -1064232.26748         0.000           0.000    24676442.317         100.000
         0.000
  -2186348.66848         0.000           0.000    24836008.130         122.000
         0.000
 -10535699.14549  -8209578.42146  22964328.035    22964326.742         319.000
        10.000
 -23872560.12949 -18601962.06047  20516828.146    20516825.414         727.000
        64.000
  -8310211.84648  -6475473.08845  23771070.863    23771067.446         205.000
         4.000
    417730.20548    325551.42944  24958532.475    24958531.097         141.000
         2.000
  4  3  1  0  2  0.0000000  0  8G 4G24G17G 8G13G 7G10G20
 -15179977.85149 -11828518.05046  21887341.905    21887340.116         511.000
        26.000
 -13198412.72448 -10284445.10045  22975884.592    22975881.256         299.000
         9.000
  -1118071.68947         0.000           0.000    24666196.381          98.000
         0.000
  -2150528.25348         0.000           0.000    24842824.356         119.000
         0.000
 -10571678.27349  -8237614.07046  22957481.594    22957480.228         324.000
        10.000
 -23892550.73849 -18617539.14747  20513023.979    20513021.246         726.000
        65.000
  -8405120.94448  -6549428.12745  23753011.240    23753006.637         217.000
         5.000
    520895.50248    405939.92744  24978162.958    24978161.907         133.000
         2.000
  4  3  1  0  2 30.0000000  0  8G 4G24G17G 8G13G 7G10G20
 -15172271.39349 -11822512.99946  21888808.261    21888806.470         507.000
        26.000
 -13227041.40648 -10306753.13245  22970435.883    22970432.825         288.000
         9.000
  -1171702.29347         0.000           0.000    24655990.337          92.000
         0.000
  -2115008.11548         0.000           0.000    24849583.357         112.000
         0.000
 -10607374.23749  -8265429.08146  22950689.087    22950687.208         318.000
        10.000
 -23912242.77749 -18632883.58447  20509276.677    20509274.107         734.000
        64.000
  -8499816.06548  -6623216.42645  23734991.466    23734986.960         222.000
         6.000
    624095.38548         0.000           0.000    24997799.784         127.000
         0.000
  4  3  1  0  3  0.0000000  0  8G 4G24G17G 8G13G 7G10G20
 -15164521.47249 -11816474.08946  21890283.057    21890281.351         509.000
        26.000
 -13255529.52748 -10328951.62945  22965015.147    22965011.867         292.000
         9.000
  -1225115.78947         0.000           0.000    24645826.535          98.000
         0.000
  -2079780.83348         0.000           0.000    24856286.694         116.000
         0.000
 -10642775.64949  -8293014.56745  22943951.497    22943950.766         322.000
         9.000
 -23931625.85449 -18647987.26947  20505588.243    20505585.493         725.000
        65.000
  -8594286.62248  -6696829.74945  23717014.260    23717009.734         221.000
         5.000
    727336.03148         0.000           0.000    25017446.784         132.000
         0.000
  4  3  1  0  3 30.0000000  0  8G 4G24G17G 8G13G 7G10G20
 -15156731.96049 -11810404.32646  21891765.601    21891763.543         509.000
        26.000
 -13283880.99548 -10351043.65146  22959620.649    22959617.189         303.000
        10.000
  -1278315.44248         0.000           0.000    24635703.087         103.000
         0.000
  -2044849.58648         0.000           0.000    24862934.247         116.000
         0.000
 -10677882.76048  -8320370.73346  22937271.486    22937269.653         312.000
        10.000
 -23950700.85949 -18662850.90047  20501958.397    20501955.765         733.000
        65.000
  -8688532.94048  -6770268.33445  23699078.465    23699074.892         214.000
         5.000
    830612.36148    647277.80144  25037097.459    25037099.250         124.000
         2.000
  4  3  1  0  4  0.0000000  0  8G 4G24G17G 8G13G 7G10G20
 -15148908.50349 -11804308.11146  21893254.016    21893252.343         513.000
        26.000
 -13312101.38948 -10373033.53246  22954250.443    22954246.874         299.000
        10.000
  -1331306.37748  -1037380.74544  24625624.471    24625619.490         101.000
         2.000
  -2010219.69748         0.000           0.000    24869524.434         117.000
         0.000
 -10712697.43249  -8347499.01945  22930645.464    22930644.826         318.000
         9.000
 -23969470.29149 -18677476.42347  20498386.401    20498383.780         718.000
        64.000
  -8782557.15248  -6843533.85045  23681186.381    23681182.703         216.000
         5.000
    933917.80148    727775.60944  25056761.015    25056758.535         129.000
         2.000
  4  3  1  0  4 30.0000000  0  8G 4G24G17G 8G13G 7G10G20
 -15141055.14349 -11798188.59646  21894748.389    21894746.857         516.000
        25.000
 -13340194.63648 -10394924.33845  22948903.639    22948900.692         295.000
         9.000
  -1384091.74247  -1078512.07544  24615577.462    24615574.240          99.000
         1.000
  -1975894.66948         0.000           0.000    24876056.223         109.000
         0.000
 -10747219.88949  -8374399.61846  22924076.599    22924075.384         321.000
        10.000
 -23987935.46949 -18691864.86647  20494872.994    20494870.315         732.000
        64.000
  -8876360.28648  -6916627.10945  23663335.662    23663332.704         229.000
         5.000
   1037247.14148    808291.94644  25076422.254    25076420.731         120.000
         2.000
  4  3  1  0  5  0.0000000  0  8G 4G24G17G 8G13G 7G10G20
 -15133163.20449 -11792039.02046  21896249.971    21896248.659         518.000
        26.000
 -13368151.99548 -10416709.26146  22943584.318    22943580.685         296.000
        10.000
  -1436662.31148         0.000           0.000    24605570.639         107.000
         0.000
  -1941865.17847         0.000           0.000    24882531.191          99.000
         0.000
 -10781437.54349  -8401062.70046  22917565.281    22917564.014         326.000
        10.000
 -24006084.23949 -18706006.75647  20491419.146    20491416.392         720.000
        64.000
  -8969929.92648  -6989538.40345  23645529.460    23645526.904         233.000
         6.000
   1140608.06148         0.000           0.000    25096090.231         129.000
         0.000
  4  3  1  0  5 30.0000000  0  8G 4G24G17G 8G13G 7G10G20
 -15125237.13149 -11785862.84546  21897758.281    21897756.828         517.000
        26.000
 -13395977.81548 -10438391.68746  22938289.298    22938285.200         290.000
        10.000
  -1489022.02747         0.000           0.000    24595606.363          98.000
         0.000
  -1908135.33948         0.000           0.000    24888949.745         101.000
         0.000
 -10815351.00749  -8427488.74646  22911111.825    22911110.994         340.000
        11.000
 -24023918.23949 -18719903.37247  20488025.470    20488022.699         722.000
        64.000
  -9063267.13848  -7062268.60045  23627769.652    23627765.644         236.000
         6.000
   1243994.80148    969394.07444  25115764.562    25115763.166         112.000
         1.000
  4  3  1  0  6  0.0000000  0  8G 4G24G17G 8G13G 7G10G20
 -15117282.67949 -11779664.55746  21899272.171    21899270.603         519.000
        26.000
 -13423678.40748 -10459976.52346  22933018.539    22933014.487         296.000
        10.000
  -1541365.83347         0.000           0.000    24585683.518          74.000
         0.000
  -1874710.80848         0.000           0.000    24895310.233         108.000
         0.000
 -10848962.63649  -8453679.60246  22904715.656    22904714.387         333.000
        10.000
 -24041440.49449 -18733557.07147  20484691.150    20484688.507         726.000
        64.000
  -9156374.87148  -7134819.98545  23610049.874    23610047.131         220.000
         5.000
   1347400.29148   1049969.79044  25135440.802    25135441.489         123.000
         2.000
  4  3  1  0  6 30.0000000  0  8G 4G24G17G 8G13G 7G10G20
 -15109298.95349 -11773443.45346  21900791.207    21900789.921         522.000
        26.000
 -13451252.42148 -10481462.73746  22927770.387    22927767.113         293.000
        10.000
  -1594062.43847         0.000           0.000    24575792.525          70.000
         0.000
  -1841589.75647         0.000           0.000    24901612.597          97.000
         0.000
 -10882267.43249  -8479631.37246  22898379.021    22898376.554         329.000
        10.000
 -24058646.79749 -18746964.57447  20481416.784    20481414.102         719.000
        64.000
  -9249248.44248  -7207188.89145  23592377.111    23592373.722         225.000
         6.000
   1450824.55548   1130560.16544  25155122.692    25155121.676         109.000
         1.000
  4  3  1  0  7  0.0000000  0  7G 4G24G 8G13G 7G10G20
 -15101282.75249 -11767197.04746  21902316.805    21902315.282         523.000
        26.000
 -13478696.95648 -10502848.05846  22922548.368    22922544.572         292.000
        10.000
  -1808768.69948         0.000           0.000    24907858.553         107.000
         0.000
 -10915258.88549  -8505338.97446  22892100.183    22892098.653         331.000
        10.000
 -24075531.23649 -18760121.27447  20478203.836    20478201.176         721.000
        64.000
  -9341881.56948  -7279370.47245  23574749.503    23574746.391         245.000
         6.000
   1554269.51748   1211166.63844  25174812.157    25174807.161         120.000
         2.000
  4  3  1  0  7 30.0000000  0  8G 4G24G17G 8G13G 7G10G20
 -15093241.64549 -11760931.23446  21903847.201    21903845.517         528.000
        27.000
 -13506019.41148 -10524138.25546  22917348.823    22917344.906         288.000
        10.000
        -0.20258         0.000           0.000    24556146.053         109.000
         0.000
  -1776254.84448         0.000           0.000    24914045.605         111.000
         0.000
 -10947940.51849  -8530805.16546  22885881.415    22885879.393         324.000
        10.000
 -24092098.34449 -18773030.70447  20475051.230    20475048.464         716.000
        64.000
  -9434278.34948  -7351367.88645  23557167.593    23557163.965         247.000
         6.000
   1657726.59148   1291782.51344  25194497.317    25194494.095         113.000
         2.000
  4  3  1  0  8  0.0000000  0  8G 4G24G17G 8G13G 7G10G20
 -15085171.68249 -11754642.93746  21905382.878    21905381.227         529.000
        27.000
 -13533216.04148 -10545330.40946  22912172.085    22912169.568         289.000
        10.000
    -51323.48648    -39991.32744  24546382.985    24546379.380         113.000
         2.000
  -1744043.71048         0.000           0.000    24920175.156         105.000
         0.000
 -10980304.92749  -8556024.15846  22879722.036    22879720.402         319.000
        10.000
 -24108341.21549 -18785687.48047  20471960.432    20471957.646         720.000
        63.000
  -9526431.61248  -7423175.55145  23539630.906    23539627.684         242.000
         6.000
   1761198.68748         0.000           0.000    25214184.691         113.000
         0.000
  4  3  1  0  8 30.0000000  0  8G 4G24G17G 8G13G 7G10G20
 -15077078.42149 -11748336.48546  21906923.049    21906921.315         531.000
        27.000
 -13560292.54348 -10566428.95146  22907020.729    22907017.294         294.000
        10.000
   -102443.55347         0.000           0.000    24536650.821          97.000
         0.000
  -1712140.41748         0.000           0.000    24926246.586         122.000
         0.000
 -11012353.98349  -8580997.41646  22873622.726    22873621.816         326.000
        10.000
 -24124262.76149 -18798093.87447  20468930.471    20468927.753         716.000
        64.000
  -9618343.83548  -7494795.35945  23522141.856    23522137.296         246.000
         7.000
   1864678.91048         0.000           0.000    25233876.099         119.000
         0.000
  4  3  1  0  9  0.0000000  0  8G 4G24G17G 8G13G 7G10G20
 -15068959.41849 -11742009.97046  21908467.703    21908466.174         527.000
        27.000
 -13587246.29748 -10587431.83646  22901891.581    22901887.957         288.000
        10.000
   -153357.01148         0.000           0.000    24526962.237         106.000
         0.000
  -1680541.81048         0.000           0.000    24932259.292         127.000
         0.000
 -11044081.49349  -8605720.12946  22867585.598    22867584.311         328.000
        10.000
 -24139857.36349 -18810245.50847  20465962.756    20465960.088         716.000
        64.000
  -9710009.27448  -7566222.89745  23504697.973    23504694.002         258.000
         7.000
   1968168.72448         0.000           0.000    25253569.217         110.000
         0.000
  4  3  1  0  9 30.0000000  0  8G24G17G 4G 8G13G 7G10G20
 -13614077.51848 -10608339.24746  22896785.538    22896781.971         283.000
        10.000
   -204063.69548         0.000           0.000    24517313.762         113.000
         0.000
 -15060814.76449 -11735663.47346  21910017.685    21910016.151         527.000
        27.000
  -1649247.70448         0.000           0.000    24938214.561         134.000
         0.000
 -11075483.87849  -8630189.48446  22861610.554    22861608.515         336.000
        11.000
 -24155122.33249 -18822140.28547  20463057.950    20463055.241         716.000
        64.000
  -9801424.94048  -7637455.82445  23487300.661    23487298.182         250.000
         6.000
   2071666.80948   1614333.43544  25273263.852    25273264.697         120.000
         1.000
  4  3  1  0 10  0.0000000  0  8G24G17G 4G 8G13G 7G10G20
 -13640788.94448 -10629153.32045  22891703.073    22891699.006         285.000
         9.000
   -254565.84448   -198361.82944  24507706.451    24507703.484         113.000
         2.000
 -15052647.02749 -11729298.99546  21911572.368    21911570.332         522.000
        27.000
  -1618260.25548         0.000           0.000    24944110.940         124.000
         0.000
 -11106560.63949  -8654405.11846  22855696.594    22855694.965         342.000
        11.000
 -24170057.43549 -18833778.02347  20460215.918    20460213.236         723.000
        64.000
  -9892590.23648  -7708493.63945  23469953.389    23469949.914         260.000
         7.000
   2175169.23748         0.000           0.000    25292960.315         112.000
         0.000
  4  3  1  0 10 30.0000000  0  8G24G17G 4G 8G13G 7G10G20
 -13667380.35448 -10649873.86846  22886643.040    22886638.984         289.000
        10.000
   -304862.72548         0.000           0.000    24498132.296         114.000
         0.000
 -15044456.00849 -11722916.37246  21913130.625    21913129.022         521.000
        26.000
  -1587578.45048         0.000           0.000    24949949.606         126.000
         0.000
 -11137307.21749  -8678363.46246  22849845.630    22849844.320         352.000
        10.000
 -24184659.41349 -18845156.18447  20457437.158    20457434.578         725.000
        64.000
  -9983501.31648  -7779333.37845  23452652.818    23452650.059         254.000
         7.000
   2278675.52748   1775638.91044  25312659.937    25312656.335         112.000
         1.000
  4  3  1  0 11  0.0000000  0  8G24G17G 4G 8G13G 7G10G20
 -13693851.45648 -10670500.67346  22881604.797    22881601.753         292.000
        10.000
   -354953.25348         0.000           0.000    24488599.991         111.000
         0.000
 -15036241.02349 -11716515.07146  21914693.745    21914692.210         516.000
        26.000
  -1557201.18348         0.000           0.000    24955730.508         135.000
         0.000
 -11167719.76849  -8702061.53146  22844057.536    22844056.601         344.000
        11.000
 -24198924.96649 -18856272.19347  20454722.503    20454719.986         729.000
        65.000
 -10074154.64548  -7849972.25645  23435403.396    23435398.976         251.000
         7.000
   2382185.11448   1856295.73744  25332356.805    25332354.009         122.000
         2.000
  4  3  1  0 11 30.0000000  0  8G24G17G 4G 8G13G 7G10G20
 -13720213.72448 -10691042.66546  22876588.395    22876584.913         287.000
        10.000
   -404848.48248   -315465.05044  24479107.286    24479105.949         118.000
         1.000
 -15028013.42049 -11710103.93846  21916259.148    21916257.829         515.000
        26.000
  -1527139.53948         0.000           0.000    24961450.801         128.000
         0.000
 -11197806.08149  -8725505.38746  22838332.295    22838331.464         352.000
        11.000
 -24212862.68049 -18867132.74647  20452070.428    20452067.774         734.000
        65.000
 -10164558.39148  -7920416.66745  23418198.954    23418195.779         253.000
         7.000
   2485685.24048         0.000           0.000    25352049.520         113.000
         0.000
  4  3  1  0 12  0.0000000  0  8G24G17G 4G 8G13G 7G10G20
 -13746464.40948 -10711497.70946  22871593.888    22871589.728         289.000
        10.000
   -454545.31048         0.000           0.000    24469648.824         120.000
         0.000
 -15019770.49949 -11703680.86946  21917828.220    21917826.337         510.000
        26.000
  -1497390.14148         0.000           0.000    24967111.747         119.000
         0.000
 -11227560.04749  -8748690.28246  22832670.111    22832669.506         357.000
        11.000
 -24226467.04349 -18877733.54347  20449481.592    20449478.901         733.000
        66.000
 -10254706.61148  -7990661.96945  23401043.808    23401041.280         254.000
         7.000
   2589177.86648         0.000           0.000    25371743.098         112.000
         0.000
  4  3  1  0 12 30.0000000  0  8G24G17G 4G 8G13G 7G10G20
 -13772605.30648 -10731867.21746  22866618.966    22866615.181         288.000
        10.000
   -504044.80348   -392760.78744  24460233.387    24460228.849         117.000
         2.000
 -15011514.00249 -11697247.22246  21919399.453    21919397.622         510.000
        26.000
  -1467954.22448         0.000           0.000    24972713.306         110.000
         0.000
 -11256979.57449  -8771614.56346  22827072.428    22827071.235         364.000
        11.000
 -24239736.79049 -18888073.60247  20446956.396    20446953.681         730.000
        66.000
 -10344597.88448  -8060707.04945  23383938.392    23383935.545         251.000
         7.000
   2692659.93748   2098224.23944  25391436.702    25391435.012         119.000
         1.000
  4  3  1  0 13  0.0000000  0  8G24G17G 4G 8G13G 7G10G20
 -13798628.36348 -10752144.89046  22861666.530    22861663.077         285.000
        10.000
   -553338.83148   -431171.68444  24450849.766    24450848.888         118.000
         2.000
 -15003235.78349 -11690796.65346  21920974.352    21920972.738         505.000
        25.000
  -1438823.10148         0.000           0.000    24978256.888         127.000
         0.000
 -11286053.32449  -8794269.41846  22821539.615    22821538.797         372.000
        11.000
 -24252661.33949 -18898144.67547  20444497.090    20444494.287         732.000
        66.000
 -10434221.26148  -8130543.38145  23366884.538    23366880.507         260.000
         7.000
   2796138.53548         0.000           0.000    25411125.882         105.000
         0.000
  4  3  1  0 13 30.0000000  0  8G24G17G 4G 8G13G 7G10G20
 -13824536.65548 -10772333.13046  22856736.491    22856733.497         298.000
        10.000
   -602429.39348         0.000           0.000    24441506.863         116.000
         0.000
 -14994938.49049 -11684331.21946  21922553.441    21922551.784         506.000
        25.000
  -1409998.90948         0.000           0.000    24983741.791         113.000
         0.000
 -11314780.38349  -8816654.11646  22816073.142    22816072.155         371.000
        11.000
 -24265240.44049 -18907946.56547  20442103.091    20442100.508         729.000
        66.000
 -10523576.18348  -8200170.52245  23349881.390    23349876.525         249.000
         7.000
   2899609.79448         0.000           0.000    25430816.571         123.000
         0.000
  4  3  1  0 14  0.0000000  0  8G24G17G 4G 8G13G 7G10G20
 -13850336.68748 -10792437.04446  22851826.769    22851823.539         293.000
        10.000
   -651322.56948   -507522.55044  24432205.528    24432203.101         123.000
         1.000
 -14986628.43349 -11677855.83046  21924135.048    21924133.097         501.000
        25.000
  -1381487.45848         0.000           0.000    24989167.178         112.000
         0.000
 -11343163.84349  -8838771.07546  22810672.066    22810670.671         364.000
        11.000
 -24277477.65549 -18917482.05147  20439774.509    20439771.876         730.000
        65.000
 -10612665.85848  -8269590.98345  23332926.436    23332923.543         255.000
         7.000
   3003066.27848         0.000           0.000    25450502.916         114.000
         0.000
  4  3  1  0 14 30.0000000  0  8G24G17G 4G 8G13G 7G10G20
 -13876029.59748 -10812457.45546  22846937.126    22846934.285         291.000
        10.000
   -700019.34748   -545468.03144  24422939.289    24422936.351         118.000
         2.000
 -14978306.79949 -11671371.42846  21925718.410    21925716.499         499.000
        25.000
  -1353289.16648         0.000           0.000    24994533.209         113.000
         0.000
 -11371201.18149  -8860618.33146  22805335.938    22805335.355         366.000
        11.000
 -24289371.50049 -18926749.97547  20437511.147    20437508.493         726.000
        65.000
 -10701488.24548  -8338803.17445  23316024.041    23316021.102         258.000
         7.000
   3106505.74848         0.000           0.000    25470186.893         103.000
         0.000
  4  3  1  0 15  0.0000000  0  8G24G17G 4G 8G13G 7G10G20
 -13901620.48748 -10832398.37746  22842067.745    22842064.488         290.000
        10.000
   -748524.48548   -583264.17544  24413710.459    24413705.432         117.000
         2.000
 -14969978.51049 -11664881.83746  21927303.159    21927301.173         490.000
        25.000
  -1325408.80348         0.000           0.000    24999838.925         115.000
         0.000
 -11398893.99849  -8882197.12946  22800067.604    22800065.604         366.000
        11.000
 -24300924.18449 -18935752.05847  20435312.735    20435310.033         724.000
        66.000
 -10790045.48648  -8407808.74445  23299173.847    23299169.666         270.000
         8.000
   3209922.30848         0.000           0.000    25489866.623         114.000
         0.000
  4  3  1  0 15 30.0000000  0  8G24G17G 4G 8G13G 7G10G20
 -13927097.30848 -10852250.43246  22837220.732    22837216.294         290.000
        10.000
   -796825.20748   -620901.06344  24404520.549    24404515.366         136.000
         2.000
 -14961631.22749 -11658377.44446  21928891.747    21928889.687         489.000
        24.000
  -1297833.30048         0.000           0.000    25005086.045         115.000
         0.000
 -11426226.86849  -8903495.44346  22794865.743    22794864.563         375.000
        11.000
 -24312120.71649 -18944476.61947  20433182.079    20433179.368         722.000
        66.000
 -10878322.23448  -8476595.75945  23282374.137    23282370.811         269.000
         8.000
   3313326.72948         0.000           0.000    25509543.643         106.000
         0.000
  4  3  1  0 16  0.0000000  0  8G24G17G 4G 8G13G 7G10G20
 -13952475.81148 -10872025.87946  22832389.714    22832386.749         290.000
        10.000
   -844936.85048   -658390.64244  24395365.381    24395358.492         118.000
         2.000
 -14953280.64949 -11651870.48646  21930480.654    21930478.843         492.000
        24.000
  -1270577.71848         0.000           0.000    25010272.640         119.000
         0.000
 -11453211.64749  -8924522.52646  22789729.983    22789729.253         373.000
        11.000
 -24322973.95049 -18952933.67747  20431116.769    20431114.061         722.000
        65.000
 -10966330.89948  -8545173.86945  23265626.720    23265623.287         268.000
         8.000
   3416702.79848         0.000           0.000    25529215.708         103.000
         0.000
  4  3  1  0 16 30.0000000  0  8G24G17G 4G 8G13G 7G10G20
 -13977750.95448 -10891720.76746  22827580.344    22827576.997         288.000
        10.000
   -892854.30648         0.000           0.000    24386241.002         129.000
         0.000
 -14944921.70749 -11645357.01146  21932071.378    21932069.520         492.000
        24.000
  -1243636.59648         0.000           0.000    25015399.578         121.000
         0.000
 -11479840.19649  -8945272.02346  22784662.755    22784662.226         380.000
        11.000
 -24333476.49949 -18961117.47447  20429118.163    20429115.463         719.000
        65.000
 -11054063.69148  -8613537.02145  23248931.849    23248928.031         269.000
         8.000
   3520054.20348         0.000           0.000    25548883.023         103.000
         0.000
  4  3  1  0 17  0.0000000  0  8G24G17G 4G 8G13G 7G10G20
 -14002922.55548 -10911334.98346  22822791.113    22822787.346         294.000
        10.000
   -940576.87048   -732915.22344  24377163.177    24377159.443         128.000
         2.000
 -14936553.61049 -11638836.40546  21933663.239    21933661.787         491.000
        24.000
  -1217008.62848         0.000           0.000    25020466.445         119.000
         0.000
 -11506108.65449  -8965740.93746  22779663.693    22779663.369         377.000
        11.000
 -24343624.98849 -18969025.37847  20427186.929    20427184.321         723.000
        65.000
 -11141516.96248  -8681682.35845  23232288.966    23232286.396         282.000
         8.000
   3623380.24748         0.000           0.000    25568545.363         115.000
         0.000
  4  3  1  0 17 30.0000000  0  8G24G17G 4G 8G13G 7G10G20
 -14027989.64948 -10930867.76346  22818020.214    22818017.160         292.000
        10.000
   -988103.03948         0.000           0.000    24368115.246         121.000
         0.000
 -14928175.23449 -11632307.79046  21935258.067    21935256.230         491.000
        24.000
  -1190692.07048         0.000           0.000    25025474.533         122.000
         0.000
 -11532012.27949  -8985925.56446  22774735.692    22774734.055         380.000
        12.000
 -24353415.61949 -18976654.43447  20425323.864    20425321.150         717.000
        66.000
 -11228686.64748  -8749606.73445  23215701.610    23215698.676         285.000
         9.000
   3726681.25547         0.000           0.000    25588203.101          98.000
         0.000
  4  3  1  0 18  0.0000000  0  8G24G17G 4G 8G13G 7G10G20
 -14052958.26348 -10950323.80646  22813269.472    22813265.908         295.000
        10.000
  -1035438.38848   -806833.15744  24359112.097    24359108.189         128.000
         2.000
 -14919792.68249 -11625775.91846  21936852.964    21936851.396         490.000
        24.000
  -1164692.21348         0.000           0.000    25030421.631         111.000
         0.000
 -11557554.01049  -9005828.19146  22769875.119    22769873.547         380.000
        12.000
 -24362851.62249 -18984007.15947  20423528.369    20423525.555         721.000
        65.000
 -11315575.78748  -8817312.49045  23199167.556    23199164.274         292.000
         9.000
   3829950.10048         0.000           0.000    25607854.614         110.000
         0.000
  4  3  1  0 18 30.0000000  0  8G24G17G 4G 8G13G 7G10G20
 -14077831.89248 -10969705.82046  22808535.664    22808532.486         293.000
        10.000
  -1082585.73048   -843571.37244  24350137.862    24350135.388         114.000
         2.000
 -14911409.08249 -11619243.23046  21938448.171    21938446.530         487.000
        24.000
  -1139011.61348         0.000           0.000    25035308.532         112.000
         0.000
 -11582733.59449  -9025448.62846  22765083.572    22765082.036         385.000
        12.000
 -24371933.54949 -18991083.98047  20421799.949    20421797.163         713.000
        65.000
 -11402184.29348  -8884799.56945  23182686.483    23182682.425         279.000
         9.000
   3933182.65447         0.000           0.000    25627498.430          99.000
         0.000
  4  3  1  0 19  0.0000000  0  8G24G17G 4G 8G13G 7G10G20
 -14102611.56748 -10989014.69145  22803820.657    22803817.098         294.000
         9.000
  -1129545.92348         0.000           0.000    24341199.988         124.000
         0.000
 -14903024.81849 -11612710.02346  21940043.982    21940042.242         493.000
        24.000
  -1113650.60748         0.000           0.000    25040134.670         123.000
         0.000
 -11607548.57649  -9044784.93446  22760360.553    22760360.092         391.000
        12.000
 -24380659.80749 -18997883.65447  20420139.381    20420136.797         720.000
        65.000
 -11488510.12948  -8952066.38945  23166259.190    23166255.927         299.000
         9.000
   4036376.80347         0.000           0.000    25647135.135          85.000
         0.000
  4  3  1  0 19 30.0000000  0  8G24G17G 4G 8G13G 7G10G20
 -14127293.01748 -11008246.93746  22799123.716    22799120.330         294.000
        10.000
  -1176314.31048   -916606.50744  24332304.840    24332299.328         119.000
         2.000
 -14894635.76349 -11606173.08146  21941640.334    21941638.504         490.000
        24.000
  -1088604.01848         0.000           0.000    25044900.957         126.000
         0.000
 -11631991.19749  -9063831.13346  22755708.883    22755708.642         390.000
        12.000
 -24389023.18649 -19004400.56547  20418547.964    20418545.263         722.000
        66.000
 -11574546.06548  -9019107.32046  23149886.620    23149883.363         293.000
        10.000
   4139536.28948         0.000           0.000    25666766.685         100.000
         0.000
  4  3  1  0 20  0.0000000  0  8G24G17G 4G 8G13G 7G10G20
 -14151883.80248 -11027408.56446  22794444.653    22794440.709         289.000
        10.000
  -1222898.25748   -952905.61844  24323436.664    24323434.733         120.000
         1.000
 -14886248.98149 -11599637.91246  21943235.999    21943234.589         494.000
        24.000
  -1063878.54248         0.000           0.000    25049606.172         121.000
         0.000
 -11656065.64249  -9082590.42146  22751128.487    22751127.534         393.000
        12.000
 -24397028.62749 -19010638.56847  20417024.589    20417022.025         729.000
        66.000
 -11660296.55148  -9085925.81945  23133568.066    23133565.544         300.000
         9.000
   4242652.47347         0.000           0.000    25686388.302          88.000
         0.000
  4  3  1  0 20 30.0000000  0  7G24G17G 4G 8G13G 7G10
 -14176376.88248 -11046494.07046  22789783.052    22789779.586         285.000
        10.000
  -1269290.22348   -989055.20344  24314611.090    24314607.322         133.000
         2.000
 -14877857.25349 -11593098.88746  21944832.969    21944831.310         488.000
        24.000
  -1039466.50148         0.000           0.000    25054251.102         112.000
         0.000
 -11679761.40949  -9101054.64746  22746618.494    22746618.182         388.000
        12.000
 -24404666.40249 -19016590.08047  20415571.132    20415568.547         727.000
        66.000
 -11745751.61948  -9152514.13546  23117307.290    23117304.037         301.000
        10.000
  4  3  1  0 21  0.0000000  0  8G24G17G 4G 8G13G 7G10G 5
 -14200770.74448 -11065502.24946  22785141.325    22785137.797         291.000
        10.000
  -1315488.28148  -1025053.68644  24305819.925    24305815.902         126.000
         2.000
 -14869459.06349 -11586554.83046  21946431.445    21946429.644         495.000
        24.000
  -1015365.25948         0.000           0.000    25058837.518         116.000
         0.000
 -11703073.65049  -9119220.01446  22742182.268    22742181.935         383.000
        12.000
 -24411932.07949 -19022251.64147  20414188.508    20414185.910         727.000
        66.000
 -11830906.62048  -9218868.62946  23101103.157    23101099.757         306.000
        10.000
         0.23658         0.000           0.000    25396368.095         115.000
         0.000
  4  3  1  0 21 30.0000000  0  8G24G17G 4G 8G13G 7G10G 5
 -14225067.38948 -11084434.68346  22780516.964    22780514.119         290.000
        10.000
  -1361494.15848  -1060902.35244  24297068.827    24297061.276         125.000
         2.000
 -14861055.59049 -11580006.66146  21948030.287    21948028.525         494.000
        24.000
   -991575.91848         0.000           0.000    25063364.679         133.000
         0.000
 -11726001.01249  -9137085.47746  22737820.489    22737819.259         391.000
        12.000
 -24418824.91449 -19027622.67947  20412876.753    20412874.189         725.000
        66.000
 -11915760.33748  -9284988.35846  23084956.057    23084952.335         299.000
        10.000
    -84575.14448         0.000           0.000    25380271.411         110.000
         0.000
  4  3  1  0 22  0.0000000  0  8G24G17G 4G 8G13G 7G10G 5
 -14249284.50848 -11103305.14446  22775909.094    22775906.096         298.000
        10.000
  -1407325.29148  -1096614.89244  24288344.883    24288339.506         122.000
         2.000
 -14852664.96049 -11573468.49346  21949626.998    21949625.327         496.000
        24.000
   -968115.66248         0.000           0.000    25067828.651         110.000
         0.000
 -11748558.05249  -9154662.37646  22733527.722    22733526.505         379.000
        12.000
 -24425360.11749 -19032715.04147  20411633.249    20411630.562         724.000
        67.000
 -12000327.62648  -9350884.88846  23068862.963    23068859.501         298.000
        10.000
   -168898.98047         0.000           0.000    25364224.603          95.000
         0.000
  4  3  1  0 22 30.0000000  0  8G24G17G 4G 8G13G 7G10G 5
 -14273416.70848 -11122109.43946  22771316.813    22771313.578         293.000
        10.000
  -1452975.85148  -1132186.75344  24279658.554    24279651.714         116.000
         2.000
 -14844280.88549 -11566935.43646  21951222.318    21951220.711         493.000
        24.000
   -944977.71348         0.000           0.000    25072232.175         114.000
         0.000
 -11770735.60949  -9171943.57646  22729307.684    22729306.370         383.000
        13.000
 -24431529.40149 -19037522.27147  20410459.260    20410456.614         725.000
        67.000
 -12084599.68248  -9416551.36746  23052826.817    23052823.099         304.000
        10.000
   -252962.08547         0.000           0.000    25348227.779          88.000
         0.000
  4  3  1  0 23  0.0000000  0  8G24G17G 4G 8G13G 7G10G 5
 -14297455.98348 -11140841.31546  22766742.750    22766738.881         290.000
        10.000
  -1498437.61148  -1167611.45844  24271006.503    24271000.784         116.000
         2.000
 -14835895.21249 -11560401.13446  21952818.163    21952816.609         502.000
        24.000
   -922153.36548         0.000           0.000    25076575.017         130.000
         0.000
 -11792522.61949  -9188920.43646  22725160.907    22725160.420         381.000
        12.000
 -24437322.00649 -19042035.98347  20409356.942    20409354.237         723.000
        67.000
 -12168565.80648  -9481979.46346  23036848.214    23036844.939         304.000
        10.000
   -336753.44448         0.000           0.000    25332284.117         101.000
         0.000
  4  3  1  0 23 30.0000000  0  8G24G17G 4G 8G13G 7G10G 5
 -14321413.43948 -11159509.44146  22762183.969    22762180.131         298.000
        10.000
  -1543721.15348         0.000           0.000    24262383.186         114.000
         0.000
 -14827518.60249 -11553873.89546  21954411.973    21954410.450         497.000
        25.000
   -899652.69648         0.000           0.000    25080856.734         120.000
         0.000
 -11813926.54749  -9205598.80846  22721088.559    22721087.351         375.000
        12.000
 -24442746.45349 -19046262.82147  20408324.719    20408321.984         723.000
        67.000
 -12252233.90248  -9547175.33346  23020926.235    23020923.227         301.000
        10.000
   -420280.70647         0.000           0.000    25316387.924          87.000
         0.000
  4  3  1  0 24  0.0000000  0  8G24G17G 4G 8G13G 7G10G 5
 -14345285.72248 -11178111.18846  22757640.994    22757637.532         305.000
        11.000
  -1588823.12648  -1238041.69344  24253807.888    24253802.016         127.000
         2.000
 -14819147.61249 -11547351.02546  21956005.165    21956003.481         504.000
        24.000
   -877471.72248         0.000           0.000    25085077.590         110.000
         0.000
 -11834940.80849  -9221973.53546  22717089.366    22717088.613         379.000
        12.000
 -24447796.72849 -19050198.09447  20407363.718    20407361.015         728.000
        67.000
 -12335597.57248  -9612133.99746  23005063.431    23005059.497         295.000
        10.000
   -503537.67947   -392363.77944  25300549.573    25300544.928          93.000
         2.000
  4  3  1  0 24 30.0000000  0  8G24G17G 4G 8G13G 7G10G 5
 -14369070.66748 -11196644.90046  22753114.526    22753111.251         304.000
        11.000
  -1633740.92648  -1273042.51344  24245259.297    24245255.231         138.000
         2.000
 -14810779.55449 -11540830.45146  21957597.116    21957595.837         503.000
        24.000
   -855607.04248         0.000           0.000    25089237.994         106.000
         0.000
 -11855560.13449  -9238040.52046  22713166.107    22713164.892         380.000
        12.000
 -24452467.87049 -19053837.94047  20406474.760    20406472.125         728.000
        67.000
 -12418651.64148  -9676851.40346  22989258.030    22989254.720         298.000
        10.000
   -586518.34148   -457020.58845  25284758.306    25284755.202         111.000
         4.000
  4  3  1  0 25  0.0000000  0  8G24G17G 4G 8G13G 7G10G 5
 -14392773.09948 -11215114.29746  22748603.979    22748601.169         312.000
        11.000
  -1678478.79448  -1307903.14444  24236747.769    24236742.122         137.000
         2.000
 -14802418.81049 -11534315.57646  21959188.398    21959186.958         506.000
        24.000
   -834062.51848         0.000           0.000    25093337.792         116.000
         0.000
 -11875786.09949  -9253800.99246  22709316.698    22709315.846         372.000
        12.000
 -24456762.09349 -19057184.08247  20405657.567    20405654.973         731.000
        67.000
 -12501397.91248  -9741328.96946  22973511.695    22973508.450         292.000
        11.000
   -669224.29447   -521460.65046  25269019.001    25269015.723          95.000
        10.000
  4  3  1  0 25 30.0000000  0  8G24G17G 4G 8G13G 7G10G 5
 -14416390.76148 -11233517.64746  22744109.588    22744106.443         305.000
        11.000
  -1723034.40948         0.000           0.000    24228262.692         129.000
         0.000
 -14794062.91349 -11527804.47746  21960778.636    21960776.837         499.000
        24.000
   -812834.83048         0.000           0.000    25097377.607         123.000
         0.000
 -11895612.80249  -9269250.35046  22705544.168    22705543.101         374.000
        13.000
 -24460674.59449 -19060232.77947  20404913.180    20404910.558         734.000
        67.000
 -12583831.28248  -9805562.72346  22957825.620    22957822.387         300.000
        11.000
   -751650.14447   -585686.88846  25253333.581    25253330.057          97.000
        11.000
  4  3  1  0 26  0.0000000  0  8G24G17G 4G 8G13G 7G10G 5
 -14439931.16848 -11251860.79346  22739629.762    22739626.751         301.000
        10.000
  -1767415.34848  -1377204.30544  24219819.729    24219816.189         120.000
         2.000
 -14785719.30849 -11521302.95746  21962366.389    21962364.672         503.000
        24.000
   -791930.99848         0.000           0.000    25101355.394         122.000
         0.000
 -11915045.34549  -9284392.57346  22701845.651    22701845.167         373.000
        12.000
 -24464210.56249 -19062988.07447  20404240.145    20404237.485         729.000
        68.000
 -12665956.48448  -9869556.34946  22942196.958    22942194.372         302.000
        10.000
   -833800.59148   -649705.60345  25237701.187    25237698.404         104.000
         8.000
  4  3  1  0 26 30.0000000  0  8G24G17G 4G 8G13G 7G10G 5
 -14463392.89248 -11270142.64146  22735165.863    22735162.138         306.000
        12.000
  -1811619.84848  -1411649.33844  24211411.024    24211403.619         118.000
         2.000
 -14777386.09649 -11514809.53346  21963952.008    21963950.436         503.000
        24.000
   -771348.43248         0.000           0.000    25105271.944         125.000
         0.000
 -11934078.71149  -9299223.74646  22698224.052    22698223.209         372.000
        13.000
 -24467365.87849 -19065446.75647  20403639.767    20403637.102         731.000
        67.000
 -12747769.12948  -9933306.41646  22926628.922    22926625.880         299.000
        10.000
   -915671.30748   -713507.30344  25222119.410    25222118.651         104.000
         3.000
  4  3  1  0 27  0.0000000  0  8G24G17G 4G 8G13G 7G10G 5
 -14486777.74549 -11288364.58446  22730716.215    22730712.509         317.000
        11.000
  -1855649.39948  -1445958.01044  24203028.975    24203025.541         119.000
         2.000
 -14769064.56549 -11508325.21846  21965535.504    21965534.056         504.000
        24.000
   -751087.91648         0.000           0.000    25109127.495         120.000
         0.000
 -11952711.44849  -9313742.74146  22694677.751    22694677.424         369.000
        12.000
 -24470139.53449 -19067608.04147  20403112.071    20403109.365         735.000
        67.000
 -12829267.93048  -9996811.93546  22911120.512    22911116.978         300.000
        10.000
   -997259.98047   -777085.49044  25206594.668    25206592.428          91.000
         2.000
  4  3  1  0 27 30.0000000  0  7G24G17G 4G 8G13G 7G10
 -14510084.59248 -11306525.74646  22726280.915    22726277.220         315.000
        11.000
  -1899502.81048         0.000           0.000    24194681.049         122.000
         0.000
 -14760753.41649 -11501848.98546  21967116.765    21967115.458         500.000
        24.000
   -731147.34648         0.000           0.000    25112921.795         111.000
         0.000
 -11970939.25349  -9327946.21246  22691209.878    22691208.812         369.000
        12.000
 -24472528.01849 -19069469.19547  20402657.426    20402654.906         738.000
        67.000
 -12910448.86148 -10060069.76346  22895672.418    22895668.755         308.000
        11.000
  4  3  1  0 28  0.0000000  0  7G24G17G 4G 8G13G 7G10
 -14533318.01048 -11324629.68646  22721859.653    22721856.224         315.000
        11.000
  -1943184.05748  -1514166.74144  24186375.098    24186369.397         128.000
         2.000
 -14752456.70149 -11495384.00246  21968695.781    21968694.370         501.000
        24.000
   -711530.08648         0.000           0.000    25116654.902         116.000
         0.000
 -11988763.45349  -9341835.17746  22687817.962    22687817.002         369.000
        13.000
 -24474533.27549 -19071031.73047  20402275.861    20402273.285         737.000
        68.000
 -12991313.71549 -10123081.30446  22880283.958    22880280.984         319.000
        11.000
  4  3  1  0 28 30.0000000  0  8G24G17G 4G 8G13G 7G10G 5
 -14556471.97948 -11342671.72446  22717453.123    22717449.559         307.000
        11.000
  -1986686.86048  -1548065.06544  24178093.389    24178091.394         134.000
         2.000
 -14744167.87049 -11488925.16446  21970273.236    21970271.675         499.000
        24.000
   -692228.85448         0.000           0.000    25120327.294         104.000
         0.000
 -12006174.74849  -9355402.39846  22684505.027    22684503.850         369.000
        12.000
 -24476146.48349 -19072288.77347  20401968.779    20401966.210         733.000
        68.000
 -13071853.28148 -10185839.37346  22864957.404    22864954.255         310.000
        11.000
        -0.12257         0.000           0.000    25160342.360          77.000
         0.000
  4  3  1  0 29  0.0000000  0  7G24G17G 4G 8G13G 7G10
 -14579554.57449 -11360658.13946  22713061.017    22713057.438         319.000
        11.000
  -2030019.15148  -1581830.42544  24169849.625    24169845.999         142.000
         2.000
 -14735894.48249 -11482478.36346  21971847.616    21971846.099         497.000
        24.000
   -673250.76948         0.000           0.000    25123938.846         115.000
         0.000
 -12023178.12349  -9368651.76246  22681269.175    22681267.839         359.000
        12.000
 -24477373.27949 -19073244.71347  20401735.450    20401732.806         735.000
        68.000
 -13152072.84348 -10248348.08646  22849692.394    22849689.013         312.000
        12.000
  4  3  1  0 29 30.0000000  0  8G24G17G 4G 8G13G 7G10G 5
 -14602569.62049 -11378591.92946  22708681.339    22708677.684         319.000
        11.000
  -2073184.66948  -1615465.87044  24161634.176    24161630.859         129.000
         2.000
 -14727640.10849 -11476046.38046  21973418.423    21973416.767         492.000
        23.000
   -654598.72848         0.000           0.000    25127488.632         119.000
         0.000
 -12039774.49449  -9381583.97546  22678110.110    22678109.773         365.000
        12.000
 -24478214.95949 -19073900.56247  20401575.155    20401572.690         737.000
        67.000
 -13231973.25948 -10310608.10946  22834487.572    22834484.315         314.000
        12.000
        -0.27058         0.000           0.000    25129785.089         107.000
         0.000
  4  3  1  0 30  0.0000000  0  8G24G17G 4G 8G13G 7G10G 5
 -14625508.73549 -11396466.54846  22704316.368    22704312.679         324.000
        11.000
  -2116175.01648  -1648964.81544  24153453.362    24153449.590         125.000
         2.000
 -14719396.04449 -11469622.42746  21974987.030    21974985.685         493.000
        23.000
   -636263.51248         0.000           0.000    25130977.475         112.000
         0.000
 -12055952.70049  -9394190.34846  22675032.453    22675031.203         368.000
        12.000
 -24478660.92349 -19074248.06247  20401490.468    20401487.755         734.000
        67.000
 -13311543.74149 -10372611.05946  22819345.796    22819343.071         334.000
        13.000
    -79847.60348    -62217.95044  25114596.607    25114590.849         124.000
         2.000
  4  3  1  0 30 30.0000000  0  8G24G17G 4G 8G13G 7G10G 5
 -14648378.71949 -11414287.29346  22699964.194    22699960.542         324.000
        12.000
  -2158996.67848  -1682332.30644  24145304.887    24145301.283         127.000
         2.000
 -14711168.94449 -11463211.69446  21976552.364    21976550.991         485.000
        23.000
   -618250.61948         0.000           0.000    25134405.506         103.000
         0.000
 -12071716.00449  -9406473.41846  22672032.132    22672031.268         363.000
        12.000
 -24478715.50849 -19074290.59547  20401479.838    20401477.262         732.000
        68.000
 -13390788.19149 -10434359.95146  22804266.349    22804263.405         338.000
        13.000
   -159398.98648         0.000           0.000    25099453.063         131.000
         0.000
  4  3  1  0 31  0.0000000  0  8G24G17G 4G 8G13G 7G10G 5
 -14671177.60949 -11432052.65446  22695625.320    22695622.450         334.000
        12.000
  -2201647.46148  -1715566.68244  24137189.034    24137184.969         127.000
         2.000
 -14702955.95549 -11456811.95946  21978115.552    21978114.041         488.000
        23.000
   -600557.13047         0.000           0.000    25137772.182          99.000
         0.000
 -12087059.59749  -9418429.45646  22669112.114    22669111.626         368.000
        12.000
 -24478374.13049 -19074024.58547  20401544.996    20401542.374         737.000
        68.000
 -13469701.81649 -10495851.05146  22789249.874    22789246.380         330.000
        13.000
   -238648.99948         0.000           0.000    25084372.402         124.000
         0.000
  4  3  1  0 31 30.0000000  0  8G24G17G 4G 8G13G 7G10G 5
 -14693915.66049 -11449770.59046  22691298.714    22691295.307         331.000
        12.000
  -2244137.78848  -1748675.98644  24129106.548    24129099.600         129.000
         2.000
 -14694767.19449 -11450431.09946  21979673.507    21979672.129         479.000
        22.000
   -583192.30448         0.000           0.000    25141076.616         108.000
         0.000
 -12101991.02849  -9430064.31446  22666270.410    22666270.061         364.000
        12.000
 -24477644.80449 -19073456.27547  20401683.711    20401681.079         737.000
        68.000
 -13548292.34049 -10557090.38446  22774294.465    22774291.108         334.000
        13.000
   -317605.19948         0.000           0.000    25069346.843         100.000
         0.000
  4  3  1  0 32  0.0000000  0  8G24G17G 4G 8G13G 7G10G 5
 -14716598.42749 -11467445.45646  22686982.008    22686978.955         334.000
        12.000
  -2286472.67048         0.000           0.000    24121043.074         124.000
         0.000
 -14686607.44449 -11444072.84546  21981226.364    21981224.808         474.000
        22.000
   -566160.39548         0.000           0.000    25144317.964         113.000
         0.000
 -12116512.20649  -9441379.50146  22663507.908    22663506.832         366.000
        12.000
 -24476530.29949 -19072587.82947  20401895.830    20401893.140         737.000
        69.000
 -13626561.87749 -10618079.60346  22759399.643    22759396.782         331.000
        14.000
   -396269.71647         0.000           0.000    25054376.643          88.000
         0.000
  4  3  1  0 32 30.0000000  0  8G24G17G 4G 8G13G 7G10G 5
 -14739205.45349 -11485061.30846  22682680.283    22682676.918         334.000
        12.000
  -2328631.11048  -1814514.89044  24113022.796    24113020.368         127.000
         2.000
 -14678455.49449 -11437720.67946  21982777.980    21982776.035         469.000
        23.000
   -549439.29447         0.000           0.000    25147499.122          97.000
         0.000
 -12130599.63749  -9452356.70646  22660827.290    22660826.183         370.000
        12.000
 -24475007.35749 -19071401.11847  20402185.586    20402183.036         744.000
        68.000
 -13704486.95549 -10678800.40946  22744570.746    22744568.030         336.000
        13.000
   -474618.33947         0.000           0.000    25039466.996          90.000
         0.000
  4  3  1  0 33  0.0000000  0  8G24G17G 4G 8G13G 7G10G 5
 -14761745.84149 -11502625.23146  22678391.658    22678387.645         338.000
        13.000
  -2370622.71448  -1847235.57744  24105033.768    24105030.384         136.000
         2.000
 -14670320.65949 -11431381.83846  21984325.577    21984323.873         462.000
        22.000
   -533037.70147         0.000           0.000    25150619.825          90.000
         0.000
 -12144259.67849  -9463000.87446  22658227.476    22658226.820         374.000
        12.000
 -24473083.35849 -19069901.89947  20402551.602    20402549.083         741.000
        69.000
 -13782074.77449 -10739258.42446  22729806.570    22729803.648         337.000
        13.000
   -552658.17348         0.000           0.000    25024617.571         112.000
         0.000
  4  3  1  0 33 30.0000000  0  8G24G17G 4G 8G13G 7G10G 5
 -14784219.54349 -11520137.18246  22674113.980    22674111.241         345.000
        12.000
  -2412447.32848  -1879826.11444  24097072.740    24097070.673         127.000
         2.000
 -14662202.43749 -11425055.94646  21985870.163    21985868.686         461.000
        22.000
   -516954.32647         0.000           0.000    25153680.761          98.000
         0.000
 -12157489.90249  -9473310.12346  22655709.765    22655709.075         375.000
        13.000
 -24470755.95749 -19068088.33847  20402994.517    20402992.067         747.000
        69.000
 -13859322.13749 -10799451.14546  22715106.663    22715103.845         332.000
        13.000
   -630385.80448         0.000           0.000    25009826.673         128.000
         0.000
  4  3  1  0 34  0.0000000  0  8G24G17G 4G 8G13G 7G10G 5
 -14806634.30249 -11537603.21746  22669848.475    22669845.776         340.000
        13.000
  -2454112.46248  -1912292.46044  24089145.900    24089142.170         125.000
         2.000
 -14654107.91249 -11418748.52046  21987410.785    21987409.333         466.000
        22.000
   -501195.64347         0.000           0.000    25156679.542          96.000
         0.000
 -12170294.80349  -9483287.95346  22653273.302    22653272.568         387.000
        13.000
 -24468030.30749 -19065964.45447  20403513.356    20403510.740         748.000
        69.000
 -13936234.29249 -10859382.66646  22700470.226    22700467.737         329.000
        13.000
   -707806.02348         0.000           0.000    24995094.946         145.000
         0.000
  4  3  1  0 34 30.0000000  0  8G24G17G 4G 8G13G 7G10G 5
 -14828996.70749 -11555028.44846  22665593.521    22665590.314         345.000
        13.000
  -2495624.59348  -1944639.53544  24081245.418    24081243.291         133.000
         2.000
 -14646043.06649 -11412464.22046  21988945.704    21988943.914         462.000
        22.000
   -485767.19548         0.000           0.000    25159616.141         104.000
         0.000
 -12182678.15549  -9492937.29946  22650917.056    22650915.916         384.000
        13.000
 -24464910.64649 -19063533.54747  20404106.987    20404104.446         752.000
        70.000
 -14012815.09349 -10919055.98546  22685898.665    22685895.168         337.000
        13.000
   -784922.42248   -611626.66744  24980421.683    24980419.861         149.000
         2.000
  4  3  1  0 35  0.0000000  0  8G24G17G 4G 8G13G 7G10G 5
 -14851296.77649 -11572405.12046  22661349.781    22661346.333         338.000
        13.000
  -2536973.48448  -1976859.40444  24073378.290    24073374.754         130.000
         2.000
 -14637997.52749 -11406194.96546  21990476.428    21990474.721         457.000
        21.000
   -470657.74848         0.000           0.000    25162490.644         102.000
         0.000
 -12194626.74249  -9502247.87246  22648641.920    22648642.166         391.000
        13.000
 -24461384.47349 -19060785.87747  20404778.058    20404775.472         754.000
        70.000
 -14089051.83749 -10978461.21546  22671390.136    22671387.733         344.000
        14.000
   -861721.67748   -671470.22344  24965807.539    24965805.577         142.000
         2.000
  4  3  1  0 35 30.0000000  0  8G24G17G 4G 8G13G 7G10G 5
 -14873538.88449 -11589736.61546  22657117.340    22657114.006         345.000
        13.000
  -2578163.38048  -2008955.41844  24065541.283    24065536.136         126.000
         2.000
 -14629974.97649 -11399943.62046  21992003.689    21992001.538         461.000
        22.000
   -455870.42747         0.000           0.000    25165304.405          99.000
         0.000
 -12206142.23549  -9511220.96546  22646451.254    22646451.188         400.000
        13.000
 -24457453.99849 -19057723.16747  20405525.963    20405523.404         755.000
        71.000
 -14164946.00849 -11037599.50746  22656948.589    22656945.622         347.000
        14.000
   -938205.23548         0.000           0.000    24951251.206         133.000
         0.000
  4  3  1  0 36  0.0000000  0  8G24G17G 4G 8G13G 7G10G 5
 -14895725.45949 -11607024.84046  22652895.702    22652892.216         349.000
        13.000
  -2619196.98848  -2040929.64444  24057733.012    24057728.422         135.000
         2.000
 -14621977.68949 -11393711.96446  21993525.035    21993523.274         460.000
        22.000
   -441406.58647         0.000           0.000    25168056.861          90.000
         0.000
 -12217224.43449  -9519856.42846  22644342.147    22644342.098         398.000
        13.000
 -24453119.50149 -19054345.63247  20406350.758    20406348.246         756.000
        70.000
 -14240497.64749 -11096470.88546  22642571.152    22642568.316         337.000
        13.000
  -1014372.58248         0.000           0.000    24936756.210         117.000
         0.000
  4  3  1  0 36 30.0000000  0  8G24G17G 4G 8G13G 7G10G 5
 -14917857.32649 -11624270.45446  22648684.323    22648680.802         355.000
        13.000
  -2660074.61648  -2072782.30544  24049952.944    24049949.287         133.000
         2.000
 -14614005.74349 -11387500.05146  21995042.089    21995040.478         465.000
        23.000
   -427265.64848         0.000           0.000    25170748.708         123.000
         0.000
 -12227871.06649  -9528152.48946  22642317.147    22642316.117         401.000
        14.000
 -24448379.17149 -19050651.86547  20407252.866    20407250.334         755.000
        70.000
 -14315704.93549 -11155073.94046  22628259.829    22628257.137         348.000
        14.000
  -1090221.29248         0.000           0.000    24922323.076         122.000
         0.000
  4  3  1  0 37  0.0000000  0  8G24G17G 4G 8G13G 7G10G 5
 -14939928.21249 -11641468.53446  22644483.397    22644480.344         346.000
        13.000
  -2700790.19748  -2104508.73844  24042203.484    24042201.121         134.000
         2.000
 -14606052.40149 -11381302.63746  21996555.415    21996553.900         464.000
        22.000
   -413440.46848         0.000           0.000    25173378.932         132.000
         0.000
 -12238073.28949  -9536102.26146  22640376.091    22640374.782         405.000
        15.000
 -24443224.87549 -19046635.52647  20408233.749    20408231.100         753.000
        70.000
 -14390559.12049 -11213401.84746  22614015.322    22614012.692         348.000
        14.000
  -1165742.52448         0.000           0.000    24907951.982         131.000
         0.000
  4  3  1  0 37 30.0000000  0  8G24G17G 4G 8G13G 7G10G 5
 -14961944.19449 -11658623.83946  22640293.787    22640291.081         354.000
        13.000
  -2741349.88848  -2136113.68744  24034486.103    24034482.515         128.000
         2.000
 -14598123.46949 -11375124.24346  21998064.844    21998062.792         465.000
        23.000
   -399935.96148         0.000           0.000    25175948.360         103.000
         0.000
 -12247834.67649  -9543708.52346  22638518.138    22638517.141         402.000
        14.000
 -24437660.47449 -19042299.63047  20409292.464    20409289.938         750.000
        70.000
 -14465063.78749 -11271457.40446  22599837.742    22599834.811         359.000
        14.000
  -1240939.44448         0.000           0.000    24893642.215         136.000
         0.000
  4  3  1  0 38  0.0000000  0  8G24G17G 4G 8G13G 7G10G 5
 -14983914.12449 -11675743.25146  22636113.234    22636110.460         357.000
        14.000
  -2781762.48448  -2167604.03744  24026794.841    24026792.109         125.000
         2.000
 -14590227.32649 -11368971.39946  21999567.082    21999565.338         471.000
        23.000
   -386759.72847         0.000           0.000    25178455.842          98.000
         0.000
 -12257160.99249  -9550975.76446  22636743.619    22636742.194         395.000
        15.000
 -24431692.54849 -19037649.29947  20410428.229    20410425.613         751.000
        70.000
 -14539225.14349 -11329245.46046  22585725.317    22585722.486         368.000
        15.000
  -1315817.89948  -1025311.31144  24879392.844    24879393.616         149.000
         1.000
  4  3  1  0 38 30.0000000  0  8G24G17G 4G 8G13G 7G10G 5
 -15005834.24449 -11692823.85946  22631942.149    22631939.335         361.000
        13.000
  -2822024.16148  -2198976.70744  24019135.959    24019130.847         130.000
         2.000
 -14582359.40949 -11362840.54846  22001064.263    22001062.597         470.000
        22.000
   -373906.48147         0.000           0.000    25180901.710          94.000
         0.000
 -12266046.19149  -9557899.28246  22635052.587    22635051.261         391.000
        15.000
 -24425315.02849 -19032679.79747  20411641.653    20411639.159         749.000
        69.000
 -14613036.63949 -11386760.88346  22571679.837    22571677.107         382.000
        14.000
  -1390371.18248  -1083404.75044  24865209.927    24865206.789         163.000
         2.000
  4  3  1  0 39  0.0000000  0  8G24G17G 4G 8G13G 7G10G 5
 -15027700.73749 -11709862.67246  22627781.054    22627778.124         360.000
        13.000
  -2862130.76348  -2230228.60444  24011501.171    24011498.723         131.000
         2.000
 -14574515.21449 -11356728.17746  22002557.077    22002555.136         462.000
        22.000
   -361371.14448         0.000           0.000    25183287.478         101.000
         0.000
 -12274483.16049  -9564473.52746  22633446.838    22633445.880         396.000
        14.000
 -24418521.82849 -19027386.39247  20412934.344    20412931.847         746.000
        70.000
 -14686491.84549 -11443998.68746  22557701.421    22557698.556         371.000
        15.000
  -1464592.45748  -1141239.50444  24851084.058    24851082.931         164.000
         2.000
  4  3  1  0 39 30.0000000  0  8G24G17G 4G 8G13G 7G10G 5
 -15049510.66049 -11726857.40546  22623630.864    22623627.641         356.000
        13.000
  -2902079.89948  -2261357.77244  24003902.480    24003896.631         135.000
         3.000
 -14566691.60949 -11350631.83746  22004045.497    22004043.907         465.000
        21.000
   -349149.95348         0.000           0.000    25185612.221         100.000
         0.000
 -12282466.91049  -9570694.61846  22631927.187    22631926.804         401.000
        14.000
 -24411308.23549 -19021765.40847  20414307.078    20414304.655         750.000
        70.000
 -14759585.70949 -11500954.92446  22543792.269    22543789.496         380.000
        15.000
  -1538476.29448  -1198811.33444  24837025.873    24837023.149         156.000
         2.000
  4  3  1  0 40  0.0000000  0  8G24G17G 4G 8G13G 7G10G 5
 -15071273.27849 -11743815.26946  22619490.079    22619486.509         359.000
        13.000
  -2941880.41848  -2292371.14944  23996326.481    23996323.356         141.000
         3.000
 -14558897.04149 -11344558.04546  22005529.472    22005527.245         472.000
        19.000
   -337250.49948         0.000           0.000    25187877.562         113.000
         0.000
 -12290003.46649  -9576567.24846  22630493.455    22630492.465         398.000
        14.000
 -24403680.93349 -19015822.04947  20415758.621    20415756.029         747.000
        68.000
 -14832324.71449 -11557634.64646  22529950.342    22529947.643         385.000
        16.000
  -1612028.48148  -1256124.73144  24823031.825    24823025.875         134.000
         2.000
  4  3  1  0 40 30.0000000  0  8G24G17G 4G 8G13G 7G10G 5
 -15092992.22249 -11760739.10646  22615356.388    22615353.301         352.000
        13.000
  -2981535.90148  -2323271.53144  23988782.472    23988775.880         128.000
         2.000
 -14551134.64049 -11338509.55246  22007005.828    22007004.462         473.000
        21.000
   -325675.25447         0.000           0.000    25190079.625          99.000
         0.000
 -12297094.18349  -9582092.46446  22629144.482    22629143.185         395.000
        14.000
 -24395641.49749 -19009557.55747  20417288.364    20417285.930         749.000
        69.000
 -14904710.20049 -11614038.90146  22516176.299    22516173.090         387.000
        17.000
  -1685249.94548         0.000           0.000    24809093.015         124.000
         0.000
  4  3  1  0 41  0.0000000  0  8G24G17G 4G 8G13G 7G10G 5
 -15114666.39649 -11777628.05746  22611231.971    22611229.055         355.000
        13.000
  -3021045.57748  -2354058.29144  23981261.471    23981257.595         134.000
         2.000
 -14543402.85949 -11332484.77246  22008477.370    22008475.592         467.000
        22.000
   -314422.05147         0.000           0.000    25192221.494          99.000
         0.000
 -12303735.50449  -9587267.51046  22627880.610    22627879.499         399.000
        14.000
 -24387186.93549 -19002969.58447  20418897.276    20418894.701         748.000
        69.000
 -14976738.56449 -11670164.87446  22502469.094    22502466.453         389.000
        17.000
  -1758137.11848         0.000           0.000    24795222.224         118.000
         0.000
  4  3  1  0 41 30.0000000  0  8G24G17G 4G 8G13G 7G10G 5
 -15136296.02449 -11794482.29646  22607115.952    22607112.752         350.000
        13.000
  -3060409.52648  -2384731.45644  23973769.564    23973766.937         137.000
         3.000
 -14535701.33949 -11326483.57646  22009942.584    22009941.334         478.000
        22.000
   -303489.48247         0.000           0.000    25194301.114          92.000
         0.000
 -12309925.04449  -9592090.51146  22626702.497    22626701.619         405.000
        14.000
 -24378315.34549 -18996056.65447  20420585.461    20420582.963         751.000
        69.000
 -15048407.46949 -11726010.75446  22488831.371    22488828.392         392.000
        17.000
  -1830687.39848         0.000           0.000    24781417.011         131.000
         0.000
  4  3  1  0 42  0.0000000  0  8G24G17G 4G 8G13G 7G10G 5
 -15157880.45049 -11811301.32346  22603008.636    22603005.445         354.000
        13.000
  -3099626.91048  -2415290.42044  23966308.493    23966304.536         143.000
         3.000
 -14528028.61249 -11320504.82246  22011403.230    22011401.305         476.000
        23.000
   -292875.76847         0.000           0.000    25196321.297          96.000
         0.000
 -12315659.46649  -9596558.88146  22625611.319    22625610.310         397.000
        14.000
 -24369023.76249 -18988816.45847  20422353.587    20422351.152         753.000
        69.000
 -15119713.81049 -11781574.12646  22475261.721    22475259.050         386.000
        17.000
  -1902896.73948  -1482775.24844  24767676.873    24767675.448         141.000
         1.000
  4  3  1  0 42 30.0000000  0  8G24G17G 4G 8G13G 7G10G 5
 -15179416.77649 -11828082.85946  22598910.301    22598907.199         354.000
        13.000
  -3138694.81848  -2445732.93044  23958872.317    23958869.667         140.000
         2.000
 -14520381.43449 -11314545.97546  22012858.473    22012856.509         477.000
        23.000
   -282576.58747         0.000           0.000    25198281.097          96.000
         0.000
 -12320933.16549  -9600668.24546  22624607.925    22624606.607         391.000
        14.000
 -24359307.30049 -18981245.18647  20424202.341    20424199.985         747.000
        69.000
 -15190652.16249 -11836850.73546  22461763.068    22461760.069         388.000
        17.000
  -1974759.69948  -1538772.42144  24754003.319    24754001.117         163.000
         2.000
  4  3  1  0 43  0.0000000  0  8G24G17G 4G 8G13G 7G10G 5
 -15200910.31749 -11844831.05446  22594820.166    22594817.217         358.000
        13.000
  -3177618.99048  -2476063.44544  23951466.487    23951463.491         150.000
         3.000
 -14512764.37349 -11308610.59946  22014307.635    22014306.290         488.000
        23.000
   -272596.10548         0.000           0.000    25200180.240         101.000
         0.000
 -12325749.43449  -9604421.16946  22623691.157    22623690.038         389.000
        14.000
 -24349169.44749 -18973345.55847  20426131.811    20426129.292         751.000
        69.000
 -15261225.88749 -11891843.23846  22448333.057    22448330.371         392.000
        17.000
  -2046278.82048  -1594501.59344  24740392.154    24740391.794         167.000
         2.000
  4  3  1  0 43 30.0000000  0  8G24G17G 4G 8G13G 7G10G 5
 -15222367.89049 -11861551.22746  22590736.715    22590733.877         354.000
        13.000
  -3216405.98448  -2506287.04944  23944086.621    23944082.150         145.000
         3.000
 -14505183.71149 -11302703.58946  22015750.021    22015748.716         488.000
        23.000
   -262939.81748         0.000           0.000    25202018.311         104.000
         0.000
 -12330112.29849  -9607820.78946  22622860.891    22622859.745         392.000
        14.000
 -24338614.76349 -18965121.12947  20428140.211    20428137.711         751.000
        69.000
 -15331439.08049 -11946554.79746  22434972.345    22434969.152         391.000
        17.000
  -2117458.17848  -1649966.04544  24726846.359    24726846.292         150.000
         2.000
  4  3  1  0 44  0.0000000  0  8G24G17G 4G 8G13G 7G10G 5
 -15243796.35149 -11878248.72146  22586658.669    22586656.265         358.000
        13.000
  -3255063.36748  -2536409.66244  23936730.000    23936726.256         147.000
         2.000
 -14497645.98849 -11296830.03946  22017184.372    22017183.126         488.000
        23.000
   -253613.49648         0.000           0.000    25203792.661         117.000
         0.000
 -12334026.46749  -9610870.77646  22622115.902    22622114.949         391.000
        14.000
 -24327648.69349 -18956576.13247  20430227.069    20430224.434         744.000
        68.000
 -15401296.73149 -12000989.31746  22421678.417    22421675.624         390.000
        18.000
  -2188302.61848         0.000           0.000    24713365.585         138.000
         0.000
  4  3  1  0 44 30.0000000  0  8G24G17G 4G 8G13G 7G10G 5
 -15265186.63149 -11894916.45646  22582588.298    22582585.634         357.000
        13.000
  -3293581.41848  -2566423.72144  23929402.642    23929396.849         147.000
         3.000
 -14490141.21849 -11290982.15946  22018612.680    22018611.212         484.000
        23.000
   -244606.30848         0.000           0.000    25205506.288         104.000
         0.000
 -12337480.07449  -9613561.88246  22621458.499    22621457.784         391.000
        14.000
 -24316259.54149 -18947701.46647  20432394.113    20432391.723         745.000
        69.000
 -15470786.92449 -12055137.50446  22408455.263    22408452.115         386.000
        18.000
  -2258799.12948  -1760101.80544  24699951.382    24699950.322         135.000
         2.000
  4  3  1  0 45  0.0000000  0  8G24G17G 4G 8G13G 7G10G 5
 -15286542.65349 -11911557.50346  22578524.254    22578521.615         353.000
        13.000
  -3331964.30948  -2596332.44844  23922095.887    23922092.125         145.000
         2.000
 -14482672.56949 -11285162.42446  22020034.135    22020032.339         478.000
        23.000
   -235920.94748         0.000           0.000    25207159.273         104.000
         0.000
 -12340474.64749  -9615895.30846  22620888.556    22620887.755         388.000
        14.000
 -24304449.54849 -18938498.87047  20434641.450    20434639.062         742.000
        68.000
 -15539911.38449 -12109000.69946  22395301.336    22395297.980         378.000
        17.000
  -2328949.35248         0.000           0.000    24686601.152         135.000
         0.000
  4  3  1  0 45 30.0000000  0  8G24G17G 4G 8G13G 7G10G 5
 -15307856.68349 -11928165.82346  22574469.044    22574465.960         358.000
        13.000
  -3370204.60848  -2626130.09744  23914817.312    23914815.385         145.000
         2.000
 -14475231.97749 -11279364.55146  22021449.961    22021448.222         479.000
        22.000
   -227548.31348         0.000           0.000    25208752.450         102.000
         0.000
 -12343000.45949  -9617863.46046  22620408.713    22620407.343         396.000
        14.000
 -24292209.22849 -18928960.95447  20436970.811    20436968.296         740.000
        68.000
 -15608660.31449 -12162571.27646  22382218.398    22382215.463         380.000
        17.000
  -2398743.16348         0.000           0.000    24673319.917         133.000
         0.000
  4  3  1  0 46  0.0000000  0  8G24G17G 4G 8G13G 7G10G 5
 -15329138.09849 -11944748.74546  22570419.384    22570416.402         361.000
        13.000
  -3408311.53948  -2655823.76244  23907568.288    23907563.350         143.000
         3.000
 -14467828.05549 -11273595.25546  22022858.845    22022857.322         482.000
        22.000
   -219496.41748         0.000           0.000    25210285.077         105.000
         0.000
 -12345064.30049  -9619471.63646  22620015.862    22620014.747         403.000
        14.000
 -24279545.66349 -18919093.24047  20439380.612    20439378.132         740.000
        68.000
 -15677040.58549 -12215854.57746  22369206.472    22369203.086         380.000
        17.000
  -2468186.77448         0.000           0.000    24660104.939         138.000
         0.000
  4  3  1  0 46 30.0000000  0  8G24G17G 4G 8G13G 7G10G 5
 -15350386.14149 -11961305.63846  22566375.851    22566372.731         356.000
        13.000
  -3446284.92148  -2685413.42144  23900341.657    23900337.710         149.000
         2.000
 -14460459.89049 -11267853.81846  22024260.579    22024259.045         471.000
        22.000
   -211763.54148         0.000           0.000    25211756.222         113.000
         0.000
 -12346663.61449  -9620717.84046  22619711.528    22619710.193         397.000
        15.000
 -24266456.81149 -18908894.12947  20441871.291    20441868.865         741.000
        68.000
 -15745049.52649 -12268848.54646  22356264.683    22356261.537         389.000
        18.000
  -2537277.61548  -1977097.98944  24646959.883    24646957.667         155.000
         1.000
  4  3  1  0 47  0.0000000  0  8G24G17G 4G 8G13G 7G10G 5
 -15371595.92549 -11977832.73346  22562339.658    22562336.526         353.000
        13.000
  -3484119.38548  -2714894.78544  23893141.313    23893137.671         145.000
         3.000
 -14453121.30849 -11262135.43946  22025657.091    22025655.775         477.000
        22.000
   -204342.97648         0.000           0.000    25213167.909         109.000
         0.000
 -12347790.62749  -9621596.02146  22619497.376    22619495.841         400.000
        15.000
 -24252935.39149 -18898357.95347  20444444.507    20444442.007         744.000
        67.000
 -15812679.66649 -12321547.33846  22343394.508    22343391.908         394.000
        18.000
  -2606007.29148  -2030653.59844  24633880.807    24633878.790         154.000
         2.000
  4  3  1  0 47 30.0000000  0  8G24G17G 4G 8G13G 7G10G 5
 -15392775.26549 -11994336.10946  22558309.405    22558306.321         355.000
        13.000
  -3521822.99048  -2744274.23944  23885967.519    23885962.920         144.000
         2.000
 -14445819.53049 -11256445.73846  22027046.698    22027045.154         472.000
        21.000
   -197241.11848         0.000           0.000    25214519.906         113.000
         0.000
 -12348451.13449  -9622110.68346  22619371.184    22619369.953         394.000
        15.000
 -24238987.49949 -18887489.46247  20447098.667    20447096.107         740.000
        68.000
 -15879936.57049 -12373955.30146  22330596.154    22330593.093         386.000
        18.000
  -2674381.06648         0.000           0.000    24620866.645         129.000
         0.000
  4  3  1  0 48  0.0000000  0  8G24G17G 4G 8G13G 7G10G 5
 -15413922.44749 -12010814.41346  22554284.989    22554282.267         359.000
        13.000
  -3559394.47248  -2773550.66844  23878818.187    23878813.854         156.000
         3.000
 -14438552.74749 -11250783.30146  22028429.371    22028427.863         466.000
        22.000
   -190455.41148         0.000           0.000    25215810.852         110.000
         0.000
 -12348641.53849  -9622259.04546  22619335.416    22619333.826         397.000
        15.000
 -24224609.98749 -18876286.20447  20449834.504    20449831.893         730.000
        68.000
 -15946816.74249 -12426069.70146  22317869.431    22317866.151         389.000
        18.000
  -2742395.43848  -2136930.01344  24607928.899    24607924.198         133.000
         2.000
  4  3  1  0 48 30.0000000  0  8G24G17G 4G 8G13G 7G10G 5
 -15435036.95349 -12027267.26246  22550267.265    22550264.114         356.000
        13.000
  -3596833.38648  -2802723.84644  23871693.204    23871688.560         143.000
         3.000
 -14431319.36749 -11245146.89946  22029805.754    22029804.430         469.000
        22.000
   -183983.34748         0.000           0.000    25217042.649         112.000
         0.000
 -12348358.59849  -9622038.55646  22619389.002    22619387.537         395.000
        15.000
 -24209800.18849 -18864746.10047  20452652.891    20452650.272         737.000
        69.000
 -16013317.28749 -12477888.29146  22305215.209    22305211.745         398.000
        18.000
  -2810046.84148         0.000           0.000    24595050.638         138.000
         0.000
  4  3  1  0 49  0.0000000  0  8G24G17G 4G 8G13G 7G10G 5
 -15456126.61449 -12043700.74846  22546254.474    22546251.180         365.000
        13.000
  -3634147.60348  -2831799.86144  23864591.503    23864588.591         155.000
         3.000
 -14424126.57049 -11239542.11546  22031175.177    22031173.235         466.000
        22.000
   -177831.55748         0.000           0.000    25218213.182         106.000
         0.000
 -12347608.06849  -9621453.71546  22619531.575    22619530.528         401.000
        15.000
 -24194564.22949 -18852873.91947  20455552.260    20455549.546         735.000
        68.000
 -16079443.83749 -12529415.46146  22292631.039    22292628.269         411.000
        19.000
  -2877340.55348  -2242082.03844  24582248.871    24582244.795         135.000
         2.000
  4  3  1  0 49 30.0000000  0  8G24G17G 4G 8G13G 7G10G 5
 -15477194.25149 -12060117.07946  22542245.004    22542241.990         363.000
        13.000
  -3671340.11848  -2860781.02644  23857514.305    23857511.212         154.000
         3.000
 -14416976.46549 -11233970.59946  22032535.454    22032533.500         454.000
        22.000
   -172001.30847         0.000           0.000    25219322.455          94.000
         0.000
 -12346390.79249  -9620505.17746  22619762.648    22619761.999         398.000
        14.000
 -24178903.26449 -18840670.56747  20458532.439    20458529.719         731.000
        68.000
 -16145197.16749 -12580651.80746  22280118.756    22280115.967         422.000
        20.000
  -2944276.95148  -2294240.24244  24569513.418    24569507.927         146.000
         2.000
  4  3  1  0 50  0.0000000  0  8G24G17G 4G 8G13G 7G10G 5
 -15498227.69649 -12076506.76246  22538242.357    22538239.583         365.000
        13.000
  -3708398.97948  -2889658.03044  23850462.119    23850458.798         151.000
         3.000
 -14409856.58249 -11228422.63246  22033890.346    22033888.722         466.000
        22.000
   -166479.49047         0.000           0.000    25220373.138          91.000
         0.000
 -12344692.55249  -9619181.86046  22620086.279    22620085.153         397.000
        15.000
 -24162803.50849 -18828125.30147  20461596.095    20461593.372         728.000
        68.000
 -16210563.25149 -12631586.40846  22267680.682    22267677.434         437.000
        20.000
  -3010841.22748  -2346108.47544  24556842.567    24556841.967         166.000
         3.000
  4  3  1  0 50 30.0000000  0  8G24G17G 4G 8G13G 7G10G 5
 -15519229.08849 -12092871.46546  22534245.779    22534242.823         360.000
        13.000
  -3745326.76748  -2918432.93944  23843436.739    23843432.016         158.000
         3.000
 -14402768.34349 -11222899.33246  22035238.969    22035237.803         472.000
        22.000
   -161266.58748         0.000           0.000    25221365.708         114.000
         0.000
 -12342513.44349  -9617483.83546  22620500.678    22620500.127         405.000
        14.000
 -24146265.35449 -18815238.42947  20464743.097    20464740.431         725.000
        68.000
 -16275542.10149 -12682219.27046  22255315.038    22255311.927         429.000
        20.000
  -3077033.25948  -2397686.66044  24544248.067    24544245.306         155.000
         2.000
  4  3  1  0 51  0.0000000  0  8G24G17G 4G 8G13G 7G10G 5
 -15540205.08949 -12109216.39246  22530254.352    22530251.498         365.000
        13.000
  -3782129.87548  -2947110.66444  23836434.582    23836428.578         160.000
         3.000
 -14395717.42349 -11217405.10346  22036581.105    22036579.291         463.000
        21.000
   -156367.47248         0.000           0.000    25222297.777         103.000
         0.000
 -12339858.04649  -9615414.68246  22621005.638    22621005.272         401.000
        14.000
 -24129293.64949 -18802013.72347  20467972.650    20467970.002         724.000
        68.000
 -16340138.07449 -12732553.77746  22243023.308    22243019.869         437.000
        20.000
  -3142857.13948  -2448978.01644  24531722.816    24531719.159         143.000
         2.000
  4  3  1  0 51 30.0000000  0  8G24G17G 4G 8G13G 7G10G 5
 -15561161.71149 -12125546.21746  22526265.782    22526263.398         364.000
        13.000
  -3818814.68848  -2975696.21244  23829454.463    23829447.535         153.000
         3.000
 -14388709.25249 -11211944.18646  22037914.714    22037912.590         453.000
        22.000
   -151787.12347         0.000           0.000    25223169.471          91.000
         0.000
 -12336730.19349  -9612977.37146  22621601.473    22621600.647         404.000
        14.000
 -24111892.77049 -18788454.59347  20471283.962    20471281.357         725.000
        67.000
 -16404355.31849 -12782593.17646  22230802.599    22230799.668         439.000
        20.000
  -3208316.17548  -2499985.03944  24519265.885    24519262.981         147.000
         2.000
  4  3  1  0 52  0.0000000  0  8G24G17G 4G 8G13G 7G10G 5
 -15582095.65749 -12141858.37246  22522282.512    22522280.179         371.000
        13.000
  -3855378.42948  -3004187.42944  23822493.081    23822489.609         156.000
         3.000
 -14381740.30649 -11206513.83346  22039240.391    22039238.784         455.000
        21.000
   -147520.97747         0.000           0.000    25223981.054          76.000
         0.000
 -12333124.88949  -9610168.03646  22622287.743    22622286.772         406.000
        14.000
 -24094058.27149 -18774557.58047  20474677.919    20474675.153         723.000
        67.000
 -16468189.03449 -12832333.72546  22218656.119    22218652.718         449.000
        20.000
  -3273404.68748  -2550703.34244  24506879.760    24506877.319         161.000
         2.000
  4  3  1  0 52 30.0000000  0  7G24G17G 4G13G 7G10G 5
 -15603014.23349 -12158158.55146  22518301.548    22518299.132         363.000
        13.000
  -3891828.03548  -3032589.73444  23815559.127    23815553.814         162.000
         3.000
 -14374816.55049 -11201118.69446  22040558.040    22040556.536         464.000
        22.000
 -12329046.99249  -9606990.43846  22623063.059    22623062.511         400.000
        14.000
 -24075795.22749 -18760326.63647  20478153.151    20478150.493         722.000
        66.000
 -16531643.90449 -12881779.06646  22206580.700    22206577.797         464.000
        21.000
  -3338127.40148  -2601136.62944  24494561.460    24494560.287         153.000
         2.000
  4  3  1  0 53  0.0000000  0  7G24G17G 4G13G 7G10G 5
 -15623921.27549 -12174449.73546  22514323.309    22514320.875         368.000
        13.000
  -3928167.75148  -3060906.37944  23808640.930    23808638.244         156.000
         3.000
 -14367941.30749 -11195761.36146  22041866.193    22041864.680         459.000
        22.000
 -12324498.54549  -9603446.18446  22623928.367    22623928.151         406.000
        15.000
 -24057106.07849 -18745763.66447  20481709.359    20481706.830         721.000
        67.000
 -16594722.10449 -12930930.90246  22194576.746    22194574.111         452.000
        21.000
  -3402485.96348  -2651286.15244  24482314.675    24482313.736         152.000
         2.000
  4  3  1  0 53 30.0000000  0  7G24G17G 4G13G 7G10G 5
 -15644795.00349 -12190714.96246  22510351.326    22510348.697         368.000
        13.000
  -3964376.24348  -3089120.78344  23801750.555    23801748.123         157.000
         3.000
 -14361092.21649 -11190424.39946  22043169.397    22043168.136         461.000
        22.000
 -12319455.97649  -9599516.89246  22624888.207    22624887.650         403.000
        14.000
 -24037967.60449 -18730850.56747  20485351.337    20485348.882         726.000
        67.000
 -16657399.82049 -12979770.66646  22182649.537    22182647.123         456.000
        21.000
  -3466456.53848  -2701133.35844  24470142.588    24470140.120         149.000
         2.000
  4  3  1  0 54  0.0000000  0  7G24G17G 4G13G 7G10G 5
 -15665645.39149 -12206962.00346  22506383.776    22506381.132         367.000
        13.000
  -4000463.55448  -3117240.73744  23794886.005    23794880.789         155.000
         3.000
 -14354278.26949 -11185114.82646  22044466.607    22044464.772         460.000
        21.000
 -12313927.22649  -9595208.76246  22625940.365    22625939.783         403.000
        14.000
 -24018388.02249 -18715593.74547  20489077.206    20489074.675         724.000
        67.000
 -16719684.90449 -13028304.48746  22170797.364    22170794.719         455.000
        21.000
  -3530046.06148  -2750683.64144  24458041.442    24458039.304         160.000
         2.000
  4  3  1  0 54 30.0000000  0  8G24G17G 4G28G13G 7G10G 5
 -15686475.42249 -12223193.18446  22502419.571    22502417.045         363.000
        13.000
  -4036433.00048  -3145268.87444  23788040.947    23788035.749         149.000
         3.000
 -14347501.95649 -11179834.57846  22045755.880    22045754.344         465.000
        22.000
        -0.01158         0.56955  23360011.133    23360009.017         280.000
         8.000
 -12307913.65749  -9590522.85346  22627084.710    22627084.303         408.000
        14.000
 -23998369.08349 -18699994.57147  20492886.722    20492884.205         727.000
        67.000
 -16781578.70249 -13076533.40746  22159019.627    22159016.468         448.000
        21.000
  -3593255.68348  -2799937.89944  24446013.327    24446011.190         167.000
         3.000
  4  3  1  0 55  0.0000000  0  8G24G17G 4G28G13G 7G10G 5
 -15707285.70349 -12239408.97846  22498459.618    22498456.968         361.000
        14.000
  -4072285.65648  -3173206.00044  23781217.196    23781213.005         153.000
         3.000
 -14340763.66849 -11174583.95046  22047037.826    22047036.508         461.000
        22.000
     95071.86448     74082.54045  23378100.860    23378100.521         279.000
         7.000
 -12301414.29749  -9585458.41046  22628321.688    22628321.049         404.000
        15.000
 -23977910.11149 -18684052.51247  20496780.029    20496777.558         733.000
        67.000
 -16843080.25149 -13124456.67846  22147315.727    22147313.218         451.000
        21.000
  -3656083.94448  -2848894.99644  24434056.806    24434055.643         168.000
         3.000
  4  3  1  0 55 30.0000000  0  8G24G17G 4G28G13G 7G10G 5
 -15728086.48849 -12255617.37246  22494501.954    22494498.780         363.000
        14.000
  -4108031.88248  -3201060.19744  23774412.854    23774411.195         158.000
         3.000
 -14334072.43249 -11169370.00246  22048311.370    22048310.008         467.000
        22.000
    190160.05548    148177.22045  23396197.251    23396195.473         279.000
         8.000
 -12294437.16849  -9580021.66046  22629650.027    22629648.652         398.000
        14.000
 -23957019.70349 -18667774.27247  20500755.439    20500752.871         732.000
        67.000
 -16904197.77549 -13172080.70446  22135685.763    22135682.977         450.000
        21.000
  -3718538.44748  -2897560.84144  24422174.084    24422170.613         169.000
         3.000
  4  3  1  0 56  0.0000000  0  8G24G17G 4G28G13G 7G10G 5
 -15748867.77549 -12271810.57646  22490547.375    22490544.126         361.000
        14.000
  -4143661.72648  -3228823.70044  23767636.387    23767631.377         161.000
         3.000
 -14327417.44449 -11164184.29146  22049577.736    22049576.311         467.000
        22.000
    285273.09848    222291.26045  23414295.897    23414294.343         273.000
         8.000
 -12286970.55649  -9574203.51146  22631069.735    22631069.411         395.000
        13.000
 -23935686.18449 -18651150.75047  20504814.989    20504812.369         726.000
        67.000
 -16964919.22949 -13219396.10546  22124131.162    22124128.066         447.000
        21.000
  -3780606.85048  -2945925.85644  24410359.859    24410359.498         169.000
         3.000
  4  3  1  0 56 30.0000000  0  8G24G17G 4G28G13G 7G10G 5
 -15769637.46449 -12287994.73946  22486594.795    22486591.768         360.000
        14.000
  -4179183.63748  -3256503.09444  23760873.832    23760871.933         164.000
         3.000
 -14320805.97449 -11159032.49146  22050835.945    22050834.432         469.000
        22.000
    380401.10848    296416.96545  23432397.730    23432396.874         273.000
         7.000
 -12279020.89349  -9568008.95846  22632582.361    22632582.276         394.000
        13.000
 -23913916.35349 -18634187.24247  20508957.681    20508955.016         724.000
        66.000
 -17025250.94349 -13266407.81846  22112650.377    22112647.069         436.000
        21.000
  -3842294.87948  -2993994.41844  24398624.541    24398620.869         162.000
         3.000
  4  3  1  0 57  0.0000000  0  8G24G17G 4G28G13G 7G10G 5
 -15790387.57849 -12304163.63946  22482646.214    22482643.011         358.000
        14.000
  -4214590.11148  -3284092.52544  23754138.603    23754133.683         158.000
         3.000
 -14314229.69749 -11153908.11446  22052087.386    22052085.805         467.000
        22.000
    475550.05548    370558.98645  23450504.693    23450503.271         276.000
         7.000
 -12270578.42149  -9561430.39646  22634188.909    22634188.410         383.000
        13.000
 -23891700.90449 -18616876.49947  20513185.217    20513182.574         729.000
        67.000
 -17085183.30049 -13313108.33846  22101245.219    22101242.159         429.000
        21.000
  -3903592.37648  -3041758.70144  24386957.579    24386955.893         159.000
         3.000
  4  3  1  0 57 30.0000000  0  8G24G17G 4G28G13G 7G10G 5
 -15811127.35349 -12320324.48446  22478699.211    22478696.347         356.000
        14.000
  -4249890.35248  -3311599.17644  23747419.137    23747415.478         148.000
         3.000
 -14307696.74849 -11148817.49846  22053330.831    22053328.969         468.000
        22.000
    570709.28348    444709.02445  23468613.496    23468611.436         272.000
         7.000
 -12261650.50349  -9554473.57046  22635887.797    22635887.543         386.000
        13.000
 -23869047.49849 -18599224.49247  20517495.920    20517493.293         726.000
        66.000
 -17144723.35849 -13359503.16846  22089915.345    22089912.089         428.000
        21.000
  -3964506.52248  -3089224.26944  24375369.659    24375364.341         171.000
         3.000
  4  3  1  0 58  0.0000000  0  8G24G17G 4G28G13G 7G10G 5
 -15831863.47949 -12336482.49246  22474753.483    22474750.443         353.000
        14.000
  -4285091.24048  -3339028.43944  23740719.506    23740717.951         164.000
         3.000
 -14301213.08949 -11143765.29146  22054564.324    22054562.714         469.000
        23.000
    665870.53948    518860.64145  23486720.824    23486719.958         274.000
         7.000
 -12252242.16149  -9547142.38046  22637678.341    22637678.042         390.000
        13.000
 -23845961.50949 -18581235.41147  20521888.958    20521886.322         723.000
        66.000
 -17203876.54349 -13405596.54246  22078658.741    22078655.650         428.000
        21.000
  -4025041.76448  -3136394.58344  24363847.434    24363845.262         180.000
         3.000
  4  3  1  0 58 30.0000000  0  8G24G17G 4G28G13G 7G10G 5
 -15852593.02949 -12352635.36446  22470808.368    22470805.903         356.000
        13.000
  -4320190.55248  -3366378.54745  23734041.378    23734039.447         171.000
         4.000
 -14294775.24949 -11138748.78646  22055789.031    22055788.045         476.000
        22.000
    761034.81848    593014.59945  23504831.313    23504828.992         267.000
         7.000
 -12242348.99449  -9539433.42546  22639560.476    22639560.665         388.000
        11.000
 -23822438.86649 -18562906.08047  20526365.279    20526362.599         725.000
        66.000
 -17262638.17849 -13451384.80846  22067477.014    22067473.708         429.000
        21.000
  -4085192.91448  -3183265.60844  24352402.943    24352398.778         178.000
         3.000
  4  3  1  0 59  0.0000000  0  8G24G17G 4G28G13G 7G10G 5
 -15873311.94949 -12368779.96646  22466865.768    22466862.873         347.000
        13.000
  -4355184.18048  -3393646.29444  23727383.720    23727379.488         156.000
         3.000
 -14288378.02049 -11133763.92546  22057007.191    22057005.428         480.000
        23.000
    856204.47848    667172.76045  23522940.556    23522939.667         276.000
         7.000
 -12231965.23249  -9531342.14646  22641537.197    22641536.381         379.000
        13.000
 -23798473.96549 -18544232.13147  20530925.695    20530922.981         726.000
        66.000
 -17321002.14249 -13496863.20146  22056370.286    22056367.375         431.000
        21.000
  -4144953.70748  -3229832.46344  24341030.843    24341026.723         180.000
         3.000
  4  3  1  0 59 30.0000000  0  8G24G17G 4G28G13G 7G10G 5
 -15894014.23449 -12384911.59046  22462926.433    22462923.433         350.000
        13.000
  -4390066.80548  -3420827.55144  23720744.589    23720741.179         154.000
         3.000
 -14282015.12249 -11128805.82546  22058218.059    22058216.184         479.000
        23.000
    951383.47048    741338.20045  23541052.668    23541051.307         269.000
         7.000
 -12221083.77249  -9522863.07346  22643607.387    22643606.937         375.000
        12.000
 -23774059.87849 -18525208.16947  20535571.220    20535568.824         725.000
        65.000
 -17378961.43749 -13542026.27546  22045340.534    22045337.900         432.000
        21.000
  -4204315.98848  -3276088.80244  24329732.894    24329730.971         188.000
         3.000
  4  3  1  1  0  0.0000000  0  8G24G17G 4G28G13G 7G10G 5
 -15914709.05049 -12401037.40846  22458987.850    22458985.235         351.000
        12.000
  -4424847.66548  -3447929.50044  23714125.336    23714122.981         161.000
         3.000
 -14275694.50149 -11123880.66146  22059420.684    22059418.756         472.000
        23.000
   1046561.33048    815502.74245  23559165.130    23559162.993         267.000
         7.000
 -12209711.83249  -9514001.80946  22645771.308    22645770.944         373.000
        12.000
 -23749204.16849 -18505840.08247  20540301.382    20540298.844         730.000
        65.000
 -17436523.16849 -13586879.55146  22034387.275    22034384.368         436.000
        21.000
  -4263286.95848  -3322040.21244  24318510.938    24318508.721         181.000
         3.000
  4  3  1  1  0 30.0000000  0  8G24G17G 4G28G13G 7G10G 5
 -15935386.82949 -12417149.95246  22455053.691    22455050.480         353.000
        13.000
  -4459517.88548  -3474945.23644  23707526.015    23707525.217         158.000
         3.000
 -14269406.24949 -11118980.72046  22060616.928    22060615.242         472.000
        23.000
   1141745.59048    889672.28045  23577277.973    23577275.737         259.000
         7.000
 -12197838.52449  -9504749.87346  22648031.576    22648030.595         379.000
        12.000
 -23723896.37249 -18486119.71947  20545117.188    20545114.652         726.000
        65.000
 -17493676.59049 -13631414.67146  22023511.044    22023508.339         438.000
        21.000
  -4321855.02848  -3367677.62944  24307362.915    24307362.688         167.000
         3.000
  4  3  1  1  1  0.0000000  0  8G24G17G 4G28G13G 7G10G 5
 -15956058.62349 -12433257.83346  22451119.365    22451116.832         354.000
        13.000
  -4494088.76948  -3501883.56145  23700950.134    23700946.807         162.000
         4.000
 -14263160.50149 -11114113.89546  22061805.334    22061803.969         481.000
        23.000
   1236923.38948    963836.76845  23595388.377    23595387.454         255.000
         6.000
 -12185473.40549  -9495114.69846  22650383.951    22650383.278         372.000
        12.000
 -23698146.50349 -18466054.88647  20550017.171    20550014.650         721.000
        65.000
 -17550431.16449 -13675638.99746  22012710.863    22012708.176         443.000
        22.000
  -4380029.26148  -3413008.20444  24296296.371    24296293.145         176.000
         3.000
  4  3  1  1  1 30.0000000  0  8G24G17G 4G28G13G 7G10G 5
 -15976727.44549 -12449363.38946  22447186.656    22447183.838         359.000
        13.000
  -4528563.52748  -3528747.00244  23694387.449    23694386.482         162.000
         3.000
 -14256959.34749 -11109281.81846  22062985.713    22062984.075         483.000
        23.000
   1332090.30048   1037992.79645  23613496.914    23613497.393         252.000
         7.000
 -12172618.01349  -9485097.49146  22652829.505    22652829.607         369.000
        12.000
 -23671955.92249 -18445646.63747  20555000.893    20554998.612         723.000
        64.000
 -17606787.74049 -13719553.19846  22001987.326    22001984.025         452.000
        22.000
  -4437810.36148  -3458032.43044  24285299.584    24285297.699         173.000
         3.000
  4  3  1  1  2  0.0000000  0  8G24G17G 4G28G13G 7G10G 5
 -15997387.89249 -12465462.42546  22443255.159    22443251.994         355.000
        13.000
  -4562936.97848  -3555531.46144  23687850.727    23687845.458         161.000
         3.000
 -14250796.66149 -11104479.72746  22064158.419    22064156.788         483.000
        22.000
   1427249.96848   1112143.14845  23631607.062    23631605.956         257.000
         7.000
 -12159265.39249  -9474692.84346  22655371.105    22655370.611         368.000
        12.000
 -23645318.28249 -18424890.03247  20560070.106    20560067.627         724.000
        64.000
 -17662739.65149 -13763152.06946  21991340.085    21991336.897         463.000
        23.000
  -4495191.07448  -3502744.64944  24274382.671    24274378.458         172.000
         3.000
  4  3  1  1  2 30.0000000  0  8G24G17G 4G28G13G 7G10G 5
 -16018044.91849 -12481558.78546  22439324.498    22439321.292         357.000
        14.000
  -4597214.76748  -3582241.41244  23681325.976    23681322.880         163.000
         3.000
 -14244676.69649 -11099710.91746  22065322.545    22065321.488         487.000
        22.000
   1522395.47348   1186282.49245  23649711.849    23649711.157         245.000
         6.000
 -12145419.28449  -9463903.66246  22658005.899    22658005.488         371.000
        12.000
 -23618237.59949 -18403788.19947  20565223.325    20565220.856         721.000
        64.000
 -17718290.78949 -13806438.65946  21980768.392    21980765.789         468.000
        23.000
  -4552174.76548  -3547147.54644  24263537.718    24263534.932         181.000
         3.000
  4  3  1  1  3  0.0000000  0  8G24G17G 4G28G13G 7G10G 5
 -16038711.72249 -12497662.77246  22435391.794    22435388.355         354.000
        14.000
  -4631410.33248  -3608887.31144  23674819.189    23674815.313         159.000
         3.000
 -14238611.95549 -11094985.14446  22066476.770    22066475.396         482.000
        22.000
   1617511.97348   1260399.22345  23667812.250    23667811.609         245.000
         6.000
 -12131091.77649  -9452739.35746  22660732.298    22660731.732         369.000
        12.000
 -23590725.97849 -18382350.57047  20570458.589    20570456.021         714.000
        64.000
 -17773452.32349 -13849421.65946  21970271.657    21970269.019         482.000
        24.000
  -4608772.25848  -3591249.48844  24252768.812    24252764.797         179.000
         2.000
  4  3  1  1  3 30.0000000  0  7G24G17G 4G13G 7G10G 5
 -16059369.89349 -12513760.03346  22431459.963    22431457.226         352.000
        13.000
  -4665505.66248  -3635455.07244  23668329.308    23668327.738         169.000
         3.000
 -14232583.09749 -11090287.33246  22067624.195    22067622.732         486.000
        22.000
 -12116262.71249  -9441184.23146  22663554.246    22663553.590         363.000
        12.000
 -23562763.72449 -18360561.79947  20575779.630    20575777.108         715.000
        64.000
 -17828204.59149 -13892085.75546  21959852.537    21959849.980         492.000
        25.000
  -4664963.48048  -3635034.87344  24242075.138    24242072.143         177.000
         2.000
  4  3  1  1  4  0.0000000  0  7G24G17G 4G13G 7G10G 5
 -16080025.97649 -12529855.66346  22427529.056    22427526.313         350.000
        13.000
  -4699508.03948  -3661950.39444  23661859.366    23661856.606         162.000
         3.000
 -14226596.33649 -11085622.31646  22068763.339    22068761.890         484.000
        23.000
 -12100937.90349  -9429242.81346  22666470.733    22666469.988         368.000
        12.000
 -23534356.89949 -18338426.61147  20581185.431    20581182.729         712.000
        64.000
 -17882553.19249 -13934435.30246  21949510.787    21949507.870         497.000
        25.000
  -4720753.24648  -3678507.40744  24231458.089    24231455.313         170.000
         3.000
  4  3  1  1  4 30.0000000  0  8G24G17G 4G29G13G 7G10G 5
 -16100677.48049 -12545947.73546  22423599.768    22423596.622         355.000
        14.000
  -4733415.40148  -3688371.69644  23655408.154    23655404.131         161.000
         3.000
 -14220648.09249 -11080987.31846  22069895.342    22069894.049         489.000
        22.000
        -0.72658         0.000           0.000    25463272.657         111.000
         0.000
 -12085113.42349  -9416912.03246  22669481.653    22669481.290         371.000
        12.000
 -23505501.85249 -18315942.15947  20586676.171    20586673.628         710.000
        63.000
 -17936493.83249 -13976466.95746  21939246.244    21939243.320         507.000
        25.000
  -4776137.20348  -3721663.71444  24220922.263    24220916.126         169.000
         3.000
  4  3  1  1  5  0.0000000  0  8G24G17G 4G29G13G 7G10G 5
 -16121328.81149 -12562039.66446  22419669.722    22419667.077         361.000
        14.000
  -4767232.30248  -3714722.49944  23648973.348    23648969.525         168.000
         3.000
 -14214741.88949 -11076385.07446  22071018.953    22071017.789         484.000
        22.000
    -95203.32647         0.000           0.000    25445156.327          95.000
         0.000
 -12068792.29649  -9404194.26146  22672587.792    22672587.257         373.000
        13.000
 -23476201.75949 -18293110.91647  20592251.954    20592249.365         713.000
        64.000
 -17990029.37549 -14018182.95446  21929058.542    21929055.773         509.000
        26.000
  -4831117.29448  -3764505.34244  24210456.202    24210453.460         168.000
         3.000
  4  3  1  1  5 30.0000000  0  8G24G17G 4G29G13G 7G10G 5
 -16141974.94149 -12578127.54146  22415740.906    22415738.003         358.000
        14.000
  -4800954.15048  -3740999.23744  23642556.106    23642552.214         163.000
         3.000
 -14208872.21849 -11071811.30146  22072136.352    22072134.640         481.000
        22.000
   -190604.46847         0.000           0.000    25427002.249          94.000
         0.000
 -12051968.50549  -9391084.80246  22675789.187    22675788.378         365.000
        12.000
 -23446450.97649 -18269928.48747  20597913.203    20597910.662         712.000
        64.000
 -18043153.86849 -14059578.65446  21918949.102    21918946.542         516.000
        26.000
  -4885687.29648  -3807027.44144  24200068.549    24200069.347         176.000
         3.000
  4  3  1  1  6  0.0000000  0  8G24G17G 4G29G13G 7G10G 5
 -16162626.84649 -12594219.91946  22411811.332    22411808.238         363.000
        14.000
  -4834592.24948  -3767210.70944  23636154.412    23636151.022         166.000
         3.000
 -14203048.65649 -11067273.46146  22073244.463    22073243.088         484.000
        22.000
   -286212.12547         0.000           0.000    25408808.328          89.000
         0.000
 -12034651.59649  -9377591.09546  22679084.401    22679083.705         366.000
        12.000
 -23416259.15649 -18246402.39147  20603658.671    20603656.001         712.000
        64.000
 -18095876.60249 -14100661.29346  21908916.229    21908913.491         511.000
        27.000
  -4939855.89148  -3849236.72544  24189765.529    24189761.728         179.000
         3.000
  4  3  1  1  6 30.0000000  0  8G24G17G 4G29G13G 7G10G 5
 -16183273.46649 -12610308.17846  22407882.612    22407879.185         360.000
        15.000
  -4868136.28348  -3793348.94144  23629769.234    23629768.216         171.000
         3.000
 -14197259.81649 -11062762.67246  22074345.847    22074344.406         481.000
        22.000
   -382012.97148         0.000           0.000    25390578.384         104.000
         0.000
 -12016829.51349  -9363703.74946  22682475.317    22682474.828         360.000
        13.000
 -23385614.59049 -18222523.50647  20609489.832    20609487.433         714.000
        64.000
 -18148185.43649 -14141421.42046  21898962.331    21898959.496         513.000
        27.000
  -4993610.66848  -3891123.54244  24179536.722    24179532.029         172.000
         3.000
  4  3  1  1  7  0.0000000  0  8G24G17G 4G29G13G 7G10G 5
 -16203929.32749 -12626403.63946  22403951.899    22403948.432         361.000
        14.000
  -4901601.12848  -3819425.39945  23623401.076    23623400.069         171.000
         4.000
 -14191519.26649 -11058289.50946  22075438.590    22075436.853         478.000
        22.000
   -478018.71048         0.000           0.000    25372308.885         112.000
         0.000
 -11998515.80149  -9349433.30646  22685960.722    22685960.047         366.000
        12.000
 -23354530.91549 -18198302.46047  20615405.290    20615402.664         723.000
        64.000
 -18200093.57149 -14181869.30646  21889084.584    21889081.855         521.000
        28.000
  -5046964.56848  -3932698.00944  24169384.827    24169379.793         185.000
         3.000
  4  3  1  1  7 30.0000000  0  8G24G17G 4G29G13G 7G10G 5
 -16224596.51049 -12642507.92446  22400018.101    22400015.446         357.000
        14.000
  -4934988.84448  -3845441.78345  23617048.004    23617046.522         173.000
         4.000
 -14185828.17049 -11053854.88346  22076521.214    22076519.757         477.000
        22.000
   -574228.24448         0.000           0.000    25354000.504         118.000
         0.000
 -11979711.24949  -9334780.39846  22689540.019    22689538.291         363.000
        13.000
 -23323009.06149 -18173739.97547  20621403.504    20621400.971         721.000
        64.000
 -18251601.63749 -14222005.44946  21879282.947    21879280.182         520.000
        28.000
  -5099916.99648  -3973959.62044  24159305.809    24159302.966         186.000
         3.000
  4  3  1  1  8  0.0000000  0  8G24G17G 4G29G13G 7G10G 5
 -16245267.80749 -12658615.41346  22396085.061    22396081.912         363.000
        14.000
  -4968293.14648  -3871393.17844  23610713.670    23610708.309         161.000
         3.000
 -14180178.57149 -11049452.60046  22077596.372    22077594.922         478.000
        22.000
   -670632.03648         0.000           0.000    25335654.919         100.000
         0.000
 -11960408.03449  -9319738.92046  22693212.409    22693211.910         375.000
        12.000
 -23291041.15549 -18148829.91847  20627486.663    20627484.218         722.000
        64.000
 -18302701.48449 -14261823.49646  21869558.975    21869556.146         519.000
        28.000
  -5152459.71448  -4014902.01344  24149304.823    24149304.159         175.000
         3.000
  4  3  1  1  8 30.0000000  0  8G24G17G 4G29G13G 7G10G 5
 -16265940.14349 -12674723.71346  22392151.063    22392148.006         361.000
        14.000
  -5001511.57648  -3897277.63944  23604390.802    23604387.540         171.000
         3.000
 -14174567.06149 -11045079.99246  22078664.458    22078662.837         477.000
        22.000
   -767224.79147         0.000           0.000    25317273.770          95.000
         0.000
 -11940602.10049  -9304305.71346  22696981.202    22696980.606         369.000
        13.000
 -23258623.87449 -18123569.69947  20633655.616    20633653.163         729.000
        65.000
 -18353389.36249 -14301320.53446  21859913.500    21859910.593         520.000
        29.000
  -5204588.47148  -4055521.81744  24139385.526    24139384.874         186.000
         3.000
  4  3  1  1  9  0.0000000  0  8G24G17G 4G29G13G 7G10G 5
 -16286622.54049 -12690839.85046  22388214.827    22388212.194         362.000
        14.000
  -5034653.67848  -3923102.62944  23598086.450    23598081.204         178.000
         3.000
 -14169001.41749 -11040743.12146  22079723.743    22079721.943         480.000
        22.000
   -864012.32547         0.000           0.000    25298855.524          86.000
         0.000
 -11920301.13549  -9288486.77646  22700844.859    22700843.919         373.000
        13.000
 -23225765.04149 -18097965.41247  20639908.543    20639906.021         728.000
        64.000
 -18403672.63749 -14340502.29146  21850344.816    21850342.073         525.000
        29.000
  -5256309.85848  -4095824.18944  24129543.929    24129542.366         181.000
         3.000
  4  3  1  1  9 30.0000000  0  8G24G17G 4G29G13G 7G10G 5
 -16307307.56149 -12706958.03446  22384279.095    22384276.179         366.000
        15.000
  -5067712.21348  -3948862.51545  23591791.921    23591789.733         173.000
         4.000
 -14163473.21749 -11036435.43246  22080775.438    22080773.979         478.000
        22.000
   -960984.35847         0.000           0.000    25280402.817          91.000
         0.000
 -11899496.72849  -9272275.53346  22704803.113    22704802.946         376.000
        13.000
 -23192456.48449 -18072010.69247  20646246.764    20646244.238         720.000
        64.000
 -18453542.70549 -14379362.06846  21840854.938    21840852.136         524.000
        28.000
  -5307615.00648  -4135802.21744  24119784.004    24119779.356         178.000
         3.000
  4  3  1  1 10  0.0000000  0  8G24G17G 4G29G13G 7G10G 5
 -16327995.88149 -12723078.78146  22380342.474    22380339.205         364.000
        15.000
  -5100688.43948  -3974558.25045  23585517.675    23585514.320         169.000
         4.000
 -14157982.67149 -11032157.08146  22081820.429    22081818.704         475.000
        22.000
  -1058139.27847         0.000           0.000    25261915.042          94.000
         0.000
 -11878188.90449  -9255672.02346  22708858.461    22708857.828         379.000
        12.000
 -23158698.36649 -18045705.66247  20652670.838    20652668.317         726.000
        65.000
 -18502999.23049 -14417899.60446  21831443.471    21831440.877         525.000
        28.000
  -5358503.33848  -4175455.44944  24110098.403    24110095.394         176.000
         3.000
  4  3  1  1 10 30.0000000  0  8G24G17G 4G29G13G 7G10G 5
 -16348696.30649 -12739208.97246  22376402.976    22376399.839         361.000
        15.000
  -5133591.54248  -4000197.00544  23579256.083    23579253.351         172.000
         3.000
 -14152537.40549 -11027914.01346  22082856.444    22082854.908         473.000
        22.000
  -1155482.72747         0.000           0.000    25243391.140          99.000
         0.000
 -11856385.53949  -9238682.38046  22713006.942    22713006.343         365.000
        12.000
 -23124498.47649 -18019056.39747  20659178.813    20659176.343         727.000
        65.000
 -18552049.77949 -14456120.79646  21822109.626    21822106.762         518.000
        29.000
  -5408981.77948  -4214789.31244  24100494.274    24100490.039         187.000
         3.000
  4  3  1  1 11  0.0000000  0  8G24G17G 4G29G13G 7G10G 5
 -16369408.72349 -12755348.50346  22372462.170    22372458.319         357.000
        15.000
  -5166421.98948  -4025779.17644  23573009.004    23573005.829         172.000
         3.000
 -14147136.69449 -11023705.66446  22083883.706    22083882.594         470.000
        22.000
  -1253012.05548         0.000           0.000    25224831.402         102.000
         0.000
 -11834085.70349  -9221305.87546  22717250.801    22717250.140         372.000
        12.000
 -23089856.17249 -17992062.39347  20665771.059    20665768.532         724.000
        64.000
 -18600693.20449 -14494024.74646  21812853.174    21812850.151         516.000
        29.000
  -5459048.59848  -4253802.41445  24090967.048    24090963.197         196.000
         4.000
  4  3  1  1 11 30.0000000  0  8G24G17G 4G29G13G 7G10G 5
 -16390120.04949 -12771487.18846  22368520.136    22368516.962         357.000
        14.000
  -5199167.44348  -4051295.08745  23566778.052    23566774.512         171.000
         4.000
 -14141766.70249 -11019521.24846  22084905.679    22084904.221         464.000
        22.000
  -1350711.50748         0.000           0.000    25206240.028         104.000
         0.000
 -11811275.71049  -9203531.84446  22721590.821    22721590.664         374.000
        12.000
 -23054758.08149 -17964713.23147  20672450.039    20672447.583         728.000
        64.000
 -18648915.67649 -14531600.68346  21803676.287    21803673.421         504.000
        28.000
  -5508689.70848  -4292483.79144  24081518.105    24081515.192         175.000
         3.000
  4  3  1  1 12  0.0000000  0  8G24G17G 4G29G13G 7G10G 5
 -16410831.30049 -12787625.80646  22364579.759    22364576.031         366.000
        15.000
  -5231829.70248  -4076746.20545  23560562.101    23560559.250         174.000
         4.000
 -14136427.77049 -11015361.03746  22085921.716    22085920.318         466.000
        21.000
  -1448579.42348         0.000           0.000    25187616.286         104.000
         0.000
 -11787955.92849  -9185360.57946  22726028.977    22726028.246         373.000
        12.000
 -23019204.75549 -17937009.33947  20679215.728    20679213.156         728.000
        64.000
 -18696717.47649 -14568848.82446  21794580.102    21794577.193         505.000
        28.000
  -5557904.67748  -4330833.11344  24072154.694    24072150.666         188.000
         3.000
  4  3  1  1 12 30.0000000  0  8G24G17G 4G29G13G 7G10G 5
 -16431560.61849 -12803778.50446  22360634.390    22360631.235         365.000
        15.000
  -5264426.90148  -4102146.58945  23554362.056    23554356.466         178.000
         4.000
 -14131136.92749 -11011238.29346  22086928.314    22086927.206         465.000
        21.000
  -1546631.01148         0.000           0.000    25168957.922         100.000
         0.000
 -11764143.34049  -9166805.30846  22730560.398    22730559.564         370.000
        12.000
 -22983213.23549 -17908964.00047  20686064.496    20686061.985         720.000
        64.000
 -18744115.18649 -14605782.09546  21785560.780    21785557.749         506.000
        28.000
  -5606709.56148  -4368862.91244  24062867.153    24062863.687         192.000
         3.000
  4  3  1  1 13  0.0000000  0  8G24G17G 4G29G13G 7G10G 5
 -16452299.63949 -12819938.76546  22356687.981    22356684.877         374.000
        15.000
  -5296951.34248  -4127490.29344  23548171.616    23548166.693         168.000
         3.000
 -14125884.83149 -11007145.74446  22087928.315    22087926.662         467.000
        21.000
  -1644855.34047         0.000           0.000    25150266.192          95.000
         0.000
 -11739828.82049  -9147858.91846  22735187.671    22735186.518         371.000
        12.000
 -22946774.76449 -17880570.38547  20692998.589    20692996.044         721.000
        63.000
 -18791099.69449 -14642393.38546  21776619.943    21776617.041         513.000
        28.000
  -5655094.63748  -4406565.56444  24053656.867    24053655.967         192.000
         3.000
  4  3  1  1 13 30.0000000  0  8G24G17G 4G29G13G 7G10G 5
 -16473050.02749 -12836107.88646  22352739.212    22352736.204         372.000
        16.000
  -5329405.25748  -4152779.04645  23541995.854    23541991.433         178.000
         4.000
 -14120672.75449 -11003084.38246  22088920.273    22088918.457         463.000
        21.000
  -1743251.47047         0.000           0.000    25131541.873          98.000
         0.000
 -11715013.82749  -9128522.54746  22739908.967    22739908.532         368.000
        12.000
 -22909890.63949 -17851829.50747  20700017.461    20700014.943         723.000
        62.000
 -18837671.59749 -14678683.17046  21767757.737    21767754.531         506.000
        28.000
  -5703060.55148  -4443941.59645  24044532.212    24044528.842         199.000
         4.000
  4  3  1  1 14  0.0000000  0  8G24G17G 4G29G13G 7G10G 5
 -16493819.72649 -12852292.05346  22348786.539    22348783.865         376.000
        15.000
  -5361797.55648  -4178019.78945  23535832.814    23535826.897         174.000
         4.000
 -14115507.64749 -10999059.62146  22089902.765    22089901.314         461.000
        21.000
  -1841824.59848         0.000           0.000    25112784.092         106.000
         0.000
 -11689705.54149  -9108801.79446  22744725.423    22744724.259         365.000
        12.000
 -22872568.41949 -17822747.25947  20707119.496    20707116.936         716.000
        63.000
 -18883838.42849 -14714657.30546  21758972.104    21758969.163         504.000
        28.000
  -5750613.65248  -4480995.96045  24035481.955    24035479.224         195.000
         4.000
  4  3  1  1 14 30.0000000  0  8G24G17G 4G29G13G 7G10G 5
 -16514600.85349 -12868485.12746  22344832.468    22344829.493         379.000
        15.000
  -5394120.39848  -4203206.41544  23529678.199    23529676.344         177.000
         3.000
 -14110380.70149 -10995064.59346  22090878.217    22090876.890         459.000
        21.000
  -1940563.82848  -1512125.56244  25094003.065    25093994.119         112.000
         2.000
 -11663895.27349  -9088689.89146  22749636.965    22749636.197         374.000
        12.000
 -22834799.51349 -17793316.94347  20714306.660    20714304.181         717.000
        63.000
 -18929591.31349 -14750308.89146  21750265.485    21750262.740         510.000
        27.000
  -5797744.74448  -4517721.48145  24026513.304    24026510.854         201.000
         4.000
  4  3  1  1 15  0.0000000  0  8G24G17G 4G29G13G 7G10G 5
 -16535392.55449 -12884686.44446  22340875.668    22340872.924         378.000
        15.000
  -5426373.57848  -4228338.74844  23523541.606    23523538.258         173.000
         3.000
 -14105290.01149 -10991097.81446  22091847.058    22091845.563         456.000
        20.000
  -2039465.75348         0.000           0.000    25075173.118         104.000
         0.000
 -11637581.78349  -9068185.86646  22754643.646    22754643.341         374.000
        12.000
 -22796582.77049 -17763537.66547  20721579.021    20721576.662         719.000
        62.000
 -18974928.32949 -14785636.42446  21741638.193    21741635.325         512.000
        28.000
  -5844451.65348  -4554116.47744  24017624.780    24017622.958         202.000
         3.000
  4  3  1  1 15 30.0000000  0  8G24G17G 4G29G13G 7G10G 5
 -16556208.49249 -12900906.64346  22336913.855    22336911.719         382.000
        15.000
  -5458571.61748  -4253428.10145  23517415.528    23517411.550         177.000
         4.000
 -14100248.93749 -10987169.70446  22092806.023    22092804.802         454.000
        21.000
  -2138541.48948         0.000           0.000    25056319.405         100.000
         0.000
 -11610778.15149  -9047299.91446  22759745.161    22759744.237         383.000
        13.000
 -22757931.61349 -17733419.87747  20728934.256    20728931.796         722.000
        62.000
 -19019862.72749 -14820650.23346  21733087.486    21733084.715         519.000
        29.000
  -5890746.89348  -4590190.67844  24008814.974    24008813.132         199.000
         3.000
  4  3  1  1 16  0.0000000  0  8G24G17G 4G29G13G 7G10G 5
 -16577044.25649 -12917142.29146  22332949.289    22332946.869         387.000
        15.000
  -5490710.57548  -4278471.44244  23511300.073    23511295.923         183.000
         3.000
 -14095251.83449 -10983275.84646  22093757.308    22093755.865         457.000
        21.000
  -2237783.61347         0.000           0.000    25037433.985          99.000
         0.000
 -11583479.51049  -9026028.23146  22764939.485    22764938.863         381.000
        12.000
 -22718841.02249 -17702959.68047  20736372.929    20736370.435         717.000
        62.000
 -19064389.00049 -14855346.01346  21724614.397    21724611.468         516.000
        29.000
  -5936624.89248  -4625939.78545  24000084.088    24000083.033         208.000
         4.000
  4  3  1  1 16 30.0000000  0  8G24G17G 4G29G13G 7G10G 5
 -16597884.41549 -12933381.36646  22328984.017    22328981.365         394.000
        16.000
  -5522775.67248  -4303457.21944  23505195.783    23505193.657         175.000
         3.000
 -14090282.74749 -10979403.82246  22094702.469    22094701.192         449.000
        21.000
  -2337174.25448         0.000           0.000    25018520.491         106.000
         0.000
 -11555670.19349  -9004358.62146  22770231.844    22770230.595         376.000
        12.000
 -22679295.51249 -17672144.99847  20743898.271    20743895.685         714.000
        62.000
 -19108491.08449 -14889711.26346  21716222.118    21716219.239         522.000
        29.000
  -5982069.21448  -4661350.94245  23991437.925    23991434.616         201.000
         4.000
  4  3  1  1 17  0.0000000  0  8G24G17G 4G29G13G 7G10G 5
 -16618730.03449 -12949624.69346  22325016.719    22325014.570         397.000
        16.000
  -5554768.38848  -4328386.58545  23499109.950    23499105.571         176.000
         4.000
 -14085341.37849 -10975553.40246  22095643.265    22095641.805         457.000
        20.000
  -2436711.42248  -1898733.15644  24999586.107    24999579.419         112.000
         2.000
 -11527350.31349  -8982291.17346  22775620.208    22775619.962         387.000
        13.000
 -22639295.53349 -17640976.18547  20751509.858    20751507.241         702.000
        61.000
 -19152169.15649 -14923746.11446  21707910.236    21707907.583         528.000
        29.000
  -6027079.29348  -4696423.72945  23982872.190    23982869.837         203.000
         4.000
  4  3  1  1 17 30.0000000  0  8G24G17G 4G29G13G 7G10G 5
 -16639587.09049 -12965876.92946  22321048.146    22321045.528         399.000
        16.000
  -5586695.58648  -4353264.92345  23493033.783    23493030.225         180.000
         4.000
 -14080433.12649 -10971728.78746  22096576.615    22096575.682         452.000
        20.000
  -2536398.49548         0.000           0.000    24980609.786         112.000
         0.000
 -11498525.92249  -8959830.60246  22781105.665    22781104.990         389.000
        12.000
 -22598846.86249 -17609457.73947  20759207.130    20759204.477         702.000
        61.000
 -19195428.79149 -14957454.90746  21699678.370    21699675.863         543.000
        30.000
  -6071659.90248  -4731161.86344  23974388.827    23974386.422         205.000
         3.000
  4  3  1  1 18  0.0000000  0  8G24G17G 4G29G13G 7G10G 5
 -16660468.40949 -12982148.07646  22317074.518    22317071.843         396.000
        16.000
  -5618570.31948  -4378102.37245  23486968.052    23486964.913         185.000
         4.000
 -14075569.91949 -10967939.27246  22097502.755    22097501.157         453.000
        20.000
  -2636245.44948         0.000           0.000    24961609.376         115.000
         0.000
 -11469209.08749  -8936986.30446  22786685.205    22786684.010         397.000
        13.000
 -22557962.11549 -17577599.49847  20766987.351    20766984.599         700.000
        61.000
 -19238282.02949 -14990847.02946  21691523.422    21691520.877         536.000
        30.000
  -6115822.52748  -4765574.30445  23965984.821    23965982.889         214.000
         4.000
  4  3  1  1 18 30.0000000  0  8G24G17G 4G29G13G 7G10G 5
 -16681377.61149 -12998440.94646  22313095.600    22313093.129         402.000
        16.000
  -5650397.05448  -4402902.42145  23480913.390    23480908.561         188.000
         4.000
 -14070754.47449 -10964186.97046  22098419.339    22098417.506         453.000
        20.000
  -2736253.41648  -2132141.89544  24942577.567    24942577.933         127.000
         2.000
 -11439403.33749  -8913761.03646  22792356.557    22792355.579         390.000
        13.000
 -22516644.62849 -17545404.05247  20774849.651    20774846.921         691.000
        60.000
 -19280731.83049 -15023924.78346  21683445.490    21683442.813         535.000
        30.000
  -6159569.84848  -4799663.13745  23957661.318    23957657.817         209.000
         4.000
  4  3  1  1 19  0.0000000  0  8G24G17G 4G29G13G 7G10G 5
 -16702304.29949 -13014747.44246  22309113.003    22309110.671         402.000
        16.000
  -5682166.14148  -4427657.53645  23474866.284    23474862.840         186.000
         4.000
 -14065975.84449 -10960463.35546  22099328.387    22099326.770         449.000
        21.000
  -2836409.15348         0.000           0.000    24923518.059         120.000
         0.000
 -11409097.83049  -8890146.34946  22798123.464    22798122.827         398.000
        12.000
 -22474883.85849 -17512863.19447  20782796.357    20782793.805         691.000
        59.000
 -19322767.07649 -15056679.51146  21675446.342    21675443.821         540.000
        30.000
  -6202890.45848  -4833419.46245  23949416.988    23949414.011         207.000
         4.000
  4  3  1  1 19 30.0000000  0  8G24G17G 4G29G13G 7G10G 5
 -16723244.74349 -13031064.66146  22305128.516    22305125.890         405.000
        16.000
  -5713874.52448  -4452365.35345  23468832.593    23468829.106         189.000
         4.000
 -14061229.00649 -10956764.51746  22100231.614    22100230.182         454.000
        21.000
  -2936706.13548         0.000           0.000    24904432.679         111.000
         0.000
 -11378288.72749  -8866139.24746  22803985.840    22803985.296         391.000
        12.000
 -22432675.96749 -17479973.92847  20790828.325    20790825.809         693.000
        59.000
 -19364383.62749 -15089107.98046  21667527.064    21667524.504         540.000
        30.000
  -6245779.77148  -4866839.68345  23941255.777    23941252.242         206.000
         4.000
  4  3  1  1 20  0.0000000  0  8G24G17G 4G29G13G 7G10G 5
 -16744203.91849 -13047396.46946  22301140.117    22301137.448         407.000
        17.000
  -5745527.64648  -4477030.10145  23462809.975    23462805.602         190.000
         4.000
 -14056518.47249 -10953093.96746  22101128.186    22101126.644         456.000
        21.000
  -3037146.78048         0.000           0.000    24885319.506         105.000
         0.000
 -11346980.73649  -8841743.39946  22809943.728    22809943.218         395.000
        12.000
 -22390025.73149 -17446739.97947  20798944.240    20798941.767         684.000
        58.000
 -19405585.87049 -15121213.61546  21659686.498    21659683.875         542.000
        30.000
  -6288241.56048  -4899926.80145  23933173.999    23933172.057         209.000
         4.000
  4  3  1  1 20 30.0000000  0  8G24G17G 4G29G13G 7G10G 5
 -16765184.53049 -13063744.98446  22297147.300    22297145.159         411.000
        16.000
  -5777129.02648  -4501654.53645  23456794.689    23456792.099         189.000
         4.000
 -14051846.11049 -10949453.16546  22102017.369    22102015.682         452.000
        21.000
  -3137731.15748  -2444980.87044  24866182.610    24866179.306         129.000
         2.000
 -11315176.44249  -8816960.81246  22815996.181    22815995.535         403.000
        13.000
 -22346935.96549 -17413163.53847  20807144.223    20807141.576         683.000
        58.000
 -19446376.41249 -15152998.43646  21651924.380    21651921.898         551.000
        30.000
  -6330277.49248  -4932682.07145  23925176.000    23925173.098         213.000
         4.000
  4  3  1  1 21  0.0000000  0  8G24G17G 4G29G13G 7G10G 5
 -16786186.95149 -13080110.49646  22293150.847    22293148.387         411.000
        17.000
  -5808679.78248  -4526239.52645  23450792.239    23450788.092         190.000
         4.000
 -14047211.21549 -10945841.55446  22102899.356    22102897.695         452.000
        20.000
  -3238456.68748  -2523468.07244  24847015.593    24847011.631         147.000
         3.000
 -11282875.95049  -8791791.59046  22822142.762    22822141.922         397.000
        12.000
 -22303406.81749 -17379244.72347  20815427.480    20815424.834         673.000
        57.000
 -19486754.72849 -15184462.04546  21644240.514    21644238.063         551.000
        31.000
  -6371887.13148  -4965105.14445  23917257.575    23917255.292         215.000
         4.000
  4  3  1  1 21 30.0000000  0  8G24G17G 4G29G13G 7G10G 5
 -16807212.71049 -13096494.18846  22289149.805    22289147.322         414.000
        17.000
  -5840181.77448  -4550786.53845  23444796.229    23444793.076         185.000
         4.000
 -14042614.40949 -10942259.62746  22103773.527    22103772.469         454.000
        21.000
  -3339322.15748  -2602064.35744  24827821.045    24827817.347         137.000
         2.000
 -11250080.57349  -8766236.73446  22828382.747    22828382.771         397.000
        12.000
 -22259439.52049 -17344984.48947  20823794.052    20823791.401         661.000
        56.000
 -19526721.86449 -15215605.25646  21636635.243    21636632.721         558.000
        31.000
  -6413070.83748  -4997196.35845  23909420.447    23909418.373         218.000
         4.000
  4  3  1  1 22  0.0000000  0  8G24G17G 4G29G13G 7G10G 5
 -16828266.50849 -13112899.73246  22285143.657    22285141.103         416.000
        17.000
  -5871640.45948  -4575299.78645  23438810.249    23438806.818         188.000
         4.000
 -14038059.73049 -10938710.52246  22104640.590    22104639.255         454.000
        20.000
  -3440329.48948  -2680771.17444  24808595.292    24808595.732         115.000
         2.000
 -11216794.99049  -8740299.91346  22834717.123    22834716.752         391.000
        12.000
 -22215038.90949 -17310386.61247  20832243.118    20832240.593         660.000
        55.000
 -19566282.13449 -15246431.42847  21629106.692    21629104.366         555.000
        32.000
  -6453832.42148  -5028958.62145  23901664.322    23901661.897         224.000
         4.000
  4  3  1  1 22 30.0000000  0  8G24G17G 4G29G13G 7G10G 5
 -16849335.61349 -13129317.20346  22281134.365    22281131.592         411.000
        16.000
  -5903043.75148  -4599769.86545  23432834.186    23432830.775         189.000
         4.000
 -14033533.18349 -10935183.34046  22105502.037    22105500.495         454.000
        20.000
  -3541463.42448         0.000           0.000    24789350.051         112.000
         0.000
 -11183005.99249  -8713970.80546  22841147.336    22841146.663         392.000
        12.000
 -22170192.14249 -17275441.07747  20840777.494    20840774.767         659.000
        55.000
 -19605422.21649 -15276930.18347  21621658.814    21621656.537         563.000
        32.000
  -6494158.11748  -5060381.25345  23893989.399    23893987.853         223.000
         4.000
  4  3  1  1 23  0.0000000  0  8G24G17G 4G29G13G 7G10G 5
 -16870420.62949 -13145747.07046  22277122.558    22277119.149         411.000
        17.000
  -5934393.18248  -4624197.96945  23426869.595    23426865.597         196.000
         5.000
 -14029034.97249 -10931678.23946  22106357.878    22106356.564         456.000
        21.000
  -3642721.81948  -2838479.11644  24770085.207    24770081.918         135.000
         3.000
 -11148714.80149  -8687250.39046  22847672.793    22847671.997         388.000
        12.000
 -22124900.14849 -17240148.61847  20849395.927    20849393.336         650.000
        54.000
 -19644142.60349 -15307101.90147  21614290.643    21614288.044         557.000
        32.000
  -6534048.14448  -5091464.38745  23886400.541    23886397.099         223.000
         4.000
  4  3  1  1 23 30.0000000  0  8G24G17G 4G29G13G 7G10G 5
 -16891523.39749 -13162190.77246  22273105.836    22273103.400         415.000
        17.000
  -5965691.17648  -4648585.99145  23420913.387    23420910.077         199.000
         4.000
 -14024565.91049 -10928195.85446  22107208.298    22107207.027         461.000
        21.000
  -3744103.75348  -2917477.84044  24750789.977    24750790.039         147.000
         2.000
 -11113923.16549  -8660140.01946  22854293.028    22854292.413         379.000
        12.000
 -22079164.65349 -17204510.56947  20858099.048    20858096.571         650.000
        54.000
 -19682444.60549 -15336947.60347  21607001.831    21606999.394         558.000
        32.000
  -6573503.22048  -5122208.59645  23878890.745    23878889.031         221.000
         4.000
  4  3  1  1 24  0.0000000  0  8G24G17G 4G29G13G 7G10G 5
 -16912645.51749 -13178649.55546  22269086.648    22269084.199         424.000
        18.000
  -5996940.23448  -4672935.89945  23414965.471    23414963.146         194.000
         4.000
 -14020126.76549 -10924736.77346  22108053.156    22108051.851         464.000
        21.000
  -3845608.19848  -2996572.03744  24731479.020    24731473.658         130.000
         2.000
 -11078632.67549  -8632640.92446  22861008.898    22861008.191         383.000
        12.000
 -22032987.44649 -17168528.32947  20866886.388    20866883.855         649.000
        53.000
 -19720329.68349 -15366468.43247  21599792.684    21599790.115         557.000
        33.000
  -6612523.90548  -5152614.32745  23871464.772    23871463.393         220.000
         5.000
  4  3  1  1 24 30.0000000  0  8G24G17G 4G29G13G 7G10G 5
 -16933790.71449 -13195126.31946  22265062.859    22265060.384         424.000
        17.000
  -6028144.36748  -4697250.78145  23409027.050    23409025.143         195.000
         4.000
 -14015720.10649 -10921303.00946  22108891.781    22108890.249         460.000
        21.000
  -3947235.86448  -3075762.28344  24712135.280    24712134.829         124.000
         2.000
 -11042846.46649  -8604755.56346  22867819.057    22867818.126         382.000
        12.000
 -21986372.03749 -17132204.63747  20875757.043    20875754.468         644.000
        52.000
 -19757800.86749 -15395666.74447  21592662.246    21592659.643         561.000
        32.000
  -6651113.35748  -5182684.02345  23864123.288    23864120.276         220.000
         4.000
  4  3  1  1 25  0.0000000  0  8G24G17G 4G29G13G 7G10G 5
 -16954960.61449 -13211622.32546  22261034.148    22261031.717         417.000
        18.000
  -6059306.18848  -4721532.70945  23403098.335    23403095.305         196.000
         5.000
 -14011347.04549 -10917895.42846  22109723.811    22109722.499         462.000
        21.000
  -4048985.87748  -3155047.89044  24692775.055    24692771.838         133.000
         2.000
 -11006566.92549  -8576485.78446  22874721.968    22874721.546         370.000
        11.000
 -21939320.50549 -17095541.10847  20884710.728    20884708.196         645.000
        52.000
 -19794860.07949 -15424544.04047  21585610.197    21585607.487         563.000
        33.000
  -6689272.84648  -5212418.68945  23856861.532    23856858.949         222.000
         4.000
  4  3  1  1 25 30.0000000  0  8G24G17G 4G29G13G 7G10G 5
 -16976159.14949 -13228140.65246  22256999.836    22256997.718         416.000
        17.000
  -6090430.40248  -4745785.31845  23397177.336    23397172.672         197.000
         5.000
 -14007010.55749 -10914516.34446  22110549.033    22110547.613         460.000
        21.000
  -4150859.38248  -3234429.70344  24673387.212    24673386.120         138.000
         2.000
 -10969798.13449  -8547834.76946  22881719.512    22881718.635         374.000
        11.000
 -21891836.97149 -17058540.95247  20893746.538    20893743.917         641.000
        52.000
 -19831510.84349 -15453103.06447  21578635.701    21578632.989         560.000
        33.000
  -6727005.37848  -5241820.66945  23849680.348    23849678.414         218.000
         4.000
  4  3  1  1 26  0.0000000  0  8G24G17G 4G29G13G 7G10G 5
 -16997384.18649 -13244679.63246  22252960.792    22252958.705         418.000
        17.000
  -6121515.62848  -4770007.54845  23391261.074    23391257.277         197.000
         4.000
 -14002707.68349 -10911163.45246  22111367.614    22111366.289         454.000
        21.000
  -4252851.56648  -3313903.97944  24653980.033    24653977.715         129.000
         2.000
 -10932538.03549  -8518800.91746  22888809.059    22888808.992         372.000
        11.000
 -21843919.42849 -17021202.60947  20902865.046    20902862.419         643.000
        51.000
 -19867750.71249 -15481341.91047  21571739.350    21571736.705         560.000
        33.000
  -6764308.16048  -5270887.75745  23842582.761    23842580.104         219.000
         4.000
  4  3  1  1 26 30.0000000  0  8G24G17G 4G29G13G 7G10G 5
 -17018630.72449 -13261235.36146  22248918.264    22248915.741         424.000
        17.000
  -6152557.44548  -4794195.92745  23385351.511    23385350.353         199.000
         4.000
 -13998432.46949 -10907832.11546  22112181.758    22112180.146         465.000
        22.000
  -4354954.77748  -3393464.75944  24634548.028    24634547.962         127.000
         2.000
 -10894781.68049  -8489380.37446  22895994.050    22895993.634         363.000
        11.000
 -21795563.10349 -16983522.35747  20912066.710    20912064.290         639.000
        51.000
 -19903574.55449 -15509256.57847  21564922.364    21564919.780         563.000
        34.000
  -6801175.55748  -5299615.59345  23835566.411    23835564.136         218.000
         4.000
  4  3  1  1 27  0.0000000  0  8G24G17G 4G29G13G 7G10G 5
 -17039899.55049 -13277808.45746  22244870.722    22244868.485         426.000
        17.000
  -6183557.53148  -4818351.81945  23379454.129    23379451.599         204.000
         4.000
 -13994184.94749 -10904522.35746  22112989.555    22112988.347         462.000
        20.000
  -4457166.95348  -3473110.45444  24615100.064    24615097.682         142.000
         2.000
 -10856530.04849  -8459573.89746  22903273.622    22903272.758         364.000
        11.000
 -21746769.11049 -16945501.06747  20921351.971    20921349.325         628.000
        50.000
 -19938983.12049 -15536847.65847  21558184.250    21558181.779         567.000
        33.000
  -6837607.72848  -5328004.28545  23828634.687    23828631.454         220.000
         4.000
  4  3  1  1 27 30.0000000  0  8G24G17G 4G29G13G 7G10G 5
 -17061203.20849 -13294408.69846  22240816.949    22240814.510         424.000
        18.000
  -6214529.07148  -4842485.45745  23373561.153    23373557.166         193.000
         4.000
 -13989976.40249 -10901242.97046  22113790.445    22113789.286         462.000
        21.000
  -4559498.01548  -3552848.87344  24595626.890    24595624.634         141.000
         2.000
 -10817796.20849  -8429391.67746  22910643.835    22910643.695         362.000
        10.000
 -21697550.12049 -16907148.61147  20930718.027    20930715.378         624.000
        49.000
 -19973988.88049 -15564124.86447  21551523.012    21551520.472         572.000
        34.000
  -6873616.61748  -5356063.15245  23821782.238    23821779.581         228.000
         4.000
  4  3  1  1 28  0.0000000  0  8G24G17G 4G29G13G 7G10G 5
 -17082531.50949 -13311028.14246  22236758.499    22236755.763         421.000
        18.000
  -6245462.48548  -4866589.39045  23367672.433    23367670.511         191.000
         5.000
 -13985796.06949 -10897985.56646  22114585.951    22114584.630         460.000
        20.000
  -4661934.74948  -3632669.57744  24576132.307    24576131.254         130.000
         2.000
 -10778570.03249  -8398825.81046  22918108.444    22918108.030         354.000
        10.000
 -21647896.10449 -16868457.17347  20940167.072    20940164.253         624.000
        49.000
 -20008581.09249 -15591079.82547  21544940.361    21544937.601         565.000
        35.000
  -6909191.01748  -5383783.47145  23815012.293    23815009.508         220.000
         4.000
  4  3  1  1 28 30.0000000  0  8G24G17G 4G29G13G 7G10G 5
 -17103883.03149 -13327665.67646  22232695.024    22232692.493         418.000
        17.000
  -6276357.37748  -4890663.33445  23361795.493    23361791.801         194.000
         5.000
 -13981641.77749 -10894748.45646  22115376.691    22115375.215         461.000
        21.000
  -4764473.49448  -3712569.78044  24556623.664    24556618.649         142.000
         3.000
 -10738850.62549  -8367875.62346  22925666.867    22925666.356         350.000
        10.000
 -21597806.36249 -16829426.20847  20949698.500    20949695.878         620.000
        49.000
 -20042758.63449 -15617711.66447  21538436.335    21538433.600         557.000
        35.000
  -6944329.84948  -5411164.35845  23808324.338    23808323.076         228.000
         4.000
  4  3  1  1 29  0.0000000  0  8G24G17G 4G29G13G 7G10G 5
 -17125260.42849 -13344323.37746  22228627.090    22228624.706         424.000
        17.000
  -6307216.97348  -4914709.75945  23355921.818    23355919.284         191.000
         5.000
 -13977515.08749 -10891532.85046  22116161.972    22116160.428         456.000
        21.000
  -4867113.81448  -3792549.11844  24537090.108    24537086.867         150.000
         3.000
 -10698640.31449  -8336542.90646  22933318.165    22933318.189         349.000
        10.000
 -21547283.72149 -16790057.92147  20959312.778    20959310.129         625.000
        49.000
 -20076523.91149 -15644022.25747  21532011.062    21532008.331         560.000
        35.000
  -6979034.54548  -5438206.97945  23801720.878    23801718.900         225.000
         4.000
  4  3  1  1 29 30.0000000  0  8G24G17G 4G29G13G 7G10G 5
 -17146669.39149 -13361005.67346  22224552.984    22224550.576         418.000
        17.000
  -6338047.92448  -4938733.85345  23350055.136    23350051.976         186.000
         4.000
 -13973420.82549 -10888342.51846  22116940.698    22116939.243         447.000
        21.000
  -4969858.88248  -3872610.09944  24517537.264    24517535.098         143.000
         3.000
 -10657945.79549  -8304832.87346  22941062.389    22941061.687         337.000
        10.000
 -21496334.25649 -16750357.04147  20969008.205    20969005.530         628.000
        49.000
 -20109882.85849 -15670016.23247  21525663.266    21525660.604         569.000
        35.000
  -7013310.54748  -5464915.53945  23795199.394    23795196.250         220.000
         4.000
  4  3  1  1 30  0.0000000  0  8G24G17G 4G29G13G 7G10G 5
 -17168099.32049 -13377704.30646  22220475.738    22220472.652         417.000
        18.000
  -6368840.30248  -4962727.89945  23344196.116    23344192.807         193.000
         4.000
 -13969347.64949 -10885168.61346  22117715.599    22117714.384         449.000
        20.000
  -5072695.54748  -3952742.44244  24497966.831    24497965.337         144.000
         2.000
 -10616757.08849  -8272737.78045  22948899.967    22948899.866         338.000
         9.000
 -21444947.98449 -16710315.79247  20978786.754    20978784.118         636.000
        49.000
 -20142824.87049 -15695685.32347  21519394.685    21519391.942         570.000
        34.000
  -7047146.93048  -5491281.55245  23788760.315    23788756.964         208.000
         4.000
  4  3  1  1 30 30.0000000  0  8G24G17G 4G29G13G 7G10G 5
 -17189554.40249 -13394422.54246  22216392.862    22216389.816         415.000
        18.000
  -6399598.91948  -4986695.63444  23338343.287    23338339.338         189.000
         3.000
 -13965298.70349 -10882013.58746  22118486.096    22118485.028         451.000
        20.000
  -5175624.73548  -4032946.91144  24478384.431    24478378.848         150.000
         3.000
 -10575078.24349  -8240260.75545  22956830.568    22956830.835         329.000
         9.000
 -21393129.27049 -16669937.57647  20988647.575    20988644.892         639.000
        49.000
 -20175353.92449 -15721032.63047  21513204.345    21513201.654         560.000
        34.000
  -7080547.05248  -5517307.59845  23782405.352    23782401.521         221.000
         4.000
  4  3  1  1 31  0.0000000  0  8G24G17G 4G29G13G 7G10G 5
 -17211040.32249 -13411164.80546  22212303.481    22212301.126         414.000
        18.000
  -6430330.49748  -5010642.25744  23332494.534    23332490.951         182.000
         2.000
 -13961279.00349 -10878881.35246  22119251.087    22119249.785         446.000
        21.000
  -5278649.97348  -4113226.21444  24458777.679    24458773.452         145.000
         3.000
 -10532916.04149  -8207407.08346  22964855.331    22964854.012         327.000
        10.000
 -21340884.42349 -16629227.30747  20998589.409    20998586.746         642.000
        50.000
 -20207475.95949 -15746062.77447  21507091.927    21507089.052         562.000
        35.000
  -7113516.78448  -5542998.28345  23776130.006    23776127.811         227.000
         4.000
  4  3  1  1 31 30.0000000  0  8G24G17G 4G29G13G 7G10G 5
 -17232558.65449 -13427932.32746  22208208.536    22208206.293         415.000
        17.000
  -6461037.04648  -5034569.37144  23326649.187    23326648.374         190.000
         2.000
 -13957289.03049 -10875772.28146  22120010.263    22120009.328         454.000
        20.000
  -5381769.72048  -4193579.14544  24439154.529    24439150.496         154.000
         3.000
 -10490272.05549  -8174178.00145  22972969.130    22972969.136         331.000
         9.000
 -21288215.46149 -16588186.55847  21008611.933    21008609.280         644.000
        50.000
 -20239192.54849 -15770776.99047  21501056.216    21501053.666         566.000
        35.000
  -7146057.05948  -5568354.34844  23769937.706    23769935.541         225.000
         3.000
  4  3  1  1 32  0.0000000  0  8G24G17G 4G29G13G 7G10G 5
 -17254103.37949 -13444720.41146  22204109.293    22204106.641         417.000
        18.000
  -6491713.97148         0.000           0.000    23320810.276         189.000
         0.000
 -13953322.02349 -10872681.10746  22120765.709    22120764.054         448.000
        20.000
  -5484975.64948  -4273999.30644  24419514.125    24419511.627         172.000
         3.000
 -10447141.16249  -8140569.50745  22981176.680    22981176.849         333.000
         9.000
 -21235117.05349 -16546811.17547  21018716.305    21018713.657         647.000
        49.000
 -20270497.87449 -15795170.74047  21495099.267    21495096.642         572.000
        34.000
  -7178161.86548  -5593371.07245  23763829.535    23763826.202         219.000
         4.000
  4  3  1  1 32 30.0000000  0  8G24G17G 4G29G13G 7G10G 5
 -17275677.91049 -13461531.72346  22200003.737    22200001.174         418.000
        17.000
  -6522365.21048  -5082354.17146  23314979.617    23314977.324         185.000
        13.000
 -13949380.73049 -10869609.97046  22121515.402    22121514.113         449.000
        20.000
  -5588268.24248  -4354486.98244  24399853.894    24399854.929         159.000
         3.000
 -10403527.34149  -8106584.70346  22989476.615    22989476.231         332.000
        10.000
 -21181593.15249 -16505104.24247  21028901.209    21028898.862         645.000
        49.000
 -20301395.50149 -15819246.80547  21489219.512    21489216.886         567.000
        35.000
  -7209834.22748  -5618050.82245  23757803.167    23757799.186         219.000
         4.000
  4  3  1  1 33  0.0000000  0  8G24G17G 4G29G13G 7G10G 5
 -17297275.79749 -13478361.23546  22195893.876    22195891.146         417.000
        17.000
  -6552984.95548  -5106217.83245  23309154.785    23309150.768         192.000
         4.000
 -13945457.42549 -10866552.84846  22122261.581    22122260.630         446.000
        20.000
  -5691638.49448  -4435035.14044  24380187.861    24380184.145         149.000
         3.000
 -10359424.33549  -8072218.71946  22997868.859    22997868.585         328.000
        10.000
 -21127637.87249 -16463061.16647  21039168.910    21039166.250         647.000
        49.000
 -20331879.12849 -15843000.27647  21483418.444    21483415.840         555.000
        35.000
  -7241067.00248  -5642388.04545  23751858.961    23751855.446         214.000
         4.000
  4  3  1  1 33 30.0000000  0  8G24G17G 4G29G13G 7G10G 5
 -17318900.20249 -13495211.40846  22191778.823    22191776.041         413.000
        18.000
  -6583577.29748  -5130056.25644  23303333.266    23303329.409         194.000
         3.000
 -13941554.66549 -10863511.73746  22123004.569    22123003.171         444.000
        20.000
  -5795086.79448  -4515644.10844  24360501.568    24360498.793         165.000
         3.000
 -10314836.41649  -8037474.88046  23006354.502    23006353.557         334.000
        10.000
 -21073254.96649 -16420684.87647  21049517.472    21049515.044         645.000
        48.000
 -20361952.35249 -15866433.95247  21477695.273    21477692.813         549.000
        35.000
  -7271863.37348  -5666385.20845  23745999.862    23745995.287         223.000
         4.000
  4  3  1  1 34  0.0000000  0  8G24G17G 4G29G13G 7G10G 5
 -17340555.06249 -13512085.31646  22187658.605    22187655.399         419.000
        18.000
  -6614147.20948  -5153876.90944  23297516.607    23297512.050         192.000
         2.000
 -13937675.53749 -10860489.03646  22123742.673    22123741.330         444.000
        20.000
  -5898614.66048  -4596315.11244  24340801.905    24340797.779         166.000
         3.000
 -10269768.33049  -8002356.89046  23014929.450    23014929.367         325.000
        10.000
 -21018449.17849 -16377979.06947  21059946.922    21059944.276         643.000
        48.000
 -20391619.33149 -15889551.07147  21472050.326    21472047.971         568.000
        35.000
  -7302227.29548  -5690045.39545  23740221.169    23740217.332         223.000
         4.000
  4  3  1  1 34 30.0000000  0  8G24G17G 4G29G13G 7G10G 5
 -17362238.15149 -13528981.21846  22183531.823    22183529.307         420.000
        18.000
  -6644693.00348  -5177678.77745  23291699.946    23291699.251         191.000
         4.000
 -13933816.90449 -10857482.31046  22124476.967    22124475.749         446.000
        19.000
  -6002216.60648  -4677043.83044  24321083.039    24321083.436         167.000
         3.000
 -10224218.12749  -7966863.22345  23023597.674    23023597.351         327.000
         9.000
 -20963218.78149 -16334942.39747  21070456.714    21070454.085         631.000
        48.000
 -20420877.68949 -15912349.78447  21466482.870    21466480.284         572.000
        35.000
  -7332156.26048  -5713366.65945  23734524.703    23734521.727         219.000
         4.000
  4  3  1  1 35  0.0000000  0  8G24G17G 4G29G13G 7G10G 5
 -17383952.67749 -13545901.61646  22179399.630    22179397.044         416.000
        17.000
  -6675219.08348  -5201465.31245  23285895.137    23285890.323         190.000
         4.000
 -13929981.08549 -10854493.35846  22125207.469    22125205.869         454.000
        20.000
  -6105893.64348  -4757831.07244  24301356.725    24301354.089         166.000
         3.000
 -10178190.00849  -7930997.15046  23032356.351    23032356.428         331.000
        10.000
 -20907567.76749 -16291577.97047  21081046.809    21081044.155         627.000
        47.000
 -20449731.55049 -15934833.30247  21460991.718    21460989.256         557.000
        35.000
  -7361653.43448  -5736351.46245  23728912.138    23728908.744         219.000
         4.000
  4  3  1  1 35 30.0000000  0  7G24G17G 4G29G 7G10G 5
 -17405694.76849 -13562843.50446  22175261.838    22175259.374         410.000
        18.000
  -6705722.03448  -5225233.80145  23280088.675    23280086.006         192.000
         5.000
 -13926163.17449 -10851518.36346  22125933.675    22125932.558         458.000
        20.000
  -6209638.95948  -4838671.49345  24281614.582    24281611.862         164.000
         4.000
 -20851493.04949 -16247883.39047  21091717.500    21091714.789         621.000
        46.000
 -20478177.06149 -15956998.62447  21455578.520    21455576.012         550.000
        35.000
  -7390714.71148  -5758996.61344  23723381.877    23723378.387         215.000
         3.000
  4  3  1  1 36  0.0000000  0  8G24G17G 4G29G26G 7G10G 5
 -17427463.05549 -13579805.79446  22171119.804    22171117.064         410.000
        18.000
  -6736201.47248  -5248984.00445  23274290.438    23274285.710         194.000
         5.000
 -13922361.05849 -10848555.67346  22126656.688    22126655.784         450.000
        20.000
  -6313448.60448  -4919562.06145  24261860.373    24261857.750         173.000
         4.000
        -0.46257         0.000           0.000    25109021.919          97.000
         0.000
 -20794993.88449 -16203858.06947  21102468.875    21102466.088         611.000
        46.000
 -20506213.22149 -15978844.97547  21450243.804    21450241.168         560.000
        35.000
  -7419338.62148  -5781300.93945  23717936.098    23717931.735         217.000
         4.000
  4  3  1  1 36 30.0000000  0  8G24G17G 4G29G26G 7G10G 5
 -17449260.06349 -13596790.46946  22166971.776    22166969.249         410.000
        18.000
  -6766660.93548  -5272718.66745  23268493.263    23268489.882         198.000
         5.000
 -13918576.68549 -10845606.81046  22127377.116    22127375.962         452.000
        20.000
  -6417322.61248  -5000502.77645  24242095.034    24242091.177         170.000
         4.000
    -93657.18448         0.000           0.000    25091199.864         117.000
         0.000
 -20738073.90349 -16159504.84247  21113300.407    21113297.847         615.000
        45.000
 -20533842.98349 -16000374.64947  21444986.302    21444983.720         572.000
        35.000
  -7447528.00448  -5803266.70145  23712571.020    23712567.713         222.000
         4.000
  4  3  1  1 37  0.0000000  0  8G24G17G 4G29G26G 7G10G 5
 -17471094.71049 -13613804.47046  22162816.962    22162814.318         411.000
        18.000
  -6797109.76348  -5296444.99145  23262699.233    23262695.068         188.000
         5.000
 -13914817.49549 -10842677.57246  22128092.763    22128091.416         452.000
        21.000
  -6521266.81248  -5081498.19145  24222313.747    24222311.253         167.000
         4.000
   -187447.33848         0.000           0.000    25073352.153         113.000
         0.000
 -20680742.33449 -16114830.89247  21124209.903    21124207.538         606.000
        44.000
 -20561075.50549 -16021594.78447  21439803.483    21439801.110         558.000
        35.000
  -7475291.31548  -5824900.44344  23707287.675    23707283.909         217.000
         3.000
  4  3  1  1 37 30.0000000  0  8G24G17G 4G29G26G 7G10G 5
 -17492960.13349 -13630842.45546  22158656.472    22158653.424         410.000
        18.000
  -6827541.98448  -5320158.39345  23256907.835    23256904.121         191.000
         5.000
 -13911075.77949 -10839761.94146  22128804.956    22128803.698         462.000
        20.000
  -6625271.53448  -5162540.75344  24202522.277    24202519.337         174.000
         3.000
   -281361.85448         0.000           0.000    25055480.699         106.000
         0.000
 -20622993.25449 -16069831.61247  21135199.326    21135196.853         602.000
        44.000
 -20587904.40949 -16042500.41447  21434698.289    21434695.791         562.000
        35.000
  -7502621.57048  -5846196.74444  23702087.183    23702083.183         216.000
         3.000
  4  3  1  1 38  0.0000000  0  8G24G17G 4G29G26G 7G10G 5
 -17514861.46649 -13647908.42246  22154488.600    22154485.924         416.000
        18.000
  -6857964.11348  -5343863.91845  23251119.522    23251115.203         194.000
         5.000
 -13907356.34949 -10836863.68946  22129512.401    22129511.414         457.000
        20.000
  -6729339.59448  -5243632.69244  24182717.262    24182716.285         182.000
         3.000
   -375403.99048         0.000           0.000    25037585.337         111.000
         0.000
 -20564832.91349 -16024511.86747  21146267.097    21146264.484         601.000
        43.000
 -20614335.54549 -16063096.09747  21429668.833    21429666.351         573.000
        36.000
  -7529524.63948  -5867160.16844  23696966.739    23696964.296         228.000
         3.000
  4  3  1  1 38 30.0000000  0  8G24G17G 4G29G26G 7G10G 5
 -17536789.15049 -13664994.92446  22150315.806    22150313.060         412.000
        18.000
  -6888366.85248  -5367554.34345  23245332.529    23245329.898         196.000
         4.000
 -13903648.28449 -10833974.28646  22130218.503    22130217.030         458.000
        20.000
  -6833458.68248  -5324764.40544  24162906.507    24162903.096         168.000
         3.000
   -469561.46547         0.000           0.000    25019666.518          97.000
         0.000
 -20506252.32649 -15978864.65847  21157414.683    21157411.900         593.000
        44.000
 -20640359.42149 -16083374.43147  21424716.492    21424713.962         570.000
        36.000
  -7555990.56448  -5887782.96744  23691932.858    23691927.293         213.000
         3.000
  4  3  1  1 39  0.0000000  0  8G24G17G 4G29G26G 7G10G 5
 -17558743.95749 -13682102.55846  22146137.902    22146134.999         404.000
        17.000
  -6918752.34848  -5391231.32045  23239551.618    23239547.514         198.000
         5.000
 -13899951.70249 -10831093.83146  22130921.582    22130920.388         451.000
        20.000
  -6937627.00648  -5405934.41445  24143083.023    24143080.238         174.000
         4.000
   -563833.19948         0.000           0.000    25001728.251         108.000
         0.000
 -20447253.58349 -15932891.61347  21168641.746    21168638.901         588.000
        43.000
 -20665977.66349 -16103336.69047  21419841.562    21419838.934         567.000
        36.000
  -7582020.03148  -5908065.67944  23686976.328    23686974.234         216.000
         3.000
  4  3  1  1 39 30.0000000  0  8G24G17G 4G29G26G 7G10G 5
 -17580725.53449 -13699231.04946  22141955.266    22141952.057         407.000
        18.000
  -6949120.92448  -5414895.13145  23233770.645    23233768.459         197.000
         5.000
 -13896265.51349 -10828221.47546  22131623.386    22131621.684         445.000
        20.000
  -7041841.49848  -5487140.46245  24123252.810    24123248.972         184.000
         4.000
   -658216.63948   -512894.17444  24983768.652    24983767.598         124.000
         2.000
 -20387837.10749 -15886593.06447  21179948.134    21179945.598         589.000
        43.000
 -20691190.46349 -16122983.02047  21415043.767    21415041.185         572.000
        37.000
  -7607613.36048  -5928008.54844  23682106.109    23682103.916         217.000
         2.000
  4  3  1  1 40  0.0000000  0  8G24G17G 4G29G26G 7G10G 5
 -17602738.86749 -13716384.29246  22137765.956    22137763.270         415.000
        18.000
  -6979478.77048  -5438550.57445  23227994.856    23227991.468         196.000
         5.000
 -13892593.77549 -10825360.38046  22132321.666    22132320.055         433.000
        20.000
  -7146104.51648  -5568384.31744  24103410.248    24103408.057         172.000
         3.000
   -752714.53648   -586528.67744  24965790.497    24965785.288         121.000
         2.000
 -20328009.07949 -15839973.82647  21191333.091    21191330.562         589.000
        42.000
 -20716003.41149 -16142317.77947  21410321.972    21410319.602         580.000
        37.000
  -7632775.64248  -5947615.51544  23677322.275    23677315.807         221.000
         2.000
  4  3  1  1 40 30.0000000  0  8G24G17G 4G29G26G 7G10G 5
 -17624787.31249 -13733564.88646  22133570.645    22133567.510         414.000
        18.000
  -7009829.65448  -5462200.60045  23222219.271    23222216.262         204.000
         5.000
 -13888938.87049 -10822512.39846  22133016.820    22133015.623         433.000
        19.000
  -7250416.44848  -5649666.27145  24083560.498    24083558.177         181.000
         4.000
   -847327.66248         0.000           0.000    24947780.693         123.000
         0.000
 -20267773.48849 -15793037.00247  21202795.413    21202792.800         579.000
        41.000
 -20740420.03449 -16161343.71147  21405675.811    21405673.248         582.000
        37.000
  -7657510.25248  -5966889.22344  23672613.369    23672609.322         226.000
         2.000
  4  3  1  1 41  0.0000000  0  8G24G17G 4G29G26G 7G10G 5
 -17646869.37049 -13750771.67546  22129368.199    22129365.419         413.000
        18.000
  -7040173.18148  -5485844.90745  23216444.874    23216441.861         201.000
         4.000
 -13885298.37049 -10819675.64446  22133709.751    22133708.168         424.000
        19.000
  -7354773.57348  -5730983.47345  24063701.351    24063700.084         186.000
         4.000
   -942052.40348         0.000           0.000    24929755.069         115.000
         0.000
 -20207129.92049 -15745782.27747  21214335.474    21214333.066         584.000
        41.000
 -20764439.70049 -16180060.32347  21401104.576    21401102.120         571.000
        37.000
  -7681816.12448         0.000           0.000    23667983.749         222.000
         0.000
  4  3  1  1 41 30.0000000  0  8G24G17G 4G29G26G 7G10G 5
 -17668981.94749 -13768002.24546  22125160.353    22125157.478         413.000
        18.000
  -7070507.24948  -5509481.81845  23210672.489    23210669.385         204.000
         5.000
 -13881668.78549 -10816847.40246  22134400.280    22134398.931         426.000
        19.000
  -7459170.03448  -5812331.31445  24043836.967    24043833.847         182.000
         4.000
  -1036883.72448   -807958.62944  24911710.880    24911709.117         114.000
         1.000
 -20146076.67149 -15698208.31947  21225953.566    21225951.086         582.000
        40.000
 -20788060.29049 -16198465.96947  21396610.239    21396607.568         581.000
        37.000
  -7705690.24348  -6004432.60144  23663445.277    23663440.745         223.000
         2.000
  4  3  1  1 42  0.0000000  0  8G24G17G 4G29G26G 7G10G 5
 -17691127.25949 -13785258.31846  22120945.828    22120943.318         415.000
        18.000
  -7100835.07548  -5533113.87045  23204901.688    23204898.262         208.000
         5.000
 -13878051.13149 -10814028.44546  22135089.112    22135087.449         429.000
        20.000
  -7563605.44748  -5893709.47645  24023962.108    24023960.233         192.000
         4.000
  -1131821.47048         0.000           0.000    24893642.807         110.000
         0.000
 -20084616.94849 -15650317.62847  21237649.000    21237646.427         579.000
        41.000
 -20811284.61849 -16216562.83847  21392190.743    21392188.115         585.000
        38.000
  -7729135.22148  -6022703.06245  23658981.292    23658979.032         220.000
         4.000
  4  3  1  1 42 30.0000000  0  8G24G17G 4G29G26G 7G10G 5
 -17713302.36249 -13802537.60646  22116726.456    22116723.748         420.000
        18.000
  -7131154.61148  -5556739.46445  23199131.363    23199129.053         212.000
         5.000
 -13874441.65949 -10811215.86646  22135775.379    22135774.477         433.000
        19.000
  -7668074.28548  -5975113.71745  24004084.018    24004080.483         189.000
         4.000
  -1226860.63248   -955992.09544  24875560.372    24875556.834         112.000
         2.000
 -20022749.09349 -15602108.91147  21249421.880    21249419.438         573.000
        41.000
 -20834110.51849 -16234349.25047  21387846.819    21387844.375         583.000
        37.000
  -7752148.58748  -6040638.57345  23654602.045    23654599.955         225.000
         7.000
  4  3  1  1 43  0.0000000  0  8G24G17G 4G29G26G 7G10G 5
 -17735503.49649 -13819837.21146  22112501.761    22112498.994         420.000
        14.000
  -7161462.46148  -5580355.94245  23193365.100    23193361.536         213.000
         6.000
 -13870835.53149 -10808405.89346  22136461.908    22136460.845         438.000
        19.000
  -7772569.73448  -6056538.69245  23984198.952    23984195.363         193.000
         4.000
  -1321994.72148         0.000           0.000    24857452.947         109.000
         0.000
 -19960469.92049 -15553579.68847  21261273.668    21261270.921         576.000
        40.000
 -20856534.51749 -16251822.48047  21383579.695    21383577.002         576.000
        36.000
  -7774726.41748  -6058235.68646  23650306.446    23650303.387         225.000
        10.000
  4  3  1  1 43 30.0000000  0  8G24G17G 4G29G26G 7G10G 5
 -17757735.31649 -13837160.67946  22108271.010    22108268.443         425.000
        18.000
  -7191764.62748  -5603967.98545  23187597.576    23187595.226         216.000
         6.000
 -13867236.66349 -10805601.57646  22137147.042    22137145.929         449.000
        19.000
  -7877093.94848  -6137986.10745  23964305.876    23964305.026         196.000
         4.000
  -1417226.41848  -1104328.58344  24839333.798    24839330.969         112.000
         1.000
 -19897785.57449 -15504734.74547  21273202.182    21273199.355         576.000
        40.000
 -20878562.12049 -16268986.84847  21379387.854    21379385.512         583.000
        37.000
  -7796874.10848  -6075498.19346  23646090.808    23646088.828         225.000
        14.000
  4  3  1  1 44  0.0000000  0  8G24G17G 4G29G26G 7G10G 5
 -17779996.54449 -13854507.07546  22104034.559    22104032.303         426.000
        18.000
  -7222060.80548  -5627575.37845  23181833.636    23181829.859         211.000
         5.000
 -13863642.87849 -10802801.22646  22137830.879    22137829.730         446.000
        19.000
  -7981643.29148  -6219453.06445  23944412.179    23944409.471         192.000
         4.000
  -1512552.25248  -1178608.21744  24821195.014    24821190.868         111.000
         2.000
 -19834696.01149 -15455574.05047  21285207.549    21285204.902         575.000
        40.000
 -20900193.18749 -16285842.21147  21375271.898    21375269.308         588.000
        38.000
  -7818591.10548  -6092429.79246  23641959.524    23641956.896         236.000
        28.000
  4  3  1  1 44 30.0000000  0  8G24G17G 4G29G26G 7G10G 5
 -17802296.87749 -13871883.94146  22099791.237    22099788.813         434.000
        18.000
  -7252361.68948  -5651186.42145  23176066.293    23176063.593         209.000
         5.000
 -13860063.12749 -10800011.80446  22138512.197    22138511.153         451.000
        19.000
  -8086224.74448  -6300945.06345  23924510.535    23924509.006         207.000
         5.000
  -1607980.05548         0.000           0.000    24803032.043         110.000
         0.000
 -19771212.21749 -15406106.15947  21297288.037    21297285.451         577.000
        39.000
 -20921438.26249 -16302396.80447  21371229.083    21371226.396         586.000
        38.000
  -7839887.29948  -6109034.47847  23637906.102    23637903.553         223.000
        38.000
  4  3  1  1 45  0.0000000  0  8G24G17G 4G29G26G 7G10G 5
 -17824624.59449 -13889282.14846  22095542.337    22095540.008         436.000
        18.000
  -7282656.44948  -5674792.71445  23170302.084    23170298.495         206.000
         6.000
 -13856485.20549 -10797223.80746  22139193.120    22139191.873         447.000
        19.000
  -8190824.29948  -6382451.15545  23904606.100    23904604.399         203.000
         6.000
  -1703495.73248  -1327394.87144  24784857.187    24784855.758         123.000
         2.000
 -19707323.87649 -15356323.03647  21309445.647    21309442.969         572.000
        40.000
 -20942286.59249 -16318642.24047  21367261.982    21367259.115         588.000
        38.000
  -7860752.09148  -6125296.41447  23633936.242    23633933.531         225.000
        37.000
  4  3  1  1 45 30.0000000  0  8G24G17G 4G29G26G 7G10G 5
 -17846986.38549 -13906706.90346  22091287.268    22091284.547         434.000
        18.000
  -7312952.81448  -5698400.24445  23164537.195    23164533.225         203.000
         6.000
 -13852914.50949 -10794441.44446  22139873.067    22139871.106         442.000
        19.000
  -8295445.57748  -6463974.17745  23884697.502    23884695.430         211.000
         5.000
  -1799103.75648  -1401894.36644  24766667.294    24766662.179         132.000
         2.000
 -19643038.79649 -15306230.76747  21321678.573    21321675.998         572.000
        39.000
 -20962745.50849 -16334584.25347  21363368.606    21363365.846         587.000
        39.000
  -7881191.96948  -6141219.43347  23630046.568    23630043.861         231.000
        38.000
  4  3  1  1 46  0.0000000  0  8G24G17G 4G29G26G 7G10G 5
 -17869380.11549 -13924156.55646  22087025.419    22087023.092         430.000
        18.000
  -7343249.21348  -5722007.81145  23158770.991    23158768.270         211.000
         5.000
 -13849348.15349 -10791662.46446  22140550.895    22140549.813         442.000
        20.000
  -8400083.70948  -6545510.32745  23864784.159    23864783.685         210.000
         4.000
  -1894799.47748  -1476462.21544  24748455.858    24748451.363         131.000
         2.000
 -19578355.95349 -15255828.55247  21333987.508    21333984.820         576.000
        40.000
 -20982813.56649 -16350221.69247  21359549.721    21359546.977         588.000
        39.000
  -7901205.11148  -6156802.06047  23626237.923    23626235.047         224.000
        33.000
  4  3  1  1 46 30.0000000  0  8G24G17G 4G29G26G 7G10G 5
 -17891804.04849 -13941629.74446  22082758.488    22082756.242         439.000
        19.000
  -7373545.05748  -5745614.93145  23153005.980    23153002.828         211.000
         6.000
 -13845783.39849 -10788884.72746  22141229.459    22141228.117         441.000
        20.000
  -8504734.50148  -6627056.37245  23844871.282    23844868.886         206.000
         5.000
  -1990579.20148  -1551095.53944  24730230.211    24730224.881         124.000
         2.000
 -19513275.09849 -15205116.20147  21346371.882    21346369.339         579.000
        40.000
 -21002490.23049 -16365554.14847  21355805.378    21355802.762         593.000
        39.000
  -7920790.67648  -6172053.24746  23622511.521    23622508.726         232.000
        15.000
  4  3  1  1 47  0.0000000  0  8G24G17G 4G29G26G 7G10G 5
 -17914258.53949 -13959126.74146  22078485.741    22078483.166         436.000
        19.000
  -7403841.64748  -5769222.63645  23147241.581    23147238.206         222.000
         5.000
 -13842219.89749 -10786107.97246  22141907.733    22141906.057         435.000
        20.000
  -8609395.82448  -6708610.59245  23824953.838    23824952.790         218.000
         5.000
  -2086441.11448         0.000           0.000    24711982.442         121.000
         0.000
 -19447797.82549 -15154094.95347  21358831.791    21358829.236         578.000
        40.000
 -21021776.77749 -16380582.61647  21352135.339    21352132.646         597.000
        39.000
  -7939949.39148  -6186977.33245  23618866.434    23618863.239         240.000
         8.000
  4  3  1  1 47 30.0000000  0  8G24G17G 4G29G26G 7G10G 5
 -17936737.55149 -13976642.84646  22074207.757    22074205.331         428.000
        18.000
  -7434133.97248  -5792827.03145  23141476.447    23141473.504         220.000
         5.000
 -13838650.78149 -10783326.84546  22142586.894    22142584.876         422.000
        20.000
  -8714059.03548  -6790166.32845  23805037.971    23805035.535         210.000
         5.000
  -2182377.08648  -1700547.98444  24693726.321    24693726.688         125.000
         1.000
 -19381919.74549 -15102761.38547  21371367.810    21371365.363         575.000
        39.000
 -21040668.35249 -16395303.31347  21348540.396    21348537.744         602.000
        40.000
  -7958676.67348  -6201567.21645  23615302.099    23615299.173         235.000
         6.000
  4  3  1  1 48  0.0000000  0  8G24G17G 4G29G26G 7G10G 5
 -17959244.28049 -13994180.54546  22069924.976    22069922.641         433.000
        19.000
  -7464426.43348  -5816431.52845  23135711.824    23135708.995         219.000
         6.000
 -13835078.58549 -10780543.30546  22143266.361    22143264.727         424.000
        19.000
  -8818724.83448  -6871724.02645  23785121.231    23785118.592         214.000
         6.000
  -2278388.29948         0.000           0.000    24675456.343         140.000
         0.000
 -19315645.56449 -15051119.16947  21383979.531    21383976.997         578.000
        39.000
 -21059169.00749 -16409719.40147  21345019.859    21345017.261         604.000
        40.000
  -7976975.99648  -6215824.49644  23611819.882    23611816.972         239.000
         3.000
  4  3  1  1 48 30.0000000  0  8G24G17G 4G29G26G 7G10G 5
 -17981788.76549 -14011747.66746  22065634.632    22065632.166         422.000
        19.000
  -7494729.67148  -5840044.42245  23129946.791    23129942.230         215.000
         6.000
 -13831512.26549 -10777764.35646  22143944.288    22143943.253         421.000
        19.000
  -8923400.47448  -6953289.42545  23765200.533    23765199.421         216.000
         5.000
  -2374482.01148  -1850239.79944  24657171.804    24657170.196         145.000
         2.000
 -19248986.34549 -14999176.92347  21396664.342    21396661.786         574.000
        38.000
 -21077289.59249 -16423839.33147  21341571.340    21341568.910         605.000
        40.000
  -7994857.89148  -6229757.57944  23608419.125    23608414.148         235.000
         2.000
  4  3  1  1 49  0.0000000  0  8G24G17G 4G29G26G 7G10G 5
 -18004369.49949 -14029343.03546  22061337.868    22061335.440         426.000
        19.000
  -7525043.23248  -5863665.36545  23124178.105    23124173.715         216.000
         6.000
 -13827949.57349 -10774988.22846  22144622.792    22144621.549         428.000
        20.000
  -9028081.80948  -7034859.25945  23745280.579    23745279.205         222.000
         6.000
  -2470654.92448  -1925179.55844  24638870.937    24638869.164         156.000
         3.000
 -19181942.28349 -14946934.79847  21409422.162    21409419.814         568.000
        37.000
 -21095029.92949 -16437662.96147  21338195.678    21338193.006         605.000
        40.000
  -8012321.86648         0.000           0.000    23605090.265         225.000
         0.000
  4  3  1  1 49 30.0000000  0  8G24G17G 4G29G26G 7G10G 5
 -18026979.39649 -14046961.12646  22057034.985    22057032.863         427.000
        19.000
  -7555361.12848  -5887289.68545  23118407.411    23118404.510         220.000
         6.000
 -13824382.66149 -10772208.81046  22145301.908    22145300.456         433.000
        20.000
  -9132759.22948  -7116426.01845  23725361.073    23725359.365         205.000
         5.000
  -2566897.74148  -2000173.76544  24620557.687    24620554.540         150.000
         3.000
 -19114507.76049 -14894388.42047  21422254.807    21422252.400         569.000
        37.000
 -21112383.95549 -16451185.56847  21334893.238    21334890.712         610.000
        41.000
  -8029361.50948         0.000           0.000    23601848.317         233.000
         0.000
  4  3  1  1 50  0.0000000  0  8G24G17G 4G29G26G 7G10G 5
 -18049617.99849 -14064601.59146  22052727.544    22052725.137         430.000
        18.000
  -7585683.86648  -5910917.77745  23112637.616    23112634.167         220.000
         6.000
 -13820810.08649 -10769424.98746  22145981.860    22145980.154         429.000
        19.000
  -9237429.86648  -7197987.51045  23705441.709    23705441.162         217.000
         5.000
  -2663208.01948  -2075220.57044  24602229.406    24602226.746         137.000
         2.000
 -19046683.97549 -14841538.71947  21435161.310    21435158.653         558.000
        36.000
 -21129352.49949 -16464407.80547  21331664.016    21331661.569         606.000
        41.000
  -8045977.24848  -6269591.47344  23598687.594    23598686.328         232.000
         2.000
  4  3  1  1 50 30.0000000  0  8G24G17G 4G29G26G 7G10G 5
 -18072283.79249 -14082263.24946  22048414.074    22048411.707         424.000
        18.000
  -7616010.74848  -5934549.09145  23106866.330    23106863.426         221.000
         6.000
 -13817229.59949 -10766634.99946  22146663.241    22146661.546         427.000
        19.000
  -9342089.57648  -7279540.51345  23685527.219    23685525.093         217.000
         6.000
  -2759581.80448  -2150316.91744  24583885.668    24583886.991         132.000
         2.000
 -18978470.79749 -14788385.59647  21448141.736    21448139.180         555.000
        36.000
 -21145935.16849 -16477329.36147  21328508.714    21328506.088         609.000
        41.000
  -8062168.24248  -6282207.83644  23595606.029    23595605.291         234.000
         2.000
  4  3  1  1 51  0.0000000  0  8G24G17G 4G29G26G 7G10G 5
 -18094974.65049 -14099944.41646  22044096.519    22044093.750         421.000
        19.000
  -7646340.54848  -5958182.67845  23101095.007    23101091.791         219.000
         6.000
 -13813637.99249 -10763836.33946  22147346.063    22147344.830         422.000
        19.000
  -9446733.35748  -7361081.08145  23665614.372    23665612.544         223.000
         6.000
  -2856014.74548  -2225459.31844  24565541.703    24565537.220         150.000
         2.000
 -18909867.48249 -14734928.47047  21461196.510    21461193.913         546.000
        35.000
 -21162130.54349 -16489949.12547  21325426.638    21325424.061         606.000
        41.000
  -8077933.15048  -6294492.19244  23592608.282    23592605.549         240.000
         3.000
  4  3  1  1 51 30.0000000  0  8G24G17G 4G29G26G 7G10G 5
 -18117704.18649 -14117655.74646  22039771.018    22039768.375         421.000
        19.000
  -7676688.44148  -5981830.36945  23095319.223    23095316.556         212.000
         6.000
 -13810048.68249 -10761039.47446  22148029.590    22148028.155         429.000
        19.000
  -9551372.97048  -7442618.39245  23645702.106    23645699.980         223.000
         6.000
  -2952518.93048  -2300657.26744  24547176.831    24547172.838         161.000
         3.000
 -18840889.90449 -14681179.71147  21474322.403    21474319.873         542.000
        35.000
 -21177954.30049 -16502279.31547  21322415.677    21322412.941         607.000
        41.000
  -8093287.16748  -6306456.37144  23589685.779    23589683.511         237.000
         3.000
  4  3  1  1 52  0.0000000  0  8G24G17G 4G29G26G 7G10G 5
 -18140461.54449 -14135388.74346  22035439.887    22035437.690         421.000
        19.000
  -7707044.38748  -6005484.34245  23089543.074    23089539.390         203.000
         5.000
 -13806449.80249 -10758235.14946  22148714.019    22148712.895         427.000
        20.000
  -9655994.63948  -7524141.74245  23625793.489    23625791.308         225.000
         6.000
  -3049080.93148  -2375900.23944  24528797.755    24528797.613         169.000
         3.000
 -18771528.43649 -14627131.82047  21487521.525    21487518.911         536.000
        34.000
 -21193396.49349 -16514312.18347  21319477.004    21319474.416         609.000
        41.000
  -8108219.99148  -6318092.34544  23586842.244    23586841.484         228.000
         3.000
  4  3  1  1 52 30.0000000  0  8G24G17G 4G29G26G 7G10G 5
 -18163248.72849 -14153144.98846  22031103.740    22031101.294         416.000
        19.000
  -7737410.92748  -6029146.58345  23083764.105    23083761.194         208.000
         6.000
 -13802842.06949 -10755423.92546  22149401.217    22149399.533         430.000
        19.000
  -9760597.58148  -7605650.48645  23605887.483    23605885.407         221.000
         6.000
  -3145700.27648  -2451187.91544  24510410.643    24510411.232         147.000
         2.000
 -18701786.36949 -14572787.35347  21500792.979    21500790.454         534.000
        33.000
 -21208460.02149 -16526049.98747  21316610.461    21316607.965         615.000
        41.000
  -8122733.96748  -6329401.93344  23584082.103    23584079.178         222.000
         2.000
  4  3  1  1 53  0.0000000  0  8G24G17G 4G29G26G 7G10G 5
 -18186065.47649 -14170924.26446  22026762.428    22026759.728         426.000
        19.000
  -7767788.87648  -6052817.70645  23077983.802    23077980.468         209.000
         5.000
 -13799224.47949 -10752605.02346  22150089.187    22150088.104         435.000
        19.000
  -9865179.07148  -7687142.52645  23585987.390    23585984.139         225.000
         6.000
  -3242374.84548  -2526518.63644  24492016.554    24492015.601         152.000
         2.000
 -18631665.34849 -14518147.59847  21514136.407    21514134.002         529.000
        33.000
 -21223145.94849 -16537493.55747  21313815.687    21313813.198         609.000
        41.000
  -8136830.21848  -6340386.02844  23581399.074    23581397.077         226.000
         3.000
  4  3  1  1 53 30.0000000  0  8G24G17G 4G29G26G 7G10G 5
 -18208909.42649 -14188724.73846  22022415.086    22022412.658         424.000
        19.000
  -7798177.12048  -6076496.83445  23072200.407    23072197.982         217.000
         6.000
 -13795594.16649 -10749776.21046  22150779.930    22150778.718         429.000
        19.000
  -9969734.20548  -7768614.03445  23566089.888    23566088.129         225.000
         6.000
  -3339100.12348  -2601888.86644  24473608.472    24473608.647         150.000
         1.000
 -18561164.93149 -14463212.21147  21527552.372    21527549.699         524.000
        33.000
 -21237453.43149 -16548642.23647  21311093.262    21311090.642         616.000
        42.000
  -8150507.44548  -6351043.60845  23578795.760    23578794.471         228.000
         4.000
  4  3  1  1 54  0.0000000  0  8G24G17G 4G29G26G 7G10G 5
 -18231773.52149 -14206540.91346  22018063.907    22018061.887         428.000
        19.000
  -7828569.65648  -6100179.33645  23066417.753    23066414.299         219.000
         5.000
 -13791943.11949 -10746931.23946  22151474.476    22151473.345         428.000
        19.000
 -10074253.57248  -7850057.66045  23546200.288    23546199.368         240.000
         6.000
  -3435867.08348  -2677291.59844  24455197.604    24455194.476         156.000
         3.000
 -18490279.70249 -14407976.97147  21541041.632    21541038.849         524.000
        32.000
 -21251376.76449 -16559491.57647  21308443.858    21308441.179         620.000
        42.000
  -8163759.86548  -6361370.17945  23576273.555    23576273.122         238.000
         4.000
  4  3  1  1 54 30.0000000  0  8G24G17G 4G29G26G 7G10G 5
 -18254668.39349 -14224381.06346  22013707.858    22013704.849         418.000
        19.000
  -7858978.12548  -6123874.21045  23060631.431    23060628.401         232.000
         6.000
 -13788281.09049 -10744077.70746  22152171.248    22152170.269         425.000
        19.000
 -10178745.07348  -7931479.58745  23526316.680    23526314.569         232.000
         7.000
  -3532684.06948  -2752733.29944  24436772.744    24436770.771         160.000
         3.000
 -18419021.96149 -14352451.45747  21554601.285    21554598.718         520.000
        33.000
 -21264927.54449 -16570050.61647  21305865.163    21305862.660         626.000
        41.000
  -8176598.76548  -6371374.50344  23573830.654    23573829.761         235.000
         3.000
  4  3  1  1 55  0.0000000  0  8G24G17G 4G29G26G 7G10G 5
 -18277598.78949 -14242248.90046  22009344.669    22009341.422         423.000
        19.000
  -7889408.32348  -6147586.04645  23054840.843    23054837.643         234.000
         6.000
 -13784612.34949 -10741218.94646  22152869.776    22152868.289         424.000
        19.000
 -10283211.14548  -8012881.66045  23506437.926    23506435.716         236.000
         7.000
  -3629553.87848  -2828216.19244  24418335.840    24418336.748         160.000
         3.000
 -18347398.32349 -14296640.83347  21568230.844    21568228.174         517.000
        33.000
 -21278112.38949 -16580324.51647  21303355.950    21303353.540         623.000
        42.000
  -8189030.51548  -6381061.60045  23571467.169    23571463.718         229.000
         4.000
  4  3  1  1 55 30.0000000  0  8G24G17G 4G29G26G 7G10G 5
 -18300555.89149 -14260137.54946  22004975.441    22004972.690         419.000
        19.000
  -7919852.44548  -6171308.72645  23049046.915    23049044.223         233.000
         6.000
 -13780927.14449 -10738347.36246  22153571.158    22153569.627         427.000
        19.000
 -10387640.36548  -8094255.05245  23486565.179    23486563.111         230.000
         6.000
  -3726465.67948  -2903731.82944  24399896.173    24399894.277         151.000
         2.000
 -18275401.74449 -14240539.60247  21581931.455    21581928.828         521.000
        33.000
 -21290923.84249 -16590307.45847  21300918.102    21300915.539         622.000
        42.000
  -8201047.12948  -6390425.18845  23569181.474    23569176.976         230.000
         4.000
  4  3  1  1 56  0.0000000  0  8G24G17G 4G29G26G 7G10G 5
 -18323546.31349 -14278052.15246  22000600.427    22000597.695         421.000
        19.000
  -7950317.93748  -6195048.04745  23043249.721    23043246.770         232.000
         6.000
 -13777231.25749 -10735467.44446  22154274.674    22154273.102         433.000
        19.000
 -10492036.81448  -8175602.90345  23466699.275    23466697.384         237.000
         7.000
  -3823423.62148  -2979283.34644  24381447.703    24381444.202         150.000
         3.000
 -18203040.60349 -14184154.30547  21595701.179    21595698.552         513.000
        32.000
 -21303369.93649 -16600005.70647  21298549.648    21298547.243         626.000
        42.000
  -8212656.28448  -6399471.28845  23566970.659    23566968.122         232.000
         4.000
  4  3  1  1 56 30.0000000  0  8G24G17G 4G29G26G 7G10G 5
 -18346562.41949 -14295986.78046  21996220.791    21996218.402         438.000
        20.000
  -7980798.44648  -6218799.08945  23037449.386    23037446.281         229.000
         6.000
 -13773516.24349 -10732572.62246  22154981.206    22154980.136         434.000
        19.000
 -10596390.40748  -8256917.37345  23446842.050    23446839.621         242.000
         6.000
  -3920418.21448  -3054863.45044  24362990.538    24362987.375         161.000
         3.000
 -18130309.21749 -14127480.50047  21609541.791    21609538.942         513.000
        32.000
 -21315444.42849 -16609414.39547  21296252.109    21296249.522         624.000
        42.000
  -8223851.91648  -6408195.15445  23564840.905    23564837.717         236.000
         4.000
  4  3  1  1 57  0.0000000  0  8G24G17G 4G29G26G 7G10G 5
 -18369596.96649 -14313935.77346  21991837.637    21991834.875         434.000
        20.000
  -8011287.45648  -6242556.74545  23031647.653    23031644.416         224.000
         6.000
 -13769773.86449 -10729656.47846  22155693.652    22155692.277         435.000
        19.000
 -10700691.34448  -8338190.79645  23426994.159    23426991.646         238.000
         7.000
  -4017439.99548  -3130464.77344  24344527.161    24344524.690         166.000
         3.000
 -18057202.17849 -14070513.98247  21623453.562    21623450.698         510.000
        32.000
 -21327141.39049 -16618528.90747  21294025.926    21294023.542         622.000
        42.000
  -8234627.76348  -6416591.92845  23562790.559    23562787.129         233.000
         4.000
  4  3  1  1 57 30.0000000  0  8G24G17G 4G29G26G 7G10G 5
 -18392661.81649 -14331908.38046  21987448.521    21987445.537         432.000
        20.000
  -8041798.18548  -6266331.32845  23025841.170    23025838.253         222.000
         6.000
 -13766015.57349 -10726727.93246  22156408.929    22156407.459         435.000
        19.000
 -10804949.23248  -8419430.67545  23407154.285    23407151.487         230.000
         7.000
  -4114498.95548  -3206095.02644  24326055.386    24326054.576         163.000
         2.000
 -17983733.32049 -14013265.52546  21637434.018    21637431.482         513.000
        31.000
 -21338474.54849 -16627359.92847  21291869.412    21291866.935         621.000
        42.000
  -8244996.97348  -6424671.82745  23560815.947    23560813.903         235.000
         4.000
  4  3  1  1 58  0.0000000  0  8G24G17G 4G29G26G 7G10G 5
 -18415750.86049 -14349899.83846  21983054.408    21983051.877         433.000
        20.000
  -8072325.32348  -6290118.69745  23020032.046    23020029.174         219.000
         6.000
 -13762234.23449 -10723781.42746  22157128.500    22157126.823         427.000
        19.000
 -10909155.00248  -8500629.94745  23387324.368    23387322.049         242.000
         7.000
  -4211586.50648  -3281747.61144  24307578.070    24307578.766         162.000
         3.000
 -17909898.25949 -13955731.71246  21651484.564    21651481.699         509.000
        31.000
 -21349439.06249 -16635903.69847  21289782.861    21289780.461         622.000
        42.000
  -8254954.89148  -6432431.24145  23558922.176    23558918.946         234.000
         4.000
  4  3  1  1 58 30.0000000  0  8G24G17G 4G29G26G 7G10G 5
 -18438863.28749 -14367909.52246  21978656.517    21978653.943         442.000
        20.000
  -8102869.36648  -6313919.20945  23014220.549    23014217.047         224.000
         6.000
 -13758428.37549 -10720815.82346  22157852.326    22157851.037         426.000
        19.000
 -11013305.87648  -8581786.44045  23367504.757    23367502.354         231.000
         7.000
  -4308700.10748  -3357420.48744  24289101.870    24289099.089         168.000
         3.000
 -17835698.32249 -13897913.58246  21665604.183    21665601.541         512.000
        31.000
 -21360035.76649 -16644160.86547  21287766.521    21287764.216         633.000
        41.000
  -8264501.64548  -6439870.27645  23557106.107    23557101.845         224.000
         4.000
  4  3  1  1 59  0.0000000  0  8G24G17G 4G29G26G 7G10G 5
 -18462001.25849 -14385939.10146  21974253.579    21974250.632         434.000
        20.000
  -8133433.45648  -6337735.39645  23008402.963    23008400.612         223.000
         5.000
 -13754599.42449 -10717832.21946  22158581.761    22158579.660         423.000
        19.000
 -11117401.37948  -8662899.78945  23347696.300    23347693.820         239.000
         7.000
  -4405839.82048  -3433113.69244  24270617.734    24270613.700         159.000
         3.000
 -17761137.65149 -13839814.36246  21679792.648    21679790.130         518.000
        31.000
 -21370268.60449 -16652134.49447  21285819.082    21285816.819         628.000
        42.000
  -8273641.37948  -6446992.15845  23555363.337    23555362.817         233.000
         4.000
  4  3  1  1 59 30.0000000  0  8G24G17G 4G29G26G 7G10G 5
 -18485168.57949 -14403991.55546  21969845.192    21969842.336         446.000
        21.000
  -8164022.30948  -6361570.84145  23002582.666    23002579.763         225.000
         6.000
 -13750750.09849 -10714832.74246  22159313.760    22159312.119         422.000
        19.000
 -11221442.58048  -8743970.83545  23327897.367    23327895.562         242.000
         8.000
  -4503007.32848  -3508828.50344  24252124.545    24252123.166         156.000
         3.000
 -17686222.00249 -13781438.53346  21694048.597    21694045.988         516.000
        31.000
 -21380142.87649 -16659828.72547  21283940.155    21283937.717         625.000
        42.000
  -8282378.85248  -6453800.57945  23553704.802    23553700.772         243.000
         5.000
  4  3  1  2  0  0.0000000  0  8G24G17G 4G29G26G 7G10G 5
 -18508363.58249 -14422065.58446  21965430.677    21965428.382         447.000
        21.000
  -8194635.26248  -6385425.07245  22996757.778    22996754.300         227.000
         6.000
 -13746878.18149 -10711815.65546  22160050.578    22160049.024         421.000
        19.000
 -11325425.45948  -8824996.42945  23308110.182    23308108.331         248.000
         7.000
  -4600198.84448  -3584562.10344  24233629.833    24233628.649         173.000
         3.000
 -17610951.68849 -13722786.34346  21708372.138    21708369.586         520.000
        30.000
 -21389658.59149 -16667243.56147  21282129.319    21282127.190         636.000
        42.000
  -8290713.65948  -6460295.23445  23552116.831    23552114.490         236.000
         4.000
  4  3  1  2  0 30.0000000  0  8G24G17G 4G29G26G 7G10G 5
 -18531580.78149 -14440156.90146  21961013.023    21961010.402         452.000
        21.000
  -8225267.91248  -6409294.66345  22990928.910    22990925.601         236.000
         6.000
 -13742977.40849 -10708776.09046  22160792.974    22160791.372         421.000
        18.000
 -11429342.18048  -8905970.46445  23288335.114    23288333.408         244.000
         8.000
  -4697406.82448  -3660308.55344  24215130.443    24215130.573         178.000
         3.000
 -17535323.15349 -13663855.02146  21722763.555    21722761.243         521.000
        30.000
 -21398811.63149 -16674375.79247  21280387.366    21280385.181         628.000
        42.000
  -8298641.78048  -6466473.01645  23550609.339    23550605.485         232.000
         4.000
  4  3  1  2  1  0.0000000  0  8G24G17G 4G29G26G 7G10G 5
 -18554824.46149 -14458268.85846  21956589.981    21956587.205         453.000
        21.000
  -8255925.73448  -6433183.85045  22985093.829    22985091.237         232.000
         7.000
 -13739051.39849 -10705716.85646  22161539.799    22161538.168         411.000
        18.000
 -11533194.54448  -8986894.35045  23268573.679    23268571.055         245.000
         8.000
  -4794633.64748  -3736069.64144  24196629.457    24196628.961         170.000
         3.000
 -17459343.01149 -13604649.71546  21737222.466    21737219.830         520.000
        30.000
 -21407608.06449 -16681230.14947  21278713.755    21278711.364         632.000
        43.000
  -8306169.17348  -6472338.50645  23549177.452    23549173.097         232.000
         5.000
  4  3  1  2  1 30.0000000  0  8G24G17G 4G29G26G 7G10G 5
 -18578102.83049 -14476407.84146  21952160.116    21952157.694         462.000
        21.000
  -8286618.03348  -6457099.90645  22979254.092    22979250.748         234.000
         7.000
 -13735107.43149 -10702643.63046  22162290.388    22162288.815         413.000
        18.000
 -11636988.41248  -9067772.67045  23248820.818    23248819.584         257.000
         8.000
  -4891885.41348  -3811850.19544  24178125.652    24178122.392         171.000
         3.000
 -17383021.55249 -13545178.44846  21751745.699    21751743.159         510.000
        29.000
 -21416058.06849 -16687814.56447  21277105.659    21277103.320         631.000
        43.000
  -8313305.68048  -6477899.42245  23547816.541    23547815.050         233.000
         4.000
  4  3  1  2  2  0.0000000  0  8G24G17G 4G29G26G 7G10G 5
 -18601401.68649 -14494562.78846  21947726.501    21947723.868         460.000
        21.000
  -8317331.51748  -6481032.48245  22973408.555    22973406.228         239.000
         6.000
 -13731130.80449 -10699544.95646  22163047.290    22163045.559         414.000
        19.000
 -11740707.06548  -9148592.37745  23229084.760    23229082.631         254.000
         8.000
  -4989145.85648  -3887637.48145  24159617.120    24159614.457         181.000
         4.000
 -17306346.47649 -13485431.64246  21766336.535    21766333.913         506.000
        29.000
 -21424148.99649 -16694119.17547  21275566.056    21275563.791         634.000
        43.000
  -8320038.39948  -6483145.69245  23546538.060    23546533.891         234.000
         5.000
  4  3  1  2  2 30.0000000  0  8G24G17G 4G29G26G 7G10G 5
 -18624720.79249 -14512733.51246  21943288.582    21943286.527         467.000
        21.000
  -8348067.14548  -6504982.30045  22967560.775    22967557.568         241.000
         7.000
 -13727120.18349 -10696419.79646  22163810.582    22163808.717         411.000
        18.000
 -11844348.03148  -9229351.53845  23209362.508    23209360.605         260.000
         8.000
  -5086412.69248  -3963429.76845  24141108.307    24141104.676         174.000
         4.000
 -17229319.86049 -13425410.90246  21780994.202    21780991.524         497.000
        28.000
 -21431882.28949 -16700145.11147  21274094.592    21274092.114         632.000
        43.000
  -8326368.56348  -6488078.28445  23545332.121    23545329.055         229.000
         5.000
  4  3  1  2  3  0.0000000  0  8G24G17G 4G29G26G 7G10G 5
 -18648051.59249 -14530913.35146  21938849.204    21938846.800         468.000
        21.000
  -8378817.31748  -6528943.46245  22961708.586    22961705.912         241.000
         6.000
 -13723066.56449 -10693261.12846  22164581.498    22164580.028         409.000
        18.000
 -11947899.98248  -9310041.35545  23189657.261    23189654.999         248.000
         8.000
  -5183675.42448  -4039218.87345  24122598.163    24122596.683         184.000
         4.000
 -17151935.23149 -13365111.19346  21795720.035    21795717.443         493.000
        28.000
 -21439251.40149 -16705887.27047  21272692.231    21272689.824         631.000
        42.000
  -8332289.92548  -6492692.34745  23544205.721    23544202.473         229.000
         5.000
  4  3  1  2  3 30.0000000  0  8G24G17G 4G29G26G 7G10G 5
 -18671402.35449 -14549108.74946  21934405.855    21934403.240         467.000
        22.000
  -8409591.70548  -6552923.48945  22955853.449    22955849.889         241.000
         7.000
 -13718977.55349 -10690074.88546  22165359.913    22165358.130         408.000
        19.000
 -12051369.17448  -9390666.66545  23169968.250    23169965.943         262.000
         8.000
  -5280940.56148  -4115009.80945  24104088.201    24104087.683         195.000
         4.000
 -17074203.36949 -13304540.91246  21810511.403    21810509.286         487.000
        27.000
 -21446266.58349 -16711353.63747  21271357.258    21271354.789         628.000
        42.000
  -8337812.16448  -6496995.39745  23543153.663    23543150.819         221.000
         5.000
  4  3  1  2  4  0.0000000  0  8G24G17G 4G29G26G 7G10G 5
 -18694785.25249 -14567329.18546  21929955.667    21929953.581         471.000
        22.000
  -8440403.23448  -6576932.47045  22949989.817    22949986.371         237.000
         6.000
 -13714864.54649 -10686869.94046  22166142.100    22166140.571         403.000
        19.000
 -12154765.30448  -9471235.04045  23150292.190    23150289.921         261.000
         9.000
  -5378217.98648  -4190810.37545  24085578.037    24085576.140         183.000
         4.000
 -16996138.36649 -13243711.04346  21825367.090    21825364.322         473.000
        27.000
 -21452941.37049 -16716554.76247  21270086.901    21270084.636         629.000
        42.000
  -8342948.86148  -6500998.00245  23542177.373    23542173.874         226.000
         5.000
  4  3  1  2  4 30.0000000  0  8G24G17G 4G29G26G 7G10G 5
 -18718188.54349 -14585565.51546  21925502.595    21925500.082         475.000
        21.000
  -8471241.28348  -6600962.10845  22944120.052    22944117.974         234.000
         6.000
 -13710714.78449 -10683636.35846  22166931.956    22166930.353         405.000
        18.000
 -12258073.99648  -9551735.30245  23130632.906    23130630.887         263.000
         9.000
  -5475493.91448  -4266609.74144  24067065.413    24067065.029         178.000
         3.000
 -16917730.65749 -13182614.12946  21840287.480    21840284.960         469.000
        26.000
 -21459265.79049 -16721482.87347  21268883.436    21268881.199         632.000
        42.000
  -8347689.60048  -6504692.08445  23541275.533    23541271.804         230.000
         5.000
  4  3  1  2  5  0.0000000  0  8G24G17G 4G29G26G 7G10G 5
 -18741622.59449 -14603825.80746  21921043.085    21921040.778         475.000
        22.000
  -8502117.28448  -6625021.31645  22938245.488    22938242.436         230.000
         6.000
 -13706538.01449 -10680381.73146  22167726.628    22167725.389         411.000
        18.000
 -12361303.24948  -9632173.65945  23110989.063    23110986.977         263.000
         8.000
  -5572776.68348  -4342414.43545  24048553.492    24048552.995         192.000
         4.000
 -16838992.97149 -13121260.09446  21855270.849    21855268.275         464.000
        26.000
 -21465252.53549 -16726147.86047  21267744.140    21267741.896         630.000
        42.000
  -8352046.93148  -6508087.41945  23540446.274    23540442.913         230.000
         5.000
  4  3  1  2  5 30.0000000  0  8G24G17G 4G29G26G 7G10G 5
 -18765075.01949 -14622100.42046  21916580.714    21916577.988         481.000
        23.000
  -8533020.15648  -6649101.46945  22932364.775    22932361.848         231.000
         7.000
 -13702321.31349 -10677095.98946  22168529.188    22168527.704         410.000
        19.000
 -12464438.53948  -9712538.79345  23091363.516    23091360.839         258.000
         8.000
  -5670052.18848  -4418213.47345  24030043.473    24030042.259         202.000
         5.000
 -16759915.30649 -13059641.13846  21870319.012    21870316.247         459.000
        25.000
 -21470891.16049 -16730541.58447  21266671.120    21266668.972         631.000
        42.000
  -8356010.25948  -6511175.72645  23539692.837    23539688.413         228.000
         6.000
  4  3  1  2  6  0.0000000  0  8G24G17G 4G29G26G 7G10G 5
 -18788543.68949 -14640387.69346  21912114.288    21912111.885         478.000
        23.000
  -8563948.62348  -6673201.54145  22926480.180    22926476.163         231.000
         7.000
 -13698061.49349 -10673776.64746  22169340.327    22169338.614         418.000
        19.000
 -12567475.08648  -9792826.98945  23071755.943    23071753.762         270.000
         9.000
  -5767316.09248  -4494003.47645  24011535.627    24011532.992         189.000
         4.000
 -16680497.58049 -12997757.20046  21885431.675    21885428.964         454.000
        25.000
 -21476181.08849 -16734663.59647  21265664.435    21265662.218         626.000
        42.000
  -8359578.89848  -6513956.49945  23539011.833    23539009.596         232.000
         5.000
  4  3  1  2  6 30.0000000  0  8G24G17G 4G29G26G 7G10G 5
 -18812032.04149 -14658690.29546  21907644.848    21907642.222         482.000
        23.000
  -8594907.22048  -6697325.10545  22920588.775    22920584.922         231.000
         7.000
 -13693761.49549 -10670425.99846  22170157.935    22170156.676         412.000
        19.000
 -12670414.06248  -9873039.15345  23052166.570    23052164.997         271.000
         9.000
  -5864569.81948  -4569785.55245  23993029.552    23993026.207         191.000
         4.000
 -16600745.59349 -12935612.79546  21900607.903    21900605.334         455.000
        25.000
 -21481127.74949 -16738518.13147  21264723.148    21264720.808         624.000
        41.000
  -8362758.21848  -6516433.87045  23538407.883    23538404.715         233.000
         6.000
  4  3  1  2  7  0.0000000  0  8G24G17G 4G29G26G 7G10G 5
 -18835526.77949 -14676997.88146  21903173.713    21903171.438         486.000
        23.000
  -8625883.82948  -6721462.71545  22914693.580    22914690.406         236.000
         6.000
 -13689407.19149 -10667033.03146  22170986.539    22170985.119         408.000
        19.000
 -12773239.98848  -9953163.22945  23032599.775    23032598.335         285.000
         9.000
  -5961798.34148  -4645547.95945  23974524.883    23974524.571         196.000
         4.000
 -16520648.55249 -12873199.52346  21915850.033    21915847.169         448.000
        25.000
 -21485720.18149 -16742096.64147  21263849.433    21263847.074         629.000
        42.000
  -8365536.54448  -6518598.81845  23537878.886    23537876.138         233.000
         5.000
  4  3  1  2  7 30.0000000  0  8G24G17G 4G29G26G 7G10G 5
 -18859039.02049 -14695319.11146  21898699.363    21898696.964         478.000
        23.000
  -8656890.88948  -6745624.04345  22908793.158    22908790.131         241.000
         7.000
 -13685009.42449 -10663606.19146  22171823.966    22171822.027         407.000
        19.000
 -12875961.69148 -10033206.08545  23013051.624    23013050.373         274.000
         9.000
  -6059010.98848  -4721298.03845  23956026.640    23956025.201         190.000
         4.000
 -16440220.21449 -12810528.09646  21931154.946    21931152.166         449.000
        24.000
 -21489971.49349 -16745409.34547  21263040.601    21263037.865         619.000
        42.000
  -8367927.55648  -6520461.95045  23537423.899    23537420.664         224.000
         5.000
  4  3  1  2  8  0.0000000  0  8G24G17G 4G29G26G 7G10G 5
 -18882576.58749 -14713660.06946  21894220.676    21894218.060         485.000
        23.000
  -8687937.41348  -6769816.14045  22902886.205    22902882.062         239.000
         8.000
 -13680575.32449 -10660151.04946  22172667.475    22172665.658         404.000
        18.000
 -12978584.71648 -10113172.07045  22993523.784    22993522.183         286.000
         9.000
  -6156213.60448  -4797040.28645  23937531.394    23937528.529         200.000
         5.000
 -16359470.61849 -12747606.34146  21946520.954    21946518.223         447.000
        24.000
 -21493891.25649 -16748463.69647  21262294.500    21262291.958         618.000
        42.000
  -8369940.60648  -6522030.56145  23537040.926    23537037.620         226.000
         6.000
  4  3  1  2  8 30.0000000  0  8G24G17G 4G29G26G 7G10G 5
 -18906126.27749 -14732010.47246  21889739.286    21889736.723         485.000
        23.000
  -8719010.54548  -6794028.93845  22896971.202    22896968.957         242.000
         7.000
 -13676090.31049 -10656656.23046  22173520.987    22173519.617         416.000
        19.000
 -13081092.92348 -10193048.56746  22974017.267    22974015.719         303.000
        10.000
  -6253390.46248  -4872762.45545  23919038.068    23919036.241         200.000
         5.000
 -16278388.64449 -12684425.58546  21961950.626    21961947.867         456.000
        24.000
 -21497468.02449 -16751250.77947  21261613.912    21261611.369         617.000
        42.000
  -8371563.93648  -6523295.48245  23536731.356    23536729.101         232.000
         5.000
  4  3  1  2  9  0.0000000  0  8G24G17G 4G29G26G 7G10G 5
 -18929689.19249 -14750371.18146  21885255.208    21885252.923         493.000
        23.000
  -8750112.52048  -6818264.22845  22891053.963    22891050.525         249.000
         7.000
 -13671554.85849 -10653122.10946  22174383.884    22174382.520         413.000
        18.000
 -13183485.01048 -10272834.60046  22954532.186    22954530.999         301.000
        10.000
  -6350540.71248  -4948463.88045  23900551.221    23900549.528         205.000
         5.000
 -16196977.57449 -12620988.39446  21977442.512    21977439.804         452.000
        24.000
 -21500704.74849 -16753772.89347  21260997.866    21260995.415         620.000
        42.000
  -8372800.37148  -6524258.94645  23536496.334    23536493.503         226.000
         5.000
  4  3  1  2  9 30.0000000  0  8G24G17G 4G29G26G 7G10G 5
 -18953269.69149 -14768745.59246  21880768.378    21880765.960         504.000
        24.000
  -8781249.30148  -6842526.63745  22885126.989    22885125.814         257.000
         7.000
 -13666972.85349 -10649551.71246  22175256.093    22175254.291         408.000
        19.000
 -13285763.50848 -10352532.11146  22935069.043    22935068.022         298.000
        10.000
  -6447667.12248  -5024146.75445  23882067.448    23882066.402         197.000
         4.000
 -16115244.73149 -12557300.46746  21992995.606    21992993.185         460.000
        24.000
 -21503608.48349 -16756035.53547  21260445.360    21260442.915         620.000
        42.000
  -8373656.77048  -6524926.26245  23536333.895    23536331.169         235.000
         5.000
  4  3  1  2 10  0.0000000  0  8G24G17G 4G29G26G 7G10G 5
 -18976879.70649 -14787143.00746  21876275.388    21876272.886         498.000
        24.000
  -8812433.81548  -6866826.25745  22879193.970    22879191.479         257.000
         7.000
 -13662355.69849 -10645953.92946  22176134.860    22176132.754         404.000
        18.000
 -13387938.08348 -10432148.64046  22915626.555    22915624.761         296.000
        10.000
  -6544779.87148  -5099818.99245  23863587.697    23863586.367         192.000
         4.000
 -16033204.63349 -12493373.11746  22008607.409    22008604.992         461.000
        24.000
 -21506193.32949 -16758049.69347  21259953.550    21259950.998         619.000
        43.000
  -8374146.99248  -6525308.24745  23536241.170    23536237.409         229.000
         6.000
  4  3  1  2 10 30.0000000  0  8G24G17G 4G29G26G 7G10G 5
 -19000502.70949 -14805550.53846  21871779.836    21871777.356         490.000
        24.000
  -8843650.71648  -6891151.10945  22873254.322    22873251.184         259.000
         8.000
 -13657686.24649 -10642315.38846  22177023.029    22177021.571         410.000
        19.000
 -13489989.89248 -10511669.50746  22896206.318    22896205.036         301.000
        10.000
  -6641860.40748  -5175466.10945  23845113.405    23845112.672         207.000
         5.000
 -15950843.16449 -12429195.35446  22024280.315    22024277.875         465.000
        24.000
 -21508444.86249 -16759804.12547  21259524.979    21259522.417         620.000
        43.000
  -8374257.15348  -6525394.08945  23536218.303    23536217.021         233.000
         6.000
  4  3  1  2 11  0.0000000  0  8G24G17G 4G29G26G 7G10G 5
 -19024136.65049 -14823966.59446  21867282.300    21867279.999         495.000
        24.000
  -8874898.86648  -6915500.30145  22867307.369    22867304.776         256.000
         7.000
 -13652961.49049 -10638633.75546  22177922.131    22177920.506         408.000
        18.000
 -13591914.47548 -10591091.24846  22876810.201    22876809.539         312.000
        10.000
  -6738904.54548  -5251084.90445  23826645.763    23826645.552         202.000
         4.000
 -15868160.56249 -12364767.35546  22040013.972    22040011.665         459.000
        23.000
 -21510362.96649 -16761298.74647  21259159.855    21259157.474         620.000
        43.000
  -8373986.61948  -6525183.27945  23536271.560    23536268.202         230.000
         6.000
  4  3  1  2 11 30.0000000  0  8G24G17G 4G29G26G 7G10G 5
 -19047780.41749 -14842390.30946  21862783.510    21862780.773         498.000
        24.000
  -8906178.57948  -6939874.07845  22861355.251    22861352.289         253.000
         8.000
 -13648179.98349 -10634907.90646  22178832.018    22178830.795         419.000
        18.000
 -13693708.51448 -10670411.26646  22857440.316    22857438.933         309.000
        11.000
  -6835909.77148  -5326673.33745  23808185.457    23808185.742         199.000
         4.000
 -15785158.69749 -12300090.58346  22055808.889    22055806.563         465.000
        23.000
 -21511949.13049 -16762534.71247  21258858.114    21258855.688         623.000
        43.000
  -8373336.60948  -6524676.76445  23536394.993    23536392.089         234.000
         6.000
  4  3  1  2 12  0.0000000  0  8G24G17G 4G29G26G 7G10G 5
 -19071439.81549 -14860826.20546  21858280.495    21858278.539         496.000
        24.000
  -8937496.75948  -6964277.83845  22855395.152    22855392.479         253.000
         8.000
 -13643346.99549 -10631141.93646  22179751.434    22179750.375         416.000
        18.000
 -13795375.84648 -10749632.53546  22838093.027    22838091.589         289.000
        10.000
  -6932880.07648  -5402234.57445  23789735.617    23789733.142         205.000
         5.000
 -15701846.01549 -12235171.61346  22071662.654    22071660.521         467.000
        23.000
 -21513211.31249 -16763518.22347  21258617.755    21258615.429         622.000
        43.000
  -8372315.16648  -6523880.83545  23536587.760    23536586.296         232.000
         6.000
  4  3  1  2 12 30.0000000  0  8G24G17G 4G29G26G 7G10G 5
 -19095114.67749 -14879274.14746  21853775.837    21853773.324         494.000
        24.000
  -8968854.31648  -6988712.28345  22849428.524    22849425.379         257.000
         8.000
 -13638461.35949 -10627334.94246  22180681.222    22180679.811         410.000
        19.000
 -13896913.67848 -10828752.90246  22818770.639    22818769.955         297.000
        10.000
  -7029812.95148  -5477766.62945  23771288.316    23771287.254         205.000
         4.000
 -15618224.51349 -12170012.00246  22087575.518    22087573.187         465.000
        23.000
 -21514151.20349 -16764250.59747  21258438.983    21258436.666         623.000
        42.000
  -8370924.05648  -6522796.83945  23536853.443    23536850.689         229.000
         6.000
  4  3  1  2 13  0.0000000  0  8G24G17G 4G29G26G 7G10G 5
 -19118798.58949 -14897729.13846  21849269.123    21849266.342         489.000
        24.000
  -9000245.73848  -7013173.12045  22843454.561    22843451.961         260.000
         8.000
 -13633515.85649 -10623481.30146  22181622.501    22181621.065         413.000
        19.000
 -13998313.19148 -10907765.49546  22799474.770    22799474.175         303.000
        10.000
  -7126700.25048  -5553263.18545  23752851.667    23752850.609         217.000
         5.000
 -15534290.49449 -12104608.87446  22103547.954    22103545.237         459.000
        22.000
 -21514764.63049 -16764728.58947  21258322.392    21258319.952         624.000
        43.000
  -8369158.79748  -6521421.32245  23537188.562    23537187.031         235.000
         6.000
  4  3  1  2 13 30.0000000  0  8G24G17G 4G29G26G 7G10G 5
 -19142491.64649 -14916191.26246  21844760.484    21844757.761         492.000
        24.000
  -9031672.51848  -7037661.50045  22837474.123    22837471.437         259.000
         8.000
 -13628510.28649 -10619580.85746  22182575.072    22182573.479         411.000
        19.000
 -14099572.74248 -10986669.01346  22780206.997    22780205.049         302.000
        11.000
  -7223540.42648  -5628723.04845  23734424.714    23734422.222         212.000
         5.000
 -15450046.97549 -12038964.57846  22119578.866    22119576.225         455.000
        23.000
 -21515054.36649 -16764954.35347  21258266.930    21258264.697         624.000
        43.000
  -8367022.17648  -6519756.40945  23537596.058    23537593.484         234.000
         6.000
  4  3  1  2 14  0.0000000  0  8G24G17G 4G29G26G 7G10G 5
 -19166195.96049 -14934662.15646  21840249.381    21840247.219         500.000
        24.000
  -9063137.73448  -7062179.84045  22831486.310    22831483.902         263.000
         8.000
 -13623446.17049 -10615634.78946  22183538.583    22183537.089         411.000
        18.000
 -14200691.87848 -11065463.12646  22760963.607    22760962.774         300.000
        11.000
  -7320333.58148  -5704146.23545  23716004.194    23716003.212         221.000
         5.000
 -15365498.43849 -11973082.60346  22135667.682    22135665.335         455.000
        22.000
 -21515024.54649 -16764931.11247  21258272.860    21258270.465         624.000
        43.000
  -8364518.47848  -6517805.47345  23538071.654    23538070.139         237.000
         6.000
  4  3  1  2 14 30.0000000  0  8G24G17G 4G29G26G 7G10G 5
 -19189910.46749 -14953140.98946  21835736.842    21835734.408         495.000
        24.000
  -9094641.22648  -7086728.00145  22825492.323    22825488.979         265.000
         8.000
 -13618321.44449 -10611641.49546  22184513.648    22184512.388         413.000
        19.000
 -14301667.06148 -11144145.05646  22741749.953    22741747.922         304.000
        12.000
  -7417076.43348  -5779530.25645  23697596.531    23697593.530         223.000
         5.000
 -15280646.29549 -11906964.05346  22151814.409    22151811.976         447.000
        22.000
 -21514675.86949 -16764659.41147  21258339.124    21258336.770         625.000
        42.000
  -8361648.37848  -6515569.04345  23538617.843    23538616.078         234.000
         6.000
  4  3  1  2 15  0.0000000  0  8G24G17G 4G29G26G 7G10G 5
 -19213635.43149 -14971627.97446  21831221.993    21831219.558         490.000
        24.000
  -9126184.42448  -7111307.10145  22819489.465    22819486.454         268.000
         8.000
 -13613135.76649 -10607600.70946  22185500.826    22185499.415         421.000
        18.000
 -14402496.54548 -11222713.47246  22722562.075    22722560.690         314.000
        12.000
  -7513767.69448  -5854874.06045  23679196.778    23679193.966         219.000
         6.000
 -15195493.77149 -11840611.44446  22168018.611    22168015.939         442.000
        21.000
 -21514011.37049 -16764141.61447  21258465.625    21258463.256         625.000
        43.000
  -8358414.47148  -6513049.09245  23539233.666    23539231.714         234.000
         6.000
  4  3  1  2 15 30.0000000  0  8G24G17G 4G29G26G 7G10G 5
 -19237364.98249 -14990118.52646  21826706.472    21826703.967         491.000
        25.000
  -9157762.88548  -7135913.67745  22813480.065    22813477.154         270.000
         8.000
 -13607882.86649 -10603507.53546  22186500.436    22186498.691         415.000
        19.000
 -14503172.31849 -11301162.09946  22703404.217    22703402.804         323.000
        13.000
  -7610399.75248  -5930171.73145  23660806.369    23660805.184         232.000
         6.000
 -15110037.65949 -11774022.27246  22184280.008    22184277.667         433.000
        21.000
 -21513027.63649 -16763375.06047  21258652.797    21258650.325         620.000
        43.000
  -8354813.60048  -6510243.23045  23539918.733    23539916.862         233.000
         6.000
  4  3  1  2 16  0.0000000  0  8G24G17G 4G29G26G 7G10G 5
 -19261097.54249 -15008611.43546  21822190.097    21822187.896         493.000
        24.000
  -9189376.04448  -7160547.29445  22807463.694    22807461.565         271.000
         8.000
 -13602560.48649 -10599360.22646  22187513.573    22187511.569         418.000
        19.000
 -14603690.59049 -11379488.01146  22684276.141    22684274.489         323.000
        13.000
  -7706968.98748  -6005420.46445  23642430.995    23642429.015         225.000
         6.000
 -15024279.02549 -11707197.36446  22200599.948    22200597.176         434.000
        21.000
 -21511725.04349 -16762360.04547  21258900.559    21258898.264         624.000
        43.000
  -8350846.08648  -6507151.66845  23540674.245    23540672.141         238.000
         5.000
  4  3  1  2 16 30.0000000  0  8G24G17G 4G29G26G 7G10G 5
 -19284837.98749 -15027110.47546  21817672.549    21817670.186         491.000
        24.000
  -9221029.71848  -7185212.47945  22801440.674    22801437.671         263.000
         8.000
 -13597172.62149 -10595161.89046  22188538.584    22188536.735         415.000
        19.000
 -14704054.14349 -11457693.35946  22665177.416    22665176.140         326.000
        13.000
  -7803478.70248  -6080622.80645  23624064.249    23624063.754         237.000
         6.000
 -14938225.51449 -11640142.68446  22216975.244    22216972.559         425.000
        20.000
 -21510111.10949 -16761102.42547  21259207.623    21259205.302         622.000
        42.000
  -8346519.47848  -6503780.27245  23541498.066    23541494.862         228.000
         5.000
  4  3  1  2 17  0.0000000  0  8G24G17G 4G29G26G 7G10G 5
 -19308584.66949 -15045614.38346  21813153.716    21813151.261         488.000
        24.000
  -9252723.67048  -7209909.04845  22795409.359    22795406.959         271.000
         8.000
 -13591717.50849 -10590911.14746  22189576.456    22189575.048         423.000
        19.000
 -14804259.06249 -11535775.09546  22646108.946    22646107.968         336.000
        13.000
  -7899925.35448  -6155776.00845  23605711.550    23605710.133         229.000
         6.000
 -14851878.50249 -11572859.30546  22233406.563    22233403.679         413.000
        20.000
 -21508186.84149 -16759602.98647  21259573.846    21259571.506         624.000
        43.000
  -8341834.51648  -6500129.67045  23542389.320    23542386.421         226.000
         6.000
  4  3  1  2 17 30.0000000  0  8G24G17G 4G29G26G 7G10G 5
 -19332342.64049 -15064127.08246  21808633.111    21808630.305         487.000
        25.000
  -9284463.98348  -7234641.74745  22789369.626    22789366.912         275.000
         8.000
 -13586199.42249 -10586611.33846  22190626.544    22190625.096         421.000
        19.000
 -14904308.21649 -11613735.45446  22627070.203    22627069.176         344.000
        14.000
  -7996312.38148  -6230882.75345  23587369.435    23587368.070         227.000
         6.000
 -14765245.63549 -11505353.17746  22249892.453    22249889.456         408.000
        19.000
 -21505959.47549 -16757867.36847  21259997.687    21259995.520         630.000
        42.000
  -8336798.68348  -6496205.66045  23543346.000    23543344.687         228.000
         5.000
  4  3  1  2 18  0.0000000  0  8G24G17G 4G29G26G 7G10G 5
 -19356089.77149 -15082631.33546  21804113.801    21804111.460         490.000
        24.000
  -9316229.75848  -7259394.28645  22783324.185    22783322.112         276.000
         8.000
 -13580595.77949 -10582244.87046  22191693.211    22191691.510         426.000
        19.000
 -15004177.50249 -11691555.66046  22608065.843    22608064.668         343.000
        14.000
  -8092615.65848  -6305924.24345  23569045.188    23569042.711         242.000
         7.000
 -14678307.71949 -11437609.35146  22266436.314    22266433.103         398.000
        18.000
 -21503409.57649 -16755880.42447  21260483.037    21260480.752         629.000
        43.000
  -8331392.35448  -6491993.09545  23544375.872    23544373.467         227.000
         6.000
  4  3  1  2 18 30.0000000  0  8G24G17G 4G29G26G 7G10G 5
 -19379841.31749 -15101139.03146  21799593.822    21799591.727         495.000
        24.000
  -9348037.18448  -7284179.28145  22777272.022    22777269.207         273.000
         8.000
 -13574920.81549 -10577822.81246  22192772.823    22192771.267         419.000
        19.000
 -15103879.81149 -11769245.75946  22589092.883    22589091.781         337.000
        13.000
  -8188848.69248  -6380910.97645  23550731.629    23550729.712         232.000
         6.000
 -14591082.74849 -11369641.85046  22283034.565    22283031.613         393.000
        19.000
 -21500554.63449 -16753655.78747  21261025.926    21261023.986         630.000
        42.000
  -8325632.99048  -6487505.00745  23545471.143    23545469.523         227.000
         5.000
  4  3  1  2 19  0.0000000  0  8G24G17G 4G29G26G 7G10G 5
 -19403605.64849 -15119656.68946  21795071.745    21795069.308         489.000
        25.000
  -9379895.98548  -7309004.30345  22771210.400    22771206.756         273.000
         8.000
 -13569182.76349 -10573351.60246  22193864.602    22193863.326         421.000
        19.000
 -15203421.68949 -11846810.84546  22570151.427    22570149.828         346.000
        13.000
  -8285018.23448  -6455848.25945  23532431.633    23532429.437         243.000
         6.000
 -14503582.10249 -11301459.53246  22299684.594    22299682.202         383.000
        18.000
 -21497405.41649 -16751201.84147  21261625.191    21261623.383         636.000
        42.000
  -8319531.78348  -6482750.87445  23546633.625    23546630.790         231.000
         6.000
  4  3  1  2 19 30.0000000  0  8G24G17G 4G29G26G 7G10G 5
 -19427376.00149 -15138179.03646  21790548.268    21790546.160         494.000
        25.000
  -9411800.18448  -7333864.70245  22765137.149    22765135.082         272.000
         8.000
 -13563373.88249 -10568825.20146  22194970.278    22194968.627         418.000
        19.000
 -15302793.51749 -11924243.42746  22551240.822    22551239.799         341.000
        13.000
  -8381115.40048  -6530729.13145  23514144.554    23514142.929         237.000
         7.000
 -14415801.47649 -11233059.05046  22316389.487    22316386.371         378.000
        17.000
 -21493957.57649 -16748515.20247  21262281.557    21262279.385         629.000
        42.000
  -8313083.96948  -6477726.61145  23547860.097    23547857.472         228.000
         6.000
  4  3  1  2 20  0.0000000  0  8G24G17G 4G29G26G 7G10G 5
 -19451151.71249 -15156705.56546  21786024.233    21786021.689         490.000
        25.000
  -9443750.38848  -7358760.94545  22759057.521    22759055.655         280.000
         8.000
 -13557493.05949 -10564242.73746  22196089.147    22196087.604         414.000
        19.000
 -15401992.93049 -12001541.65646  22532364.769    22532362.853         347.000
        14.000
  -8477137.90948  -6605551.83345  23495870.702    23495870.458         249.000
         7.000
 -14327743.21749 -11164442.23146  22333145.903    22333143.159         372.000
        17.000
 -21490213.04449 -16745597.37447  21262994.285    21262991.811         621.000
        42.000
  -8306291.53148  -6472433.80345  23549151.902    23549150.431         234.000
         6.000
  4  3  1  2 20 30.0000000  0  8G24G17G 4G29G26G 7G10G 5
 -19474921.90649 -15175227.78846  21781501.078    21781498.291         488.000
        25.000
  -9475736.56148  -7383685.21945  22752971.031    22752968.946         281.000
         8.000
 -13551528.61449 -10559595.11946  22197224.120    22197222.372         408.000
        19.000
 -15501006.72749 -12078695.25146  22513522.443    22513521.212         350.000
        13.000
  -8573072.95548  -6680306.39345  23477617.083    23477614.813         247.000
         7.000
 -14239399.43249 -11095602.92946  22349957.271    22349954.496         373.000
        16.000
 -21486163.20049 -16742441.64347  21263764.787    21263762.450         622.000
        42.000
  -8299146.07448  -6466865.92045  23550512.847    23550510.088         230.000
         6.000
  4  3  1  2 21  0.0000000  0  8G24G17G 4G29G26G 7G10G 5
 -19498684.38649 -15193744.00146  21776979.246    21776976.522         487.000
        25.000
  -9507758.28248  -7408637.19545  22746877.580    22746875.102         280.000
         8.000
 -13545478.48149 -10554880.72646  22198375.330    22198373.992         415.000
        18.000
 -15599831.22849 -12155701.34846  22494716.996    22494715.340         343.000
        13.000
  -8668917.24548  -6754990.22245  23459378.645    23459376.347         251.000
         7.000
 -14150771.07149 -11026541.87646  22366822.883    22366820.138         379.000
        17.000
 -21481809.05049 -16739048.79247  21264593.453    21264591.133         626.000
        42.000
  -8291648.45748  -6461023.59945  23551939.464    23551936.709         225.000
         6.000
  4  3  1  2 21 30.0000000  0  8G24G17G 4G29G26G 7G10G 5
 -19522443.92849 -15212257.92746  21772457.777    21772455.113         484.000
        25.000
  -9539821.31648  -7433621.36045  22740776.721    22740773.895         285.000
         9.000
 -13539346.52349 -10550102.57246  22199541.997    22199540.966         417.000
        18.000
 -15698468.78549 -12232561.76746  22475946.478    22475945.050         347.000
        14.000
  -8764673.57048  -6829605.51145  23441156.678    23441153.820         240.000
         7.000
 -14061865.76949 -10957265.02146  22383740.967    22383738.152         379.000
        16.000
 -21477157.81249 -16735424.44647  21265478.287    21265476.050         620.000
        42.000
  -8283806.11048  -6454912.68445  23553430.497    23553429.001         226.000
         5.000
  4  3  1  2 22  0.0000000  0  8G24G17G 4G29G26G 7G10G 5
 -19546205.44249 -15230773.38946  21767936.084    21767933.339         481.000
        25.000
  -9571931.53848  -7458642.30245  22734665.678    22734663.483         288.000
         9.000
 -13533137.08549 -10545264.04946  22200724.015    22200722.403         412.000
        18.000
 -15796922.12049 -12309278.64046  22457211.211    22457210.292         361.000
        15.000
  -8860345.03248  -6904154.67345  23422950.509    23422948.250         253.000
         7.000
 -13972691.31849 -10887778.44046  22400710.464    22400707.695         386.000
        17.000
 -21472216.79949 -16731574.29747  21266418.813    21266416.450         625.000
        41.000
  -8275626.37748  -6448538.86445  23554986.899    23554985.465         222.000
         5.000
  4  3  1  2 22 30.0000000  0  8G24G17G 4G29G26G 7G10G 5
 -19569958.40149 -15249282.18346  21763415.927    21763413.261         478.000
        25.000
  -9604079.61548  -7483692.73445  22728548.134    22728545.924         290.000
         9.000
 -13526839.07349 -10540356.50846  22201922.428    22201920.754         409.000
        18.000
 -15895178.52649 -12385842.07246  22438514.127    22438512.685         362.000
        15.000
  -8955919.16048  -6978627.98545  23404763.618    23404760.898         250.000
         7.000
 -13883240.06049 -10818076.16646  22417732.196    22417729.451         384.000
        17.000
 -21466978.17949 -16727492.24247  21267415.280    21267413.205         619.000
        41.000
  -8267101.01648  -6441895.74045  23556609.108    23556607.815         223.000
         6.000
  4  3  1  2 23  0.0000000  0  8G24G17G 4G29G26G 7G10G 5
 -19593713.20349 -15267792.41546  21758895.620    21758893.076         486.000
        25.000
  -9636276.91348  -7508781.51445  22722421.576    22722418.913         287.000
         9.000
 -13520462.49149 -10535387.74746  22203135.992    22203134.391         414.000
        18.000
 -15993246.75349 -12462258.86246  22419852.383    22419850.724         360.000
        16.000
  -9051405.00448  -7053032.52245  23386592.999    23386590.958         259.000
         7.000
 -13793525.59149 -10748168.79346  22434804.492    22434801.687         388.000
        17.000
 -21461454.93749 -16723188.40847  21268466.462    21268464.206         620.000
        41.000
  -8258243.62548  -6434993.86245  23558294.124    23558293.183         220.000
         6.000
  4  3  1  2 23 30.0000000  0  8G24G17G 4G29G26G 7G10G 5
 -19617461.59749 -15286297.65546  21754376.374    21754373.647         478.000
        25.000
  -9668516.73748  -7533903.43245  22716286.673    22716283.853         289.000
         9.000
 -13513998.39749 -10530350.78446  22204365.739    22204364.443         416.000
        17.000
 -16091116.43349 -12538520.93446  22401228.779    22401226.774         366.000
        16.000
  -9146792.59248  -7127360.49045  23368441.311    23368439.106         254.000
         7.000
 -13703542.86849 -10678052.39746  22451927.056    22451924.777         388.000
        17.000
 -21455641.53449 -16718658.47247  21269572.514    21269570.483         624.000
        41.000
  -8249048.56348  -6427828.86545  23560044.658    23560042.932         217.000
         5.000
  4  3  1  2 24  0.0000000  0  8G24G17G 4G29G26G 7G10G 5
 -19641203.15649 -15304797.56846  21749858.845    21749856.118         490.000
        25.000
  -9700799.48948  -7559058.81545  22710143.157    22710140.770         291.000
         9.000
 -13507445.91949 -10525244.94946  22205612.765    22205611.415         417.000
        18.000
 -16188784.83549 -12614626.16946  22382642.356    22382640.953         370.000
        16.000
  -9242079.74948  -7201610.17645  23350308.316    23350306.720         264.000
         7.000
 -13613294.15349 -10607728.72746  22469100.895    22469098.576         388.000
        17.000
 -21449539.86249 -16713903.91347  21270733.679    21270731.614         621.000
        41.000
  -8239517.74948  -6420402.27245  23561858.468    23561856.330         212.000
         5.000
  4  3  1  2 24 30.0000000  0  8G24G17G 4G29G26G 7G10G 5
 -19664946.45449 -15323298.83746  21745340.381    21745337.643         481.000
        25.000
  -9733134.98448  -7584255.29045  22703989.777    22703987.820         298.000
         9.000
 -13500813.21149 -10520076.59346  22206874.707    22206873.435         414.000
        18.000
 -16286258.79049 -12690579.89046  22364093.983    22364092.576         379.000
        17.000
  -9337273.43448  -7275787.06145  23332193.718    23332191.971         268.000
         7.000
 -13522791.18649 -10537206.93546  22486323.595    22486320.904         392.000
        17.000
 -21443161.34649 -16708933.63347  21271947.600    21271945.428         622.000
        41.000
  -8229662.95948  -6412723.20645  23563734.136    23563732.037         217.000
         6.000
  4  3  1  2 25  0.0000000  0  8G24G17G 4G29G26G 7G10G 5
 -19688678.34149 -15341791.21546  21740823.817    21740821.643         483.000
        25.000
  -9765511.44148  -7609483.69246  22697829.247    22697826.593         296.000
        10.000
 -13494086.61549 -10514835.10346  22208155.376    22208153.539         416.000
        22.000
 -16383523.20349 -12766370.32946  22345584.608    22345583.414         369.000
        16.000
  -9432359.06548  -7349879.73645  23314098.738    23314097.651         272.000
         7.000
 -13432024.21749 -10466479.42846  22503595.897    22503593.486         393.000
        17.000
 -21436496.14649 -16703739.96747  21273215.999    21273213.787         621.000
        42.000
  -8219474.06848  -6404783.80245  23565672.779    23565670.601         213.000
         5.000
  4  3  1  2 25 30.0000000  0  8G24G17G 4G29G26G 7G10G 5
 -19712390.07549 -15360267.89146  21736312.350    21736309.705         492.000
        26.000
  -9797920.79448  -7634737.72345  22691662.018    22691659.287         293.000
         9.000
 -13487256.82649 -10509513.22546  22209454.229    22209453.292         421.000
        17.000
 -16480567.04349 -12841988.88646  22327118.356    22327116.731         371.000
        17.000
  -9527325.78848  -7423879.75745  23296027.570    23296026.217         273.000
         7.000
 -13340987.09649 -10395541.42146  22520918.565    22520916.938         382.000
        16.000
 -21429537.81649 -16698317.87347  21274539.967    21274537.871         619.000
        41.000
  -8208944.78748  -6396579.18145  23567675.392    23567674.741         217.000
         5.000
  4  3  1  2 26  0.0000000  0  8G24G17G 4G29G26G 7G10G 5
 -19736096.11849 -15378740.12746  21731800.861    21731798.412         487.000
        26.000
  -9830379.08648  -7660029.88445  22685484.452    22685482.645         292.000
         9.000
 -13480337.94849 -10504121.87946  22210771.426    22210769.805         419.000
        18.000
 -16577403.02849 -12917445.48746  22308690.614    22308689.382         370.000
        17.000
  -9622186.83748  -7497797.42945  23277975.864    23277974.451         277.000
         8.000
 -13249697.65649 -10324406.79746  22538291.558    22538288.496         374.000
        17.000
 -21422303.51249 -16692680.74747  21275916.612    21275914.588         624.000
        41.000
  -8198092.44848  -6388122.80745  23569741.136    23569739.576         215.000
         5.000
  4  3  1  2 26 30.0000000  0  8G24G17G 4G29G26G 7G10G 5
 -19759798.21849 -15397209.29646  21727290.714    21727288.157         490.000
        25.000
  -9862888.93648  -7685362.22845  22679299.276    22679296.120         290.000
         9.000
 -13473331.06549 -10498661.96046  22212104.414    22212103.231         424.000
        18.000
 -16674030.80449 -12992739.84746  22290303.669    22290302.049         378.000
        17.000
  -9716942.05748  -7571632.64945  23259945.253    23259943.423         285.000
         8.000
 -13158160.71249 -10253079.31646  22555710.111    22555707.761         379.000
        16.000
 -21414797.71849 -16686832.06947  21277344.985    21277342.755         619.000
        41.000
  -8186921.72148  -6379418.35945  23571867.066    23571865.665         217.000
         5.000
  4  3  1  2 27  0.0000000  0  8G24G17G 4G29G26G 7G10G 5
 -19783488.15049 -15415668.97846  21722782.750    21722779.938         484.000
        25.000
  -9895443.13548  -7710729.10745  22673104.288    22673101.311         292.000
         9.000
 -13466227.30849 -10493126.56646  22213456.051    22213455.110         428.000
        18.000
 -16770440.10749 -13067863.96546  22271957.058    22271955.576         372.000
        17.000
  -9811581.56548  -7645377.70345  23241935.623    23241933.645         280.000
         8.000
 -13066371.07749 -10181554.93346  22573177.707    22573174.816         375.000
        16.000
 -21407014.76849 -16680767.42847  21278825.777    21278823.681         613.000
        41.000
  -8175426.93648  -6370461.36745  23574054.531    23574052.994         215.000
         5.000
  4  3  1  2 27 30.0000000  0  8G24G17G 4G29G26G 7G10G 5
 -19807166.83349 -15434119.89846  21718276.578    21718274.282         493.000
        25.000
  -9928044.20948  -7736132.54345  22666900.457    22666897.463         291.000
         9.000
 -13459027.64949 -10487516.43946  22214826.717    22214825.245         429.000
        18.000
 -16866630.02549 -13142817.13646  22253652.589    22253651.112         370.000
        16.000
  -9906104.94448  -7719032.26545  23223948.195    23223946.652         284.000
         8.000
 -12974332.98749 -10109836.94646  22590690.970    22590688.594         360.000
        16.000
 -21398958.69049 -16674489.96047  21280359.018    21280356.708         616.000
        42.000
  -8163612.37248  -6361255.24045  23576301.873    23576301.316         217.000
         5.000
  4  3  1  2 28  0.0000000  0  8G24G17G 4G29G26G 7G10G 5
 -19830835.89249 -15452563.32146  21713772.618    21713770.117         494.000
        25.000
  -9960694.62648  -7761574.41545  22660686.438    22660684.029         281.000
         9.000
 -13451732.92649 -10481832.23946  22216213.935    22216213.223         428.000
        18.000
 -16962600.21249 -13217599.08546  22235390.490    22235388.741         378.000
        18.000
 -10000512.07948  -7792596.24945  23205984.615    23205981.677         293.000
         8.000
 -12882051.19249 -10037929.06646  22608252.054    22608249.566         362.000
        15.000
 -21390633.62049 -16668002.89047  21281943.286    21281941.032         623.000
        42.000
  -8151482.54148  -6351803.42045  23578611.782    23578609.055         209.000
         5.000
  4  3  1  2 28 30.0000000  0  8G24G17G 4G29G26G 7G10G 5
 -19854490.57749 -15470995.53846  21709271.457    21709268.720         491.000
        26.000
  -9993390.57548  -7787051.76945  22654465.040    22654462.009         278.000
         9.000
 -13444337.62249 -10476069.66646  22217621.603    22217620.527         428.000
        18.000
 -17058343.77449 -13292204.44846  22217170.293    22217169.313         383.000
        17.000
 -10094796.42448  -7866064.55245  23188041.578    23188039.801         289.000
         8.000
 -12789523.98249  -9965829.94846  22625859.713    22625856.927         359.000
        15.000
 -21382037.46549 -16661304.57747  21283578.906    21283576.922         629.000
        42.000
  -8139034.93948  -6342103.99745  23580979.963    23580977.830         209.000
         5.000
  4  3  1  2 29  0.0000000  0  8G24G17G 4G29G26G 7G10G 5
 -19878131.86349 -15489417.31046  21704772.486    21704769.834         490.000
        26.000
 -10026134.36048  -7812566.39446  22648234.156    22648231.515         288.000
        10.000
 -13436842.60149 -10470229.38346  22219048.077    22219046.796         428.000
        18.000
 -17153859.89949 -13366632.58446  22198994.384    22198993.334         392.000
        17.000
 -10188957.55048  -7939436.83745  23170122.887    23170121.762         300.000
         9.000
 -12696755.63749  -9893542.93046  22643512.805    22643509.890         348.000
        15.000
 -21373174.51149 -16654398.37547  21285265.537    21285263.421         628.000
        42.000
  -8126274.04748  -6332160.44045  23583407.876    23583406.220         206.000
         5.000
  4  3  1  2 29 30.0000000  0  8G24G17G 4G29G26G 7G10G 5
 -19901748.67249 -15507820.01546  21700278.554    21700275.732         490.000
        26.000
 -10058916.14748  -7838110.62646  22641996.406    22641993.104         289.000
        10.000
 -13429236.52449 -10464302.57446  22220495.937    22220494.025         422.000
        18.000
 -17249135.91149 -13440873.62946  22180864.672    22180863.062         401.000
        19.000
 -10282982.97148  -8012703.37145  23152230.312    23152229.041         289.000
         9.000
 -12603738.48349  -9821062.04646  22661212.780    22661210.404         344.000
        14.000
 -21364036.49949 -16647277.84247  21287004.568    21287002.375         629.000
        42.000
  -8113191.91548  -6321966.57345  23585897.308    23585895.866         213.000
         5.000
  4  3  1  2 30  0.0000000  0  8G24G17G 4G29G26G 7G10G 5
 -19925346.72949 -15526208.11046  21695788.100    21695785.247         493.000
        26.000
 -10091742.88148  -7863689.89346  22635750.107    22635746.723         294.000
        11.000
 -13421524.63249 -10458293.30946  22221963.019    22221961.599         422.000
        18.000
 -17344175.48649 -13514930.42746  22162778.681    22162777.678         409.000
        18.000
 -10376876.81248  -8085867.39845  23134363.428    23134361.843         294.000
         9.000
 -12510481.44349  -9748394.22746  22678960.004    22678956.911         345.000
        14.000
 -21354631.97949 -16639949.64147  21288794.225    21288791.941         628.000
        42.000
  -8099797.31848  -6311529.23145  23588447.633    23588444.771         212.000
         5.000
  4  3  1  2 30 30.0000000  0  8G24G17G 4G29G26G 7G10G 5
 -19948921.25049 -15544577.86046  21691301.391    21691299.056         493.000
        26.000
 -10124610.64048  -7889301.11246  22629495.307    22629491.820         288.000
        10.000
 -13413701.41349 -10452197.29346  22223451.975    22223450.336         420.000
        18.000
 -17438971.79849 -13588797.67546  22144739.488    22144738.414         416.000
        19.000
 -10470632.54748  -8158923.79945  23116521.795    23116520.271         289.000
         9.000
 -12416982.77149  -9675538.12846  22696752.184    22696749.237         345.000
        14.000
 -21344958.81749 -16632412.10347  21290634.784    21290632.766         632.000
        42.000
  -8086088.42048  -6300846.97145  23591055.118    23591052.889         203.000
         5.000
  4  3  1  2 31  0.0000000  0  8G24G17G 4G29G26G 7G10G 5
 -19972468.09249 -15562926.04646  21686820.896    21686818.334         497.000
        26.000
 -10157516.31948  -7914941.89046  22623232.941    22623229.958         283.000
        10.000
 -13405762.23449 -10446010.92146  22224962.314    22224961.184         421.000
        18.000
 -17533518.86549 -13662470.70446  22126747.955    22126746.705         418.000
        19.000
 -10564244.52148  -8231868.17345  23098708.618    23098706.620         290.000
         9.000
 -12323241.48349  -9602492.97746  22714590.537    22714587.395         338.000
        14.000
 -21335015.68449 -16624664.19647  21292527.094    21292524.917         633.000
        42.000
  -8072063.91248  -6289918.81445  23593724.079    23593721.686         206.000
         5.000
  4  3  1  2 31 30.0000000  0  8G24G17G 4G29G26G 7G10G 5
 -19996003.68749 -15581265.47046  21682342.127    21682339.678         498.000
        26.000
 -10190477.92548  -7940626.24346  22616960.566    22616957.539         286.000
        10.000
 -13397723.45149 -10439746.93846  22226492.159    22226490.655         414.000
        18.000
 -17627831.42349 -13735961.00346  22108800.966    22108799.533         413.000
        19.000
 -10657727.70948  -8304712.19145  23080919.758    23080917.094         279.000
         9.000
 -12229277.63749  -9529274.40546  22732470.847    22732468.022         334.000
        13.000
 -21324822.10649 -16616721.14347  21294466.754    21294464.612         629.000
        41.000
  -8057743.48548  -6278760.03745  23596448.642    23596447.481         217.000
         5.000
  4  3  1  2 32  0.0000000  0  8G24G17G 4G29G26G 7G10G 5
 -20019522.51149 -15599591.82046  21677866.803    21677864.348         504.000
        26.000
 -10223491.05048  -7966350.74746  22610678.141    22610675.474         289.000
        10.000
 -13389579.07449 -10433400.66846  22228041.796    22228040.585         414.000
        18.000
 -17721902.16949 -13809262.87946  22090899.678    22090898.474         412.000
        19.000
 -10751075.22548  -8377450.49845  23063155.688    23063153.625         287.000
         9.000
 -12135089.01449  -9455880.68246  22750394.390    22750391.568         330.000
        13.000
 -21314375.69049 -16608581.07147  21296454.663    21296452.511         630.000
        42.000
  -8043124.65348  -6267368.73945  23599231.591    23599229.298         219.000
         5.000
  4  3  1  2 32 30.0000000  0  8G24G17G 4G29G26G 7G10G 5
 -20043021.28849 -15617902.55046  21673395.202    21673392.588         502.000
        26.000
 -10256553.45348  -7992113.64546  22604387.589    22604383.560         281.000
        10.000
 -13381325.52949 -10426969.34246  22229612.695    22229611.371         419.000
        18.000
 -17815726.07449 -13882372.40146  22073045.776    22073044.513         415.000
        19.000
 -10844282.38648  -8450079.43345  23045418.990    23045417.208         292.000
         9.000
 -12040675.62149  -9382311.81146  22768360.722    22768358.079         331.000
        13.000
 -21303676.17549 -16600243.77947  21298490.683    21298488.457         627.000
        42.000
  -8028207.26148  -6255744.82145  23602069.506    23602067.483         211.000
         4.000
  4  3  1  2 33  0.0000000  0  8G24G17G 4G29G26G 7G10G 5
 -20066493.97549 -15636192.95446  21668928.474    21668925.702         497.000
        26.000
 -10289660.28248  -8017911.15946  22598087.584    22598083.601         278.000
        10.000
 -13372956.22949 -10420447.80746  22231205.204    22231203.876         417.000
        18.000
 -17909294.96049 -13955283.21246  22055240.560    22055238.873         412.000
        20.000
 -10937341.43748  -8522592.95545  23027710.276    23027708.477         290.000
         9.000
 -11946034.76849  -9308565.70246  22786370.465    22786367.736         331.000
        13.000
 -21292720.01449 -16591706.50347  21300575.786    21300573.661         640.000
        42.000
  -8012988.76948  -6243886.25145  23604966.707    23604963.578         213.000
         4.000
  4  3  1  2 33 30.0000000  0  8G24G17G 4G29G26G 7G10G 5
 -20089932.09949 -15654456.42446  21664468.163    21664465.742         503.000
        26.000
 -10322803.64348  -8043737.13746  22591779.369    22591776.257         274.000
        10.000
 -13364462.08349 -10413828.99446  22232821.600    22232820.474         423.000
        18.000
 -18002598.30349 -14027987.10846  22037484.665    22037483.454         399.000
        20.000
 -11030242.00748  -8594982.98745  23010031.800    23010030.311         300.000
         9.000
 -11851160.99649  -9234638.09746  22804423.999    22804421.439         326.000
        13.000
 -21281501.46649 -16582964.76947  21302710.346    21302708.286         634.000
        42.000
  -7997463.33948  -6231788.51545  23607921.042    23607917.926         217.000
         5.000
  4  3  1  2 34  0.0000000  0  8G24G17G 4G29G26G 7G10G 5
 -20113342.45749 -15672698.26146  21660012.939    21660010.756         500.000
        26.000
 -10355992.18448  -8069598.32346  22585464.253    22585461.017         280.000
        10.000
 -13355850.19849 -10407118.43246  22234460.755    22234459.062         417.000
        18.000
 -18095641.80449 -14100488.52746  22019779.669    22019778.060         401.000
        20.000
 -11122990.10548  -8667254.21446  22992382.411    22992380.486         294.000
        10.000
 -11756064.87049  -9160537.21946  22822520.489    22822517.785         325.000
        12.000
 -21270030.73249 -16574026.52947  21304893.386    21304891.153         634.000
        43.000
  -7981641.47248  -6219459.79445  23610932.126    23610928.729         223.000
         5.000
  4  3  1  2 34 30.0000000  0  8G24G17G 4G29G26G 7G10G 5
 -20136728.58349 -15690921.20946  21655563.370    21655560.695         505.000
        26.000
 -10389230.29648  -8095498.14846  22579138.968    22579136.145         284.000
        10.000
 -13347123.24149 -10400318.20946  22236120.887    22236119.798         420.000
        18.000
 -18188427.06949 -14172788.72546  22002123.206    22002121.553         400.000
        20.000
 -11215587.57248  -8739408.04046  22974761.747    22974759.865         299.000
        10.000
 -11660753.31848  -9086268.48846  22840657.871    22840654.716         316.000
        11.000
 -21258314.55649 -16564897.03247  21307122.882    21307120.611         632.000
        42.000
  -7965529.70448  -6206905.18245  23613998.491    23613995.099         228.000
         5.000
  4  3  1  2 35  0.0000000  0  8G24G17G 4G29G26G 7G10G 5
 -20160098.45549 -15709131.49146  21651115.852    21651113.357         498.000
        26.000
 -10422527.17148  -8121443.74646  22572803.110    22572799.926         287.000
        10.000
 -13338288.97749 -10393434.37146  22237802.083    22237800.920         421.000
        18.000
 -18280960.18549 -14244892.43946  21984515.026    21984513.195         409.000
        22.000
 -11308040.94548  -8811449.62746  22957168.673    22957166.712         315.000
        14.000
 -11565237.60748  -9011840.66746  22858833.950    22858830.865         315.000
        12.000
 -21246363.82349 -16555584.76947  21309396.999    21309394.739         629.000
        42.000
  -7949139.23748  -6194133.39645  23617115.600    23617113.856         227.000
         5.000
  4  3  1  2 35 30.0000000  0  8G24G17G 4G29G26G 7G10G 5
 -20183442.88049 -15727321.95546  21646673.751    21646671.149         503.000
        26.000
 -10455874.55248  -8147428.71546  22566457.499    22566454.263         293.000
        11.000
 -13329337.52449 -10386459.21646  22239505.970    22239504.307         422.000
        18.000
 -18373230.01949 -14316791.00046  21966956.149    21966954.795         411.000
        21.000
 -11400339.57148  -8883370.68945  22939604.559    22939602.727         310.000
         9.000
 -11469511.70548  -8937249.06646  22877049.658    22877046.813         308.000
        11.000
 -21234172.09149 -16546084.71047  21311717.075    21311714.852         631.000
        42.000
  -7932463.73448  -6181139.49145  23620288.981    23620287.525         234.000
         5.000
  4  3  1  2 36  0.0000000  0  8G24G17G 4G29G26G 7G10G 5
 -20206750.39749 -15745483.65146  21642238.446    21642235.854         502.000
        27.000
 -10489262.24748  -8173445.08446  22560103.479    22560100.727         296.000
        11.000
 -13320257.31349 -10379383.72546  22241233.716    22241232.101         420.000
        18.000
 -18465223.48549 -14388474.20946  21949450.515    21949448.840         410.000
        21.000
 -11492470.41749  -8955160.92046  22922072.546    22922071.130         322.000
        10.000
 -11373567.67948  -8862487.49946  22895307.594    22895304.417         307.000
        11.000
 -21221731.22249 -16536390.51847  21314084.586    21314082.190         628.000
        42.000
  -7915495.47348  -6167917.45845  23623518.092    23623516.313         226.000
         5.000
  4  3  1  2 36 30.0000000  0  8G24G17G 4G29G26G 7G10G 5
 -20230014.28749 -15763611.35546  21637811.412    21637808.952         509.000
        27.000
 -10522684.50948  -8199488.39446  22553743.604    22553740.589         295.000
        11.000
 -13311041.57849 -10372202.63546  22242987.117    22242985.913         421.000
        18.000
 -18556932.13549 -14459935.48646  21931999.030    21931997.427         422.000
        21.000
 -11584425.43649  -9026814.16046  22904574.284    22904572.696         327.000
        10.000
 -11277402.39848  -8787553.52046  22913607.409    22913604.131         309.000
        11.000
 -21209037.25949 -16526499.10547  21316500.006    21316497.657         621.000
        42.000
  -7898230.91148  -6154464.55645  23626803.187    23626801.342         225.000
         5.000
  4  3  1  2 37  0.0000000  0  8G24G17G 4G29G26G 7G10G 5
 -20253249.29149 -15781716.54746  21633389.923    21633387.463         506.000
        27.000
 -10556157.61448  -8225571.31646  22547373.760    22547370.968         298.000
        11.000
 -13301704.34849 -10364926.87146  22244763.975    22244762.823         423.000
        18.000
 -18648369.33849 -14531185.24946  21914599.098    21914597.452         428.000
        22.000
 -11676218.27149  -9098341.03246  22887106.068    22887104.825         329.000
        10.000
 -11181034.19448  -8712461.41846  22931945.967    22931942.414         306.000
        12.000
 -21196108.42649 -16516424.68147  21318960.384    21318957.916         619.000
        41.000
  -7880688.54148  -6140795.18245  23630141.868    23630139.862         226.000
         5.000
  4  3  1  2 37 30.0000000  0  8G24G17G 4G29G26G 7G10G 5
 -20276446.16749 -15799792.03246  21628975.565    21628973.257         510.000
        27.000
 -10589673.33748  -8251687.46046  22540996.541    22540993.250         303.000
        11.000
 -13292236.24249 -10357549.13246  22246566.321    22246564.581         423.000
        18.000
 -18739524.04249 -14602214.88646  21897252.520    21897251.339         434.000
        21.000
 -11767838.02249  -9169733.02646  22869672.354    22869670.260         326.000
        11.000
 -11084457.13848  -8637206.58046  22950324.003    22950320.558         306.000
        11.000
 -21182938.72549 -16506162.57047  21321466.306    21321463.982         618.000
        41.000
  -7862862.07248  -6126904.42945  23633534.613    23633531.757         222.000
         5.000
  4  3  1  2 38  0.0000000  0  8G24G17G 4G29G26G 7G10G 5
 -20299601.37249 -15817835.04646  21624569.629    21624567.081         515.000
        27.000
 -10623229.14048  -8277834.82746  22534610.766    22534607.674         303.000
        11.000
 -13282633.49849 -10350066.47946  22248393.384    22248392.028         428.000
        18.000
 -18830390.84449 -14673020.18146  21879961.353    21879959.638         428.000
        22.000
 -11859279.67349  -9240986.24446  22852270.404    22852269.270         332.000
        10.000
 -10987671.09348  -8561788.88646  22968742.010    22968738.197         301.000
        11.000
 -21169527.14749 -16495711.98247  21324018.326    21324016.245         620.000
        41.000
  -7844751.26048  -6112792.11845  23636980.408    23636978.377         224.000
         5.000
  4  3  1  2 38 30.0000000  0  8G24G17G 4G29G26G 7G10G 5
 -20322725.79649 -15835854.07046  21620169.229    21620166.528         513.000
        28.000
 -10656837.22848  -8304022.93746  22528214.731    22528212.378         308.000
        10.000
 -13272906.62549 -10342487.10546  22250244.557    22250242.899         428.000
        18.000
 -18920979.20149 -14743608.50246  21862723.142    21862721.326         434.000
        23.000
 -11950553.02349  -9312108.33246  22834901.861    22834900.677         333.000
        10.000
 -10890690.53748  -8486219.63446  22987195.743    22987192.810         298.000
        10.000
 -21155887.94249 -16485084.02147  21326613.998    21326611.606         616.000
        41.000
  -7826370.22248  -6098469.21945  23640477.659    23640476.075         221.000
         5.000
  4  3  1  2 39  0.0000000  0  8G24G17G 4G29G26G 7G10G 5
 -20345819.63049 -15853849.26146  21615774.506    21615771.811         509.000
        28.000
 -10690498.48548  -8330252.48046  22521808.942    22521806.845         307.000
        10.000
 -13263055.25149 -10334810.71246  22252118.425    22252117.421         421.000
        18.000
 -19011287.26849 -14813978.41846  21845537.811    21845536.506         450.000
        24.000
 -12041656.53449  -9383098.06646  22817565.404    22817564.038         325.000
        11.000
 -10793519.06348  -8410501.61246  23005687.347    23005683.932         296.000
        11.000
 -21142024.23549 -16474281.12847  21329252.030    21329249.781         613.000
        40.000
  -7807722.53048  -6083938.55645  23644026.979    23644024.859         227.000
         5.000
  4  3  1  2 39 30.0000000  0  8G24G17G 4G29G26G 7G10G 5
 -20368871.78849 -15871811.97446  21611387.910    21611385.281         518.000
        28.000
 -10724203.01648  -8356515.74246  22515395.920    22515393.103         308.000
        11.000
 -13253068.25649 -10327028.63946  22254019.084    22254017.989         425.000
        18.000
 -19101302.49649 -14884120.15046  21828408.646    21828407.245         452.000
        25.000
 -12132577.91049  -9453945.87946  22800263.948    22800262.534         334.000
        11.000
 -10696149.00748  -8334628.85246  23024216.237    23024212.594         290.000
        10.000
 -21127927.96549 -16463297.01147  21331934.686    21331932.248         615.000
        41.000
  -7788800.69648  -6069194.27745  23647627.884    23647625.277         217.000
         5.000
  4  3  1  2 40  0.0000000  0  8G24G17G 4G29G26G 7G10G 5
 -20391883.42749 -15889743.11546  21607008.936    21607006.475         526.000
        28.000
 -10757953.41648  -8382814.74346  22508973.131    22508970.754         313.000
        11.000
 -13242946.51249 -10319141.56946  22255944.787    22255943.916         421.000
        18.000
 -19191024.52249 -14954033.41046  21811335.191    21811333.591         450.000
        25.000
 -12223317.22449  -9524651.82046  22782997.239    22782995.221         330.000
        11.000
 -10598585.28348  -8258605.18046  23042781.502    23042778.701         295.000
        11.000
 -21113603.65449 -16452135.20147  21334660.472    21334658.004         610.000
        41.000
  -7769609.54948  -6054240.15845  23651279.012    23651277.623         222.000
         5.000
  4  3  1  2 40 30.0000000  0  8G24G17G 4G29G26G 7G10G 5
 -20414842.42549 -15907633.23946  21602639.681    21602637.264         521.000
        29.000
 -10791738.52548  -8409140.79746  22502543.797    22502541.404         313.000
        11.000
 -13232677.56649 -10311139.80046  22257899.578    22257898.250         427.000
        18.000
 -19280439.47549 -15023707.39146  21794320.165    21794318.594         457.000
        26.000
 -12313860.73649  -9595205.19546  22765767.904    22765765.273         329.000
        11.000
 -10500819.10448  -8182423.75146  23061385.986    23061382.859         292.000
        11.000
 -21099042.11549 -16440788.54247  21337431.232    21337428.925         602.000
        40.000
  -7750140.09748  -6039069.16245  23654984.357    23654982.079         215.000
         5.000
  4  3  1  2 41  0.0000000  0  8G24G17G 4G29G26G 7G10G 5
 -20437762.83749 -15925493.29246  21598278.428    21598275.804         526.000
        28.000
 -10825573.72149  -8435505.87346  22496105.543    22496102.797         319.000
        11.000
 -13222275.54749 -10303034.33446  22259878.969    22259877.609         426.000
        18.000
 -19369560.21949 -15093152.11846  21777360.872    21777359.482         466.000
        26.000
 -12404221.56949  -9665616.21946  22748571.664    22748570.391         334.000
        11.000
 -10402868.43448  -8106098.56346  23080025.806    23080022.768         301.000
        10.000
 -21084261.07049 -16429270.83447  21340243.811    21340241.611         600.000
        40.000
  -7730410.44648  -6023695.40545  23658737.778    23658737.172         221.000
         5.000
  4  3  1  2 41 30.0000000  0  8G24G17G 4G29G26G 7G10G 5
 -20460633.67449 -15943314.71846  21593925.933    21593923.504         525.000
        29.000
 -10859448.90349  -8461902.10546  22489659.209    22489656.647         324.000
        12.000
 -13211729.04249 -10294816.28246  22261885.710    22261884.502         425.000
        18.000
 -19458373.80849 -15162357.50446  21760460.324    21760458.845         471.000
        27.000
 -12494387.13549  -9735875.09046  22731414.389    22731412.321         330.000
        11.000
 -10304725.49648  -8029623.55246  23098700.899    23098698.681         296.000
        10.000
 -21069252.37149 -16417575.73447  21343099.986    21343097.700         604.000
        39.000
  -7710412.51548  -6008112.58945  23662544.288    23662542.182         214.000
         5.000
  4  3  1  2 42  0.0000000  0  8G24G17G 4G29G26G 7G10G 5
 -20483466.35849 -15961106.41746  21589581.161    21589578.637         528.000
        29.000
 -10893376.63949  -8488339.29746  22483203.253    22483200.437         326.000
        12.000
 -13201048.75949 -10286493.98646  22263918.317    22263917.005         428.000
        18.000
 -19546890.14849 -15231331.27146  21743616.107    21743614.710         472.000
        27.000
 -12584367.48049  -9805989.63046  22714291.082    22714289.644         333.000
        12.000
 -10206405.37648  -7953010.48446  23117411.584    23117408.385         295.000
        10.000
 -21054030.50649 -16405714.52947  21345996.499    21345994.253         601.000
        40.000
  -7690161.16148  -5992332.31545  23666399.369    23666395.790         210.000
         5.000
  4  3  1  2 42 30.0000000  0  8G24G17G 4G29G26G 7G10G 5
 -20506253.47349 -15978862.60046  21585244.840    21585242.412         531.000
        30.000
 -10927350.54849  -8514812.46746  22476738.516    22476735.641         333.000
        12.000
 -13190227.55249 -10278061.88146  22265977.062    22265975.984         424.000
        18.000
 -19635100.31049 -15300066.45246  21726830.220    21726828.874         473.000
        27.000
 -12674154.04749  -9875953.17646  22697205.618    22697203.726         336.000
        13.000
 -10107904.39148  -7876256.48145  23136154.382    23136152.655         294.000
         9.000
 -21038591.50249 -16393684.12647  21348934.410    21348932.362         605.000
        39.000
  -7669652.95348  -5976351.88745  23670301.490    23670298.484         208.000
         5.000
  4  3  1  2 43  0.0000000  0  8G24G17G 4G29G26G 7G10G 5
 -20528988.46449 -15996578.17446  21580918.582    21580916.129         539.000
        30.000
 -10961365.38649  -8541317.52746  22470265.042    22470262.562         326.000
        12.000
 -13179258.55649 -10269514.60946  22268064.790    22268063.389         424.000
        18.000
 -19722996.30249 -15368556.83046  21710104.045    21710102.912         478.000
        26.000
 -12763739.09549  -9945759.68446  22680158.201    22680156.265         342.000
        13.000
 -10009219.52848  -7799359.19045  23154934.333    23154931.319         284.000
         9.000
 -21022932.00849 -16381481.92147  21351914.076    21351912.146         602.000
        39.000
  -7648884.66548  -5960168.81245  23674253.708    23674250.646         212.000
         4.000
  4  3  1  2 43 30.0000000  0  8G24G17G 4G29G26G 7G10G 5
 -20551670.79249 -16014252.70746  21576602.383    21576599.793         541.000
        30.000
 -10995421.92649  -8567855.08546  22463784.444    22463781.679         320.000
        11.000
 -13168141.37749 -10260851.88046  22270179.991    22270178.814         420.000
        18.000
 -19810576.33049 -15436801.00246  21693438.535    21693437.185         484.000
        27.000
 -12853120.99849 -10015407.91046  22663149.602    22663147.891         358.000
        14.000
  -9910354.15548  -7722321.24445  23173747.456    23173744.968         282.000
         9.000
 -21007054.84749 -16369110.09847  21354935.688    21354933.592         606.000
        39.000
  -7627859.31648  -5943785.42245  23678253.450    23678251.830         211.000
         5.000
  4  3  1  2 44  0.0000000  0  8G24G17G 4G29G26G 7G10G 5
 -20574303.57049 -16031888.62846  21572295.465    21572292.955         545.000
        31.000
 -11029524.26049  -8594428.31846  22457295.464    22457292.033         317.000
        12.000
 -13156878.63849 -10252075.72046  22272323.422    22272322.121         423.000
        17.000
 -19897841.72649 -15504800.01146  21676831.913    21676830.832         473.000
        26.000
 -12942301.57549 -10084899.25946  22646178.646    22646177.096         351.000
        14.000
  -9811314.76348  -7645147.70245  23192594.208    23192591.302         278.000
         9.000
 -20990966.05549 -16356573.37147  21357997.162    21357995.190         607.000
        40.000
  -7606583.71248  -5927207.02845  23682302.719    23682299.954         206.000
         4.000
  4  3  1  2 44 30.0000000  0  8G24G17G 4G29G26G 7G10G 5
 -20596887.48849 -16049486.48646  21567997.959    21567995.329         546.000
        31.000
 -11063674.04148  -8621038.52946  22450796.380    22450793.549         315.000
        11.000
 -13145470.79249 -10243186.49446  22274494.929    22274493.302         432.000
        18.000
 -19984791.85349 -15572553.34746  21660286.120    21660284.677         467.000
        26.000
 -13031280.06749 -10154233.13746  22629246.861    22629245.147         357.000
        13.000
  -9712105.70348  -7567841.95445  23211472.980    23211470.118         267.000
         9.000
 -20974669.67349 -16343874.88647  21361098.180    21361096.176         602.000
        39.000
  -7585061.91648  -5910436.80445  23686396.924    23686396.047         214.000
         4.000
  4  3  1  2 45  0.0000000  0  8G24G17G 4G29G26G 7G10G 5
 -20619416.30049 -16067041.40046  21563710.150    21563708.039         545.000
        31.000
 -11097865.99749  -8647681.59246  22444289.881    22444287.412         327.000
        12.000
 -13133911.15149 -10234178.98646  22276693.678    22276692.803         426.000
        17.000
 -20071418.54249 -15640054.65846  21643801.335    21643800.023         462.000
        26.000
 -13120049.00249 -10223403.72346  22612354.621    22612352.908         364.000
        14.000
  -9612724.04748  -7490401.71845  23230385.131    23230382.369         275.000
         9.000
 -20958162.56249 -16331012.19747  21364239.495    21364237.430         600.000
        39.000
  -7563290.93848  -5893472.40245  23690539.982    23690538.695         210.000
         4.000
  4  3  1  2 45 30.0000000  0  8G24G17G 4G29G26G 7G10G 5
 -20641893.78849 -16084556.31846  21559433.412    21559430.898         554.000
        31.000
 -11132105.06049  -8674361.37646  22437774.887    22437772.073         334.000
        12.000
 -13122203.43449 -10225056.09146  22278921.761    22278920.794         427.000
        18.000
 -20157724.58249 -15707306.11046  21627377.857    21627376.501         462.000
        26.000
 -13208611.00849 -10292413.05846  22595501.550    22595500.013         363.000
        15.000
  -9513177.50248  -7412832.99545  23249328.533    23249325.124         267.000
         8.000
 -20941451.68049 -16317990.72847  21367419.717    21367417.470         598.000
        39.000
  -7541278.45548  -5876319.82345  23694729.059    23694727.328         209.000
         4.000
  4  3  1  2 46  0.0000000  0  8G24G17G 4G29G26G 7G10G 5
 -20664324.21349 -16102034.56947  21555165.025    21555162.691         564.000
        32.000
 -11166396.58649  -8701082.04446  22431248.524    22431246.445         327.000
        12.000
 -13110351.73949 -10215821.01146  22281177.322    22281175.722         418.000
        17.000
 -20243712.49549 -15774309.67346  21611015.112    21611013.708         470.000
        26.000
 -13296969.05549 -10361263.47446  22578687.864    22578686.139         371.000
        15.000
  -9413473.90648  -7335141.88645  23268300.116    23268298.231         267.000
         8.000
 -20924544.69049 -16304816.44547  21370636.734    21370634.720         595.000
        39.000
  -7519032.73548  -5858985.48845  23698961.804    23698960.314         206.000
         5.000
  4  3  1  2 46 30.0000000  0  8G24G17G 4G29G26G 7G10G 5
 -20686690.74449 -16119463.02447  21550908.674    21550906.359         563.000
        32.000
 -11200725.14649  -8727831.56046  22424715.842    22424713.720         326.000
        12.000
 -13098339.39449 -10206460.74446  22283462.945    22283461.644         420.000
        18.000
 -20329364.27449 -15841051.30946  21594715.697    21594714.562         471.000
        27.000
 -13385105.56549 -10429941.26446  22561915.451    22561914.265         373.000
        14.000
  -9313600.46648  -7257318.43345  23287306.305    23287303.482         267.000
         8.000
 -20907428.35349 -16291479.03247  21373893.921    21373891.716         592.000
        38.000
  -7496540.48148  -5841459.06745  23703242.254    23703240.647         208.000
         4.000
  4  3  1  2 47  0.0000000  0  8G24G17G 4G29G26G 7G10G 5
 -20709002.65249 -16136848.92047  21546662.739    21546660.537         568.000
        32.000
 -11235100.83749  -8754617.79046  22418175.068    22418172.469         332.000
        13.000
 -13086175.00649 -10196982.00846  22285778.290    22285776.556         424.000
        18.000
 -20414687.58149 -15907536.99946  21578479.470    21578478.116         477.000
        27.000
 -13473028.13249 -10498452.34846  22545183.748    22545183.092         368.000
        14.000
  -9213569.81248  -7179372.48745  23306340.754    23306338.521         261.000
         8.000
 -20890114.99749 -16277988.10047  21377188.450    21377186.352         590.000
        38.000
  -7473814.15448  -5823750.23345  23707566.798    23707564.861         204.000
         4.000
  4  3  1  2 47 30.0000000  0  8G24G17G 4G29G26G 7G10G 5
 -20731249.11549 -16154183.82047  21542429.806    21542427.244         574.000
        33.000
 -11269514.03249  -8781433.25946  22411627.044    22411623.616         325.000
        12.000
 -13073848.03049 -10187376.57246  22288123.952    22288122.372         424.000
        17.000
 -20499670.51949 -15973757.45946  21562307.614    21562306.365         483.000
        28.000
 -13560725.12949 -10566787.66346  22528496.309    22528495.298         382.000
        14.000
  -9113375.05148  -7101298.65545  23325406.712    23325404.877         260.000
         8.000
 -20872597.15649 -16264337.82647  21380522.272    21380519.826         585.000
        38.000
  -7450847.21448  -5805853.92745  23711937.104    23711935.155         202.000
         4.000
  4  3  1  2 48  0.0000000  0  8G24G17G 4G29G26G 7G10G 5
 -20753432.80549 -16171469.80747  21538208.091    21538205.731         573.000
        33.000
 -11303968.53949  -8808280.91446  22405069.950    22405067.092         321.000
        12.000
 -13061361.15049 -10177646.54346  22290500.252    22290498.551         426.000
        18.000
 -20584314.33849 -16039713.68046  21546200.795    21546199.238         493.000
        29.000
 -13648198.13349 -10634948.43546  22511850.229    22511849.531         381.000
        15.000
  -9013022.54048  -7023101.90645  23344504.160    23344501.565         260.000
         8.000
 -20854880.93749 -16250532.97447  21383893.264    21383890.930         577.000
        38.000
  -7427646.09148  -5787775.12445  23716353.711    23716350.569         207.000
         5.000
  4  3  1  2 48 30.0000000  0  8G24G17G 4G29G26G 7G10G 5
 -20775551.52449 -16188705.16747  21533999.172    21533996.757         578.000
        33.000
 -11338463.56749  -8835160.14446  22398505.592    22398502.811         319.000
        12.000
 -13048711.80449 -10167789.91346  22292907.161    22292906.146         440.000
        18.000
 -20668615.52249 -16105402.90846  21530158.966    21530157.302         499.000
        29.000
 -13735443.88949 -10702932.13846  22495247.791    22495247.056         378.000
        15.000
  -8912513.93048  -6944783.51445  23363630.316    23363627.157         254.000
         8.000
 -20836967.46049 -16236574.41447  21387302.209    21387299.914         581.000
        38.000
  -7404212.30148  -5769515.04745  23720811.817    23720809.577         203.000
         4.000
  4  3  1  2 49  0.0000000  0  8G24G17G 4G29G26G 7G10G 5
 -20797599.04449 -16205885.04747  21529803.677    21529801.170         576.000
        33.000
 -11372993.32349  -8862066.44246  22391935.060    22391932.080         320.000
        12.000
 -13035893.58049 -10157801.68946  22295345.955    22295345.010         431.000
        18.000
 -20752566.39549 -16170819.16646  21514183.444    21514181.945         502.000
        30.000
 -13822454.81849 -10770732.84846  22478691.106    22478689.610         389.000
        15.000
  -8811846.53248  -6866341.40545  23382785.960    23382784.062         262.000
         8.000
 -20818853.62549 -16222459.73547  21390749.125    21390746.913         580.000
        38.000
  -7380543.09248  -5751071.49645  23725314.909    23725313.731         203.000
         4.000
  4  3  1  2 49 30.0000000  0  8G24G17G 4G29G26G 7G10G 5
 -20819579.85349 -16223012.94247  21525620.978    21525618.381         577.000
        33.000
 -11407563.66449  -8889004.35646  22385356.289    22385353.596         321.000
        12.000
 -13022911.02049 -10147685.41746  22297816.995    22297815.600         436.000
        18.000
 -20836170.01149 -16235964.83646  21498274.038    21498272.670         508.000
        30.000
 -13909234.35549 -10838353.26146  22462176.910    22462175.852         386.000
        15.000
  -8711028.59548  -6787781.98045  23401972.140    23401969.069         261.000
         8.000
 -20800547.34249 -16208195.09347  21394232.821    21394230.345         573.000
        38.000
  -7356646.91048  -5732451.10045  23729864.700    23729861.505         208.000
         4.000
  4  3  1  2 50  0.0000000  0  8G24G17G 4G29G26G 7G10G 5
 -20841491.92249 -16240087.27447  21521450.823    21521448.643         580.000
        33.000
 -11442173.58449  -8915973.11746  22378771.163    22378767.616         320.000
        13.000
 -13009761.60149 -10137439.12146  22300319.276    22300317.758         430.000
        18.000
 -20919422.99749 -16300837.28546  21482431.528    21482430.509         520.000
        31.000
 -13995779.26349 -10905790.84146  22445707.737    22445706.954         397.000
        15.000
  -8610061.69648  -6709106.48345  23421185.342    23421182.871         269.000
         8.000
 -20782049.59949 -16193781.26447  21397752.926    21397750.101         565.000
        37.000
  -7332525.12648  -5713654.91045  23734452.884    23734451.561         206.000
         4.000
  4  3  1  2 50 30.0000000  0  8G24G17G 4G29G26G 7G10G 5
 -20863334.60749 -16257107.53847  21517294.493    21517292.116         576.000
        33.000
 -11476823.59148  -8942973.12046  22372176.736    22372173.608         312.000
        13.000
 -12996445.03449 -10127062.58846  22302853.401    22302851.934         434.000
        18.000
 -21002323.83349 -16365435.33546  21466655.842    21466654.853         517.000
        31.000
 -14082088.15149 -10973044.52146  22429284.396    22429282.901         402.000
        16.000
  -8508949.21248  -6630317.54845  23440426.116    23440423.784         262.000
         7.000
 -20763363.50249 -16179220.66447  21401308.759    21401306.078         568.000
        38.000
  -7308180.81548  -5694685.31845  23739086.132    23739084.590         210.000
         5.000
  4  3  1  2 51  0.0000000  0  8G24G17G 4G29G26G 7G10G 5
 -20885112.58549 -16274077.38347  21513150.361    21513147.907         576.000
        33.000
 -11511519.28349  -8970008.71046  22365574.898    22365571.454         318.000
        13.000
 -12982965.80849 -10116559.30146  22305418.048    22305416.672         426.000
        18.000
 -21084875.42449 -16429761.24446  21450946.974    21450945.682         513.000
        31.000
 -14168164.34249 -11040116.87046  22412904.456    22412903.011         398.000
        16.000
  -8407699.49248  -6551421.67545  23459692.861    23459690.578         256.000
         8.000
 -20744496.73249 -16164519.27747  21404898.954    21404896.538         580.000
        38.000
  -7283622.68548  -5675549.12345  23743759.262    23743757.648         204.000
         5.000
  4  3  1  2 51 30.0000000  0  8G24G17G 4G29G26G 7G10G 5
 -20906821.63049 -16290993.51347  21509019.481    21509016.995         583.000
        33.000
 -11546257.53048  -8997077.45846  22358964.061    22358960.806         314.000
        13.000
 -12969319.37549 -10105925.71846  22308015.167    22308013.576         428.000
        18.000
 -21167072.44749 -16493810.86547  21435305.425    21435304.139         516.000
        32.000
 -14254002.43249 -11107003.68346  22396570.012    22396568.571         402.000
        17.000
  -8306311.90848  -6472418.36945  23478986.121    23478983.831         249.000
         8.000
 -20725448.48249 -16149676.48047  21408523.491    21408521.305         583.000
        38.000
  -7258850.27548  -5656245.95045  23748473.071    23748471.077         194.000
         4.000
  4  3  1  2 52  0.0000000  0  8G24G17G 4G29G26G 7G10G 5
 -20928451.81749 -16307848.19647  21504903.341    21504900.878         579.000
        33.000
 -11581029.60949  -9024172.57246  22352346.843    22352344.115         319.000
        13.000
 -12955496.14449 -10095154.37746  22310645.279    22310644.150         429.000
        18.000
 -21248904.02449 -16557575.72647  21419733.451    21419732.288         528.000
        32.000
 -14339591.83449 -11173696.71446  22380282.862    22380281.581         407.000
        18.000
  -8204780.61948  -6393303.09645  23498307.429    23498304.797         251.000
         7.000
 -20706212.40949 -16134687.32747  21412184.044    21412181.758         580.000
        38.000
  -7233857.47148  -5636771.01645  23753229.886    23753227.657         204.000
         4.000
  4  3  1  2 52 30.0000000  0  8G24G17G 4G29G26G 7G10G 5
 -20950012.08649 -16324648.39847  21500800.137    21500797.816         571.000
        33.000
 -11615845.55748  -9051301.86846  22345722.052    22345718.694         315.000
        12.000
 -12941504.71549 -10084251.96946  22313308.517    22313306.626         428.000
        18.000
 -21330377.67649 -16621061.68147  21404229.891    21404228.242         525.000
        33.000
 -14424940.49649 -11240202.16046  22364041.732    22364040.305         411.000
        17.000
  -8103118.41848  -6314085.79945  23517652.233    23517650.668         251.000
         7.000
 -20686800.95149 -16119561.50647  21415877.948    21415875.755         587.000
        38.000
  -7208657.32548  -5617134.54545  23758025.951    23758023.082         200.000
         4.000
  4  3  1  2 53  0.0000000  0  8G24G17G 4G29G26G 7G10G 5
 -20971493.41549 -16341387.09047  21496712.152    21496710.046         571.000
        32.000
 -11650697.29749  -9078459.06246  22339090.122    22339086.690         319.000
        13.000
 -12927336.20149 -10073211.57246  22316004.100    22316002.702         422.000
        18.000
 -21411483.09249 -16684260.70247  21388795.630    21388794.257         521.000
        33.000
 -14510038.04949 -11306511.93846  22347848.531    22347846.698         408.000
        18.000
  -8001319.79848  -6234762.20745  23537024.505    23537022.061         243.000
         6.000
 -20667208.30149 -16104294.50147  21419606.359    21419604.185         592.000
        38.000
  -7183244.47648  -5597332.32945  23762860.759    23762859.080         201.000
         4.000
  4  3  1  2 53 30.0000000  0  8G24G17G 4G29G26G 7G10G 5
 -20992895.78549 -16358064.25247  21492639.841    21492637.450         575.000
        32.000
 -11685585.78649  -9105644.88646  22332451.336    22332447.677         322.000
        13.000
 -12912990.41949 -10062033.04946  22318734.165    22318732.608         422.000
        18.000
 -21492219.29449 -16747172.02247  21373432.397    21373430.763         524.000
        33.000
 -14594883.65349 -11372625.38546  22331702.627    22331700.994         398.000
        18.000
  -7899388.67148  -6155335.36445  23556421.525    23556419.364         246.000
         7.000
 -20647437.68149 -16088888.82047  21423368.401    21423366.494         597.000
        38.000
  -7157622.81248  -5577367.38745  23767736.011    23767734.191         192.000
         4.000
  4  3  1  2 54  0.0000000  0  8G24G17G 4G29G26G 7G10G 5
 -21014221.87149 -16374681.98047  21488581.513    21488579.099         568.000
        33.000
 -11720514.90649  -9132862.38146  22325803.795    22325800.735         325.000
        14.000
 -12898470.17549 -10050718.58446  22321497.086    22321495.784         426.000
        18.000
 -21572587.53649 -16809796.62247  21358138.557    21358137.304         531.000
        33.000
 -14679479.04449 -11438543.85846  22315604.708    22315602.918         397.000
        18.000
  -7797331.54648  -6075810.34145  23575842.524    23575840.382         245.000
         7.000
 -20627495.21849 -16073349.23247  21427163.377    21427161.486         600.000
        38.000
  -7131798.73148  -5557244.72945  23772648.882    23772647.777         184.000
         4.000
  4  3  1  2 54 30.0000000  0  8G24G17G 4G29G26G 7G10G 5
 -21035470.77149 -16391239.55847  21484538.053    21484535.586         569.000
        32.000
 -11755484.62149  -9160111.50546  22319149.692    22319146.492         336.000
        14.000
 -12883774.36649 -10039267.30646  22324293.836    22324292.212         421.000
        18.000
 -21652585.98549 -16872133.07047  21342915.459    21342914.048         530.000
        34.000
 -14763822.24249 -11504265.82246  22299554.504    22299552.874         397.000
        18.000
  -7695151.33848  -5996189.41545  23595287.382    23595284.282         235.000
         6.000
 -20607383.58549 -16057677.82547  21430990.358    21430988.363         590.000
        38.000
  -7105775.35148  -5536966.76645  23777601.948    23777600.840         195.000
         4.000
  4  3  1  2 55  0.0000000  0  8G24G17G 4G29G26G 7G10G 5
 -21056636.60149 -16407732.40547  21480510.412    21480507.830         568.000
        32.000
 -11790490.35849  -9187388.69546  22312487.828    22312484.738         332.000
        14.000
 -12868897.41849 -10027674.88846  22327125.231    22327123.144         416.000
        18.000
 -21732207.56049 -16934175.85147  21327763.882    21327762.392         521.000
        34.000
 -14847906.62949 -11569786.11746  22283554.114    22283552.249         399.000
        18.000
  -7592846.13448  -5916471.08545  23614755.330    23614752.388         234.000
         6.000
 -20587100.22149 -16041872.60647  21434850.460    21434848.065         583.000
        38.000
  -7079550.75748  -5516532.02645  23782593.174    23782591.234         192.000
         4.000
  4  3  1  2 55 30.0000000  0  8G24G17G 4G29G26G 7G10G 5
 -21077717.52849 -16424159.09747  21476498.624    21476496.335         571.000
        32.000
 -11825531.22449  -9214693.25546  22305820.456    22305817.139         341.000
        14.000
 -12853837.27249 -10015939.71946  22329990.865    22329989.087         418.000
        17.000
 -21811449.24749 -16995922.61147  21312684.783    21312683.102         515.000
        34.000
 -14931729.22649 -11635102.41346  22267603.138    22267601.215         400.000
        19.000
  -7490417.81648  -5836656.82145  23634247.113    23634243.811         229.000
         6.000
 -20566646.65949 -16025934.75747  21438742.714    21438740.342         583.000
        37.000
  -7053126.65048  -5495941.82145  23787620.882    23787619.381         191.000
         4.000
  4  3  1  2 56  0.0000000  0  8G24G17G 4G29G26G 7G10G 5
 -21098713.86949 -16440519.87847  21472503.053    21472500.972         578.000
        32.000
 -11860608.28049  -9242026.02446  22299145.392    22299142.141         344.000
        15.000
 -12838594.01149 -10004061.85746  22332891.578    22332889.823         418.000
        18.000
 -21890310.28049 -17057372.76047  21297678.149    21297676.259         513.000
        34.000
 -15015289.43849 -11700214.25846  22251702.060    22251700.145         400.000
        18.000
  -7387870.59548  -5756749.90845  23653761.279    23653757.957         228.000
         6.000
 -20546026.62349 -16009867.19547  21442666.237    21442664.063         575.000
        37.000
  -7026507.35848  -5475199.50045  23792687.136    23792685.763         205.000
         4.000
  4  3  1  2 56 30.0000000  0  8G24G17G 4G29G26G 7G10G 5
 -21119618.21449 -16456808.97447  21468525.179    21468522.940         572.000
        32.000
 -11895715.74549  -9269382.47446  22292463.789    22292461.426         347.000
        14.000
 -12823160.81949  -9992035.99446  22335827.877    22335826.623         412.000
        17.000
 -21968782.32349 -17118519.80147  21282745.329    21282743.755         527.000
        35.000
 -15098579.15449 -11765115.32546  22235852.752    22235850.861         415.000
        19.000
  -7285201.14648  -5676747.76045  23673296.928    23673295.053         221.000
         5.000
 -20525236.42049 -15993667.03647  21446622.646    21446620.193         570.000
        36.000
  -6999690.11848  -5454302.94745  23797789.842    23797788.101         193.000
         4.000
  4  3  1  2 57  0.0000000  0  8G24G17G 4G29G26G 7G10G 5
 -21140442.26849 -16473035.50347  21464562.443    21464560.210         571.000
        32.000
 -11930865.95449  -9296772.24446  22285775.122    22285772.344         347.000
        15.000
 -12807549.03149  -9979870.97246  22338799.217    22338797.486         410.000
        17.000
 -22046875.89649 -17179371.92647  21267884.533    21267882.940         530.000
        35.000
 -15181608.90349 -11829813.82246  22220052.465    22220051.010         423.000
        19.000
  -7182424.75548  -5596662.26445  23692856.080    23692852.896         218.000
         6.000
 -20504290.79249 -15977345.76547  21450608.529    21450605.908         565.000
        37.000
  -6972690.11648  -5433263.99445  23802928.497    23802925.923         186.000
         4.000
  4  3  1  2 57 30.0000000  0  8G24G17G 4G29G26G 7G10G 5
 -21161176.99449 -16489192.43047  21460616.708    21460614.465         568.000
        32.000
 -11966050.98349  -9324189.14446  22279079.895    22279077.011         354.000
        15.000
 -12791749.97949  -9967560.02846  22341805.373    22341803.977         407.000
        17.000
 -22124581.19949 -17239921.50747  21253097.574    21253096.027         535.000
        36.000
 -15264368.96449 -11894302.17746  22204303.561    22204302.051         429.000
        19.000
  -7079536.49848  -5516489.61345  23712434.375    23712431.924         217.000
         5.000
 -20483184.57449 -15960899.35747  21454624.994    21454622.335         568.000
        36.000
  -6945502.20448  -5412078.60545  23808101.369    23808099.688         188.000
         4.000
  4  3  1  2 58  0.0000000  0  8G24G17G 4G29G26G 7G10G 5
 -21181814.05649 -16505273.25347  21456689.631    21456687.257         563.000
        32.000
 -12001263.57749  -9351627.52646  22272379.484    22272376.294         359.000
        15.000
 -12775755.12349  -9955096.51846  22344849.603    22344847.530         401.000
        18.000
 -22201888.54649 -17300160.99647  21238386.318    21238385.021         549.000
        36.000
 -15346850.23949 -11958573.29246  22188607.562    22188606.448         433.000
        20.000
  -6976531.80448  -5436226.21945  23732035.249    23732033.094         218.000
         5.000
 -20461912.74249 -15944323.90347  21458672.664    21458670.326         571.000
        36.000
  -6918121.96848  -5390743.34745  23813313.440    23813310.252         190.000
         4.000
  4  3  1  2 58 30.0000000  0  7G24G17G 4G26G 7G10G 5
 -21202363.20749 -16521285.57047  21452779.252    21452777.009         569.000
        33.000
 -12036514.67549  -9379095.90946  22265670.828    22265668.311         361.000
        15.000
 -12759574.47749  -9942488.23146  22347928.697    22347926.530         395.000
        17.000
 -15429061.69449 -12022634.15946  22172963.732    22172962.104         440.000
        20.000
  -6873424.50148  -5355882.89045  23751655.560    23751653.502         215.000
         5.000
 -20440488.39449 -15927629.60047  21462749.523    21462747.248         569.000
        36.000
  -6890563.24648  -5369269.02945  23818556.059    23818554.438         188.000
         4.000
  4  3  1  2 59  0.0000000  0  8G24G17G 4G 6G26G 7G10G 5
 -21222814.91849 -16537221.96847  21448887.756    21448885.179         568.000
        33.000
 -12071795.45949  -9406587.41946  22258957.203    22258954.535         363.000
        15.000
 -12743198.70949  -9929727.89946  22351044.705    22351043.018         403.000
        17.000
        -1.14857         0.000           0.000    25188298.658          99.000
         0.000
 -15510992.74649 -12086476.53446  22157372.629    22157371.070         442.000
        20.000
  -6770208.94348  -5275455.18945  23771296.195    23771294.783         212.000
         5.000
 -20418905.55749 -15910811.80047  21466856.538    21466854.288         570.000
        36.000
  -6862820.52348  -5347651.33845  23823835.110    23823833.396         179.000
         4.000
  4  3  1  2 59 30.0000000  0  8G24G17G 4G 6G26G 7G10G 5
 -21243168.69949 -16553082.05647  21445014.176    21445011.901         564.000
        32.000
 -12107106.25049  -9434102.31646  22252237.858    22252235.277         372.000
        15.000
 -12726627.05749  -9916814.93346  22354198.136    22354196.191         390.000
        17.000
   -101075.89347         0.000           0.000    25169064.988          97.000
         0.000
 -15592641.90749 -12150099.25246  22141835.562    22141833.947         442.000
        20.000
  -6666888.29148  -5194945.59545  23790958.235    23790956.316         215.000
         5.000
 -20397167.01649 -15893872.67347  21470993.287    21470991.027         576.000
        36.000
  -6834897.48648  -5325893.12745  23829149.996    23829147.395         189.000
         4.000
  4  3  1  3  0  0.0000000  0  8G24G17G 4G 6G26G 7G10G 5
 -21263431.02349 -16568870.87647  21441158.666    21441156.249         568.000
        32.000
 -12142454.83349  -9461646.66446  22245511.227    22245508.492         370.000
        15.000
 -12709865.94949  -9903754.34246  22357388.068    22357385.744         391.000
        17.000
   -202043.69847         0.000           0.000    25149851.285          90.000
         0.000
 -15674014.77549 -12213506.67446  22126350.423    22126349.125         440.000
        21.000
  -6563472.72948  -5114362.06045  23810637.169    23810635.155         205.000
         5.000
 -20375282.51049 -15876819.80647  21475157.923    21475155.763         585.000
        37.000
  -6806804.35448  -5304002.35745  23834494.836    23834493.692         191.000
         4.000
  4  3  1  3  0 30.0000000  0  8G24G17G 4G 6G26G 7G10G 5
 -21283593.81349 -16584582.13747  21437321.448    21437319.077         554.000
        32.000
 -12177834.22549  -9489215.01346  22238778.499    22238776.014         375.000
        15.000
 -12692907.95249  -9890540.32846  22360614.998    22360612.890         391.000
        16.000
   -302895.86247         0.000           0.000    25130660.352          92.000
         0.000
 -15755102.90049 -12276692.22046  22110920.254    22110918.699         445.000
        21.000
  -6459958.75948  -5033701.81545  23830336.696    23830333.807         212.000
         5.000
 -20353247.93249 -15859650.00447  21479350.870    21479348.678         585.000
        37.000
  -6778537.14248  -5281975.96644  23839875.561    23839872.149         182.000
         3.000
  4  3  1  3  1  0.0000000  0  8G24G17G 4G 6G26G 7G10G 5
 -21303651.89849 -16600211.81247  21433504.777    21433502.343         561.000
        32.000
 -12213240.03849  -9516803.95246  22232041.348    22232038.463         375.000
        16.000
 -12675747.65149  -9877168.67946  22363880.198    22363878.337         388.000
        16.000
   -403625.49847         0.000           0.000    25111491.863          92.000
         0.000
 -15835900.18349 -12339651.13446  22095544.879    22095543.185         437.000
        22.000
  -6356344.79448  -4952963.68845  23850052.058    23850050.353         205.000
         5.000
 -20331061.30949 -15842361.72247  21483572.802    21483570.767         585.000
        37.000
  -6750094.52348  -5259812.88544  23845287.371    23845284.138         176.000
         3.000
  4  3  1  3  1 30.0000000  0  8G24G17G 4G 6G26G 7G10G 5
 -21323606.67749 -16615760.98647  21429707.408    21429705.092         562.000
        32.000
 -12248674.54649  -9544415.24846  22225298.403    22225295.627         382.000
        16.000
 -12658386.46449  -9863640.49246  22367183.961    22367182.032         386.000
        16.000
   -504233.48147         0.000           0.000    25092347.000          92.000
         0.000
 -15916406.90749 -12402383.63646  22080224.751    22080223.227         430.000
        21.000
  -6252636.03148  -4872151.67945  23869786.296    23869785.373         201.000
         5.000
 -20308727.50249 -15824958.75547  21487822.785    21487820.691         584.000
        37.000
  -6721481.92048  -5237517.38044  23850729.966    23850729.394         180.000
         3.000
  4  3  1  3  2  0.0000000  0  8G24G17G 4G 6G26G 7G10G 5
 -21343455.60249 -16631227.68047  21425930.244    21425927.842         556.000
        32.000
 -12284136.71349  -9572048.10146  22218549.878    22218547.546         388.000
        16.000
 -12640822.48049  -9849954.28646  22370526.667    22370524.429         387.000
        17.000
   -604716.69347         0.000           0.000    25073225.329          91.000
         0.000
 -15996620.54349 -12464887.76046  22064960.747    22064959.098         432.000
        21.000
  -6148834.34648  -4791267.25145  23889542.620    23889538.581         208.000
         5.000
 -20286247.70349 -15807442.02347  21492100.963    21492098.535         587.000
        37.000
  -6692701.63848  -5215091.17544  23856208.643    23856206.093         178.000
         3.000
  4  3  1  3  2 30.0000000  0  8G24G17G 4G 6G26G 7G10G 5
 -21363213.78349 -16646623.65947  21422170.406    21422168.050         554.000
        32.000
 -12319642.33949  -9599714.82046  22211793.588    22211790.927         385.000
        16.000
 -12623070.84249  -9836121.85346  22373904.406    22373902.578         388.000
        16.000
   -705089.49947         0.000           0.000    25054126.774          98.000
         0.000
 -16076555.01749 -12527174.35146  22049749.567    22049748.027         435.000
        22.000
  -6044958.46448  -4710325.01245  23909308.313    23909305.702         204.000
         5.000
 -20263640.42649 -15789825.95547  21496402.919    21496400.515         586.000
        37.000
  -6663772.54648  -5192549.03244  23861714.702    23861710.527         167.000
         3.000
  4  3  1  3  3  0.0000000  0  8G24G17G 4G 6G26G 7G10G 5
 -21382867.49949 -16661938.24047  21418430.883    21418428.073         556.000
        32.000
 -12355178.68249  -9627405.47446  22205030.940    22205028.605         387.000
        16.000
 -12605117.73149  -9822132.42846  22377321.168    22377318.818         382.000
        16.000
   -805336.67647   -627534.41444  25035049.848    25035048.344          93.000
         2.000
 -16156195.74949 -12589232.05446  22034594.647    22034593.324         451.000
        22.000
  -5940998.62048  -4629317.36545  23929090.125    23929088.689         205.000
         5.000
 -20240895.33949 -15772102.50647  21500730.851    21500728.587         582.000
        37.000
  -6634684.58248  -5169883.09444  23867249.333    23867245.367         157.000
         3.000
  4  3  1  3  3 30.0000000  0  8G24G17G 4G 6G26G 7G10G 5
 -21402410.69449 -16677166.69947  21414711.776    21414709.185         555.000
        32.000
 -12390740.26449  -9655115.79046  22198264.381    22198261.733         394.000
        16.000
 -12586956.99649  -9807981.21646  22380776.083    22380774.544         378.000
        16.000
   -905451.23447         0.000           0.000    25015997.107          94.000
         0.000
 -16235535.81649 -12651055.47246  22019496.558    22019495.316         458.000
        22.000
  -5836952.52548  -4548242.49245  23948889.400    23948887.802         202.000
         5.000
 -20218009.42749 -15754269.32647  21505086.026    21505083.555         580.000
        37.000
  -6605435.50848  -5147091.64244  23872813.425    23872811.503         163.000
         3.000
