     2.10           OBSERVATION DATA    G (GPS)             RINEX VERSION / TYPE
teqc  2004Jan13     gpsops              20040302 00:03:49UTCPGM / RUN BY / DATE
Linux 2.0.36|Pentium II|gcc -static|Linux|486/DX+           COMMENT
BIT 2 OF LLI FLAGS DATA COLLECTED UNDER A/S CONDITION       COMMENT
ZAMB                                                        MARKER NAME
34601M001                                                   MARKER NUMBER
GGN                 JPL                                     OBSERVER / AGENCY
T145                ROGUE SNR-8000      3.2.32.11           REC # / TYPE / VERS
372                 AOAD/M_T        NONE                    ANT # / TYPE
  5422185.0218  2920890.1107 -1676726.9836                  APPROX POSITION XYZ
        0.0540        0.0000        0.0000                  ANTENNA: DELTA H/E/N
     1     1                                                WAVELENGTH FACT L1/2
     6    L1    L2    P2    C1    S1    S2                  # / TYPES OF OBSERV
    30.0000                                                 INTERVAL
                                                            COMMENT
This data is provided as a public service by NASA/JPL.      COMMENT
No warranty is expressed or implied regarding suitability   COMMENT
for use.  For further information, contact:                 COMMENT
Dave Stowers, NASA/JPL m/s 238-600                          COMMENT
4800 Oak Grove Drive, Pasadena CA 91109 USA                 COMMENT
                                                            COMMENT
    P1 =    P1  TurboRogue; =    Y1  Benchmark              COMMENT
    L1 = L1(P1) TurboRogue; = L1(Y1) Benchmark              COMMENT
    P2 =    P2  TurboRogue; =    Y2  Benchmark              COMMENT
    L2 = L2(P2) TurboRogue; = L2(Y2) Benchmark              COMMENT
 SNR is mapped to RINEX snr flag value [1,4-9]              COMMENT
    SNR:  >=316 >=100 >=31.6 >=10 >=3.2    >0 bad=0         COMMENT
L1 & L2:      9     8     7     6     5     4     1         COMMENT
teqc windowed: start @ 2004 Mar  1 00:00:00.000             COMMENT
teqc windowed: delta = 86399.000 sec                        COMMENT
  2004     3     1     0     0    0.0000000     GPS         TIME OF FIRST OBS
                                                            END OF HEADER
 04  3  1  0  0  0.0000000  0  8G 4G24G17G 8G13G 7G10G20
 -15210387.25849 -11852213.75246  21881555.033    21881553.090         523.000
        26.000
 -13082511.00248 -10194132.22445  22997940.076    22997936.496         293.000
         9.000
   -901411.67347                                  24707426.432          99.000

  -2295560.87048                                  24815225.738         108.000

 -10426045.56549  -8124134.17846  22985194.180    22985192.642         323.000
        10.000
 -23810771.89249 -18553815.41647  20528586.133    20528583.406         720.000
        64.000
  -8024179.31548  -6252590.89645  23825502.422    23825498.289         204.000
         5.000
    108509.13348     84599.87344  24899688.803    24899688.176         142.000
         2.000
 04  3  1  0  0 30.0000000  0  8G 4G24G17G 8G13G 7G10G20
 -15202856.41249 -11846345.54746  21882987.748    21882986.111         519.000
        26.000
 -13111703.23648 -10216879.38845  22992383.803    22992381.321         292.000
         9.000
   -955904.84648   -744859.61944  24697059.675    24697057.171         106.000
         1.000
  -2258867.94848                                  24822208.191         117.000

 -10462882.33749  -8152838.12446  22978183.745    22978182.808         320.000
        10.000
 -23831671.01749 -18570100.43947  20524609.300    20524606.615         726.000
        64.000
  -8119740.97148  -6327054.40645  23807316.615    23807313.338         217.000
         5.000
    211532.61348    164877.94444  24919293.186    24919293.006         140.000
         2.000
 04  3  1  0  1  0.0000000  0  8G 4G24G17G 8G13G 7G10G20
 -15195279.58149 -11840441.50746  21884429.513    21884427.897         514.000
        26.000
 -13140752.67648 -10239515.27845  22986856.282    22986853.598         300.000
         9.000
  -1010181.60848                                  24686728.359         100.000

  -2222466.97948                                  24829134.510         118.000

 -10499437.69649  -8181322.78346  22971227.581    22971226.609         320.000
        10.000
 -23852271.05149 -18586152.40047  20520689.124    20520686.372         722.000
        64.000
  -8215089.19948  -6401351.64745  23789172.494    23789168.822         215.000
         4.000
    314603.68248    245193.06144  24938910.440    24938907.020         141.000
         2.000
 04  3  1  0  1 30.0000000  0  8G 4G24G17G 8G13G 7G10G20
 -15187648.20649 -11834494.96746  21885881.741    21885880.105         515.000
        26.000
 -13169650.76248 -10262033.22245  22981356.591    22981354.410         301.000
         9.000
  -1064232.26748                                  24676442.559         100.000

  -2186348.66848                                  24836008.264         122.000

 -10535699.14549  -8209578.42146  22964327.541    22964326.248         319.000
        10.000
 -23872560.12949 -18601962.06047  20516828.311    20516825.579         727.000
        64.000
  -8310211.84648  -6475473.08845  23771071.322    23771067.905         205.000
         4.000
    417730.20548    325551.42944  24958532.754    24958531.376         141.000
         2.000
 04  3  1  0  2  0.0000000  0  8G 4G24G17G 8G13G 7G10G20
 -15179977.85149 -11828518.05046  21887341.424    21887339.635         511.000
        26.000
 -13198412.72448 -10284445.10045  22975884.480    22975881.144         299.000
         9.000
  -1118071.68947                                  24666196.623          98.000

  -2150528.25348                                  24842824.490         119.000

 -10571678.27349  -8237614.07046  22957481.100    22957479.734         324.000
        10.000
 -23892550.73849 -18617539.14747  20513024.144    20513021.411         726.000
        65.000
  -8405120.94448  -6549428.12745  23753011.699    23753007.096         217.000
         5.000
    520895.50248    405939.92744  24978163.237    24978162.186         133.000
         2.000
 04  3  1  0  2 30.0000000  0  8G 4G24G17G 8G13G 7G10G20
 -15172271.39349 -11822512.99946  21888807.780    21888805.989         507.000
        26.000
 -13227041.40648 -10306753.13245  22970435.771    22970432.713         288.000
         9.000
  -1171702.29347                                  24655990.579          92.000

  -2115008.11548                                  24849583.491         112.000

 -10607374.23749  -8265429.08146  22950688.593    22950686.714         318.000
        10.000
 -23912242.77749 -18632883.58447  20509276.842    20509274.272         734.000
        64.000
  -8499816.06548  -6623216.42645  23734991.925    23734987.419         222.000
         6.000
    624095.38548                                  24997800.063         127.000

 04  3  1  0  3  0.0000000  0  8G 4G24G17G 8G13G 7G10G20
 -15164521.47249 -11816474.08946  21890282.576    21890280.870         509.000
        26.000
 -13255529.52748 -10328951.62945  22965015.035    22965011.755         292.000
         9.000
  -1225115.78947                                  24645826.777          98.000

  -2079780.83348                                  24856286.828         116.000

 -10642775.64949  -8293014.56745  22943951.003    22943950.272         322.000
         9.000
 -23931625.85449 -18647987.26947  20505588.408    20505585.658         725.000
        65.000
  -8594286.62248  -6696829.74945  23717014.719    23717010.193         221.000
         5.000
    727336.03148                                  25017447.063         132.000

 04  3  1  0  3 30.0000000  0  8G 4G24G17G 8G13G 7G10G20
 -15156731.96049 -11810404.32646  21891765.120    21891763.062         509.000
        26.000
 -13283880.99548 -10351043.65146  22959620.537    22959617.077         303.000
        10.000
  -1278315.44248                                  24635703.329         103.000

  -2044849.58648                                  24862934.381         116.000

 -10677882.76048  -8320370.73346  22937270.992    22937269.159         312.000
        10.000
 -23950700.85949 -18662850.90047  20501958.562    20501955.930         733.000
        65.000
  -8688532.94048  -6770268.33445  23699078.924    23699075.351         214.000
         5.000
    830612.36148    647277.80144  25037097.738    25037099.529         124.000
         2.000
 04  3  1  0  4  0.0000000  0  8G 4G24G17G 8G13G 7G10G20
 -15148908.50349 -11804308.11146  21893253.535    21893251.862         513.000
        26.000
 -13312101.38948 -10373033.53246  22954250.331    22954246.762         299.000
        10.000
  -1331306.37748  -1037380.74544  24625624.713    24625619.732         101.000
         2.000
  -2010219.69748                                  24869524.568         117.000

 -10712697.43249  -8347499.01945  22930644.970    22930644.332         318.000
         9.000
 -23969470.29149 -18677476.42347  20498386.566    20498383.945         718.000
        64.000
  -8782557.15248  -6843533.85045  23681186.840    23681183.162         216.000
         5.000
    933917.80148    727775.60944  25056761.294    25056758.814         129.000
         2.000
 04  3  1  0  4 30.0000000  0  8G 4G24G17G 8G13G 7G10G20
 -15141055.14349 -11798188.59646  21894747.908    21894746.376         516.000
        25.000
 -13340194.63648 -10394924.33845  22948903.527    22948900.580         295.000
         9.000
  -1384091.74247  -1078512.07544  24615577.704    24615574.482          99.000
         1.000
  -1975894.66948                                  24876056.357         109.000

 -10747219.88949  -8374399.61846  22924076.105    22924074.890         321.000
        10.000
 -23987935.46949 -18691864.86647  20494873.159    20494870.480         732.000
        64.000
  -8876360.28648  -6916627.10945  23663336.121    23663333.163         229.000
         5.000
   1037247.14148    808291.94644  25076422.533    25076421.010         120.000
         2.000
 04  3  1  0  5  0.0000000  0  8G 4G24G17G 8G13G 7G10G20
 -15133163.20449 -11792039.02046  21896249.490    21896248.178         518.000
        26.000
 -13368151.99548 -10416709.26146  22943584.206    22943580.573         296.000
        10.000
  -1436662.31148                                  24605570.881         107.000

  -1941865.17847                                  24882531.325          99.000

 -10781437.54349  -8401062.70046  22917564.787    22917563.520         326.000
        10.000
 -24006084.23949 -18706006.75647  20491419.311    20491416.557         720.000
        64.000
  -8969929.92648  -6989538.40345  23645529.919    23645527.363         233.000
         6.000
   1140608.06148                                  25096090.510         129.000

 04  3  1  0  5 30.0000000  0  8G 4G24G17G 8G13G 7G10G20
 -15125237.13149 -11785862.84546  21897757.800    21897756.347         517.000
        26.000
 -13395977.81548 -10438391.68746  22938289.186    22938285.088         290.000
        10.000
  -1489022.02747                                  24595606.605          98.000

  -1908135.33948                                  24888949.879         101.000

 -10815351.00749  -8427488.74646  22911111.331    22911110.500         340.000
        11.000
 -24023918.23949 -18719903.37247  20488025.635    20488022.864         722.000
        64.000
  -9063267.13848  -7062268.60045  23627770.111    23627766.103         236.000
         6.000
   1243994.80148    969394.07444  25115764.841    25115763.445         112.000
         1.000
 04  3  1  0  6  0.0000000  0  8G 4G24G17G 8G13G 7G10G20
 -15117282.67949 -11779664.55746  21899271.690    21899270.122         519.000
        26.000
 -13423678.40748 -10459976.52346  22933018.427    22933014.375         296.000
        10.000
  -1541365.83347                                  24585683.760          74.000

  -1874710.80848                                  24895310.367         108.000

 -10848962.63649  -8453679.60246  22904715.162    22904713.893         333.000
        10.000
 -24041440.49449 -18733557.07147  20484691.315    20484688.672         726.000
        64.000
  -9156374.87148  -7134819.98545  23610050.333    23610047.590         220.000
         5.000
   1347400.29148   1049969.79044  25135441.081    25135441.768         123.000
         2.000
 04  3  1  0  6 30.0000000  0  8G 4G24G17G 8G13G 7G10G20
 -15109298.95349 -11773443.45346  21900790.726    21900789.440         522.000
        26.000
 -13451252.42148 -10481462.73746  22927770.275    22927767.001         293.000
        10.000
  -1594062.43847                                  24575792.767          70.000

  -1841589.75647                                  24901612.731          97.000

 -10882267.43249  -8479631.37246  22898378.527    22898376.060         329.000
        10.000
 -24058646.79749 -18746964.57447  20481416.949    20481414.267         719.000
        64.000
  -9249248.44248  -7207188.89145  23592377.570    23592374.181         225.000
         6.000
   1450824.55548   1130560.16544  25155122.971    25155121.955         109.000
         1.000
 04  3  1  0  7  0.0000000  0  7G 4G24G 8G13G 7G10G20
 -15101282.75249 -11767197.04746  21902316.324    21902314.801         523.000
        26.000
 -13478696.95648 -10502848.05846  22922548.256    22922544.460         292.000
        10.000
  -1808768.69948                                  24907858.687         107.000

 -10915258.88549  -8505338.97446  22892099.689    22892098.159         331.000
        10.000
 -24075531.23649 -18760121.27447  20478204.001    20478201.341         721.000
        64.000
  -9341881.56948  -7279370.47245  23574749.962    23574746.850         245.000
         6.000
   1554269.51748   1211166.63844  25174812.436    25174807.440         120.000
         2.000
 04  3  1  0  7 30.0000000  0  8G 4G24G17G 8G13G 7G10G20
 -15093241.64549 -11760931.23446  21903846.720    21903845.036         528.000
        27.000
 -13506019.41148 -10524138.25546  22917348.711    22917344.794         288.000
        10.000
         -.20258                                  24556146.295         109.000

  -1776254.84448                                  24914045.739         111.000

 -10947940.51849  -8530805.16546  22885880.921    22885878.899         324.000
        10.000
 -24092098.34449 -18773030.70447  20475051.395    20475048.629         716.000
        64.000
  -9434278.34948  -7351367.88645  23557168.052    23557164.424         247.000
         6.000
   1657726.59148   1291782.51344  25194497.596    25194494.374         113.000
         2.000
 04  3  1  0  8  0.0000000  0  8G 4G24G17G 8G13G 7G10G20
 -15085171.68249 -11754642.93746  21905382.397    21905380.746         529.000
        27.000
 -13533216.04148 -10545330.40946  22912171.973    22912169.456         289.000
        10.000
    -51323.48648    -39991.32744  24546383.227    24546379.622         113.000
         2.000
  -1744043.71048                                  24920175.290         105.000

 -10980304.92749  -8556024.15846  22879721.542    22879719.908         319.000
        10.000
 -24108341.21549 -18785687.48047  20471960.597    20471957.811         720.000
        63.000
  -9526431.61248  -7423175.55145  23539631.365    23539628.143         242.000
         6.000
   1761198.68748                                  25214184.970         113.000

 04  3  1  0  8 30.0000000  0  8G 4G24G17G 8G13G 7G10G20
 -15077078.42149 -11748336.48546  21906922.568    21906920.834         531.000
        27.000
 -13560292.54348 -10566428.95146  22907020.617    22907017.182         294.000
        10.000
   -102443.55347                                  24536651.063          97.000

  -1712140.41748                                  24926246.720         122.000

 -11012353.98349  -8580997.41646  22873622.232    22873621.322         326.000
        10.000
 -24124262.76149 -18798093.87447  20468930.636    20468927.918         716.000
        64.000
  -9618343.83548  -7494795.35945  23522142.315    23522137.755         246.000
         7.000
   1864678.91048                                  25233876.378         119.000

 04  3  1  0  9  0.0000000  0  8G 4G24G17G 8G13G 7G10G20
 -15068959.41849 -11742009.97046  21908467.222    21908465.693         527.000
        27.000
 -13587246.29748 -10587431.83646  22901891.469    22901887.845         288.000
        10.000
   -153357.01148                                  24526962.479         106.000

  -1680541.81048                                  24932259.426         127.000

 -11044081.49349  -8605720.12946  22867585.104    22867583.817         328.000
        10.000
 -24139857.36349 -18810245.50847  20465962.921    20465960.253         716.000
        64.000
  -9710009.27448  -7566222.89745  23504698.432    23504694.461         258.000
         7.000
   1968168.72448                                  25253569.496         110.000

 04  3  1  0  9 30.0000000  0  8G24G17G 4G 8G13G 7G10G20
 -13614077.51848 -10608339.24746  22896785.426    22896781.859         283.000
        10.000
   -204063.69548                                  24517314.004         113.000

 -15060814.76449 -11735663.47346  21910017.204    21910015.670         527.000
        27.000
  -1649247.70448                                  24938214.695         134.000

 -11075483.87849  -8630189.48446  22861610.060    22861608.021         336.000
        11.000
 -24155122.33249 -18822140.28547  20463058.115    20463055.406         716.000
        64.000
  -9801424.94048  -7637455.82445  23487301.120    23487298.641         250.000
         6.000
   2071666.80948   1614333.43544  25273264.131    25273264.976         120.000
         1.000
 04  3  1  0 10  0.0000000  0  8G24G17G 4G 8G13G 7G10G20
 -13640788.94448 -10629153.32045  22891702.961    22891698.894         285.000
         9.000
   -254565.84448   -198361.82944  24507706.693    24507703.726         113.000
         2.000
 -15052647.02749 -11729298.99546  21911571.887    21911569.851         522.000
        27.000
  -1618260.25548                                  24944111.074         124.000

 -11106560.63949  -8654405.11846  22855696.100    22855694.471         342.000
        11.000
 -24170057.43549 -18833778.02347  20460216.083    20460213.401         723.000
        64.000
  -9892590.23648  -7708493.63945  23469953.848    23469950.373         260.000
         7.000
   2175169.23748                                  25292960.594         112.000

 04  3  1  0 10 30.0000000  0  8G24G17G 4G 8G13G 7G10G20
 -13667380.35448 -10649873.86846  22886642.928    22886638.872         289.000
        10.000
   -304862.72548                                  24498132.538         114.000

 -15044456.00849 -11722916.37246  21913130.144    21913128.541         521.000
        26.000
  -1587578.45048                                  24949949.740         126.000

 -11137307.21749  -8678363.46246  22849845.136    22849843.826         352.000
        10.000
 -24184659.41349 -18845156.18447  20457437.323    20457434.743         725.000
        64.000
  -9983501.31648  -7779333.37845  23452653.277    23452650.518         254.000
         7.000
   2278675.52748   1775638.91044  25312660.216    25312656.614         112.000
         1.000
 04  3  1  0 11  0.0000000  0  8G24G17G 4G 8G13G 7G10G20
 -13693851.45648 -10670500.67346  22881604.685    22881601.641         292.000
        10.000
   -354953.25348                                  24488600.233         111.000

 -15036241.02349 -11716515.07146  21914693.264    21914691.729         516.000
        26.000
  -1557201.18348                                  24955730.642         135.000

 -11167719.76849  -8702061.53146  22844057.042    22844056.107         344.000
        11.000
 -24198924.96649 -18856272.19347  20454722.668    20454720.151         729.000
        65.000
 -10074154.64548  -7849972.25645  23435403.855    23435399.435         251.000
         7.000
   2382185.11448   1856295.73744  25332357.084    25332354.288         122.000
         2.000
 04  3  1  0 11 30.0000000  0  8G24G17G 4G 8G13G 7G10G20
 -13720213.72448 -10691042.66546  22876588.283    22876584.801         287.000
        10.000
   -404848.48248   -315465.05044  24479107.528    24479106.191         118.000
         1.000
 -15028013.42049 -11710103.93846  21916258.667    21916257.348         515.000
        26.000
  -1527139.53948                                  24961450.935         128.000

 -11197806.08149  -8725505.38746  22838331.801    22838330.970         352.000
        11.000
 -24212862.68049 -18867132.74647  20452070.593    20452067.939         734.000
        65.000
 -10164558.39148  -7920416.66745  23418199.413    23418196.238         253.000
         7.000
   2485685.24048                                  25352049.799         113.000

 04  3  1  0 12  0.0000000  0  8G24G17G 4G 8G13G 7G10G20
 -13746464.40948 -10711497.70946  22871593.776    22871589.616         289.000
        10.000
   -454545.31048                                  24469649.066         120.000

 -15019770.49949 -11703680.86946  21917827.739    21917825.856         510.000
        26.000
  -1497390.14148                                  24967111.881         119.000

 -11227560.04749  -8748690.28246  22832669.617    22832669.012         357.000
        11.000
 -24226467.04349 -18877733.54347  20449481.757    20449479.066         733.000
        66.000
 -10254706.61148  -7990661.96945  23401044.267    23401041.739         254.000
         7.000
   2589177.86648                                  25371743.377         112.000

 04  3  1  0 12 30.0000000  0  8G24G17G 4G 8G13G 7G10G20
 -13772605.30648 -10731867.21746  22866618.854    22866615.069         288.000
        10.000
   -504044.80348   -392760.78744  24460233.629    24460229.091         117.000
         2.000
 -15011514.00249 -11697247.22246  21919398.972    21919397.141         510.000
        26.000
  -1467954.22448                                  24972713.440         110.000

 -11256979.57449  -8771614.56346  22827071.934    22827070.741         364.000
        11.000
 -24239736.79049 -18888073.60247  20446956.561    20446953.846         730.000
        66.000
 -10344597.88448  -8060707.04945  23383938.851    23383936.004         251.000
         7.000
   2692659.93748   2098224.23944  25391436.981    25391435.291         119.000
         1.000
 04  3  1  0 13  0.0000000  0  8G24G17G 4G 8G13G 7G10G20
 -13798628.36348 -10752144.89046  22861666.418    22861662.965         285.000
        10.000
   -553338.83148   -431171.68444  24450850.008    24450849.130         118.000
         2.000
 -15003235.78349 -11690796.65346  21920973.871    21920972.257         505.000
        25.000
  -1438823.10148                                  24978257.022         127.000

 -11286053.32449  -8794269.41846  22821539.121    22821538.303         372.000
        11.000
 -24252661.33949 -18898144.67547  20444497.255    20444494.452         732.000
        66.000
 -10434221.26148  -8130543.38145  23366884.997    23366880.966         260.000
         7.000
   2796138.53548                                  25411126.161         105.000

 04  3  1  0 13 30.0000000  0  8G24G17G 4G 8G13G 7G10G20
 -13824536.65548 -10772333.13046  22856736.379    22856733.385         298.000
        10.000
   -602429.39348                                  24441507.105         116.000

 -14994938.49049 -11684331.21946  21922552.960    21922551.303         506.000
        25.000
  -1409998.90948                                  24983741.925         113.000

 -11314780.38349  -8816654.11646  22816072.648    22816071.661         371.000
        11.000
 -24265240.44049 -18907946.56547  20442103.256    20442100.673         729.000
        66.000
 -10523576.18348  -8200170.52245  23349881.849    23349876.984         249.000
         7.000
   2899609.79448                                  25430816.850         123.000

 04  3  1  0 14  0.0000000  0  8G24G17G 4G 8G13G 7G10G20
 -13850336.68748 -10792437.04446  22851826.657    22851823.427         293.000
        10.000
   -651322.56948   -507522.55044  24432205.770    24432203.343         123.000
         1.000
 -14986628.43349 -11677855.83046  21924134.567    21924132.616         501.000
        25.000
  -1381487.45848                                  24989167.312         112.000

 -11343163.84349  -8838771.07546  22810671.572    22810670.177         364.000
        11.000
 -24277477.65549 -18917482.05147  20439774.674    20439772.041         730.000
        65.000
 -10612665.85848  -8269590.98345  23332926.895    23332924.002         255.000
         7.000
   3003066.27848                                  25450503.195         114.000

 04  3  1  0 14 30.0000000  0  8G24G17G 4G 8G13G 7G10G20
 -13876029.59748 -10812457.45546  22846937.014    22846934.173         291.000
        10.000
   -700019.34748   -545468.03144  24422939.531    24422936.593         118.000
         2.000
 -14978306.79949 -11671371.42846  21925717.929    21925716.018         499.000
        25.000
  -1353289.16648                                  24994533.343         113.000

 -11371201.18149  -8860618.33146  22805335.444    22805334.861         366.000
        11.000
 -24289371.50049 -18926749.97547  20437511.312    20437508.658         726.000
        65.000
 -10701488.24548  -8338803.17445  23316024.500    23316021.561         258.000
         7.000
   3106505.74848                                  25470187.172         103.000

 04  3  1  0 15  0.0000000  0  8G24G17G 4G 8G13G 7G10G20
 -13901620.48748 -10832398.37746  22842067.633    22842064.376         290.000
        10.000
   -748524.48548   -583264.17544  24413710.701    24413705.674         117.000
         2.000
 -14969978.51049 -11664881.83746  21927302.678    21927300.692         490.000
        25.000
  -1325408.80348                                  24999839.059         115.000

 -11398893.99849  -8882197.12946  22800067.110    22800065.110         366.000
        11.000
 -24300924.18449 -18935752.05847  20435312.900    20435310.198         724.000
        66.000
 -10790045.48648  -8407808.74445  23299174.306    23299170.125         270.000
         8.000
   3209922.30848                                  25489866.902         114.000

 04  3  1  0 15 30.0000000  0  8G24G17G 4G 8G13G 7G10G20
 -13927097.30848 -10852250.43246  22837220.620    22837216.182         290.000
        10.000
   -796825.20748   -620901.06344  24404520.791    24404515.608         136.000
         2.000
 -14961631.22749 -11658377.44446  21928891.266    21928889.206         489.000
        24.000
  -1297833.30048                                  25005086.179         115.000

 -11426226.86849  -8903495.44346  22794865.249    22794864.069         375.000
        11.000
 -24312120.71649 -18944476.61947  20433182.244    20433179.533         722.000
        66.000
 -10878322.23448  -8476595.75945  23282374.596    23282371.270         269.000
         8.000
   3313326.72948                                  25509543.922         106.000

 04  3  1  0 16  0.0000000  0  8G24G17G 4G 8G13G 7G10G20
 -13952475.81148 -10872025.87946  22832389.602    22832386.637         290.000
        10.000
   -844936.85048   -658390.64244  24395365.623    24395358.734         118.000
         2.000
 -14953280.64949 -11651870.48646  21930480.173    21930478.362         492.000
        24.000
  -1270577.71848                                  25010272.774         119.000

 -11453211.64749  -8924522.52646  22789729.489    22789728.759         373.000
        11.000
 -24322973.95049 -18952933.67747  20431116.934    20431114.226         722.000
        65.000
 -10966330.89948  -8545173.86945  23265627.179    23265623.746         268.000
         8.000
   3416702.79848                                  25529215.987         103.000

 04  3  1  0 16 30.0000000  0  8G24G17G 4G 8G13G 7G10G20
 -13977750.95448 -10891720.76746  22827580.232    22827576.885         288.000
        10.000
   -892854.30648                                  24386241.244         129.000

 -14944921.70749 -11645357.01146  21932070.897    21932069.039         492.000
        24.000
  -1243636.59648                                  25015399.712         121.000

 -11479840.19649  -8945272.02346  22784662.261    22784661.732         380.000
        11.000
 -24333476.49949 -18961117.47447  20429118.328    20429115.628         719.000
        65.000
 -11054063.69148  -8613537.02145  23248932.308    23248928.490         269.000
         8.000
   3520054.20348                                  25548883.302         103.000

 04  3  1  0 17  0.0000000  0  8G24G17G 4G 8G13G 7G10G20
 -14002922.55548 -10911334.98346  22822791.001    22822787.234         294.000
        10.000
   -940576.87048   -732915.22344  24377163.419    24377159.685         128.000
         2.000
 -14936553.61049 -11638836.40546  21933662.758    21933661.306         491.000
        24.000
  -1217008.62848                                  25020466.579         119.000

 -11506108.65449  -8965740.93746  22779663.199    22779662.875         377.000
        11.000
 -24343624.98849 -18969025.37847  20427187.094    20427184.486         723.000
        65.000
 -11141516.96248  -8681682.35845  23232289.425    23232286.855         282.000
         8.000
   3623380.24748                                  25568545.642         115.000

 04  3  1  0 17 30.0000000  0  8G24G17G 4G 8G13G 7G10G20
 -14027989.64948 -10930867.76346  22818020.102    22818017.048         292.000
        10.000
   -988103.03948                                  24368115.488         121.000

 -14928175.23449 -11632307.79046  21935257.586    21935255.749         491.000
        24.000
  -1190692.07048                                  25025474.667         122.000

 -11532012.27949  -8985925.56446  22774735.198    22774733.561         380.000
        12.000
 -24353415.61949 -18976654.43447  20425324.029    20425321.315         717.000
        66.000
 -11228686.64748  -8749606.73445  23215702.069    23215699.135         285.000
         9.000
   3726681.25547                                  25588203.380          98.000

 04  3  1  0 18  0.0000000  0  8G24G17G 4G 8G13G 7G10G20
 -14052958.26348 -10950323.80646  22813269.360    22813265.796         295.000
        10.000
  -1035438.38848   -806833.15744  24359112.339    24359108.431         128.000
         2.000
 -14919792.68249 -11625775.91846  21936852.483    21936850.915         490.000
        24.000
  -1164692.21348                                  25030421.765         111.000

 -11557554.01049  -9005828.19146  22769874.625    22769873.053         380.000
        12.000
 -24362851.62249 -18984007.15947  20423528.534    20423525.720         721.000
        65.000
 -11315575.78748  -8817312.49045  23199168.015    23199164.733         292.000
         9.000
   3829950.10048                                  25607854.893         110.000

 04  3  1  0 18 30.0000000  0  8G24G17G 4G 8G13G 7G10G20
 -14077831.89248 -10969705.82046  22808535.552    22808532.374         293.000
        10.000
  -1082585.73048   -843571.37244  24350138.104    24350135.630         114.000
         2.000
 -14911409.08249 -11619243.23046  21938447.690    21938446.049         487.000
        24.000
  -1139011.61348                                  25035308.666         112.000

 -11582733.59449  -9025448.62846  22765083.078    22765081.542         385.000
        12.000
 -24371933.54949 -18991083.98047  20421800.114    20421797.328         713.000
        65.000
 -11402184.29348  -8884799.56945  23182686.942    23182682.884         279.000
         9.000
   3933182.65447                                  25627498.709          99.000

 04  3  1  0 19  0.0000000  0  8G24G17G 4G 8G13G 7G10G20
 -14102611.56748 -10989014.69145  22803820.545    22803816.986         294.000
         9.000
  -1129545.92348                                  24341200.230         124.000

 -14903024.81849 -11612710.02346  21940043.501    21940041.761         493.000
        24.000
  -1113650.60748                                  25040134.804         123.000

 -11607548.57649  -9044784.93446  22760360.059    22760359.598         391.000
        12.000
 -24380659.80749 -18997883.65447  20420139.546    20420136.962         720.000
        65.000
 -11488510.12948  -8952066.38945  23166259.649    23166256.386         299.000
         9.000
   4036376.80347                                  25647135.414          85.000

 04  3  1  0 19 30.0000000  0  8G24G17G 4G 8G13G 7G10G20
 -14127293.01748 -11008246.93746  22799123.604    22799120.218         294.000
        10.000
  -1176314.31048   -916606.50744  24332305.082    24332299.570         119.000
         2.000
 -14894635.76349 -11606173.08146  21941639.853    21941638.023         490.000
        24.000
  -1088604.01848                                  25044901.091         126.000

 -11631991.19749  -9063831.13346  22755708.389    22755708.148         390.000
        12.000
 -24389023.18649 -19004400.56547  20418548.129    20418545.428         722.000
        66.000
 -11574546.06548  -9019107.32046  23149887.079    23149883.822         293.000
        10.000
   4139536.28948                                  25666766.964         100.000

 04  3  1  0 20  0.0000000  0  8G24G17G 4G 8G13G 7G10G20
 -14151883.80248 -11027408.56446  22794444.541    22794440.597         289.000
        10.000
  -1222898.25748   -952905.61844  24323436.906    24323434.975         120.000
         1.000
 -14886248.98149 -11599637.91246  21943235.518    21943234.108         494.000
        24.000
  -1063878.54248                                  25049606.306         121.000

 -11656065.64249  -9082590.42146  22751127.993    22751127.040         393.000
        12.000
 -24397028.62749 -19010638.56847  20417024.754    20417022.190         729.000
        66.000
 -11660296.55148  -9085925.81945  23133568.525    23133566.003         300.000
         9.000
   4242652.47347                                  25686388.581          88.000

 04  3  1  0 20 30.0000000  0  7G24G17G 4G 8G13G 7G10
 -14176376.88248 -11046494.07046  22789782.940    22789779.474         285.000
        10.000
  -1269290.22348   -989055.20344  24314611.332    24314607.564         133.000
         2.000
 -14877857.25349 -11593098.88746  21944832.488    21944830.829         488.000
        24.000
  -1039466.50148                                  25054251.236         112.000

 -11679761.40949  -9101054.64746  22746618.000    22746617.688         388.000
        12.000
 -24404666.40249 -19016590.08047  20415571.297    20415568.712         727.000
        66.000
 -11745751.61948  -9152514.13546  23117307.749    23117304.496         301.000
        10.000
 04  3  1  0 21  0.0000000  0  8G24G17G 4G 8G13G 7G10G 5
 -14200770.74448 -11065502.24946  22785141.213    22785137.685         291.000
        10.000
  -1315488.28148  -1025053.68644  24305820.167    24305816.144         126.000
         2.000
 -14869459.06349 -11586554.83046  21946430.964    21946429.163         495.000
        24.000
  -1015365.25948                                  25058837.652         116.000

 -11703073.65049  -9119220.01446  22742181.774    22742181.441         383.000
        12.000
 -24411932.07949 -19022251.64147  20414188.673    20414186.075         727.000
        66.000
 -11830906.62048  -9218868.62946  23101103.616    23101100.216         306.000
        10.000
          .23658                                  25396368.339         115.000

 04  3  1  0 21 30.0000000  0  8G24G17G 4G 8G13G 7G10G 5
 -14225067.38948 -11084434.68346  22780516.852    22780514.007         290.000
        10.000
  -1361494.15848  -1060902.35244  24297069.069    24297061.518         125.000
         2.000
 -14861055.59049 -11580006.66146  21948029.806    21948028.044         494.000
        24.000
   -991575.91848                                  25063364.813         133.000

 -11726001.01249  -9137085.47746  22737819.995    22737818.765         391.000
        12.000
 -24418824.91449 -19027622.67947  20412876.918    20412874.354         725.000
        66.000
 -11915760.33748  -9284988.35846  23084956.516    23084952.794         299.000
        10.000
    -84575.14448                                  25380271.655         110.000

 04  3  1  0 22  0.0000000  0  8G24G17G 4G 8G13G 7G10G 5
 -14249284.50848 -11103305.14446  22775908.982    22775905.984         298.000
        10.000
  -1407325.29148  -1096614.89244  24288345.125    24288339.748         122.000
         2.000
 -14852664.96049 -11573468.49346  21949626.517    21949624.846         496.000
        24.000
   -968115.66248                                  25067828.785         110.000

 -11748558.05249  -9154662.37646  22733527.228    22733526.011         379.000
        12.000
 -24425360.11749 -19032715.04147  20411633.414    20411630.727         724.000
        67.000
 -12000327.62648  -9350884.88846  23068863.422    23068859.960         298.000
        10.000
   -168898.98047                                  25364224.847          95.000

 04  3  1  0 22 30.0000000  0  8G24G17G 4G 8G13G 7G10G 5
 -14273416.70848 -11122109.43946  22771316.701    22771313.466         293.000
        10.000
  -1452975.85148  -1132186.75344  24279658.796    24279651.956         116.000
         2.000
 -14844280.88549 -11566935.43646  21951221.837    21951220.230         493.000
        24.000
   -944977.71348                                  25072232.309         114.000

 -11770735.60949  -9171943.57646  22729307.190    22729305.876         383.000
        13.000
 -24431529.40149 -19037522.27147  20410459.425    20410456.779         725.000
        67.000
 -12084599.68248  -9416551.36746  23052827.276    23052823.558         304.000
        10.000
   -252962.08547                                  25348228.023          88.000

 04  3  1  0 23  0.0000000  0  8G24G17G 4G 8G13G 7G10G 5
 -14297455.98348 -11140841.31546  22766742.638    22766738.769         290.000
        10.000
  -1498437.61148  -1167611.45844  24271006.745    24271001.026         116.000
         2.000
 -14835895.21249 -11560401.13446  21952817.682    21952816.128         502.000
        24.000
   -922153.36548                                  25076575.151         130.000

 -11792522.61949  -9188920.43646  22725160.413    22725159.926         381.000
        12.000
 -24437322.00649 -19042035.98347  20409357.107    20409354.402         723.000
        67.000
 -12168565.80648  -9481979.46346  23036848.673    23036845.398         304.000
        10.000
   -336753.44448                                  25332284.361         101.000

 04  3  1  0 23 30.0000000  0  8G24G17G 4G 8G13G 7G10G 5
 -14321413.43948 -11159509.44146  22762183.857    22762180.019         298.000
        10.000
  -1543721.15348                                  24262383.428         114.000

 -14827518.60249 -11553873.89546  21954411.492    21954409.969         497.000
        25.000
   -899652.69648                                  25080856.868         120.000

 -11813926.54749  -9205598.80846  22721088.065    22721086.857         375.000
        12.000
 -24442746.45349 -19046262.82147  20408324.884    20408322.149         723.000
        67.000
 -12252233.90248  -9547175.33346  23020926.694    23020923.686         301.000
        10.000
   -420280.70647                                  25316388.168          87.000

 04  3  1  0 24  0.0000000  0  8G24G17G 4G 8G13G 7G10G 5
 -14345285.72248 -11178111.18846  22757640.882    22757637.420         305.000
        11.000
  -1588823.12648  -1238041.69344  24253808.130    24253802.258         127.000
         2.000
 -14819147.61249 -11547351.02546  21956004.684    21956003.000         504.000
        24.000
   -877471.72248                                  25085077.724         110.000

 -11834940.80849  -9221973.53546  22717088.872    22717088.119         379.000
        12.000
 -24447796.72849 -19050198.09447  20407363.883    20407361.180         728.000
        67.000
 -12335597.57248  -9612133.99746  23005063.890    23005059.956         295.000
        10.000
   -503537.67947   -392363.77944  25300549.817    25300545.172          93.000
         2.000
 04  3  1  0 24 30.0000000  0  8G24G17G 4G 8G13G 7G10G 5
 -14369070.66748 -11196644.90046  22753114.414    22753111.139         304.000
        11.000
  -1633740.92648  -1273042.51344  24245259.539    24245255.473         138.000
         2.000
 -14810779.55449 -11540830.45146  21957596.635    21957595.356         503.000
        24.000
   -855607.04248                                  25089238.128         106.000

 -11855560.13449  -9238040.52046  22713165.613    22713164.398         380.000
        12.000
 -24452467.87049 -19053837.94047  20406474.925    20406472.290         728.000
        67.000
 -12418651.64148  -9676851.40346  22989258.489    22989255.179         298.000
        10.000
   -586518.34148   -457020.58845  25284758.550    25284755.446         111.000
         4.000
 04  3  1  0 25  0.0000000  0  8G24G17G 4G 8G13G 7G10G 5
 -14392773.09948 -11215114.29746  22748603.867    22748601.057         312.000
        11.000
  -1678478.79448  -1307903.14444  24236748.011    24236742.364         137.000
         2.000
 -14802418.81049 -11534315.57646  21959187.917    21959186.477         506.000
        24.000
   -834062.51848                                  25093337.926         116.000

 -11875786.09949  -9253800.99246  22709316.204    22709315.352         372.000
        12.000
 -24456762.09349 -19057184.08247  20405657.732    20405655.138         731.000
        67.000
 -12501397.91248  -9741328.96946  22973512.154    22973508.909         292.000
        11.000
   -669224.29447   -521460.65046  25269019.245    25269015.967          95.000
        10.000
 04  3  1  0 25 30.0000000  0  8G24G17G 4G 8G13G 7G10G 5
 -14416390.76148 -11233517.64746  22744109.476    22744106.331         305.000
        11.000
  -1723034.40948                                  24228262.934         129.000

 -14794062.91349 -11527804.47746  21960778.155    21960776.356         499.000
        24.000
   -812834.83048                                  25097377.741         123.000

 -11895612.80249  -9269250.35046  22705543.674    22705542.607         374.000
        13.000
 -24460674.59449 -19060232.77947  20404913.345    20404910.723         734.000
        67.000
 -12583831.28248  -9805562.72346  22957826.079    22957822.846         300.000
        11.000
   -751650.14447   -585686.88846  25253333.825    25253330.301          97.000
        11.000
 04  3  1  0 26  0.0000000  0  8G24G17G 4G 8G13G 7G10G 5
 -14439931.16848 -11251860.79346  22739629.650    22739626.639         301.000
        10.000
  -1767415.34848  -1377204.30544  24219819.971    24219816.431         120.000
         2.000
 -14785719.30849 -11521302.95746  21962365.908    21962364.191         503.000
        24.000
   -791930.99848                                  25101355.528         122.000

 -11915045.34549  -9284392.57346  22701845.157    22701844.673         373.000
        12.000
 -24464210.56249 -19062988.07447  20404240.310    20404237.650         729.000
        68.000
 -12665956.48448  -9869556.34946  22942197.417    22942194.831         302.000
        10.000
   -833800.59148   -649705.60345  25237701.431    25237698.648         104.000
         8.000
 04  3  1  0 26 30.0000000  0  8G24G17G 4G 8G13G 7G10G 5
 -14463392.89248 -11270142.64146  22735165.751    22735162.026         306.000
        12.000
  -1811619.84848  -1411649.33844  24211411.266    24211403.861         118.000
         2.000
 -14777386.09649 -11514809.53346  21963951.527    21963949.955         503.000
        24.000
   -771348.43248                                  25105272.078         125.000

 -11934078.71149  -9299223.74646  22698223.558    22698222.715         372.000
        13.000
 -24467365.87849 -19065446.75647  20403639.932    20403637.267         731.000
        67.000
 -12747769.12948  -9933306.41646  22926629.381    22926626.339         299.000
        10.000
   -915671.30748   -713507.30344  25222119.654    25222118.895         104.000
         3.000
 04  3  1  0 27  0.0000000  0  8G24G17G 4G 8G13G 7G10G 5
 -14486777.74549 -11288364.58446  22730716.103    22730712.397         317.000
        11.000
  -1855649.39948  -1445958.01044  24203029.217    24203025.783         119.000
         2.000
 -14769064.56549 -11508325.21846  21965535.023    21965533.575         504.000
        24.000
   -751087.91648                                  25109127.629         120.000

 -11952711.44849  -9313742.74146  22694677.257    22694676.930         369.000
        12.000
 -24470139.53449 -19067608.04147  20403112.236    20403109.530         735.000
        67.000
 -12829267.93048  -9996811.93546  22911120.971    22911117.437         300.000
        10.000
   -997259.98047   -777085.49044  25206594.912    25206592.672          91.000
         2.000
 04  3  1  0 27 30.0000000  0  7G24G17G 4G 8G13G 7G10
 -14510084.59248 -11306525.74646  22726280.803    22726277.108         315.000
        11.000
  -1899502.81048                                  24194681.291         122.000

 -14760753.41649 -11501848.98546  21967116.284    21967114.977         500.000
        24.000
   -731147.34648                                  25112921.929         111.000

 -11970939.25349  -9327946.21246  22691209.384    22691208.318         369.000
        12.000
 -24472528.01849 -19069469.19547  20402657.591    20402655.071         738.000
        67.000
 -12910448.86148 -10060069.76346  22895672.877    22895669.214         308.000
        11.000
 04  3  1  0 28  0.0000000  0  7G24G17G 4G 8G13G 7G10
 -14533318.01048 -11324629.68646  22721859.541    22721856.112         315.000
        11.000
  -1943184.05748  -1514166.74144  24186375.340    24186369.639         128.000
         2.000
 -14752456.70149 -11495384.00246  21968695.300    21968693.889         501.000
        24.000
   -711530.08648                                  25116655.036         116.000

 -11988763.45349  -9341835.17746  22687817.468    22687816.508         369.000
        13.000
 -24474533.27549 -19071031.73047  20402276.026    20402273.450         737.000
        68.000
 -12991313.71549 -10123081.30446  22880284.417    22880281.443         319.000
        11.000
 04  3  1  0 28 30.0000000  0  8G24G17G 4G 8G13G 7G10G 5
 -14556471.97948 -11342671.72446  22717453.011    22717449.447         307.000
        11.000
  -1986686.86048  -1548065.06544  24178093.631    24178091.636         134.000
         2.000
 -14744167.87049 -11488925.16446  21970272.755    21970271.194         499.000
        24.000
   -692228.85448                                  25120327.428         104.000

 -12006174.74849  -9355402.39846  22684504.533    22684503.356         369.000
        12.000
 -24476146.48349 -19072288.77347  20401968.944    20401966.375         733.000
        68.000
 -13071853.28148 -10185839.37346  22864957.863    22864954.714         310.000
        11.000
         -.12257                                  25160342.604          77.000

 04  3  1  0 29  0.0000000  0  7G24G17G 4G 8G13G 7G10
 -14579554.57449 -11360658.13946  22713060.905    22713057.326         319.000
        11.000
  -2030019.15148  -1581830.42544  24169849.867    24169846.241         142.000
         2.000
 -14735894.48249 -11482478.36346  21971847.135    21971845.618         497.000
        24.000
   -673250.76948                                  25123938.980         115.000

 -12023178.12349  -9368651.76246  22681268.681    22681267.345         359.000
        12.000
 -24477373.27949 -19073244.71347  20401735.615    20401732.971         735.000
        68.000
 -13152072.84348 -10248348.08646  22849692.853    22849689.472         312.000
        12.000
 04  3  1  0 29 30.0000000  0  8G24G17G 4G 8G13G 7G10G 5
 -14602569.62049 -11378591.92946  22708681.227    22708677.572         319.000
        11.000
  -2073184.66948  -1615465.87044  24161634.418    24161631.101         129.000
         2.000
 -14727640.10849 -11476046.38046  21973417.942    21973416.286         492.000
        23.000
   -654598.72848                                  25127488.766         119.000

 -12039774.49449  -9381583.97546  22678109.616    22678109.279         365.000
        12.000
 -24478214.95949 -19073900.56247  20401575.320    20401572.855         737.000
        67.000
 -13231973.25948 -10310608.10946  22834488.031    22834484.774         314.000
        12.000
         -.27058                                  25129785.333         107.000

 04  3  1  0 30  0.0000000  0  8G24G17G 4G 8G13G 7G10G 5
 -14625508.73549 -11396466.54846  22704316.256    22704312.567         324.000
        11.000
  -2116175.01648  -1648964.81544  24153453.604    24153449.832         125.000
         2.000
 -14719396.04449 -11469622.42746  21974986.549    21974985.204         493.000
        23.000
   -636263.51248                                  25130977.609         112.000

 -12055952.70049  -9394190.34846  22675031.959    22675030.709         368.000
        12.000
 -24478660.92349 -19074248.06247  20401490.633    20401487.920         734.000
        67.000
 -13311543.74149 -10372611.05946  22819346.255    22819343.530         334.000
        13.000
    -79847.60348    -62217.95044  25114596.851    25114591.093         124.000
         2.000
 04  3  1  0 30 30.0000000  0  8G24G17G 4G 8G13G 7G10G 5
 -14648378.71949 -11414287.29346  22699964.082    22699960.430         324.000
        12.000
  -2158996.67848  -1682332.30644  24145305.129    24145301.525         127.000
         2.000
 -14711168.94449 -11463211.69446  21976551.883    21976550.510         485.000
        23.000
   -618250.61948                                  25134405.640         103.000

 -12071716.00449  -9406473.41846  22672031.638    22672030.774         363.000
        12.000
 -24478715.50849 -19074290.59547  20401480.003    20401477.427         732.000
        68.000
 -13390788.19149 -10434359.95146  22804266.808    22804263.864         338.000
        13.000
   -159398.98648                                  25099453.307         131.000

 04  3  1  0 31  0.0000000  0  8G24G17G 4G 8G13G 7G10G 5
 -14671177.60949 -11432052.65446  22695625.208    22695622.338         334.000
        12.000
  -2201647.46148  -1715566.68244  24137189.276    24137185.211         127.000
         2.000
 -14702955.95549 -11456811.95946  21978115.071    21978113.560         488.000
        23.000
   -600557.13047                                  25137772.316          99.000

 -12087059.59749  -9418429.45646  22669111.620    22669111.132         368.000
        12.000
 -24478374.13049 -19074024.58547  20401545.161    20401542.539         737.000
        68.000
 -13469701.81649 -10495851.05146  22789250.333    22789246.839         330.000
        13.000
   -238648.99948                                  25084372.646         124.000

 04  3  1  0 31 30.0000000  0  8G24G17G 4G 8G13G 7G10G 5
 -14693915.66049 -11449770.59046  22691298.602    22691295.195         331.000
        12.000
  -2244137.78848  -1748675.98644  24129106.790    24129099.842         129.000
         2.000
 -14694767.19449 -11450431.09946  21979673.026    21979671.648         479.000
        22.000
   -583192.30448                                  25141076.750         108.000

 -12101991.02849  -9430064.31446  22666269.916    22666269.567         364.000
        12.000
 -24477644.80449 -19073456.27547  20401683.876    20401681.244         737.000
        68.000
 -13548292.34049 -10557090.38446  22774294.924    22774291.567         334.000
        13.000
   -317605.19948                                  25069347.087         100.000

 04  3  1  0 32  0.0000000  0  8G24G17G 4G 8G13G 7G10G 5
 -14716598.42749 -11467445.45646  22686981.896    22686978.843         334.000
        12.000
  -2286472.67048                                  24121043.316         124.000

 -14686607.44449 -11444072.84546  21981225.883    21981224.327         474.000
        22.000
   -566160.39548                                  25144318.098         113.000

 -12116512.20649  -9441379.50146  22663507.414    22663506.338         366.000
        12.000
 -24476530.29949 -19072587.82947  20401895.995    20401893.305         737.000
        69.000
 -13626561.87749 -10618079.60346  22759400.102    22759397.241         331.000
        14.000
   -396269.71647                                  25054376.887          88.000

 04  3  1  0 32 30.0000000  0  8G24G17G 4G 8G13G 7G10G 5
 -14739205.45349 -11485061.30846  22682680.171    22682676.806         334.000
        12.000
  -2328631.11048  -1814514.89044  24113023.038    24113020.610         127.000
         2.000
 -14678455.49449 -11437720.67946  21982777.499    21982775.554         469.000
        23.000
   -549439.29447                                  25147499.256          97.000

 -12130599.63749  -9452356.70646  22660826.796    22660825.689         370.000
        12.000
 -24475007.35749 -19071401.11847  20402185.751    20402183.201         744.000
        68.000
 -13704486.95549 -10678800.40946  22744571.205    22744568.489         336.000
        13.000
   -474618.33947                                  25039467.240          90.000

 04  3  1  0 33  0.0000000  0  8G24G17G 4G 8G13G 7G10G 5
 -14761745.84149 -11502625.23146  22678391.546    22678387.533         338.000
        13.000
  -2370622.71448  -1847235.57744  24105034.010    24105030.626         136.000
         2.000
 -14670320.65949 -11431381.83846  21984325.096    21984323.392         462.000
        22.000
   -533037.70147                                  25150619.959          90.000

 -12144259.67849  -9463000.87446  22658226.982    22658226.326         374.000
        12.000
 -24473083.35849 -19069901.89947  20402551.767    20402549.248         741.000
        69.000
 -13782074.77449 -10739258.42446  22729807.029    22729804.107         337.000
        13.000
   -552658.17348                                  25024617.815         112.000

 04  3  1  0 33 30.0000000  0  8G24G17G 4G 8G13G 7G10G 5
 -14784219.54349 -11520137.18246  22674113.868    22674111.129         345.000
        12.000
  -2412447.32848  -1879826.11444  24097072.982    24097070.915         127.000
         2.000
 -14662202.43749 -11425055.94646  21985869.682    21985868.205         461.000
        22.000
   -516954.32647                                  25153680.895          98.000

 -12157489.90249  -9473310.12346  22655709.271    22655708.581         375.000
        13.000
 -24470755.95749 -19068088.33847  20402994.682    20402992.232         747.000
        69.000
 -13859322.13749 -10799451.14546  22715107.122    22715104.304         332.000
        13.000
   -630385.80448                                  25009826.917         128.000

 04  3  1  0 34  0.0000000  0  8G24G17G 4G 8G13G 7G10G 5
 -14806634.30249 -11537603.21746  22669848.363    22669845.664         340.000
        13.000
  -2454112.46248  -1912292.46044  24089146.142    24089142.412         125.000
         2.000
 -14654107.91249 -11418748.52046  21987410.304    21987408.852         466.000
        22.000
   -501195.64347                                  25156679.676          96.000

 -12170294.80349  -9483287.95346  22653272.808    22653272.074         387.000
        13.000
 -24468030.30749 -19065964.45447  20403513.521    20403510.905         748.000
        69.000
 -13936234.29249 -10859382.66646  22700470.685    22700468.196         329.000
        13.000
   -707806.02348                                  24995095.190         145.000

 04  3  1  0 34 30.0000000  0  8G24G17G 4G 8G13G 7G10G 5
 -14828996.70749 -11555028.44846  22665593.409    22665590.202         345.000
        13.000
  -2495624.59348  -1944639.53544  24081245.660    24081243.533         133.000
         2.000
 -14646043.06649 -11412464.22046  21988945.223    21988943.433         462.000
        22.000
   -485767.19548                                  25159616.275         104.000

 -12182678.15549  -9492937.29946  22650916.562    22650915.422         384.000
        13.000
 -24464910.64649 -19063533.54747  20404107.152    20404104.611         752.000
        70.000
 -14012815.09349 -10919055.98546  22685899.124    22685895.627         337.000
        13.000
   -784922.42248   -611626.66744  24980421.927    24980420.105         149.000
         2.000
 04  3  1  0 35  0.0000000  0  8G24G17G 4G 8G13G 7G10G 5
 -14851296.77649 -11572405.12046  22661349.669    22661346.221         338.000
        13.000
  -2536973.48448  -1976859.40444  24073378.532    24073374.996         130.000
         2.000
 -14637997.52749 -11406194.96546  21990475.947    21990474.240         457.000
        21.000
   -470657.74848                                  25162490.778         102.000

 -12194626.74249  -9502247.87246  22648641.426    22648641.672         391.000
        13.000
 -24461384.47349 -19060785.87747  20404778.223    20404775.637         754.000
        70.000
 -14089051.83749 -10978461.21546  22671390.595    22671388.192         344.000
        14.000
   -861721.67748   -671470.22344  24965807.783    24965805.821         142.000
         2.000
 04  3  1  0 35 30.0000000  0  8G24G17G 4G 8G13G 7G10G 5
 -14873538.88449 -11589736.61546  22657117.228    22657113.894         345.000
        13.000
  -2578163.38048  -2008955.41844  24065541.525    24065536.378         126.000
         2.000
 -14629974.97649 -11399943.62046  21992003.208    21992001.057         461.000
        22.000
   -455870.42747                                  25165304.539          99.000

 -12206142.23549  -9511220.96546  22646450.760    22646450.694         400.000
        13.000
 -24457453.99849 -19057723.16747  20405526.128    20405523.569         755.000
        71.000
 -14164946.00849 -11037599.50746  22656949.048    22656946.081         347.000
        14.000
   -938205.23548                                  24951251.450         133.000

 04  3  1  0 36  0.0000000  0  8G24G17G 4G 8G13G 7G10G 5
 -14895725.45949 -11607024.84046  22652895.590    22652892.104         349.000
        13.000
  -2619196.98848  -2040929.64444  24057733.254    24057728.664         135.000
         2.000
 -14621977.68949 -11393711.96446  21993524.554    21993522.793         460.000
        22.000
   -441406.58647                                  25168056.995          90.000

 -12217224.43449  -9519856.42846  22644341.653    22644341.604         398.000
        13.000
 -24453119.50149 -19054345.63247  20406350.923    20406348.411         756.000
        70.000
 -14240497.64749 -11096470.88546  22642571.611    22642568.775         337.000
        13.000
  -1014372.58248                                  24936756.454         117.000

 04  3  1  0 36 30.0000000  0  8G24G17G 4G 8G13G 7G10G 5
 -14917857.32649 -11624270.45446  22648684.211    22648680.690         355.000
        13.000
  -2660074.61648  -2072782.30544  24049953.186    24049949.529         133.000
         2.000
 -14614005.74349 -11387500.05146  21995041.608    21995039.997         465.000
        23.000
   -427265.64848                                  25170748.842         123.000

 -12227871.06649  -9528152.48946  22642316.653    22642315.623         401.000
        14.000
 -24448379.17149 -19050651.86547  20407253.031    20407250.499         755.000
        70.000
 -14315704.93549 -11155073.94046  22628260.288    22628257.596         348.000
        14.000
  -1090221.29248                                  24922323.320         122.000

 04  3  1  0 37  0.0000000  0  8G24G17G 4G 8G13G 7G10G 5
 -14939928.21249 -11641468.53446  22644483.285    22644480.232         346.000
        13.000
  -2700790.19748  -2104508.73844  24042203.726    24042201.363         134.000
         2.000
 -14606052.40149 -11381302.63746  21996554.934    21996553.419         464.000
        22.000
   -413440.46848                                  25173379.066         132.000

 -12238073.28949  -9536102.26146  22640375.597    22640374.288         405.000
        15.000
 -24443224.87549 -19046635.52647  20408233.914    20408231.265         753.000
        70.000
 -14390559.12049 -11213401.84746  22614015.781    22614013.151         348.000
        14.000
  -1165742.52448                                  24907952.226         131.000

 04  3  1  0 37 30.0000000  0  8G24G17G 4G 8G13G 7G10G 5
 -14961944.19449 -11658623.83946  22640293.675    22640290.969         354.000
        13.000
  -2741349.88848  -2136113.68744  24034486.345    24034482.757         128.000
         2.000
 -14598123.46949 -11375124.24346  21998064.363    21998062.311         465.000
        23.000
   -399935.96148                                  25175948.494         103.000

 -12247834.67649  -9543708.52346  22638517.644    22638516.647         402.000
        14.000
 -24437660.47449 -19042299.63047  20409292.629    20409290.103         750.000
        70.000
 -14465063.78749 -11271457.40446  22599838.201    22599835.270         359.000
        14.000
  -1240939.44448                                  24893642.459         136.000

 04  3  1  0 38  0.0000000  0  8G24G17G 4G 8G13G 7G10G 5
 -14983914.12449 -11675743.25146  22636113.122    22636110.348         357.000
        14.000
  -2781762.48448  -2167604.03744  24026795.083    24026792.351         125.000
         2.000
 -14590227.32649 -11368971.39946  21999566.601    21999564.857         471.000
        23.000
   -386759.72847                                  25178455.976          98.000

 -12257160.99249  -9550975.76446  22636743.125    22636741.700         395.000
        15.000
 -24431692.54849 -19037649.29947  20410428.394    20410425.778         751.000
        70.000
 -14539225.14349 -11329245.46046  22585725.776    22585722.945         368.000
        15.000
  -1315817.89948  -1025311.31144  24879393.088    24879393.860         149.000
         1.000
 04  3  1  0 38 30.0000000  0  8G24G17G 4G 8G13G 7G10G 5
 -15005834.24449 -11692823.85946  22631942.037    22631939.223         361.000
        13.000
  -2822024.16148  -2198976.70744  24019136.201    24019131.089         130.000
         2.000
 -14582359.40949 -11362840.54846  22001063.782    22001062.116         470.000
        22.000
   -373906.48147                                  25180901.844          94.000

 -12266046.19149  -9557899.28246  22635052.093    22635050.767         391.000
        15.000
 -24425315.02849 -19032679.79747  20411641.818    20411639.324         749.000
        69.000
 -14613036.63949 -11386760.88346  22571680.296    22571677.566         382.000
        14.000
  -1390371.18248  -1083404.75044  24865210.171    24865207.033         163.000
         2.000
 04  3  1  0 39  0.0000000  0  8G24G17G 4G 8G13G 7G10G 5
 -15027700.73749 -11709862.67246  22627780.942    22627778.012         360.000
        13.000
  -2862130.76348  -2230228.60444  24011501.413    24011498.965         131.000
         2.000
 -14574515.21449 -11356728.17746  22002556.596    22002554.655         462.000
        22.000
   -361371.14448                                  25183287.612         101.000

 -12274483.16049  -9564473.52746  22633446.344    22633445.386         396.000
        14.000
 -24418521.82849 -19027386.39247  20412934.509    20412932.012         746.000
        70.000
 -14686491.84549 -11443998.68746  22557701.880    22557699.015         371.000
        15.000
  -1464592.45748  -1141239.50444  24851084.302    24851083.175         164.000
         2.000
 04  3  1  0 39 30.0000000  0  8G24G17G 4G 8G13G 7G10G 5
 -15049510.66049 -11726857.40546  22623630.752    22623627.529         356.000
        13.000
  -2902079.89948  -2261357.77244  24003902.722    24003896.873         135.000
         3.000
 -14566691.60949 -11350631.83746  22004045.016    22004043.426         465.000
        21.000
   -349149.95348                                  25185612.355         100.000

 -12282466.91049  -9570694.61846  22631926.693    22631926.310         401.000
        14.000
 -24411308.23549 -19021765.40847  20414307.243    20414304.820         750.000
        70.000
 -14759585.70949 -11500954.92446  22543792.728    22543789.955         380.000
        15.000
  -1538476.29448  -1198811.33444  24837026.117    24837023.393         156.000
         2.000
 04  3  1  0 40  0.0000000  0  8G24G17G 4G 8G13G 7G10G 5
 -15071273.27849 -11743815.26946  22619489.967    22619486.397         359.000
        13.000
  -2941880.41848  -2292371.14944  23996326.723    23996323.598         141.000
         3.000
 -14558897.04149 -11344558.04546  22005528.991    22005526.764         472.000
        19.000
   -337250.49948                                  25187877.696         113.000

 -12290003.46649  -9576567.24846  22630492.961    22630491.971         398.000
        14.000
 -24403680.93349 -19015822.04947  20415758.786    20415756.194         747.000
        68.000
 -14832324.71449 -11557634.64646  22529950.801    22529948.102         385.000
        16.000
  -1612028.48148  -1256124.73144  24823032.069    24823026.119         134.000
         2.000
 04  3  1  0 40 30.0000000  0  8G24G17G 4G 8G13G 7G10G 5
 -15092992.22249 -11760739.10646  22615356.276    22615353.189         352.000
        13.000
  -2981535.90148  -2323271.53144  23988782.714    23988776.122         128.000
         2.000
 -14551134.64049 -11338509.55246  22007005.347    22007003.981         473.000
        21.000
   -325675.25447                                  25190079.759          99.000

 -12297094.18349  -9582092.46446  22629143.988    22629142.691         395.000
        14.000
 -24395641.49749 -19009557.55747  20417288.529    20417286.095         749.000
        69.000
 -14904710.20049 -11614038.90146  22516176.758    22516173.549         387.000
        17.000
  -1685249.94548                                  24809093.259         124.000

 04  3  1  0 41  0.0000000  0  8G24G17G 4G 8G13G 7G10G 5
 -15114666.39649 -11777628.05746  22611231.859    22611228.943         355.000
        13.000
  -3021045.57748  -2354058.29144  23981261.713    23981257.837         134.000
         2.000
 -14543402.85949 -11332484.77246  22008476.889    22008475.111         467.000
        22.000
   -314422.05147                                  25192221.628          99.000

 -12303735.50449  -9587267.51046  22627880.116    22627879.005         399.000
        14.000
 -24387186.93549 -19002969.58447  20418897.441    20418894.866         748.000
        69.000
 -14976738.56449 -11670164.87446  22502469.553    22502466.912         389.000
        17.000
  -1758137.11848                                  24795222.468         118.000

 04  3  1  0 41 30.0000000  0  8G24G17G 4G 8G13G 7G10G 5
 -15136296.02449 -11794482.29646  22607115.840    22607112.640         350.000
        13.000
  -3060409.52648  -2384731.45644  23973769.806    23973767.179         137.000
         3.000
 -14535701.33949 -11326483.57646  22009942.103    22009940.853         478.000
        22.000
   -303489.48247                                  25194301.248          92.000

 -12309925.04449  -9592090.51146  22626702.003    22626701.125         405.000
        14.000
 -24378315.34549 -18996056.65447  20420585.626    20420583.128         751.000
        69.000
 -15048407.46949 -11726010.75446  22488831.830    22488828.851         392.000
        17.000
  -1830687.39848                                  24781417.255         131.000

 04  3  1  0 42  0.0000000  0  8G24G17G 4G 8G13G 7G10G 5
 -15157880.45049 -11811301.32346  22603008.524    22603005.333         354.000
        13.000
  -3099626.91048  -2415290.42044  23966308.735    23966304.778         143.000
         3.000
 -14528028.61249 -11320504.82246  22011402.749    22011400.824         476.000
        23.000
   -292875.76847                                  25196321.431          96.000

 -12315659.46649  -9596558.88146  22625610.825    22625609.816         397.000
        14.000
 -24369023.76249 -18988816.45847  20422353.752    20422351.317         753.000
        69.000
 -15119713.81049 -11781574.12646  22475262.180    22475259.509         386.000
        17.000
  -1902896.73948  -1482775.24844  24767677.117    24767675.692         141.000
         1.000
 04  3  1  0 42 30.0000000  0  8G24G17G 4G 8G13G 7G10G 5
 -15179416.77649 -11828082.85946  22598910.189    22598907.087         354.000
        13.000
  -3138694.81848  -2445732.93044  23958872.559    23958869.909         140.000
         2.000
 -14520381.43449 -11314545.97546  22012857.992    22012856.028         477.000
        23.000
   -282576.58747                                  25198281.231          96.000

 -12320933.16549  -9600668.24546  22624607.431    22624606.113         391.000
        14.000
 -24359307.30049 -18981245.18647  20424202.506    20424200.150         747.000
        69.000
 -15190652.16249 -11836850.73546  22461763.527    22461760.528         388.000
        17.000
  -1974759.69948  -1538772.42144  24754003.563    24754001.361         163.000
         2.000
 04  3  1  0 43  0.0000000  0  8G24G17G 4G 8G13G 7G10G 5
 -15200910.31749 -11844831.05446  22594820.054    22594817.105         358.000
        13.000
  -3177618.99048  -2476063.44544  23951466.729    23951463.733         150.000
         3.000
 -14512764.37349 -11308610.59946  22014307.154    22014305.809         488.000
        23.000
   -272596.10548                                  25200180.374         101.000

 -12325749.43449  -9604421.16946  22623690.663    22623689.544         389.000
        14.000
 -24349169.44749 -18973345.55847  20426131.976    20426129.457         751.000
        69.000
 -15261225.88749 -11891843.23846  22448333.516    22448330.830         392.000
        17.000
  -2046278.82048  -1594501.59344  24740392.398    24740392.038         167.000
         2.000
 04  3  1  0 43 30.0000000  0  8G24G17G 4G 8G13G 7G10G 5
 -15222367.89049 -11861551.22746  22590736.603    22590733.765         354.000
        13.000
  -3216405.98448  -2506287.04944  23944086.863    23944082.392         145.000
         3.000
 -14505183.71149 -11302703.58946  22015749.540    22015748.235         488.000
        23.000
   -262939.81748                                  25202018.445         104.000

 -12330112.29849  -9607820.78946  22622860.397    22622859.251         392.000
        14.000
 -24338614.76349 -18965121.12947  20428140.376    20428137.876         751.000
        69.000
 -15331439.08049 -11946554.79746  22434972.804    22434969.611         391.000
        17.000
  -2117458.17848  -1649966.04544  24726846.603    24726846.536         150.000
         2.000
 04  3  1  0 44  0.0000000  0  8G24G17G 4G 8G13G 7G10G 5
 -15243796.35149 -11878248.72146  22586658.557    22586656.153         358.000
        13.000
  -3255063.36748  -2536409.66244  23936730.242    23936726.498         147.000
         2.000
 -14497645.98849 -11296830.03946  22017183.891    22017182.645         488.000
        23.000
   -253613.49648                                  25203792.795         117.000

 -12334026.46749  -9610870.77646  22622115.408    22622114.455         391.000
        14.000
 -24327648.69349 -18956576.13247  20430227.234    20430224.599         744.000
        68.000
 -15401296.73149 -12000989.31746  22421678.876    22421676.083         390.000
        18.000
  -2188302.61848                                  24713365.829         138.000

 04  3  1  0 44 30.0000000  0  8G24G17G 4G 8G13G 7G10G 5
 -15265186.63149 -11894916.45646  22582588.186    22582585.522         357.000
        13.000
  -3293581.41848  -2566423.72144  23929402.884    23929397.091         147.000
         3.000
 -14490141.21849 -11290982.15946  22018612.199    22018610.731         484.000
        23.000
   -244606.30848                                  25205506.422         104.000

 -12337480.07449  -9613561.88246  22621458.005    22621457.290         391.000
        14.000
 -24316259.54149 -18947701.46647  20432394.278    20432391.888         745.000
        69.000
 -15470786.92449 -12055137.50446  22408455.722    22408452.574         386.000
        18.000
  -2258799.12948  -1760101.80544  24699951.626    24699950.566         135.000
         2.000
 04  3  1  0 45  0.0000000  0  8G24G17G 4G 8G13G 7G10G 5
 -15286542.65349 -11911557.50346  22578524.142    22578521.503         353.000
        13.000
  -3331964.30948  -2596332.44844  23922096.129    23922092.367         145.000
         2.000
 -14482672.56949 -11285162.42446  22020033.654    22020031.858         478.000
        23.000
   -235920.94748                                  25207159.407         104.000

 -12340474.64749  -9615895.30846  22620888.062    22620887.261         388.000
        14.000
 -24304449.54849 -18938498.87047  20434641.615    20434639.227         742.000
        68.000
 -15539911.38449 -12109000.69946  22395301.795    22395298.439         378.000
        17.000
  -2328949.35248                                  24686601.396         135.000

 04  3  1  0 45 30.0000000  0  8G24G17G 4G 8G13G 7G10G 5
 -15307856.68349 -11928165.82346  22574468.932    22574465.848         358.000
        13.000
  -3370204.60848  -2626130.09744  23914817.554    23914815.627         145.000
         2.000
 -14475231.97749 -11279364.55146  22021449.480    22021447.741         479.000
        22.000
   -227548.31348                                  25208752.584         102.000

 -12343000.45949  -9617863.46046  22620408.219    22620406.849         396.000
        14.000
 -24292209.22849 -18928960.95447  20436970.976    20436968.461         740.000
        68.000
 -15608660.31449 -12162571.27646  22382218.857    22382215.922         380.000
        17.000
  -2398743.16348                                  24673320.161         133.000

 04  3  1  0 46  0.0000000  0  8G24G17G 4G 8G13G 7G10G 5
 -15329138.09849 -11944748.74546  22570419.272    22570416.290         361.000
        13.000
  -3408311.53948  -2655823.76244  23907568.530    23907563.592         143.000
         3.000
 -14467828.05549 -11273595.25546  22022858.364    22022856.841         482.000
        22.000
   -219496.41748                                  25210285.211         105.000

 -12345064.30049  -9619471.63646  22620015.368    22620014.253         403.000
        14.000
 -24279545.66349 -18919093.24047  20439380.777    20439378.297         740.000
        68.000
 -15677040.58549 -12215854.57746  22369206.931    22369203.545         380.000
        17.000
  -2468186.77448                                  24660105.183         138.000

 04  3  1  0 46 30.0000000  0  8G24G17G 4G 8G13G 7G10G 5
 -15350386.14149 -11961305.63846  22566375.739    22566372.619         356.000
        13.000
  -3446284.92148  -2685413.42144  23900341.899    23900337.952         149.000
         2.000
 -14460459.89049 -11267853.81846  22024260.098    22024258.564         471.000
        22.000
   -211763.54148                                  25211756.356         113.000

 -12346663.61449  -9620717.84046  22619711.034    22619709.699         397.000
        15.000
 -24266456.81149 -18908894.12947  20441871.456    20441869.030         741.000
        68.000
 -15745049.52649 -12268848.54646  22356265.142    22356261.996         389.000
        18.000
  -2537277.61548  -1977097.98944  24646960.127    24646957.911         155.000
         1.000
 04  3  1  0 47  0.0000000  0  8G24G17G 4G 8G13G 7G10G 5
 -15371595.92549 -11977832.73346  22562339.546    22562336.414         353.000
        13.000
  -3484119.38548  -2714894.78544  23893141.555    23893137.913         145.000
         3.000
 -14453121.30849 -11262135.43946  22025656.610    22025655.294         477.000
        22.000
   -204342.97648                                  25213168.043         109.000

 -12347790.62749  -9621596.02146  22619496.882    22619495.347         400.000
        15.000
 -24252935.39149 -18898357.95347  20444444.672    20444442.172         744.000
        67.000
 -15812679.66649 -12321547.33846  22343394.967    22343392.367         394.000
        18.000
  -2606007.29148  -2030653.59844  24633881.051    24633879.034         154.000
         2.000
 04  3  1  0 47 30.0000000  0  8G24G17G 4G 8G13G 7G10G 5
 -15392775.26549 -11994336.10946  22558309.293    22558306.209         355.000
        13.000
  -3521822.99048  -2744274.23944  23885967.761    23885963.162         144.000
         2.000
 -14445819.53049 -11256445.73846  22027046.217    22027044.673         472.000
        21.000
   -197241.11848                                  25214520.040         113.000

 -12348451.13449  -9622110.68346  22619370.690    22619369.459         394.000
        15.000
 -24238987.49949 -18887489.46247  20447098.832    20447096.272         740.000
        68.000
 -15879936.57049 -12373955.30146  22330596.613    22330593.552         386.000
        18.000
  -2674381.06648                                  24620866.889         129.000

 04  3  1  0 48  0.0000000  0  8G24G17G 4G 8G13G 7G10G 5
 -15413922.44749 -12010814.41346  22554284.877    22554282.155         359.000
        13.000
  -3559394.47248  -2773550.66844  23878818.429    23878814.096         156.000
         3.000
 -14438552.74749 -11250783.30146  22028428.890    22028427.382         466.000
        22.000
   -190455.41148                                  25215810.986         110.000

 -12348641.53849  -9622259.04546  22619334.922    22619333.332         397.000
        15.000
 -24224609.98749 -18876286.20447  20449834.669    20449832.058         730.000
        68.000
 -15946816.74249 -12426069.70146  22317869.890    22317866.610         389.000
        18.000
  -2742395.43848  -2136930.01344  24607929.143    24607924.442         133.000
         2.000
 04  3  1  0 48 30.0000000  0  8G24G17G 4G 8G13G 7G10G 5
 -15435036.95349 -12027267.26246  22550267.153    22550264.002         356.000
        13.000
  -3596833.38648  -2802723.84644  23871693.446    23871688.802         143.000
         3.000
 -14431319.36749 -11245146.89946  22029805.273    22029803.949         469.000
        22.000
   -183983.34748                                  25217042.783         112.000

 -12348358.59849  -9622038.55646  22619388.508    22619387.043         395.000
        15.000
 -24209800.18849 -18864746.10047  20452653.056    20452650.437         737.000
        69.000
 -16013317.28749 -12477888.29146  22305215.668    22305212.204         398.000
        18.000
  -2810046.84148                                  24595050.882         138.000

 04  3  1  0 49  0.0000000  0  8G24G17G 4G 8G13G 7G10G 5
 -15456126.61449 -12043700.74846  22546254.362    22546251.068         365.000
        13.000
  -3634147.60348  -2831799.86144  23864591.745    23864588.833         155.000
         3.000
 -14424126.57049 -11239542.11546  22031174.696    22031172.754         466.000
        22.000
   -177831.55748                                  25218213.316         106.000

 -12347608.06849  -9621453.71546  22619531.081    22619530.034         401.000
        15.000
 -24194564.22949 -18852873.91947  20455552.425    20455549.711         735.000
        68.000
 -16079443.83749 -12529415.46146  22292631.498    22292628.728         411.000
        19.000
  -2877340.55348  -2242082.03844  24582249.115    24582245.039         135.000
         2.000
 04  3  1  0 49 30.0000000  0  8G24G17G 4G 8G13G 7G10G 5
 -15477194.25149 -12060117.07946  22542244.892    22542241.878         363.000
        13.000
  -3671340.11848  -2860781.02644  23857514.547    23857511.454         154.000
         3.000
 -14416976.46549 -11233970.59946  22032534.973    22032533.019         454.000
        22.000
   -172001.30847                                  25219322.589          94.000

 -12346390.79249  -9620505.17746  22619762.154    22619761.505         398.000
        14.000
 -24178903.26449 -18840670.56747  20458532.604    20458529.884         731.000
        68.000
 -16145197.16749 -12580651.80746  22280119.215    22280116.426         422.000
        20.000
  -2944276.95148  -2294240.24244  24569513.662    24569508.171         146.000
         2.000
 04  3  1  0 50  0.0000000  0  8G24G17G 4G 8G13G 7G10G 5
 -15498227.69649 -12076506.76246  22538242.245    22538239.471         365.000
        13.000
  -3708398.97948  -2889658.03044  23850462.361    23850459.040         151.000
         3.000
 -14409856.58249 -11228422.63246  22033889.865    22033888.241         466.000
        22.000
   -166479.49047                                  25220373.272          91.000

 -12344692.55249  -9619181.86046  22620085.785    22620084.659         397.000
        15.000
 -24162803.50849 -18828125.30147  20461596.260    20461593.537         728.000
        68.000
 -16210563.25149 -12631586.40846  22267681.141    22267677.893         437.000
        20.000
  -3010841.22748  -2346108.47544  24556842.811    24556842.211         166.000
         3.000
 04  3  1  0 50 30.0000000  0  8G24G17G 4G 8G13G 7G10G 5
 -15519229.08849 -12092871.46546  22534245.667    22534242.711         360.000
        13.000
  -3745326.76748  -2918432.93944  23843436.981    23843432.258         158.000
         3.000
 -14402768.34349 -11222899.33246  22035238.488    22035237.322         472.000
        22.000
   -161266.58748                                  25221365.842         114.000

 -12342513.44349  -9617483.83546  22620500.184    22620499.633         405.000
        14.000
 -24146265.35449 -18815238.42947  20464743.262    20464740.596         725.000
        68.000
 -16275542.10149 -12682219.27046  22255315.497    22255312.386         429.000
        20.000
  -3077033.25948  -2397686.66044  24544248.311    24544245.550         155.000
         2.000
 04  3  1  0 51  0.0000000  0  8G24G17G 4G 8G13G 7G10G 5
 -15540205.08949 -12109216.39246  22530254.240    22530251.386         365.000
        13.000
  -3782129.87548  -2947110.66444  23836434.824    23836428.820         160.000
         3.000
 -14395717.42349 -11217405.10346  22036580.624    22036578.810         463.000
        21.000
   -156367.47248                                  25222297.911         103.000

 -12339858.04649  -9615414.68246  22621005.144    22621004.778         401.000
        14.000
 -24129293.64949 -18802013.72347  20467972.815    20467970.167         724.000
        68.000
 -16340138.07449 -12732553.77746  22243023.767    22243020.328         437.000
        20.000
  -3142857.13948  -2448978.01644  24531723.060    24531719.403         143.000
         2.000
 04  3  1  0 51 30.0000000  0  8G24G17G 4G 8G13G 7G10G 5
 -15561161.71149 -12125546.21746  22526265.670    22526263.286         364.000
        13.000
  -3818814.68848  -2975696.21244  23829454.705    23829447.777         153.000
         3.000
 -14388709.25249 -11211944.18646  22037914.233    22037912.109         453.000
        22.000
   -151787.12347                                  25223169.605          91.000

 -12336730.19349  -9612977.37146  22621600.979    22621600.153         404.000
        14.000
 -24111892.77049 -18788454.59347  20471284.127    20471281.522         725.000
        67.000
 -16404355.31849 -12782593.17646  22230803.058    22230800.127         439.000
        20.000
  -3208316.17548  -2499985.03944  24519266.129    24519263.225         147.000
         2.000
 04  3  1  0 52  0.0000000  0  8G24G17G 4G 8G13G 7G10G 5
 -15582095.65749 -12141858.37246  22522282.400    22522280.067         371.000
        13.000
  -3855378.42948  -3004187.42944  23822493.323    23822489.851         156.000
         3.000
 -14381740.30649 -11206513.83346  22039239.910    22039238.303         455.000
        21.000
   -147520.97747                                  25223981.188          76.000

 -12333124.88949  -9610168.03646  22622287.249    22622286.278         406.000
        14.000
 -24094058.27149 -18774557.58047  20474678.084    20474675.318         723.000
        67.000
 -16468189.03449 -12832333.72546  22218656.578    22218653.177         449.000
        20.000
  -3273404.68748  -2550703.34244  24506880.004    24506877.563         161.000
         2.000
 04  3  1  0 52 30.0000000  0  7G24G17G 4G13G 7G10G 5
 -15603014.23349 -12158158.55146  22518301.436    22518299.020         363.000
        13.000
  -3891828.03548  -3032589.73444  23815559.369    23815554.056         162.000
         3.000
 -14374816.55049 -11201118.69446  22040557.559    22040556.055         464.000
        22.000
 -12329046.99249  -9606990.43846  22623062.565    22623062.017         400.000
        14.000
 -24075795.22749 -18760326.63647  20478153.316    20478150.658         722.000
        66.000
 -16531643.90449 -12881779.06646  22206581.159    22206578.256         464.000
        21.000
  -3338127.40148  -2601136.62944  24494561.704    24494560.531         153.000
         2.000
 04  3  1  0 53  0.0000000  0  7G24G17G 4G13G 7G10G 5
 -15623921.27549 -12174449.73546  22514323.197    22514320.763         368.000
        13.000
  -3928167.75148  -3060906.37944  23808641.172    23808638.486         156.000
         3.000
 -14367941.30749 -11195761.36146  22041865.712    22041864.199         459.000
        22.000
 -12324498.54549  -9603446.18446  22623927.873    22623927.657         406.000
        15.000
 -24057106.07849 -18745763.66447  20481709.524    20481706.995         721.000
        67.000
 -16594722.10449 -12930930.90246  22194577.205    22194574.570         452.000
        21.000
  -3402485.96348  -2651286.15244  24482314.919    24482313.980         152.000
         2.000
 04  3  1  0 53 30.0000000  0  7G24G17G 4G13G 7G10G 5
 -15644795.00349 -12190714.96246  22510351.214    22510348.585         368.000
        13.000
  -3964376.24348  -3089120.78344  23801750.797    23801748.365         157.000
         3.000
 -14361092.21649 -11190424.39946  22043168.916    22043167.655         461.000
        22.000
 -12319455.97649  -9599516.89246  22624887.713    22624887.156         403.000
        14.000
 -24037967.60449 -18730850.56747  20485351.502    20485349.047         726.000
        67.000
 -16657399.82049 -12979770.66646  22182649.996    22182647.582         456.000
        21.000
  -3466456.53848  -2701133.35844  24470142.832    24470140.364         149.000
         2.000
 04  3  1  0 54  0.0000000  0  7G24G17G 4G13G 7G10G 5
 -15665645.39149 -12206962.00346  22506383.664    22506381.020         367.000
        13.000
  -4000463.55448  -3117240.73744  23794886.247    23794881.031         155.000
         3.000
 -14354278.26949 -11185114.82646  22044466.126    22044464.291         460.000
        21.000
 -12313927.22649  -9595208.76246  22625939.871    22625939.289         403.000
        14.000
 -24018388.02249 -18715593.74547  20489077.371    20489074.840         724.000
        67.000
 -16719684.90449 -13028304.48746  22170797.823    22170795.178         455.000
        21.000
  -3530046.06148  -2750683.64144  24458041.686    24458039.548         160.000
         2.000
 04  3  1  0 54 30.0000000  0  8G24G17G 4G28G13G 7G10G 5
 -15686475.42249 -12223193.18446  22502419.459    22502416.933         363.000
        13.000
  -4036433.00048  -3145268.87444  23788041.189    23788035.991         149.000
         3.000
 -14347501.95649 -11179834.57846  22045755.399    22045753.863         465.000
        22.000
         -.01158          .56955  23360011.170    23360009.054         280.000
         8.000
 -12307913.65749  -9590522.85346  22627084.216    22627083.809         408.000
        14.000
 -23998369.08349 -18699994.57147  20492886.887    20492884.370         727.000
        67.000
 -16781578.70249 -13076533.40746  22159020.086    22159016.927         448.000
        21.000
  -3593255.68348  -2799937.89944  24446013.571    24446011.434         167.000
         3.000
 04  3  1  0 55  0.0000000  0  8G24G17G 4G28G13G 7G10G 5
 -15707285.70349 -12239408.97846  22498459.506    22498456.856         361.000
        14.000
  -4072285.65648  -3173206.00044  23781217.438    23781213.247         153.000
         3.000
 -14340763.66849 -11174583.95046  22047037.345    22047036.027         461.000
        22.000
     95071.86448     74082.54045  23378100.897    23378100.558         279.000
         7.000
 -12301414.29749  -9585458.41046  22628321.194    22628320.555         404.000
        15.000
 -23977910.11149 -18684052.51247  20496780.194    20496777.723         733.000
        67.000
 -16843080.25149 -13124456.67846  22147316.186    22147313.677         451.000
        21.000
  -3656083.94448  -2848894.99644  24434057.050    24434055.887         168.000
         3.000
 04  3  1  0 55 30.0000000  0  8G24G17G 4G28G13G 7G10G 5
 -15728086.48849 -12255617.37246  22494501.842    22494498.668         363.000
        14.000
  -4108031.88248  -3201060.19744  23774413.096    23774411.437         158.000
         3.000
 -14334072.43249 -11169370.00246  22048310.889    22048309.527         467.000
        22.000
    190160.05548    148177.22045  23396197.288    23396195.510         279.000
         8.000
 -12294437.16849  -9580021.66046  22629649.533    22629648.158         398.000
        14.000
 -23957019.70349 -18667774.27247  20500755.604    20500753.036         732.000
        67.000
 -16904197.77549 -13172080.70446  22135686.222    22135683.436         450.000
        21.000
  -3718538.44748  -2897560.84144  24422174.328    24422170.857         169.000
         3.000
 04  3  1  0 56  0.0000000  0  8G24G17G 4G28G13G 7G10G 5
 -15748867.77549 -12271810.57646  22490547.263    22490544.014         361.000
        14.000
  -4143661.72648  -3228823.70044  23767636.629    23767631.619         161.000
         3.000
 -14327417.44449 -11164184.29146  22049577.255    22049575.830         467.000
        22.000
    285273.09848    222291.26045  23414295.934    23414294.380         273.000
         8.000
 -12286970.55649  -9574203.51146  22631069.241    22631068.917         395.000
        13.000
 -23935686.18449 -18651150.75047  20504815.154    20504812.534         726.000
        67.000
 -16964919.22949 -13219396.10546  22124131.621    22124128.525         447.000
        21.000
  -3780606.85048  -2945925.85644  24410360.103    24410359.742         169.000
         3.000
 04  3  1  0 56 30.0000000  0  8G24G17G 4G28G13G 7G10G 5
 -15769637.46449 -12287994.73946  22486594.683    22486591.656         360.000
        14.000
  -4179183.63748  -3256503.09444  23760874.074    23760872.175         164.000
         3.000
 -14320805.97449 -11159032.49146  22050835.464    22050833.951         469.000
        22.000
    380401.10848    296416.96545  23432397.767    23432396.911         273.000
         7.000
 -12279020.89349  -9568008.95846  22632581.867    22632581.782         394.000
        13.000
 -23913916.35349 -18634187.24247  20508957.846    20508955.181         724.000
        66.000
 -17025250.94349 -13266407.81846  22112650.836    22112647.528         436.000
        21.000
  -3842294.87948  -2993994.41844  24398624.785    24398621.113         162.000
         3.000
 04  3  1  0 57  0.0000000  0  8G24G17G 4G28G13G 7G10G 5
 -15790387.57849 -12304163.63946  22482646.102    22482642.899         358.000
        14.000
  -4214590.11148  -3284092.52544  23754138.845    23754133.925         158.000
         3.000
 -14314229.69749 -11153908.11446  22052086.905    22052085.324         467.000
        22.000
    475550.05548    370558.98645  23450504.730    23450503.308         276.000
         7.000
 -12270578.42149  -9561430.39646  22634188.415    22634187.916         383.000
        13.000
 -23891700.90449 -18616876.49947  20513185.382    20513182.739         729.000
        67.000
 -17085183.30049 -13313108.33846  22101245.678    22101242.618         429.000
        21.000
  -3903592.37648  -3041758.70144  24386957.823    24386956.137         159.000
         3.000
 04  3  1  0 57 30.0000000  0  8G24G17G 4G28G13G 7G10G 5
 -15811127.35349 -12320324.48446  22478699.099    22478696.235         356.000
        14.000
  -4249890.35248  -3311599.17644  23747419.379    23747415.720         148.000
         3.000
 -14307696.74849 -11148817.49846  22053330.350    22053328.488         468.000
        22.000
    570709.28348    444709.02445  23468613.533    23468611.473         272.000
         7.000
 -12261650.50349  -9554473.57046  22635887.303    22635887.049         386.000
        13.000
 -23869047.49849 -18599224.49247  20517496.085    20517493.458         726.000
        66.000
 -17144723.35849 -13359503.16846  22089915.804    22089912.548         428.000
        21.000
  -3964506.52248  -3089224.26944  24375369.903    24375364.585         171.000
         3.000
 04  3  1  0 58  0.0000000  0  8G24G17G 4G28G13G 7G10G 5
 -15831863.47949 -12336482.49246  22474753.371    22474750.331         353.000
        14.000
  -4285091.24048  -3339028.43944  23740719.748    23740718.193         164.000
         3.000
 -14301213.08949 -11143765.29146  22054563.843    22054562.233         469.000
        23.000
    665870.53948    518860.64145  23486720.861    23486719.995         274.000
         7.000
 -12252242.16149  -9547142.38046  22637677.847    22637677.548         390.000
        13.000
 -23845961.50949 -18581235.41147  20521889.123    20521886.487         723.000
        66.000
 -17203876.54349 -13405596.54246  22078659.200    22078656.109         428.000
        21.000
  -4025041.76448  -3136394.58344  24363847.678    24363845.506         180.000
         3.000
 04  3  1  0 58 30.0000000  0  8G24G17G 4G28G13G 7G10G 5
 -15852593.02949 -12352635.36446  22470808.256    22470805.791         356.000
        13.000
  -4320190.55248  -3366378.54745  23734041.620    23734039.689         171.000
         4.000
 -14294775.24949 -11138748.78646  22055788.550    22055787.564         476.000
        22.000
    761034.81848    593014.59945  23504831.350    23504829.029         267.000
         7.000
 -12242348.99449  -9539433.42546  22639559.982    22639560.171         388.000
        11.000
 -23822438.86649 -18562906.08047  20526365.444    20526362.764         725.000
        66.000
 -17262638.17849 -13451384.80846  22067477.473    22067474.167         429.000
        21.000
  -4085192.91448  -3183265.60844  24352403.187    24352399.022         178.000
         3.000
 04  3  1  0 59  0.0000000  0  8G24G17G 4G28G13G 7G10G 5
 -15873311.94949 -12368779.96646  22466865.656    22466862.761         347.000
        13.000
  -4355184.18048  -3393646.29444  23727383.962    23727379.730         156.000
         3.000
 -14288378.02049 -11133763.92546  22057006.710    22057004.947         480.000
        23.000
    856204.47848    667172.76045  23522940.593    23522939.704         276.000
         7.000
 -12231965.23249  -9531342.14646  22641536.703    22641535.887         379.000
        13.000
 -23798473.96549 -18544232.13147  20530925.860    20530923.146         726.000
        66.000
 -17321002.14249 -13496863.20146  22056370.745    22056367.834         431.000
        21.000
  -4144953.70748  -3229832.46344  24341031.087    24341026.967         180.000
         3.000
 04  3  1  0 59 30.0000000  0  8G24G17G 4G28G13G 7G10G 5
 -15894014.23449 -12384911.59046  22462926.321    22462923.321         350.000
        13.000
  -4390066.80548  -3420827.55144  23720744.831    23720741.421         154.000
         3.000
 -14282015.12249 -11128805.82546  22058217.578    22058215.703         479.000
        23.000
    951383.47048    741338.20045  23541052.705    23541051.344         269.000
         7.000
 -12221083.77249  -9522863.07346  22643606.893    22643606.443         375.000
        12.000
 -23774059.87849 -18525208.16947  20535571.385    20535568.989         725.000
        65.000
 -17378961.43749 -13542026.27546  22045340.993    22045338.359         432.000
        21.000
  -4204315.98848  -3276088.80244  24329733.138    24329731.215         188.000
         3.000
 04  3  1  1  0  0.0000000  0  8G24G17G 4G28G13G 7G10G 5
 -15914709.05049 -12401037.40846  22458987.738    22458985.123         351.000
        12.000
  -4424847.66548  -3447929.50044  23714125.578    23714123.223         161.000
         3.000
 -14275694.50149 -11123880.66146  22059420.203    22059418.275         472.000
        23.000
   1046561.33048    815502.74245  23559165.167    23559163.030         267.000
         7.000
 -12209711.83249  -9514001.80946  22645770.814    22645770.450         373.000
        12.000
 -23749204.16849 -18505840.08247  20540301.547    20540299.009         730.000
        65.000
 -17436523.16849 -13586879.55146  22034387.734    22034384.827         436.000
        21.000
  -4263286.95848  -3322040.21244  24318511.182    24318508.965         181.000
         3.000
 04  3  1  1  0 30.0000000  0  8G24G17G 4G28G13G 7G10G 5
 -15935386.82949 -12417149.95246  22455053.579    22455050.368         353.000
        13.000
  -4459517.88548  -3474945.23644  23707526.257    23707525.459         158.000
         3.000
 -14269406.24949 -11118980.72046  22060616.447    22060614.761         472.000
        23.000
   1141745.59048    889672.28045  23577278.010    23577275.774         259.000
         7.000
 -12197838.52449  -9504749.87346  22648031.082    22648030.101         379.000
        12.000
 -23723896.37249 -18486119.71947  20545117.353    20545114.817         726.000
        65.000
 -17493676.59049 -13631414.67146  22023511.503    22023508.798         438.000
        21.000
  -4321855.02848  -3367677.62944  24307363.159    24307362.932         167.000
         3.000
 04  3  1  1  1  0.0000000  0  8G24G17G 4G28G13G 7G10G 5
 -15956058.62349 -12433257.83346  22451119.253    22451116.720         354.000
        13.000
  -4494088.76948  -3501883.56145  23700950.376    23700947.049         162.000
         4.000
 -14263160.50149 -11114113.89546  22061804.853    22061803.488         481.000
        23.000
   1236923.38948    963836.76845  23595388.414    23595387.491         255.000
         6.000
 -12185473.40549  -9495114.69846  22650383.457    22650382.784         372.000
        12.000
 -23698146.50349 -18466054.88647  20550017.336    20550014.815         721.000
        65.000
 -17550431.16449 -13675638.99746  22012711.322    22012708.635         443.000
        22.000
  -4380029.26148  -3413008.20444  24296296.615    24296293.389         176.000
         3.000
 04  3  1  1  1 30.0000000  0  8G24G17G 4G28G13G 7G10G 5
 -15976727.44549 -12449363.38946  22447186.544    22447183.726         359.000
        13.000
  -4528563.52748  -3528747.00244  23694387.691    23694386.724         162.000
         3.000
 -14256959.34749 -11109281.81846  22062985.232    22062983.594         483.000
        23.000
   1332090.30048   1037992.79645  23613496.951    23613497.430         252.000
         7.000
 -12172618.01349  -9485097.49146  22652829.011    22652829.113         369.000
        12.000
 -23671955.92249 -18445646.63747  20555001.058    20554998.777         723.000
        64.000
 -17606787.74049 -13719553.19846  22001987.785    22001984.484         452.000
        22.000
  -4437810.36148  -3458032.43044  24285299.828    24285297.943         173.000
         3.000
 04  3  1  1  2  0.0000000  0  8G24G17G 4G28G13G 7G10G 5
 -15997387.89249 -12465462.42546  22443255.047    22443251.882         355.000
        13.000
  -4562936.97848  -3555531.46144  23687850.969    23687845.700         161.000
         3.000
 -14250796.66149 -11104479.72746  22064157.938    22064156.307         483.000
        22.000
   1427249.96848   1112143.14845  23631607.099    23631605.993         257.000
         7.000
 -12159265.39249  -9474692.84346  22655370.611    22655370.117         368.000
        12.000
 -23645318.28249 -18424890.03247  20560070.271    20560067.792         724.000
        64.000
 -17662739.65149 -13763152.06946  21991340.544    21991337.356         463.000
        23.000
  -4495191.07448  -3502744.64944  24274382.915    24274378.702         172.000
         3.000
 04  3  1  1  2 30.0000000  0  8G24G17G 4G28G13G 7G10G 5
 -16018044.91849 -12481558.78546  22439324.386    22439321.180         357.000
        14.000
  -4597214.76748  -3582241.41244  23681326.218    23681323.122         163.000
         3.000
 -14244676.69649 -11099710.91746  22065322.064    22065321.007         487.000
        22.000
   1522395.47348   1186282.49245  23649711.886    23649711.194         245.000
         6.000
 -12145419.28449  -9463903.66246  22658005.405    22658004.994         371.000
        12.000
 -23618237.59949 -18403788.19947  20565223.490    20565221.021         721.000
        64.000
 -17718290.78949 -13806438.65946  21980768.851    21980766.248         468.000
        23.000
  -4552174.76548  -3547147.54644  24263537.962    24263535.176         181.000
         3.000
 04  3  1  1  3  0.0000000  0  8G24G17G 4G28G13G 7G10G 5
 -16038711.72249 -12497662.77246  22435391.682    22435388.243         354.000
        14.000
  -4631410.33248  -3608887.31144  23674819.431    23674815.555         159.000
         3.000
 -14238611.95549 -11094985.14446  22066476.289    22066474.915         482.000
        22.000
   1617511.97348   1260399.22345  23667812.287    23667811.646         245.000
         6.000
 -12131091.77649  -9452739.35746  22660731.804    22660731.238         369.000
        12.000
 -23590725.97849 -18382350.57047  20570458.754    20570456.186         714.000
        64.000
 -17773452.32349 -13849421.65946  21970272.116    21970269.478         482.000
        24.000
  -4608772.25848  -3591249.48844  24252769.056    24252765.041         179.000
         2.000
 04  3  1  1  3 30.0000000  0  7G24G17G 4G13G 7G10G 5
 -16059369.89349 -12513760.03346  22431459.851    22431457.114         352.000
        13.000
  -4665505.66248  -3635455.07244  23668329.550    23668327.980         169.000
         3.000
 -14232583.09749 -11090287.33246  22067623.714    22067622.251         486.000
        22.000
 -12116262.71249  -9441184.23146  22663553.752    22663553.096         363.000
        12.000
 -23562763.72449 -18360561.79947  20575779.795    20575777.273         715.000
        64.000
 -17828204.59149 -13892085.75546  21959852.996    21959850.439         492.000
        25.000
  -4664963.48048  -3635034.87344  24242075.382    24242072.387         177.000
         2.000
 04  3  1  1  4  0.0000000  0  7G24G17G 4G13G 7G10G 5
 -16080025.97649 -12529855.66346  22427528.944    22427526.201         350.000
        13.000
  -4699508.03948  -3661950.39444  23661859.608    23661856.848         162.000
         3.000
 -14226596.33649 -11085622.31646  22068762.858    22068761.409         484.000
        23.000
 -12100937.90349  -9429242.81346  22666470.239    22666469.494         368.000
        12.000
 -23534356.89949 -18338426.61147  20581185.596    20581182.894         712.000
        64.000
 -17882553.19249 -13934435.30246  21949511.246    21949508.329         497.000
        25.000
  -4720753.24648  -3678507.40744  24231458.333    24231455.557         170.000
         3.000
 04  3  1  1  4 30.0000000  0  8G24G17G 4G29G13G 7G10G 5
 -16100677.48049 -12545947.73546  22423599.656    22423596.510         355.000
        14.000
  -4733415.40148  -3688371.69644  23655408.396    23655404.373         161.000
         3.000
 -14220648.09249 -11080987.31846  22069894.861    22069893.568         489.000
        22.000
         -.72658                                  25463272.375         111.000

 -12085113.42349  -9416912.03246  22669481.159    22669480.796         371.000
        12.000
 -23505501.85249 -18315942.15947  20586676.336    20586673.793         710.000
        63.000
 -17936493.83249 -13976466.95746  21939246.703    21939243.779         507.000
        25.000
  -4776137.20348  -3721663.71444  24220922.507    24220916.370         169.000
         3.000
 04  3  1  1  5  0.0000000  0  8G24G17G 4G29G13G 7G10G 5
 -16121328.81149 -12562039.66446  22419669.610    22419666.965         361.000
        14.000
  -4767232.30248  -3714722.49944  23648973.590    23648969.767         168.000
         3.000
 -14214741.88949 -11076385.07446  22071018.472    22071017.308         484.000
        22.000
    -95203.32647                                  25445156.045          95.000

 -12068792.29649  -9404194.26146  22672587.298    22672586.763         373.000
        13.000
 -23476201.75949 -18293110.91647  20592252.119    20592249.530         713.000
        64.000
 -17990029.37549 -14018182.95446  21929059.001    21929056.232         509.000
        26.000
  -4831117.29448  -3764505.34244  24210456.446    24210453.704         168.000
         3.000
 04  3  1  1  5 30.0000000  0  8G24G17G 4G29G13G 7G10G 5
 -16141974.94149 -12578127.54146  22415740.794    22415737.891         358.000
        14.000
  -4800954.15048  -3740999.23744  23642556.348    23642552.456         163.000
         3.000
 -14208872.21849 -11071811.30146  22072135.871    22072134.159         481.000
        22.000
   -190604.46847                                  25427001.967          94.000

 -12051968.50549  -9391084.80246  22675788.693    22675787.884         365.000
        12.000
 -23446450.97649 -18269928.48747  20597913.368    20597910.827         712.000
        64.000
 -18043153.86849 -14059578.65446  21918949.561    21918947.001         516.000
        26.000
  -4885687.29648  -3807027.44144  24200068.793    24200069.591         176.000
         3.000
 04  3  1  1  6  0.0000000  0  8G24G17G 4G29G13G 7G10G 5
 -16162626.84649 -12594219.91946  22411811.220    22411808.126         363.000
        14.000
  -4834592.24948  -3767210.70944  23636154.654    23636151.264         166.000
         3.000
 -14203048.65649 -11067273.46146  22073243.982    22073242.607         484.000
        22.000
   -286212.12547                                  25408808.046          89.000

 -12034651.59649  -9377591.09546  22679083.907    22679083.211         366.000
        12.000
 -23416259.15649 -18246402.39147  20603658.836    20603656.166         712.000
        64.000
 -18095876.60249 -14100661.29346  21908916.688    21908913.950         511.000
        27.000
  -4939855.89148  -3849236.72544  24189765.773    24189761.972         179.000
         3.000
 04  3  1  1  6 30.0000000  0  8G24G17G 4G29G13G 7G10G 5
 -16183273.46649 -12610308.17846  22407882.500    22407879.073         360.000
        15.000
  -4868136.28348  -3793348.94144  23629769.476    23629768.458         171.000
         3.000
 -14197259.81649 -11062762.67246  22074345.366    22074343.925         481.000
        22.000
   -382012.97148                                  25390578.102         104.000

 -12016829.51349  -9363703.74946  22682474.823    22682474.334         360.000
        13.000
 -23385614.59049 -18222523.50647  20609489.997    20609487.598         714.000
        64.000
 -18148185.43649 -14141421.42046  21898962.790    21898959.955         513.000
        27.000
  -4993610.66848  -3891123.54244  24179536.966    24179532.273         172.000
         3.000
 04  3  1  1  7  0.0000000  0  8G24G17G 4G29G13G 7G10G 5
 -16203929.32749 -12626403.63946  22403951.787    22403948.320         361.000
        14.000
  -4901601.12848  -3819425.39945  23623401.318    23623400.311         171.000
         4.000
 -14191519.26649 -11058289.50946  22075438.109    22075436.372         478.000
        22.000
   -478018.71048                                  25372308.603         112.000

 -11998515.80149  -9349433.30646  22685960.228    22685959.553         366.000
        12.000
 -23354530.91549 -18198302.46047  20615405.455    20615402.829         723.000
        64.000
 -18200093.57149 -14181869.30646  21889085.043    21889082.314         521.000
        28.000
  -5046964.56848  -3932698.00944  24169385.071    24169380.037         185.000
         3.000
 04  3  1  1  7 30.0000000  0  8G24G17G 4G29G13G 7G10G 5
 -16224596.51049 -12642507.92446  22400017.989    22400015.334         357.000
        14.000
  -4934988.84448  -3845441.78345  23617048.246    23617046.764         173.000
         4.000
 -14185828.17049 -11053854.88346  22076520.733    22076519.276         477.000
        22.000
   -574228.24448                                  25354000.222         118.000

 -11979711.24949  -9334780.39846  22689539.525    22689537.797         363.000
        13.000
 -23323009.06149 -18173739.97547  20621403.669    20621401.136         721.000
        64.000
 -18251601.63749 -14222005.44946  21879283.406    21879280.641         520.000
        28.000
  -5099916.99648  -3973959.62044  24159306.053    24159303.210         186.000
         3.000
 04  3  1  1  8  0.0000000  0  8G24G17G 4G29G13G 7G10G 5
 -16245267.80749 -12658615.41346  22396084.949    22396081.800         363.000
        14.000
  -4968293.14648  -3871393.17844  23610713.912    23610708.551         161.000
         3.000
 -14180178.57149 -11049452.60046  22077595.891    22077594.441         478.000
        22.000
   -670632.03648                                  25335654.637         100.000

 -11960408.03449  -9319738.92046  22693211.915    22693211.416         375.000
        12.000
 -23291041.15549 -18148829.91847  20627486.828    20627484.383         722.000
        64.000
 -18302701.48449 -14261823.49646  21869559.434    21869556.605         519.000
        28.000
  -5152459.71448  -4014902.01344  24149305.067    24149304.403         175.000
         3.000
 04  3  1  1  8 30.0000000  0  8G24G17G 4G29G13G 7G10G 5
 -16265940.14349 -12674723.71346  22392150.951    22392147.894         361.000
        14.000
  -5001511.57648  -3897277.63944  23604391.044    23604387.782         171.000
         3.000
 -14174567.06149 -11045079.99246  22078663.977    22078662.356         477.000
        22.000
   -767224.79147                                  25317273.488          95.000

 -11940602.10049  -9304305.71346  22696980.708    22696980.112         369.000
        13.000
 -23258623.87449 -18123569.69947  20633655.781    20633653.328         729.000
        65.000
 -18353389.36249 -14301320.53446  21859913.959    21859911.052         520.000
        29.000
  -5204588.47148  -4055521.81744  24139385.770    24139385.118         186.000
         3.000
 04  3  1  1  9  0.0000000  0  8G24G17G 4G29G13G 7G10G 5
 -16286622.54049 -12690839.85046  22388214.715    22388212.082         362.000
        14.000
  -5034653.67848  -3923102.62944  23598086.692    23598081.446         178.000
         3.000
 -14169001.41749 -11040743.12146  22079723.262    22079721.462         480.000
        22.000
   -864012.32547                                  25298855.242          86.000

 -11920301.13549  -9288486.77646  22700844.365    22700843.425         373.000
        13.000
 -23225765.04149 -18097965.41247  20639908.708    20639906.186         728.000
        64.000
 -18403672.63749 -14340502.29146  21850345.275    21850342.532         525.000
        29.000
  -5256309.85848  -4095824.18944  24129544.173    24129542.610         181.000
         3.000
 04  3  1  1  9 30.0000000  0  8G24G17G 4G29G13G 7G10G 5
 -16307307.56149 -12706958.03446  22384278.983    22384276.067         366.000
        15.000
  -5067712.21348  -3948862.51545  23591792.163    23591789.975         173.000
         4.000
 -14163473.21749 -11036435.43246  22080774.957    22080773.498         478.000
        22.000
   -960984.35847                                  25280402.535          91.000

 -11899496.72849  -9272275.53346  22704802.619    22704802.452         376.000
        13.000
 -23192456.48449 -18072010.69247  20646246.929    20646244.403         720.000
        64.000
 -18453542.70549 -14379362.06846  21840855.397    21840852.595         524.000
        28.000
  -5307615.00648  -4135802.21744  24119784.248    24119779.600         178.000
         3.000
 04  3  1  1 10  0.0000000  0  8G24G17G 4G29G13G 7G10G 5
 -16327995.88149 -12723078.78146  22380342.362    22380339.093         364.000
        15.000
  -5100688.43948  -3974558.25045  23585517.917    23585514.562         169.000
         4.000
 -14157982.67149 -11032157.08146  22081819.948    22081818.223         475.000
        22.000
  -1058139.27847                                  25261914.760          94.000

 -11878188.90449  -9255672.02346  22708857.967    22708857.334         379.000
        12.000
 -23158698.36649 -18045705.66247  20652671.003    20652668.482         726.000
        65.000
 -18502999.23049 -14417899.60446  21831443.930    21831441.336         525.000
        28.000
  -5358503.33848  -4175455.44944  24110098.647    24110095.638         176.000
         3.000
 04  3  1  1 10 30.0000000  0  8G24G17G 4G29G13G 7G10G 5
 -16348696.30649 -12739208.97246  22376402.864    22376399.727         361.000
        15.000
  -5133591.54248  -4000197.00544  23579256.325    23579253.593         172.000
         3.000
 -14152537.40549 -11027914.01346  22082855.963    22082854.427         473.000
        22.000
  -1155482.72747                                  25243390.858          99.000

 -11856385.53949  -9238682.38046  22713006.448    22713005.849         365.000
        12.000
 -23124498.47649 -18019056.39747  20659178.978    20659176.508         727.000
        65.000
 -18552049.77949 -14456120.79646  21822110.085    21822107.221         518.000
        29.000
  -5408981.77948  -4214789.31244  24100494.518    24100490.283         187.000
         3.000
 04  3  1  1 11  0.0000000  0  8G24G17G 4G29G13G 7G10G 5
 -16369408.72349 -12755348.50346  22372462.058    22372458.207         357.000
        15.000
  -5166421.98948  -4025779.17644  23573009.246    23573006.071         172.000
         3.000
 -14147136.69449 -11023705.66446  22083883.225    22083882.113         470.000
        22.000
  -1253012.05548                                  25224831.120         102.000

 -11834085.70349  -9221305.87546  22717250.307    22717249.646         372.000
        12.000
 -23089856.17249 -17992062.39347  20665771.224    20665768.697         724.000
        64.000
 -18600693.20449 -14494024.74646  21812853.633    21812850.610         516.000
        29.000
  -5459048.59848  -4253802.41445  24090967.292    24090963.441         196.000
         4.000
 04  3  1  1 11 30.0000000  0  8G24G17G 4G29G13G 7G10G 5
 -16390120.04949 -12771487.18846  22368520.024    22368516.850         357.000
        14.000
  -5199167.44348  -4051295.08745  23566778.294    23566774.754         171.000
         4.000
 -14141766.70249 -11019521.24846  22084905.198    22084903.740         464.000
        22.000
  -1350711.50748                                  25206239.746         104.000

 -11811275.71049  -9203531.84446  22721590.327    22721590.170         374.000
        12.000
 -23054758.08149 -17964713.23147  20672450.204    20672447.748         728.000
        64.000
 -18648915.67649 -14531600.68346  21803676.746    21803673.880         504.000
        28.000
  -5508689.70848  -4292483.79144  24081518.349    24081515.436         175.000
         3.000
 04  3  1  1 12  0.0000000  0  8G24G17G 4G29G13G 7G10G 5
 -16410831.30049 -12787625.80646  22364579.647    22364575.919         366.000
        15.000
  -5231829.70248  -4076746.20545  23560562.343    23560559.492         174.000
         4.000
 -14136427.77049 -11015361.03746  22085921.235    22085919.837         466.000
        21.000
  -1448579.42348                                  25187616.004         104.000

 -11787955.92849  -9185360.57946  22726028.483    22726027.752         373.000
        12.000
 -23019204.75549 -17937009.33947  20679215.893    20679213.321         728.000
        64.000
 -18696717.47649 -14568848.82446  21794580.561    21794577.652         505.000
        28.000
  -5557904.67748  -4330833.11344  24072154.938    24072150.910         188.000
         3.000
 04  3  1  1 12 30.0000000  0  8G24G17G 4G29G13G 7G10G 5
 -16431560.61849 -12803778.50446  22360634.278    22360631.123         365.000
        15.000
  -5264426.90148  -4102146.58945  23554362.298    23554356.708         178.000
         4.000
 -14131136.92749 -11011238.29346  22086927.833    22086926.725         465.000
        21.000
  -1546631.01148                                  25168957.640         100.000

 -11764143.34049  -9166805.30846  22730559.904    22730559.070         370.000
        12.000
 -22983213.23549 -17908964.00047  20686064.661    20686062.150         720.000
        64.000
 -18744115.18649 -14605782.09546  21785561.239    21785558.208         506.000
        28.000
  -5606709.56148  -4368862.91244  24062867.397    24062863.931         192.000
         3.000
 04  3  1  1 13  0.0000000  0  8G24G17G 4G29G13G 7G10G 5
 -16452299.63949 -12819938.76546  22356687.869    22356684.765         374.000
        15.000
  -5296951.34248  -4127490.29344  23548171.858    23548166.935         168.000
         3.000
 -14125884.83149 -11007145.74446  22087927.834    22087926.181         467.000
        21.000
  -1644855.34047                                  25150265.910          95.000

 -11739828.82049  -9147858.91846  22735187.177    22735186.024         371.000
        12.000
 -22946774.76449 -17880570.38547  20692998.754    20692996.209         721.000
        63.000
 -18791099.69449 -14642393.38546  21776620.402    21776617.500         513.000
        28.000
  -5655094.63748  -4406565.56444  24053657.111    24053656.211         192.000
         3.000
 04  3  1  1 13 30.0000000  0  8G24G17G 4G29G13G 7G10G 5
 -16473050.02749 -12836107.88646  22352739.100    22352736.092         372.000
        16.000
  -5329405.25748  -4152779.04645  23541996.096    23541991.675         178.000
         4.000
 -14120672.75449 -11003084.38246  22088919.792    22088917.976         463.000
        21.000
  -1743251.47047                                  25131541.591          98.000

 -11715013.82749  -9128522.54746  22739908.473    22739908.038         368.000
        12.000
 -22909890.63949 -17851829.50747  20700017.626    20700015.108         723.000
        62.000
 -18837671.59749 -14678683.17046  21767758.196    21767754.990         506.000
        28.000
  -5703060.55148  -4443941.59645  24044532.456    24044529.086         199.000
         4.000
 04  3  1  1 14  0.0000000  0  8G24G17G 4G29G13G 7G10G 5
 -16493819.72649 -12852292.05346  22348786.427    22348783.753         376.000
        15.000
  -5361797.55648  -4178019.78945  23535833.056    23535827.139         174.000
         4.000
 -14115507.64749 -10999059.62146  22089902.284    22089900.833         461.000
        21.000
  -1841824.59848                                  25112783.810         106.000

 -11689705.54149  -9108801.79446  22744724.929    22744723.765         365.000
        12.000
 -22872568.41949 -17822747.25947  20707119.661    20707117.101         716.000
        63.000
 -18883838.42849 -14714657.30546  21758972.563    21758969.622         504.000
        28.000
  -5750613.65248  -4480995.96045  24035482.199    24035479.468         195.000
         4.000
 04  3  1  1 14 30.0000000  0  8G24G17G 4G29G13G 7G10G 5
 -16514600.85349 -12868485.12746  22344832.356    22344829.381         379.000
        15.000
  -5394120.39848  -4203206.41544  23529678.441    23529676.586         177.000
         3.000
 -14110380.70149 -10995064.59346  22090877.736    22090876.409         459.000
        21.000
  -1940563.82848  -1512125.56244  25094002.783    25093993.837         112.000
         2.000
 -11663895.27349  -9088689.89146  22749636.471    22749635.703         374.000
        12.000
 -22834799.51349 -17793316.94347  20714306.825    20714304.346         717.000
        63.000
 -18929591.31349 -14750308.89146  21750265.944    21750263.199         510.000
        27.000
  -5797744.74448  -4517721.48145  24026513.548    24026511.098         201.000
         4.000
 04  3  1  1 15  0.0000000  0  8G24G17G 4G29G13G 7G10G 5
 -16535392.55449 -12884686.44446  22340875.556    22340872.812         378.000
        15.000
  -5426373.57848  -4228338.74844  23523541.848    23523538.500         173.000
         3.000
 -14105290.01149 -10991097.81446  22091846.577    22091845.082         456.000
        20.000
  -2039465.75348                                  25075172.836         104.000

 -11637581.78349  -9068185.86646  22754643.152    22754642.847         374.000
        12.000
 -22796582.77049 -17763537.66547  20721579.186    20721576.827         719.000
        62.000
 -18974928.32949 -14785636.42446  21741638.652    21741635.784         512.000
        28.000
  -5844451.65348  -4554116.47744  24017625.024    24017623.202         202.000
         3.000
 04  3  1  1 15 30.0000000  0  8G24G17G 4G29G13G 7G10G 5
 -16556208.49249 -12900906.64346  22336913.743    22336911.607         382.000
        15.000
  -5458571.61748  -4253428.10145  23517415.770    23517411.792         177.000
         4.000
 -14100248.93749 -10987169.70446  22092805.542    22092804.321         454.000
        21.000
  -2138541.48948                                  25056319.123         100.000

 -11610778.15149  -9047299.91446  22759744.667    22759743.743         383.000
        13.000
 -22757931.61349 -17733419.87747  20728934.421    20728931.961         722.000
        62.000
 -19019862.72749 -14820650.23346  21733087.945    21733085.174         519.000
        29.000
  -5890746.89348  -4590190.67844  24008815.218    24008813.376         199.000
         3.000
 04  3  1  1 16  0.0000000  0  8G24G17G 4G29G13G 7G10G 5
 -16577044.25649 -12917142.29146  22332949.177    22332946.757         387.000
        15.000
  -5490710.57548  -4278471.44244  23511300.315    23511296.165         183.000
         3.000
 -14095251.83449 -10983275.84646  22093756.827    22093755.384         457.000
        21.000
  -2237783.61347                                  25037433.703          99.000

 -11583479.51049  -9026028.23146  22764938.991    22764938.369         381.000
        12.000
 -22718841.02249 -17702959.68047  20736373.094    20736370.600         717.000
        62.000
 -19064389.00049 -14855346.01346  21724614.856    21724611.927         516.000
        29.000
  -5936624.89248  -4625939.78545  24000084.332    24000083.277         208.000
         4.000
 04  3  1  1 16 30.0000000  0  8G24G17G 4G29G13G 7G10G 5
 -16597884.41549 -12933381.36646  22328983.905    22328981.253         394.000
        16.000
  -5522775.67248  -4303457.21944  23505196.025    23505193.899         175.000
         3.000
 -14090282.74749 -10979403.82246  22094701.988    22094700.711         449.000
        21.000
  -2337174.25448                                  25018520.209         106.000

 -11555670.19349  -9004358.62146  22770231.350    22770230.101         376.000
        12.000
 -22679295.51249 -17672144.99847  20743898.436    20743895.850         714.000
        62.000
 -19108491.08449 -14889711.26346  21716222.577    21716219.698         522.000
        29.000
  -5982069.21448  -4661350.94245  23991438.169    23991434.860         201.000
         4.000
 04  3  1  1 17  0.0000000  0  8G24G17G 4G29G13G 7G10G 5
 -16618730.03449 -12949624.69346  22325016.607    22325014.458         397.000
        16.000
  -5554768.38848  -4328386.58545  23499110.192    23499105.813         176.000
         4.000
 -14085341.37849 -10975553.40246  22095642.784    22095641.324         457.000
        20.000
  -2436711.42248  -1898733.15644  24999585.825    24999579.137         112.000
         2.000
 -11527350.31349  -8982291.17346  22775619.714    22775619.468         387.000
        13.000
 -22639295.53349 -17640976.18547  20751510.023    20751507.406         702.000
        61.000
 -19152169.15649 -14923746.11446  21707910.695    21707908.042         528.000
        29.000
  -6027079.29348  -4696423.72945  23982872.434    23982870.081         203.000
         4.000
 04  3  1  1 17 30.0000000  0  8G24G17G 4G29G13G 7G10G 5
 -16639587.09049 -12965876.92946  22321048.034    22321045.416         399.000
        16.000
  -5586695.58648  -4353264.92345  23493034.025    23493030.467         180.000
         4.000
 -14080433.12649 -10971728.78746  22096576.134    22096575.201         452.000
        20.000
  -2536398.49548                                  24980609.504         112.000

 -11498525.92249  -8959830.60246  22781105.171    22781104.496         389.000
        12.000
 -22598846.86249 -17609457.73947  20759207.295    20759204.642         702.000
        61.000
 -19195428.79149 -14957454.90746  21699678.829    21699676.322         543.000
        30.000
  -6071659.90248  -4731161.86344  23974389.071    23974386.666         205.000
         3.000
 04  3  1  1 18  0.0000000  0  8G24G17G 4G29G13G 7G10G 5
 -16660468.40949 -12982148.07646  22317074.406    22317071.731         396.000
        16.000
  -5618570.31948  -4378102.37245  23486968.294    23486965.155         185.000
         4.000
 -14075569.91949 -10967939.27246  22097502.274    22097500.676         453.000
        20.000
  -2636245.44948                                  24961609.094         115.000

 -11469209.08749  -8936986.30446  22786684.711    22786683.516         397.000
        13.000
 -22557962.11549 -17577599.49847  20766987.516    20766984.764         700.000
        61.000
 -19238282.02949 -14990847.02946  21691523.881    21691521.336         536.000
        30.000
  -6115822.52748  -4765574.30445  23965985.065    23965983.133         214.000
         4.000
 04  3  1  1 18 30.0000000  0  8G24G17G 4G29G13G 7G10G 5
 -16681377.61149 -12998440.94646  22313095.488    22313093.017         402.000
        16.000
  -5650397.05448  -4402902.42145  23480913.632    23480908.803         188.000
         4.000
 -14070754.47449 -10964186.97046  22098418.858    22098417.025         453.000
        20.000
  -2736253.41648  -2132141.89544  24942577.285    24942577.651         127.000
         2.000
 -11439403.33749  -8913761.03646  22792356.063    22792355.085         390.000
        13.000
 -22516644.62849 -17545404.05247  20774849.816    20774847.086         691.000
        60.000
 -19280731.83049 -15023924.78346  21683445.949    21683443.272         535.000
        30.000
  -6159569.84848  -4799663.13745  23957661.562    23957658.061         209.000
         4.000
 04  3  1  1 19  0.0000000  0  8G24G17G 4G29G13G 7G10G 5
 -16702304.29949 -13014747.44246  22309112.891    22309110.559         402.000
        16.000
  -5682166.14148  -4427657.53645  23474866.526    23474863.082         186.000
         4.000
 -14065975.84449 -10960463.35546  22099327.906    22099326.289         449.000
        21.000
  -2836409.15348                                  24923517.777         120.000

 -11409097.83049  -8890146.34946  22798122.970    22798122.333         398.000
        12.000
 -22474883.85849 -17512863.19447  20782796.522    20782793.970         691.000
        59.000
 -19322767.07649 -15056679.51146  21675446.801    21675444.280         540.000
        30.000
  -6202890.45848  -4833419.46245  23949417.232    23949414.255         207.000
         4.000
 04  3  1  1 19 30.0000000  0  8G24G17G 4G29G13G 7G10G 5
 -16723244.74349 -13031064.66146  22305128.404    22305125.778         405.000
        16.000
  -5713874.52448  -4452365.35345  23468832.835    23468829.348         189.000
         4.000
 -14061229.00649 -10956764.51746  22100231.133    22100229.701         454.000
        21.000
  -2936706.13548                                  24904432.397         111.000

 -11378288.72749  -8866139.24746  22803985.346    22803984.802         391.000
        12.000
 -22432675.96749 -17479973.92847  20790828.490    20790825.974         693.000
        59.000
 -19364383.62749 -15089107.98046  21667527.523    21667524.963         540.000
        30.000
  -6245779.77148  -4866839.68345  23941256.021    23941252.486         206.000
         4.000
 04  3  1  1 20  0.0000000  0  8G24G17G 4G29G13G 7G10G 5
 -16744203.91849 -13047396.46946  22301140.005    22301137.336         407.000
        17.000
  -5745527.64648  -4477030.10145  23462810.217    23462805.844         190.000
         4.000
 -14056518.47249 -10953093.96746  22101127.705    22101126.163         456.000
        21.000
  -3037146.78048                                  24885319.224         105.000

 -11346980.73649  -8841743.39946  22809943.234    22809942.724         395.000
        12.000
 -22390025.73149 -17446739.97947  20798944.405    20798941.932         684.000
        58.000
 -19405585.87049 -15121213.61546  21659686.957    21659684.334         542.000
        30.000
  -6288241.56048  -4899926.80145  23933174.243    23933172.301         209.000
         4.000
 04  3  1  1 20 30.0000000  0  8G24G17G 4G29G13G 7G10G 5
 -16765184.53049 -13063744.98446  22297147.188    22297145.047         411.000
        16.000
  -5777129.02648  -4501654.53645  23456794.931    23456792.341         189.000
         4.000
 -14051846.11049 -10949453.16546  22102016.888    22102015.201         452.000
        21.000
  -3137731.15748  -2444980.87044  24866182.328    24866179.024         129.000
         2.000
 -11315176.44249  -8816960.81246  22815995.687    22815995.041         403.000
        13.000
 -22346935.96549 -17413163.53847  20807144.388    20807141.741         683.000
        58.000
 -19446376.41249 -15152998.43646  21651924.839    21651922.357         551.000
        30.000
  -6330277.49248  -4932682.07145  23925176.244    23925173.342         213.000
         4.000
 04  3  1  1 21  0.0000000  0  8G24G17G 4G29G13G 7G10G 5
 -16786186.95149 -13080110.49646  22293150.735    22293148.275         411.000
        17.000
  -5808679.78248  -4526239.52645  23450792.481    23450788.334         190.000
         4.000
 -14047211.21549 -10945841.55446  22102898.875    22102897.214         452.000
        20.000
  -3238456.68748  -2523468.07244  24847015.311    24847011.349         147.000
         3.000
 -11282875.95049  -8791791.59046  22822142.268    22822141.428         397.000
        12.000
 -22303406.81749 -17379244.72347  20815427.645    20815424.999         673.000
        57.000
 -19486754.72849 -15184462.04546  21644240.973    21644238.522         551.000
        31.000
  -6371887.13148  -4965105.14445  23917257.819    23917255.536         215.000
         4.000
 04  3  1  1 21 30.0000000  0  8G24G17G 4G29G13G 7G10G 5
 -16807212.71049 -13096494.18846  22289149.693    22289147.210         414.000
        17.000
  -5840181.77448  -4550786.53845  23444796.471    23444793.318         185.000
         4.000
 -14042614.40949 -10942259.62746  22103773.046    22103771.988         454.000
        21.000
  -3339322.15748  -2602064.35744  24827820.763    24827817.065         137.000
         2.000
 -11250080.57349  -8766236.73446  22828382.253    22828382.277         397.000
        12.000
 -22259439.52049 -17344984.48947  20823794.217    20823791.566         661.000
        56.000
 -19526721.86449 -15215605.25646  21636635.702    21636633.180         558.000
        31.000
  -6413070.83748  -4997196.35845  23909420.691    23909418.617         218.000
         4.000
 04  3  1  1 22  0.0000000  0  8G24G17G 4G29G13G 7G10G 5
 -16828266.50849 -13112899.73246  22285143.545    22285140.991         416.000
        17.000
  -5871640.45948  -4575299.78645  23438810.491    23438807.060         188.000
         4.000
 -14038059.73049 -10938710.52246  22104640.109    22104638.774         454.000
        20.000
  -3440329.48948  -2680771.17444  24808595.010    24808595.450         115.000
         2.000
 -11216794.99049  -8740299.91346  22834716.629    22834716.258         391.000
        12.000
 -22215038.90949 -17310386.61247  20832243.283    20832240.758         660.000
        55.000
 -19566282.13449 -15246431.42847  21629107.151    21629104.825         555.000
        32.000
  -6453832.42148  -5028958.62145  23901664.566    23901662.141         224.000
         4.000
 04  3  1  1 22 30.0000000  0  8G24G17G 4G29G13G 7G10G 5
 -16849335.61349 -13129317.20346  22281134.253    22281131.480         411.000
        16.000
  -5903043.75148  -4599769.86545  23432834.428    23432831.017         189.000
         4.000
 -14033533.18349 -10935183.34046  22105501.556    22105500.014         454.000
        20.000
  -3541463.42448                                  24789349.769         112.000

 -11183005.99249  -8713970.80546  22841146.842    22841146.169         392.000
        12.000
 -22170192.14249 -17275441.07747  20840777.659    20840774.932         659.000
        55.000
 -19605422.21649 -15276930.18347  21621659.273    21621656.996         563.000
        32.000
  -6494158.11748  -5060381.25345  23893989.643    23893988.097         223.000
         4.000
 04  3  1  1 23  0.0000000  0  8G24G17G 4G29G13G 7G10G 5
 -16870420.62949 -13145747.07046  22277122.446    22277119.037         411.000
        17.000
  -5934393.18248  -4624197.96945  23426869.837    23426865.839         196.000
         5.000
 -14029034.97249 -10931678.23946  22106357.397    22106356.083         456.000
        21.000
  -3642721.81948  -2838479.11644  24770084.925    24770081.636         135.000
         3.000
 -11148714.80149  -8687250.39046  22847672.299    22847671.503         388.000
        12.000
 -22124900.14849 -17240148.61847  20849396.092    20849393.501         650.000
        54.000
 -19644142.60349 -15307101.90147  21614291.102    21614288.503         557.000
        32.000
  -6534048.14448  -5091464.38745  23886400.785    23886397.343         223.000
         4.000
 04  3  1  1 23 30.0000000  0  8G24G17G 4G29G13G 7G10G 5
 -16891523.39749 -13162190.77246  22273105.724    22273103.288         415.000
        17.000
  -5965691.17648  -4648585.99145  23420913.629    23420910.319         199.000
         4.000
 -14024565.91049 -10928195.85446  22107207.817    22107206.546         461.000
        21.000
  -3744103.75348  -2917477.84044  24750789.695    24750789.757         147.000
         2.000
 -11113923.16549  -8660140.01946  22854292.534    22854291.919         379.000
        12.000
 -22079164.65349 -17204510.56947  20858099.213    20858096.736         650.000
        54.000
 -19682444.60549 -15336947.60347  21607002.290    21606999.853         558.000
        32.000
  -6573503.22048  -5122208.59645  23878890.989    23878889.275         221.000
         4.000
 04  3  1  1 24  0.0000000  0  8G24G17G 4G29G13G 7G10G 5
 -16912645.51749 -13178649.55546  22269086.536    22269084.087         424.000
        18.000
  -5996940.23448  -4672935.89945  23414965.713    23414963.388         194.000
         4.000
 -14020126.76549 -10924736.77346  22108052.675    22108051.370         464.000
        21.000
  -3845608.19848  -2996572.03744  24731478.738    24731473.376         130.000
         2.000
 -11078632.67549  -8632640.92446  22861008.404    22861007.697         383.000
        12.000
 -22032987.44649 -17168528.32947  20866886.553    20866884.020         649.000
        53.000
 -19720329.68349 -15366468.43247  21599793.143    21599790.574         557.000
        33.000
  -6612523.90548  -5152614.32745  23871465.016    23871463.637         220.000
         5.000
 04  3  1  1 24 30.0000000  0  8G24G17G 4G29G13G 7G10G 5
 -16933790.71449 -13195126.31946  22265062.747    22265060.272         424.000
        17.000
  -6028144.36748  -4697250.78145  23409027.292    23409025.385         195.000
         4.000
 -14015720.10649 -10921303.00946  22108891.300    22108889.768         460.000
        21.000
  -3947235.86448  -3075762.28344  24712134.998    24712134.547         124.000
         2.000
 -11042846.46649  -8604755.56346  22867818.563    22867817.632         382.000
        12.000
 -21986372.03749 -17132204.63747  20875757.208    20875754.633         644.000
        52.000
 -19757800.86749 -15395666.74447  21592662.705    21592660.102         561.000
        32.000
  -6651113.35748  -5182684.02345  23864123.532    23864120.520         220.000
         4.000
 04  3  1  1 25  0.0000000  0  8G24G17G 4G29G13G 7G10G 5
 -16954960.61449 -13211622.32546  22261034.036    22261031.605         417.000
        18.000
  -6059306.18848  -4721532.70945  23403098.577    23403095.547         196.000
         5.000
 -14011347.04549 -10917895.42846  22109723.330    22109722.018         462.000
        21.000
  -4048985.87748  -3155047.89044  24692774.773    24692771.556         133.000
         2.000
 -11006566.92549  -8576485.78446  22874721.474    22874721.052         370.000
        11.000
 -21939320.50549 -17095541.10847  20884710.893    20884708.361         645.000
        52.000
 -19794860.07949 -15424544.04047  21585610.656    21585607.946         563.000
        33.000
  -6689272.84648  -5212418.68945  23856861.776    23856859.193         222.000
         4.000
 04  3  1  1 25 30.0000000  0  8G24G17G 4G29G13G 7G10G 5
 -16976159.14949 -13228140.65246  22256999.724    22256997.606         416.000
        17.000
  -6090430.40248  -4745785.31845  23397177.578    23397172.914         197.000
         5.000
 -14007010.55749 -10914516.34446  22110548.552    22110547.132         460.000
        21.000
  -4150859.38248  -3234429.70344  24673386.930    24673385.838         138.000
         2.000
 -10969798.13449  -8547834.76946  22881719.018    22881718.141         374.000
        11.000
 -21891836.97149 -17058540.95247  20893746.703    20893744.082         641.000
        52.000
 -19831510.84349 -15453103.06447  21578636.160    21578633.448         560.000
        33.000
  -6727005.37848  -5241820.66945  23849680.592    23849678.658         218.000
         4.000
 04  3  1  1 26  0.0000000  0  8G24G17G 4G29G13G 7G10G 5
 -16997384.18649 -13244679.63246  22252960.680    22252958.593         418.000
        17.000
  -6121515.62848  -4770007.54845  23391261.316    23391257.519         197.000
         4.000
 -14002707.68349 -10911163.45246  22111367.133    22111365.808         454.000
        21.000
  -4252851.56648  -3313903.97944  24653979.751    24653977.433         129.000
         2.000
 -10932538.03549  -8518800.91746  22888808.565    22888808.498         372.000
        11.000
 -21843919.42849 -17021202.60947  20902865.211    20902862.584         643.000
        51.000
 -19867750.71249 -15481341.91047  21571739.809    21571737.164         560.000
        33.000
  -6764308.16048  -5270887.75745  23842583.005    23842580.348         219.000
         4.000
 04  3  1  1 26 30.0000000  0  8G24G17G 4G29G13G 7G10G 5
 -17018630.72449 -13261235.36146  22248918.152    22248915.629         424.000
        17.000
  -6152557.44548  -4794195.92745  23385351.753    23385350.595         199.000
         4.000
 -13998432.46949 -10907832.11546  22112181.277    22112179.665         465.000
        22.000
  -4354954.77748  -3393464.75944  24634547.746    24634547.680         127.000
         2.000
 -10894781.68049  -8489380.37446  22895993.556    22895993.140         363.000
        11.000
 -21795563.10349 -16983522.35747  20912066.875    20912064.455         639.000
        51.000
 -19903574.55449 -15509256.57847  21564922.823    21564920.239         563.000
        34.000
  -6801175.55748  -5299615.59345  23835566.655    23835564.380         218.000
         4.000
 04  3  1  1 27  0.0000000  0  8G24G17G 4G29G13G 7G10G 5
 -17039899.55049 -13277808.45746  22244870.610    22244868.373         426.000
        17.000
  -6183557.53148  -4818351.81945  23379454.371    23379451.841         204.000
         4.000
 -13994184.94749 -10904522.35746  22112989.074    22112987.866         462.000
        20.000
  -4457166.95348  -3473110.45444  24615099.782    24615097.400         142.000
         2.000
 -10856530.04849  -8459573.89746  22903273.128    22903272.264         364.000
        11.000
 -21746769.11049 -16945501.06747  20921352.136    20921349.490         628.000
        50.000
 -19938983.12049 -15536847.65847  21558184.709    21558182.238         567.000
        33.000
  -6837607.72848  -5328004.28545  23828634.931    23828631.698         220.000
         4.000
 04  3  1  1 27 30.0000000  0  8G24G17G 4G29G13G 7G10G 5
 -17061203.20849 -13294408.69846  22240816.837    22240814.398         424.000
        18.000
  -6214529.07148  -4842485.45745  23373561.395    23373557.408         193.000
         4.000
 -13989976.40249 -10901242.97046  22113789.964    22113788.805         462.000
        21.000
  -4559498.01548  -3552848.87344  24595626.608    24595624.352         141.000
         2.000
 -10817796.20849  -8429391.67746  22910643.341    22910643.201         362.000
        10.000
 -21697550.12049 -16907148.61147  20930718.192    20930715.543         624.000
        49.000
 -19973988.88049 -15564124.86447  21551523.471    21551520.931         572.000
        34.000
  -6873616.61748  -5356063.15245  23821782.482    23821779.825         228.000
         4.000
 04  3  1  1 28  0.0000000  0  8G24G17G 4G29G13G 7G10G 5
 -17082531.50949 -13311028.14246  22236758.387    22236755.651         421.000
        18.000
  -6245462.48548  -4866589.39045  23367672.675    23367670.753         191.000
         5.000
 -13985796.06949 -10897985.56646  22114585.470    22114584.149         460.000
        20.000
  -4661934.74948  -3632669.57744  24576132.025    24576130.972         130.000
         2.000
 -10778570.03249  -8398825.81046  22918107.950    22918107.536         354.000
        10.000
 -21647896.10449 -16868457.17347  20940167.237    20940164.418         624.000
        49.000
 -20008581.09249 -15591079.82547  21544940.820    21544938.060         565.000
        35.000
  -6909191.01748  -5383783.47145  23815012.537    23815009.752         220.000
         4.000
 04  3  1  1 28 30.0000000  0  8G24G17G 4G29G13G 7G10G 5
 -17103883.03149 -13327665.67646  22232694.912    22232692.381         418.000
        17.000
  -6276357.37748  -4890663.33445  23361795.735    23361792.043         194.000
         5.000
 -13981641.77749 -10894748.45646  22115376.210    22115374.734         461.000
        21.000
  -4764473.49448  -3712569.78044  24556623.382    24556618.367         142.000
         3.000
 -10738850.62549  -8367875.62346  22925666.373    22925665.862         350.000
        10.000
 -21597806.36249 -16829426.20847  20949698.665    20949696.043         620.000
        49.000
 -20042758.63449 -15617711.66447  21538436.794    21538434.059         557.000
        35.000
  -6944329.84948  -5411164.35845  23808324.582    23808323.320         228.000
         4.000
 04  3  1  1 29  0.0000000  0  8G24G17G 4G29G13G 7G10G 5
 -17125260.42849 -13344323.37746  22228626.978    22228624.594         424.000
        17.000
  -6307216.97348  -4914709.75945  23355922.060    23355919.526         191.000
         5.000
 -13977515.08749 -10891532.85046  22116161.491    22116159.947         456.000
        21.000
  -4867113.81448  -3792549.11844  24537089.826    24537086.585         150.000
         3.000
 -10698640.31449  -8336542.90646  22933317.671    22933317.695         349.000
        10.000
 -21547283.72149 -16790057.92147  20959312.943    20959310.294         625.000
        49.000
 -20076523.91149 -15644022.25747  21532011.521    21532008.790         560.000
        35.000
  -6979034.54548  -5438206.97945  23801721.122    23801719.144         225.000
         4.000
 04  3  1  1 29 30.0000000  0  8G24G17G 4G29G13G 7G10G 5
 -17146669.39149 -13361005.67346  22224552.872    22224550.464         418.000
        17.000
  -6338047.92448  -4938733.85345  23350055.378    23350052.218         186.000
         4.000
 -13973420.82549 -10888342.51846  22116940.217    22116938.762         447.000
        21.000
  -4969858.88248  -3872610.09944  24517536.982    24517534.816         143.000
         3.000
 -10657945.79549  -8304832.87346  22941061.895    22941061.193         337.000
        10.000
 -21496334.25649 -16750357.04147  20969008.370    20969005.695         628.000
        49.000
 -20109882.85849 -15670016.23247  21525663.725    21525661.063         569.000
        35.000
  -7013310.54748  -5464915.53945  23795199.638    23795196.494         220.000
         4.000
 04  3  1  1 30  0.0000000  0  8G24G17G 4G29G13G 7G10G 5
 -17168099.32049 -13377704.30646  22220475.626    22220472.540         417.000
        18.000
  -6368840.30248  -4962727.89945  23344196.358    23344193.049         193.000
         4.000
 -13969347.64949 -10885168.61346  22117715.118    22117713.903         449.000
        20.000
  -5072695.54748  -3952742.44244  24497966.549    24497965.055         144.000
         2.000
 -10616757.08849  -8272737.78045  22948899.473    22948899.372         338.000
         9.000
 -21444947.98449 -16710315.79247  20978786.919    20978784.283         636.000
        49.000
 -20142824.87049 -15695685.32347  21519395.144    21519392.401         570.000
        34.000
  -7047146.93048  -5491281.55245  23788760.559    23788757.208         208.000
         4.000
 04  3  1  1 30 30.0000000  0  8G24G17G 4G29G13G 7G10G 5
 -17189554.40249 -13394422.54246  22216392.750    22216389.704         415.000
        18.000
  -6399598.91948  -4986695.63444  23338343.529    23338339.580         189.000
         3.000
 -13965298.70349 -10882013.58746  22118485.615    22118484.547         451.000
        20.000
  -5175624.73548  -4032946.91144  24478384.149    24478378.566         150.000
         3.000
 -10575078.24349  -8240260.75545  22956830.074    22956830.341         329.000
         9.000
 -21393129.27049 -16669937.57647  20988647.740    20988645.057         639.000
        49.000
 -20175353.92449 -15721032.63047  21513204.804    21513202.113         560.000
        34.000
  -7080547.05248  -5517307.59845  23782405.596    23782401.765         221.000
         4.000
 04  3  1  1 31  0.0000000  0  8G24G17G 4G29G13G 7G10G 5
 -17211040.32249 -13411164.80546  22212303.369    22212301.014         414.000
        18.000
  -6430330.49748  -5010642.25744  23332494.776    23332491.193         182.000
         2.000
 -13961279.00349 -10878881.35246  22119250.606    22119249.304         446.000
        21.000
  -5278649.97348  -4113226.21444  24458777.397    24458773.170         145.000
         3.000
 -10532916.04149  -8207407.08346  22964854.837    22964853.518         327.000
        10.000
 -21340884.42349 -16629227.30747  20998589.574    20998586.911         642.000
        50.000
 -20207475.95949 -15746062.77447  21507092.386    21507089.511         562.000
        35.000
  -7113516.78448  -5542998.28345  23776130.250    23776128.055         227.000
         4.000
 04  3  1  1 31 30.0000000  0  8G24G17G 4G29G13G 7G10G 5
 -17232558.65449 -13427932.32746  22208208.424    22208206.181         415.000
        17.000
  -6461037.04648  -5034569.37144  23326649.429    23326648.616         190.000
         2.000
 -13957289.03049 -10875772.28146  22120009.782    22120008.847         454.000
        20.000
  -5381769.72048  -4193579.14544  24439154.247    24439150.214         154.000
         3.000
 -10490272.05549  -8174178.00145  22972968.636    22972968.642         331.000
         9.000
 -21288215.46149 -16588186.55847  21008612.098    21008609.445         644.000
        50.000
 -20239192.54849 -15770776.99047  21501056.675    21501054.125         566.000
        35.000
  -7146057.05948  -5568354.34844  23769937.950    23769935.785         225.000
         3.000
 04  3  1  1 32  0.0000000  0  8G24G17G 4G29G13G 7G10G 5
 -17254103.37949 -13444720.41146  22204109.181    22204106.529         417.000
        18.000
  -6491713.97148                                  23320810.518         189.000

 -13953322.02349 -10872681.10746  22120765.228    22120763.573         448.000
        20.000
  -5484975.64948  -4273999.30644  24419513.843    24419511.345         172.000
         3.000
 -10447141.16249  -8140569.50745  22981176.186    22981176.355         333.000
         9.000
 -21235117.05349 -16546811.17547  21018716.470    21018713.822         647.000
        49.000
 -20270497.87449 -15795170.74047  21495099.726    21495097.101         572.000
        34.000
  -7178161.86548  -5593371.07245  23763829.779    23763826.446         219.000
         4.000
 04  3  1  1 32 30.0000000  0  8G24G17G 4G29G13G 7G10G 5
 -17275677.91049 -13461531.72346  22200003.625    22200001.062         418.000
        17.000
  -6522365.21048  -5082354.17146  23314979.859    23314977.566         185.000
        13.000
 -13949380.73049 -10869609.97046  22121514.921    22121513.632         449.000
        20.000
  -5588268.24248  -4354486.98244  24399853.612    24399854.647         159.000
         3.000
 -10403527.34149  -8106584.70346  22989476.121    22989475.737         332.000
        10.000
 -21181593.15249 -16505104.24247  21028901.374    21028899.027         645.000
        49.000
 -20301395.50149 -15819246.80547  21489219.971    21489217.345         567.000
        35.000
  -7209834.22748  -5618050.82245  23757803.411    23757799.430         219.000
         4.000
 04  3  1  1 33  0.0000000  0  8G24G17G 4G29G13G 7G10G 5
 -17297275.79749 -13478361.23546  22195893.764    22195891.034         417.000
        17.000
  -6552984.95548  -5106217.83245  23309155.027    23309151.010         192.000
         4.000
 -13945457.42549 -10866552.84846  22122261.100    22122260.149         446.000
        20.000
  -5691638.49448  -4435035.14044  24380187.579    24380183.863         149.000
         3.000
 -10359424.33549  -8072218.71946  22997868.365    22997868.091         328.000
        10.000
 -21127637.87249 -16463061.16647  21039169.075    21039166.415         647.000
        49.000
 -20331879.12849 -15843000.27647  21483418.903    21483416.299         555.000
        35.000
  -7241067.00248  -5642388.04545  23751859.205    23751855.690         214.000
         4.000
 04  3  1  1 33 30.0000000  0  8G24G17G 4G29G13G 7G10G 5
 -17318900.20249 -13495211.40846  22191778.711    22191775.929         413.000
        18.000
  -6583577.29748  -5130056.25644  23303333.508    23303329.651         194.000
         3.000
 -13941554.66549 -10863511.73746  22123004.088    22123002.690         444.000
        20.000
  -5795086.79448  -4515644.10844  24360501.286    24360498.511         165.000
         3.000
 -10314836.41649  -8037474.88046  23006354.008    23006353.063         334.000
        10.000
 -21073254.96649 -16420684.87647  21049517.637    21049515.209         645.000
        48.000
 -20361952.35249 -15866433.95247  21477695.732    21477693.272         549.000
        35.000
  -7271863.37348  -5666385.20845  23746000.106    23745995.531         223.000
         4.000
 04  3  1  1 34  0.0000000  0  8G24G17G 4G29G13G 7G10G 5
 -17340555.06249 -13512085.31646  22187658.493    22187655.287         419.000
        18.000
  -6614147.20948  -5153876.90944  23297516.849    23297512.292         192.000
         2.000
 -13937675.53749 -10860489.03646  22123742.192    22123740.849         444.000
        20.000
  -5898614.66048  -4596315.11244  24340801.623    24340797.497         166.000
         3.000
 -10269768.33049  -8002356.89046  23014928.956    23014928.873         325.000
        10.000
 -21018449.17849 -16377979.06947  21059947.087    21059944.441         643.000
        48.000
 -20391619.33149 -15889551.07147  21472050.785    21472048.430         568.000
        35.000
  -7302227.29548  -5690045.39545  23740221.413    23740217.576         223.000
         4.000
 04  3  1  1 34 30.0000000  0  8G24G17G 4G29G13G 7G10G 5
 -17362238.15149 -13528981.21846  22183531.711    22183529.195         420.000
        18.000
  -6644693.00348  -5177678.77745  23291700.188    23291699.493         191.000
         4.000
 -13933816.90449 -10857482.31046  22124476.486    22124475.268         446.000
        19.000
  -6002216.60648  -4677043.83044  24321082.757    24321083.154         167.000
         3.000
 -10224218.12749  -7966863.22345  23023597.180    23023596.857         327.000
         9.000
 -20963218.78149 -16334942.39747  21070456.879    21070454.250         631.000
        48.000
 -20420877.68949 -15912349.78447  21466483.329    21466480.743         572.000
        35.000
  -7332156.26048  -5713366.65945  23734524.947    23734521.971         219.000
         4.000
 04  3  1  1 35  0.0000000  0  8G24G17G 4G29G13G 7G10G 5
 -17383952.67749 -13545901.61646  22179399.518    22179396.932         416.000
        17.000
  -6675219.08348  -5201465.31245  23285895.379    23285890.565         190.000
         4.000
 -13929981.08549 -10854493.35846  22125206.988    22125205.388         454.000
        20.000
  -6105893.64348  -4757831.07244  24301356.443    24301353.807         166.000
         3.000
 -10178190.00849  -7930997.15046  23032355.857    23032355.934         331.000
        10.000
 -20907567.76749 -16291577.97047  21081046.974    21081044.320         627.000
        47.000
 -20449731.55049 -15934833.30247  21460992.177    21460989.715         557.000
        35.000
  -7361653.43448  -5736351.46245  23728912.382    23728908.988         219.000
         4.000
 04  3  1  1 35 30.0000000  0  7G24G17G 4G29G 7G10G 5
 -17405694.76849 -13562843.50446  22175261.726    22175259.262         410.000
        18.000
  -6705722.03448  -5225233.80145  23280088.917    23280086.248         192.000
         5.000
 -13926163.17449 -10851518.36346  22125933.194    22125932.077         458.000
        20.000
  -6209638.95948  -4838671.49345  24281614.300    24281611.580         164.000
         4.000
 -20851493.04949 -16247883.39047  21091717.665    21091714.954         621.000
        46.000
 -20478177.06149 -15956998.62447  21455578.979    21455576.471         550.000
        35.000
  -7390714.71148  -5758996.61344  23723382.121    23723378.631         215.000
         3.000
 04  3  1  1 36  0.0000000  0  8G24G17G 4G29G26G 7G10G 5
 -17427463.05549 -13579805.79446  22171119.692    22171116.952         410.000
        18.000
  -6736201.47248  -5248984.00445  23274290.680    23274285.952         194.000
         5.000
 -13922361.05849 -10848555.67346  22126656.207    22126655.303         450.000
        20.000
  -6313448.60448  -4919562.06145  24261860.091    24261857.468         173.000
         4.000
         -.46257                                  25109021.507          97.000

 -20794993.88449 -16203858.06947  21102469.040    21102466.253         611.000
        46.000
 -20506213.22149 -15978844.97547  21450244.263    21450241.627         560.000
        35.000
  -7419338.62148  -5781300.93945  23717936.342    23717931.979         217.000
         4.000
 04  3  1  1 36 30.0000000  0  8G24G17G 4G29G26G 7G10G 5
 -17449260.06349 -13596790.46946  22166971.664    22166969.137         410.000
        18.000
  -6766660.93548  -5272718.66745  23268493.505    23268490.124         198.000
         5.000
 -13918576.68549 -10845606.81046  22127376.635    22127375.481         452.000
        20.000
  -6417322.61248  -5000502.77645  24242094.752    24242090.895         170.000
         4.000
    -93657.18448                                  25091199.452         117.000

 -20738073.90349 -16159504.84247  21113300.572    21113298.012         615.000
        45.000
 -20533842.98349 -16000374.64947  21444986.761    21444984.179         572.000
        35.000
  -7447528.00448  -5803266.70145  23712571.264    23712567.957         222.000
         4.000
 04  3  1  1 37  0.0000000  0  8G24G17G 4G29G26G 7G10G 5
 -17471094.71049 -13613804.47046  22162816.850    22162814.206         411.000
        18.000
  -6797109.76348  -5296444.99145  23262699.475    23262695.310         188.000
         5.000
 -13914817.49549 -10842677.57246  22128092.282    22128090.935         452.000
        21.000
  -6521266.81248  -5081498.19145  24222313.465    24222310.971         167.000
         4.000
   -187447.33848                                  25073351.741         113.000

 -20680742.33449 -16114830.89247  21124210.068    21124207.703         606.000
        44.000
 -20561075.50549 -16021594.78447  21439803.942    21439801.569         558.000
        35.000
  -7475291.31548  -5824900.44344  23707287.919    23707284.153         217.000
         3.000
 04  3  1  1 37 30.0000000  0  8G24G17G 4G29G26G 7G10G 5
 -17492960.13349 -13630842.45546  22158656.360    22158653.312         410.000
        18.000
  -6827541.98448  -5320158.39345  23256908.077    23256904.363         191.000
         5.000
 -13911075.77949 -10839761.94146  22128804.475    22128803.217         462.000
        20.000
  -6625271.53448  -5162540.75344  24202521.995    24202519.055         174.000
         3.000
   -281361.85448                                  25055480.287         106.000

 -20622993.25449 -16069831.61247  21135199.491    21135197.018         602.000
        44.000
 -20587904.40949 -16042500.41447  21434698.748    21434696.250         562.000
        35.000
  -7502621.57048  -5846196.74444  23702087.427    23702083.427         216.000
         3.000
 04  3  1  1 38  0.0000000  0  8G24G17G 4G29G26G 7G10G 5
 -17514861.46649 -13647908.42246  22154488.488    22154485.812         416.000
        18.000
  -6857964.11348  -5343863.91845  23251119.764    23251115.445         194.000
         5.000
 -13907356.34949 -10836863.68946  22129511.920    22129510.933         457.000
        20.000
  -6729339.59448  -5243632.69244  24182716.980    24182716.003         182.000
         3.000
   -375403.99048                                  25037584.925         111.000

 -20564832.91349 -16024511.86747  21146267.262    21146264.649         601.000
        43.000
 -20614335.54549 -16063096.09747  21429669.292    21429666.810         573.000
        36.000
  -7529524.63948  -5867160.16844  23696966.983    23696964.540         228.000
         3.000
 04  3  1  1 38 30.0000000  0  8G24G17G 4G29G26G 7G10G 5
 -17536789.15049 -13664994.92446  22150315.694    22150312.948         412.000
        18.000
  -6888366.85248  -5367554.34345  23245332.771    23245330.140         196.000
         4.000
 -13903648.28449 -10833974.28646  22130218.022    22130216.549         458.000
        20.000
  -6833458.68248  -5324764.40544  24162906.225    24162902.814         168.000
         3.000
   -469561.46547                                  25019666.106          97.000

 -20506252.32649 -15978864.65847  21157414.848    21157412.065         593.000
        44.000
 -20640359.42149 -16083374.43147  21424716.951    21424714.421         570.000
        36.000
  -7555990.56448  -5887782.96744  23691933.102    23691927.537         213.000
         3.000
 04  3  1  1 39  0.0000000  0  8G24G17G 4G29G26G 7G10G 5
 -17558743.95749 -13682102.55846  22146137.790    22146134.887         404.000
        17.000
  -6918752.34848  -5391231.32045  23239551.860    23239547.756         198.000
         5.000
 -13899951.70249 -10831093.83146  22130921.101    22130919.907         451.000
        20.000
  -6937627.00648  -5405934.41445  24143082.741    24143079.956         174.000
         4.000
   -563833.19948                                  25001727.839         108.000

 -20447253.58349 -15932891.61347  21168641.911    21168639.066         588.000
        43.000
 -20665977.66349 -16103336.69047  21419842.021    21419839.393         567.000
        36.000
  -7582020.03148  -5908065.67944  23686976.572    23686974.478         216.000
         3.000
 04  3  1  1 39 30.0000000  0  8G24G17G 4G29G26G 7G10G 5
 -17580725.53449 -13699231.04946  22141955.154    22141951.945         407.000
        18.000
  -6949120.92448  -5414895.13145  23233770.887    23233768.701         197.000
         5.000
 -13896265.51349 -10828221.47546  22131622.905    22131621.203         445.000
        20.000
  -7041841.49848  -5487140.46245  24123252.528    24123248.690         184.000
         4.000
   -658216.63948   -512894.17444  24983768.240    24983767.186         124.000
         2.000
 -20387837.10749 -15886593.06447  21179948.299    21179945.763         589.000
        43.000
 -20691190.46349 -16122983.02047  21415044.226    21415041.644         572.000
        37.000
  -7607613.36048  -5928008.54844  23682106.353    23682104.160         217.000
         2.000
 04  3  1  1 40  0.0000000  0  8G24G17G 4G29G26G 7G10G 5
 -17602738.86749 -13716384.29246  22137765.844    22137763.158         415.000
        18.000
  -6979478.77048  -5438550.57445  23227995.098    23227991.710         196.000
         5.000
 -13892593.77549 -10825360.38046  22132321.185    22132319.574         433.000
        20.000
  -7146104.51648  -5568384.31744  24103409.966    24103407.775         172.000
         3.000
   -752714.53648   -586528.67744  24965790.085    24965784.876         121.000
         2.000
 -20328009.07949 -15839973.82647  21191333.256    21191330.727         589.000
        42.000
 -20716003.41149 -16142317.77947  21410322.431    21410320.061         580.000
        37.000
  -7632775.64248  -5947615.51544  23677322.519    23677316.051         221.000
         2.000
 04  3  1  1 40 30.0000000  0  8G24G17G 4G29G26G 7G10G 5
 -17624787.31249 -13733564.88646  22133570.533    22133567.398         414.000
        18.000
  -7009829.65448  -5462200.60045  23222219.513    23222216.504         204.000
         5.000
 -13888938.87049 -10822512.39846  22133016.339    22133015.142         433.000
        19.000
  -7250416.44848  -5649666.27145  24083560.216    24083557.895         181.000
         4.000
   -847327.66248                                  24947780.281         123.000

 -20267773.48849 -15793037.00247  21202795.578    21202792.965         579.000
        41.000
 -20740420.03449 -16161343.71147  21405676.270    21405673.707         582.000
        37.000
  -7657510.25248  -5966889.22344  23672613.613    23672609.566         226.000
         2.000
 04  3  1  1 41  0.0000000  0  8G24G17G 4G29G26G 7G10G 5
 -17646869.37049 -13750771.67546  22129368.087    22129365.307         413.000
        18.000
  -7040173.18148  -5485844.90745  23216445.116    23216442.103         201.000
         4.000
 -13885298.37049 -10819675.64446  22133709.270    22133707.687         424.000
        19.000
  -7354773.57348  -5730983.47345  24063701.069    24063699.802         186.000
         4.000
   -942052.40348                                  24929754.657         115.000

 -20207129.92049 -15745782.27747  21214335.639    21214333.231         584.000
        41.000
 -20764439.70049 -16180060.32347  21401105.035    21401102.579         571.000
        37.000
  -7681816.12448                                  23667983.993         222.000

 04  3  1  1 41 30.0000000  0  8G24G17G 4G29G26G 7G10G 5
 -17668981.94749 -13768002.24546  22125160.241    22125157.366         413.000
        18.000
  -7070507.24948  -5509481.81845  23210672.731    23210669.627         204.000
         5.000
 -13881668.78549 -10816847.40246  22134399.799    22134398.450         426.000
        19.000
  -7459170.03448  -5812331.31445  24043836.685    24043833.565         182.000
         4.000
  -1036883.72448   -807958.62944  24911710.468    24911708.705         114.000
         1.000
 -20146076.67149 -15698208.31947  21225953.731    21225951.251         582.000
        40.000
 -20788060.29049 -16198465.96947  21396610.698    21396608.027         581.000
        37.000
  -7705690.24348  -6004432.60144  23663445.521    23663440.989         223.000
         2.000
 04  3  1  1 42  0.0000000  0  8G24G17G 4G29G26G 7G10G 5
 -17691127.25949 -13785258.31846  22120945.716    22120943.206         415.000
        18.000
  -7100835.07548  -5533113.87045  23204901.930    23204898.504         208.000
         5.000
 -13878051.13149 -10814028.44546  22135088.631    22135086.968         429.000
        20.000
  -7563605.44748  -5893709.47645  24023961.826    24023959.951         192.000
         4.000
  -1131821.47048                                  24893642.395         110.000

 -20084616.94849 -15650317.62847  21237649.165    21237646.592         579.000
        41.000
 -20811284.61849 -16216562.83847  21392191.202    21392188.574         585.000
        38.000
  -7729135.22148  -6022703.06245  23658981.536    23658979.276         220.000
         4.000
 04  3  1  1 42 30.0000000  0  8G24G17G 4G29G26G 7G10G 5
 -17713302.36249 -13802537.60646  22116726.344    22116723.636         420.000
        18.000
  -7131154.61148  -5556739.46445  23199131.605    23199129.295         212.000
         5.000
 -13874441.65949 -10811215.86646  22135774.898    22135773.996         433.000
        19.000
  -7668074.28548  -5975113.71745  24004083.736    24004080.201         189.000
         4.000
  -1226860.63248   -955992.09544  24875559.960    24875556.422         112.000
         2.000
 -20022749.09349 -15602108.91147  21249422.045    21249419.603         573.000
        41.000
 -20834110.51849 -16234349.25047  21387847.278    21387844.834         583.000
        37.000
  -7752148.58748  -6040638.57345  23654602.289    23654600.199         225.000
         7.000
 04  3  1  1 43  0.0000000  0  8G24G17G 4G29G26G 7G10G 5
 -17735503.49649 -13819837.21146  22112501.649    22112498.882         420.000
        14.000
  -7161462.46148  -5580355.94245  23193365.342    23193361.778         213.000
         6.000
 -13870835.53149 -10808405.89346  22136461.427    22136460.364         438.000
        19.000
  -7772569.73448  -6056538.69245  23984198.670    23984195.081         193.000
         4.000
  -1321994.72148                                  24857452.535         109.000

 -19960469.92049 -15553579.68847  21261273.833    21261271.086         576.000
        40.000
 -20856534.51749 -16251822.48047  21383580.154    21383577.461         576.000
        36.000
  -7774726.41748  -6058235.68646  23650306.690    23650303.631         225.000
        10.000
 04  3  1  1 43 30.0000000  0  8G24G17G 4G29G26G 7G10G 5
 -17757735.31649 -13837160.67946  22108270.898    22108268.331         425.000
        18.000
  -7191764.62748  -5603967.98545  23187597.818    23187595.468         216.000
         6.000
 -13867236.66349 -10805601.57646  22137146.561    22137145.448         449.000
        19.000
  -7877093.94848  -6137986.10745  23964305.594    23964304.744         196.000
         4.000
  -1417226.41848  -1104328.58344  24839333.386    24839330.557         112.000
         1.000
 -19897785.57449 -15504734.74547  21273202.347    21273199.520         576.000
        40.000
 -20878562.12049 -16268986.84847  21379388.313    21379385.971         583.000
        37.000
  -7796874.10848  -6075498.19346  23646091.052    23646089.072         225.000
        14.000
 04  3  1  1 44  0.0000000  0  8G24G17G 4G29G26G 7G10G 5
 -17779996.54449 -13854507.07546  22104034.447    22104032.191         426.000
        18.000
  -7222060.80548  -5627575.37845  23181833.878    23181830.101         211.000
         5.000
 -13863642.87849 -10802801.22646  22137830.398    22137829.249         446.000
        19.000
  -7981643.29148  -6219453.06445  23944411.897    23944409.189         192.000
         4.000
  -1512552.25248  -1178608.21744  24821194.602    24821190.456         111.000
         2.000
 -19834696.01149 -15455574.05047  21285207.714    21285205.067         575.000
        40.000
 -20900193.18749 -16285842.21147  21375272.357    21375269.767         588.000
        38.000
  -7818591.10548  -6092429.79246  23641959.768    23641957.140         236.000
        28.000
 04  3  1  1 44 30.0000000  0  8G24G17G 4G29G26G 7G10G 5
 -17802296.87749 -13871883.94146  22099791.125    22099788.701         434.000
        18.000
  -7252361.68948  -5651186.42145  23176066.535    23176063.835         209.000
         5.000
 -13860063.12749 -10800011.80446  22138511.716    22138510.672         451.000
        19.000
  -8086224.74448  -6300945.06345  23924510.253    23924508.724         207.000
         5.000
  -1607980.05548                                  24803031.631         110.000

 -19771212.21749 -15406106.15947  21297288.202    21297285.616         577.000
        39.000
 -20921438.26249 -16302396.80447  21371229.542    21371226.855         586.000
        38.000
  -7839887.29948  -6109034.47847  23637906.346    23637903.797         223.000
        38.000
 04  3  1  1 45  0.0000000  0  8G24G17G 4G29G26G 7G10G 5
 -17824624.59449 -13889282.14846  22095542.225    22095539.896         436.000
        18.000
  -7282656.44948  -5674792.71445  23170302.326    23170298.737         206.000
         6.000
 -13856485.20549 -10797223.80746  22139192.639    22139191.392         447.000
        19.000
  -8190824.29948  -6382451.15545  23904605.818    23904604.117         203.000
         6.000
  -1703495.73248  -1327394.87144  24784856.775    24784855.346         123.000
         2.000
 -19707323.87649 -15356323.03647  21309445.812    21309443.134         572.000
        40.000
 -20942286.59249 -16318642.24047  21367262.441    21367259.574         588.000
        38.000
  -7860752.09148  -6125296.41447  23633936.486    23633933.775         225.000
        37.000
 04  3  1  1 45 30.0000000  0  8G24G17G 4G29G26G 7G10G 5
 -17846986.38549 -13906706.90346  22091287.156    22091284.435         434.000
        18.000
  -7312952.81448  -5698400.24445  23164537.437    23164533.467         203.000
         6.000
 -13852914.50949 -10794441.44446  22139872.586    22139870.625         442.000
        19.000
  -8295445.57748  -6463974.17745  23884697.220    23884695.148         211.000
         5.000
  -1799103.75648  -1401894.36644  24766666.882    24766661.767         132.000
         2.000
 -19643038.79649 -15306230.76747  21321678.738    21321676.163         572.000
        39.000
 -20962745.50849 -16334584.25347  21363369.065    21363366.305         587.000
        39.000
  -7881191.96948  -6141219.43347  23630046.812    23630044.105         231.000
        38.000
 04  3  1  1 46  0.0000000  0  8G24G17G 4G29G26G 7G10G 5
 -17869380.11549 -13924156.55646  22087025.307    22087022.980         430.000
        18.000
  -7343249.21348  -5722007.81145  23158771.233    23158768.512         211.000
         5.000
 -13849348.15349 -10791662.46446  22140550.414    22140549.332         442.000
        20.000
  -8400083.70948  -6545510.32745  23864783.877    23864783.403         210.000
         4.000
  -1894799.47748  -1476462.21544  24748455.446    24748450.951         131.000
         2.000
 -19578355.95349 -15255828.55247  21333987.673    21333984.985         576.000
        40.000
 -20982813.56649 -16350221.69247  21359550.180    21359547.436         588.000
        39.000
  -7901205.11148  -6156802.06047  23626238.167    23626235.291         224.000
        33.000
 04  3  1  1 46 30.0000000  0  8G24G17G 4G29G26G 7G10G 5
 -17891804.04849 -13941629.74446  22082758.376    22082756.130         439.000
        19.000
  -7373545.05748  -5745614.93145  23153006.222    23153003.070         211.000
         6.000
 -13845783.39849 -10788884.72746  22141228.978    22141227.636         441.000
        20.000
  -8504734.50148  -6627056.37245  23844871.000    23844868.604         206.000
         5.000
  -1990579.20148  -1551095.53944  24730229.799    24730224.469         124.000
         2.000
 -19513275.09849 -15205116.20147  21346372.047    21346369.504         579.000
        40.000
 -21002490.23049 -16365554.14847  21355805.837    21355803.221         593.000
        39.000
  -7920790.67648  -6172053.24746  23622511.765    23622508.970         232.000
        15.000
 04  3  1  1 47  0.0000000  0  8G24G17G 4G29G26G 7G10G 5
 -17914258.53949 -13959126.74146  22078485.629    22078483.054         436.000
        19.000
  -7403841.64748  -5769222.63645  23147241.823    23147238.448         222.000
         5.000
 -13842219.89749 -10786107.97246  22141907.252    22141905.576         435.000
        20.000
  -8609395.82448  -6708610.59245  23824953.556    23824952.508         218.000
         5.000
  -2086441.11448                                  24711982.030         121.000

 -19447797.82549 -15154094.95347  21358831.956    21358829.401         578.000
        40.000
 -21021776.77749 -16380582.61647  21352135.798    21352133.105         597.000
        39.000
  -7939949.39148  -6186977.33245  23618866.678    23618863.483         240.000
         8.000
 04  3  1  1 47 30.0000000  0  8G24G17G 4G29G26G 7G10G 5
 -17936737.55149 -13976642.84646  22074207.645    22074205.219         428.000
        18.000
  -7434133.97248  -5792827.03145  23141476.689    23141473.746         220.000
         5.000
 -13838650.78149 -10783326.84546  22142586.413    22142584.395         422.000
        20.000
  -8714059.03548  -6790166.32845  23805037.689    23805035.253         210.000
         5.000
  -2182377.08648  -1700547.98444  24693725.909    24693726.276         125.000
         1.000
 -19381919.74549 -15102761.38547  21371367.975    21371365.528         575.000
        39.000
 -21040668.35249 -16395303.31347  21348540.855    21348538.203         602.000
        40.000
  -7958676.67348  -6201567.21645  23615302.343    23615299.417         235.000
         6.000
 04  3  1  1 48  0.0000000  0  8G24G17G 4G29G26G 7G10G 5
 -17959244.28049 -13994180.54546  22069924.864    22069922.529         433.000
        19.000
  -7464426.43348  -5816431.52845  23135712.066    23135709.237         219.000
         6.000
 -13835078.58549 -10780543.30546  22143265.880    22143264.246         424.000
        19.000
  -8818724.83448  -6871724.02645  23785120.949    23785118.310         214.000
         6.000
  -2278388.29948                                  24675455.931         140.000

 -19315645.56449 -15051119.16947  21383979.696    21383977.162         578.000
        39.000
 -21059169.00749 -16409719.40147  21345020.318    21345017.720         604.000
        40.000
  -7976975.99648  -6215824.49644  23611820.126    23611817.216         239.000
         3.000
 04  3  1  1 48 30.0000000  0  8G24G17G 4G29G26G 7G10G 5
 -17981788.76549 -14011747.66746  22065634.520    22065632.054         422.000
        19.000
  -7494729.67148  -5840044.42245  23129947.033    23129942.472         215.000
         6.000
 -13831512.26549 -10777764.35646  22143943.807    22143942.772         421.000
        19.000
  -8923400.47448  -6953289.42545  23765200.251    23765199.139         216.000
         5.000
  -2374482.01148  -1850239.79944  24657171.392    24657169.784         145.000
         2.000
 -19248986.34549 -14999176.92347  21396664.507    21396661.951         574.000
        38.000
 -21077289.59249 -16423839.33147  21341571.799    21341569.369         605.000
        40.000
  -7994857.89148  -6229757.57944  23608419.369    23608414.392         235.000
         2.000
 04  3  1  1 49  0.0000000  0  8G24G17G 4G29G26G 7G10G 5
 -18004369.49949 -14029343.03546  22061337.756    22061335.328         426.000
        19.000
  -7525043.23248  -5863665.36545  23124178.347    23124173.957         216.000
         6.000
 -13827949.57349 -10774988.22846  22144622.311    22144621.068         428.000
        20.000
  -9028081.80948  -7034859.25945  23745280.297    23745278.923         222.000
         6.000
  -2470654.92448  -1925179.55844  24638870.525    24638868.752         156.000
         3.000
 -19181942.28349 -14946934.79847  21409422.327    21409419.979         568.000
        37.000
 -21095029.92949 -16437662.96147  21338196.137    21338193.465         605.000
        40.000
  -8012321.86648                                  23605090.509         225.000

 04  3  1  1 49 30.0000000  0  8G24G17G 4G29G26G 7G10G 5
 -18026979.39649 -14046961.12646  22057034.873    22057032.751         427.000
        19.000
  -7555361.12848  -5887289.68545  23118407.653    23118404.752         220.000
         6.000
 -13824382.66149 -10772208.81046  22145301.427    22145299.975         433.000
        20.000
  -9132759.22948  -7116426.01845  23725360.791    23725359.083         205.000
         5.000
  -2566897.74148  -2000173.76544  24620557.275    24620554.128         150.000
         3.000
 -19114507.76049 -14894388.42047  21422254.972    21422252.565         569.000
        37.000
 -21112383.95549 -16451185.56847  21334893.697    21334891.171         610.000
        41.000
  -8029361.50948                                  23601848.561         233.000

 04  3  1  1 50  0.0000000  0  8G24G17G 4G29G26G 7G10G 5
 -18049617.99849 -14064601.59146  22052727.432    22052725.025         430.000
        18.000
  -7585683.86648  -5910917.77745  23112637.858    23112634.409         220.000
         6.000
 -13820810.08649 -10769424.98746  22145981.379    22145979.673         429.000
        19.000
  -9237429.86648  -7197987.51045  23705441.427    23705440.880         217.000
         5.000
  -2663208.01948  -2075220.57044  24602228.994    24602226.334         137.000
         2.000
 -19046683.97549 -14841538.71947  21435161.475    21435158.818         558.000
        36.000
 -21129352.49949 -16464407.80547  21331664.475    21331662.028         606.000
        41.000
  -8045977.24848  -6269591.47344  23598687.838    23598686.572         232.000
         2.000
 04  3  1  1 50 30.0000000  0  8G24G17G 4G29G26G 7G10G 5
 -18072283.79249 -14082263.24946  22048413.962    22048411.595         424.000
        18.000
  -7616010.74848  -5934549.09145  23106866.572    23106863.668         221.000
         6.000
 -13817229.59949 -10766634.99946  22146662.760    22146661.065         427.000
        19.000
  -9342089.57648  -7279540.51345  23685526.937    23685524.811         217.000
         6.000
  -2759581.80448  -2150316.91744  24583885.256    24583886.579         132.000
         2.000
 -18978470.79749 -14788385.59647  21448141.901    21448139.345         555.000
        36.000
 -21145935.16849 -16477329.36147  21328509.173    21328506.547         609.000
        41.000
  -8062168.24248  -6282207.83644  23595606.273    23595605.535         234.000
         2.000
 04  3  1  1 51  0.0000000  0  8G24G17G 4G29G26G 7G10G 5
 -18094974.65049 -14099944.41646  22044096.407    22044093.638         421.000
        19.000
  -7646340.54848  -5958182.67845  23101095.249    23101092.033         219.000
         6.000
 -13813637.99249 -10763836.33946  22147345.582    22147344.349         422.000
        19.000
  -9446733.35748  -7361081.08145  23665614.090    23665612.262         223.000
         6.000
  -2856014.74548  -2225459.31844  24565541.291    24565536.808         150.000
         2.000
 -18909867.48249 -14734928.47047  21461196.675    21461194.078         546.000
        35.000
 -21162130.54349 -16489949.12547  21325427.097    21325424.520         606.000
        41.000
  -8077933.15048  -6294492.19244  23592608.526    23592605.793         240.000
         3.000
 04  3  1  1 51 30.0000000  0  8G24G17G 4G29G26G 7G10G 5
 -18117704.18649 -14117655.74646  22039770.906    22039768.263         421.000
        19.000
  -7676688.44148  -5981830.36945  23095319.465    23095316.798         212.000
         6.000
 -13810048.68249 -10761039.47446  22148029.109    22148027.674         429.000
        19.000
  -9551372.97048  -7442618.39245  23645701.824    23645699.698         223.000
         6.000
  -2952518.93048  -2300657.26744  24547176.419    24547172.426         161.000
         3.000
 -18840889.90449 -14681179.71147  21474322.568    21474320.038         542.000
        35.000
 -21177954.30049 -16502279.31547  21322416.136    21322413.400         607.000
        41.000
  -8093287.16748  -6306456.37144  23589686.023    23589683.755         237.000
         3.000
 04  3  1  1 52  0.0000000  0  8G24G17G 4G29G26G 7G10G 5
 -18140461.54449 -14135388.74346  22035439.775    22035437.578         421.000
        19.000
  -7707044.38748  -6005484.34245  23089543.316    23089539.632         203.000
         5.000
 -13806449.80249 -10758235.14946  22148713.538    22148712.414         427.000
        20.000
  -9655994.63948  -7524141.74245  23625793.207    23625791.026         225.000
         6.000
  -3049080.93148  -2375900.23944  24528797.343    24528797.201         169.000
         3.000
 -18771528.43649 -14627131.82047  21487521.690    21487519.076         536.000
        34.000
 -21193396.49349 -16514312.18347  21319477.463    21319474.875         609.000
        41.000
  -8108219.99148  -6318092.34544  23586842.488    23586841.728         228.000
         3.000
 04  3  1  1 52 30.0000000  0  8G24G17G 4G29G26G 7G10G 5
 -18163248.72849 -14153144.98846  22031103.628    22031101.182         416.000
        19.000
  -7737410.92748  -6029146.58345  23083764.347    23083761.436         208.000
         6.000
 -13802842.06949 -10755423.92546  22149400.736    22149399.052         430.000
        19.000
  -9760597.58148  -7605650.48645  23605887.201    23605885.125         221.000
         6.000
  -3145700.27648  -2451187.91544  24510410.231    24510410.820         147.000
         2.000
 -18701786.36949 -14572787.35347  21500793.144    21500790.619         534.000
        33.000
 -21208460.02149 -16526049.98747  21316610.920    21316608.424         615.000
        41.000
  -8122733.96748  -6329401.93344  23584082.347    23584079.422         222.000
         2.000
 04  3  1  1 53  0.0000000  0  8G24G17G 4G29G26G 7G10G 5
 -18186065.47649 -14170924.26446  22026762.316    22026759.616         426.000
        19.000
  -7767788.87648  -6052817.70645  23077984.044    23077980.710         209.000
         5.000
 -13799224.47949 -10752605.02346  22150088.706    22150087.623         435.000
        19.000
  -9865179.07148  -7687142.52645  23585987.108    23585983.857         225.000
         6.000
  -3242374.84548  -2526518.63644  24492016.142    24492015.189         152.000
         2.000
 -18631665.34849 -14518147.59847  21514136.572    21514134.167         529.000
        33.000
 -21223145.94849 -16537493.55747  21313816.146    21313813.657         609.000
        41.000
  -8136830.21848  -6340386.02844  23581399.318    23581397.321         226.000
         3.000
 04  3  1  1 53 30.0000000  0  8G24G17G 4G29G26G 7G10G 5
 -18208909.42649 -14188724.73846  22022414.974    22022412.546         424.000
        19.000
  -7798177.12048  -6076496.83445  23072200.649    23072198.224         217.000
         6.000
 -13795594.16649 -10749776.21046  22150779.449    22150778.237         429.000
        19.000
  -9969734.20548  -7768614.03445  23566089.606    23566087.847         225.000
         6.000
  -3339100.12348  -2601888.86644  24473608.060    24473608.235         150.000
         1.000
 -18561164.93149 -14463212.21147  21527552.537    21527549.864         524.000
        33.000
 -21237453.43149 -16548642.23647  21311093.721    21311091.101         616.000
        42.000
  -8150507.44548  -6351043.60845  23578796.004    23578794.715         228.000
         4.000
 04  3  1  1 54  0.0000000  0  8G24G17G 4G29G26G 7G10G 5
 -18231773.52149 -14206540.91346  22018063.795    22018061.775         428.000
        19.000
  -7828569.65648  -6100179.33645  23066417.995    23066414.541         219.000
         5.000
 -13791943.11949 -10746931.23946  22151473.995    22151472.864         428.000
        19.000
 -10074253.57248  -7850057.66045  23546200.006    23546199.086         240.000
         6.000
  -3435867.08348  -2677291.59844  24455197.192    24455194.064         156.000
         3.000
 -18490279.70249 -14407976.97147  21541041.797    21541039.014         524.000
        32.000
 -21251376.76449 -16559491.57647  21308444.317    21308441.638         620.000
        42.000
  -8163759.86548  -6361370.17945  23576273.799    23576273.366         238.000
         4.000
 04  3  1  1 54 30.0000000  0  8G24G17G 4G29G26G 7G10G 5
 -18254668.39349 -14224381.06346  22013707.746    22013704.737         418.000
        19.000
  -7858978.12548  -6123874.21045  23060631.673    23060628.643         232.000
         6.000
 -13788281.09049 -10744077.70746  22152170.767    22152169.788         425.000
        19.000
 -10178745.07348  -7931479.58745  23526316.398    23526314.287         232.000
         7.000
  -3532684.06948  -2752733.29944  24436772.332    24436770.359         160.000
         3.000
 -18419021.96149 -14352451.45747  21554601.450    21554598.883         520.000
        33.000
 -21264927.54449 -16570050.61647  21305865.622    21305863.119         626.000
        41.000
  -8176598.76548  -6371374.50344  23573830.898    23573830.005         235.000
         3.000
 04  3  1  1 55  0.0000000  0  8G24G17G 4G29G26G 7G10G 5
 -18277598.78949 -14242248.90046  22009344.557    22009341.310         423.000
        19.000
  -7889408.32348  -6147586.04645  23054841.085    23054837.885         234.000
         6.000
 -13784612.34949 -10741218.94646  22152869.295    22152867.808         424.000
        19.000
 -10283211.14548  -8012881.66045  23506437.644    23506435.434         236.000
         7.000
  -3629553.87848  -2828216.19244  24418335.428    24418336.336         160.000
         3.000
 -18347398.32349 -14296640.83347  21568231.009    21568228.339         517.000
        33.000
 -21278112.38949 -16580324.51647  21303356.409    21303353.999         623.000
        42.000
  -8189030.51548  -6381061.60045  23571467.413    23571463.962         229.000
         4.000
 04  3  1  1 55 30.0000000  0  8G24G17G 4G29G26G 7G10G 5
 -18300555.89149 -14260137.54946  22004975.329    22004972.578         419.000
        19.000
  -7919852.44548  -6171308.72645  23049047.157    23049044.465         233.000
         6.000
 -13780927.14449 -10738347.36246  22153570.677    22153569.146         427.000
        19.000
 -10387640.36548  -8094255.05245  23486564.897    23486562.829         230.000
         6.000
  -3726465.67948  -2903731.82944  24399895.761    24399893.865         151.000
         2.000
 -18275401.74449 -14240539.60247  21581931.620    21581928.993         521.000
        33.000
 -21290923.84249 -16590307.45847  21300918.561    21300915.998         622.000
        42.000
  -8201047.12948  -6390425.18845  23569181.718    23569177.220         230.000
         4.000
 04  3  1  1 56  0.0000000  0  8G24G17G 4G29G26G 7G10G 5
 -18323546.31349 -14278052.15246  22000600.315    22000597.583         421.000
        19.000
  -7950317.93748  -6195048.04745  23043249.963    23043247.012         232.000
         6.000
 -13777231.25749 -10735467.44446  22154274.193    22154272.621         433.000
        19.000
 -10492036.81448  -8175602.90345  23466698.993    23466697.102         237.000
         7.000
  -3823423.62148  -2979283.34644  24381447.291    24381443.790         150.000
         3.000
 -18203040.60349 -14184154.30547  21595701.344    21595698.717         513.000
        32.000
 -21303369.93649 -16600005.70647  21298550.107    21298547.702         626.000
        42.000
  -8212656.28448  -6399471.28845  23566970.903    23566968.366         232.000
         4.000
 04  3  1  1 56 30.0000000  0  8G24G17G 4G29G26G 7G10G 5
 -18346562.41949 -14295986.78046  21996220.679    21996218.290         438.000
        20.000
  -7980798.44648  -6218799.08945  23037449.628    23037446.523         229.000
         6.000
 -13773516.24349 -10732572.62246  22154980.725    22154979.655         434.000
        19.000
 -10596390.40748  -8256917.37345  23446841.768    23446839.339         242.000
         6.000
  -3920418.21448  -3054863.45044  24362990.126    24362986.963         161.000
         3.000
 -18130309.21749 -14127480.50047  21609541.956    21609539.107         513.000
        32.000
 -21315444.42849 -16609414.39547  21296252.568    21296249.981         624.000
        42.000
  -8223851.91648  -6408195.15445  23564841.149    23564837.961         236.000
         4.000
 04  3  1  1 57  0.0000000  0  8G24G17G 4G29G26G 7G10G 5
 -18369596.96649 -14313935.77346  21991837.525    21991834.763         434.000
        20.000
  -8011287.45648  -6242556.74545  23031647.895    23031644.658         224.000
         6.000
 -13769773.86449 -10729656.47846  22155693.171    22155691.796         435.000
        19.000
 -10700691.34448  -8338190.79645  23426993.877    23426991.364         238.000
         7.000
  -4017439.99548  -3130464.77344  24344526.749    24344524.278         166.000
         3.000
 -18057202.17849 -14070513.98247  21623453.727    21623450.863         510.000
        32.000
 -21327141.39049 -16618528.90747  21294026.385    21294024.001         622.000
        42.000
  -8234627.76348  -6416591.92845  23562790.803    23562787.373         233.000
         4.000
 04  3  1  1 57 30.0000000  0  8G24G17G 4G29G26G 7G10G 5
 -18392661.81649 -14331908.38046  21987448.409    21987445.425         432.000
        20.000
  -8041798.18548  -6266331.32845  23025841.412    23025838.495         222.000
         6.000
 -13766015.57349 -10726727.93246  22156408.448    22156406.978         435.000
        19.000
 -10804949.23248  -8419430.67545  23407154.003    23407151.205         230.000
         7.000
  -4114498.95548  -3206095.02644  24326054.974    24326054.164         163.000
         2.000
 -17983733.32049 -14013265.52546  21637434.183    21637431.647         513.000
        31.000
 -21338474.54849 -16627359.92847  21291869.871    21291867.394         621.000
        42.000
  -8244996.97348  -6424671.82745  23560816.191    23560814.147         235.000
         4.000
 04  3  1  1 58  0.0000000  0  8G24G17G 4G29G26G 7G10G 5
 -18415750.86049 -14349899.83846  21983054.296    21983051.765         433.000
        20.000
  -8072325.32348  -6290118.69745  23020032.288    23020029.416         219.000
         6.000
 -13762234.23449 -10723781.42746  22157128.019    22157126.342         427.000
        19.000
 -10909155.00248  -8500629.94745  23387324.086    23387321.767         242.000
         7.000
  -4211586.50648  -3281747.61144  24307577.658    24307578.354         162.000
         3.000
 -17909898.25949 -13955731.71246  21651484.729    21651481.864         509.000
        31.000
 -21349439.06249 -16635903.69847  21289783.320    21289780.920         622.000
        42.000
  -8254954.89148  -6432431.24145  23558922.420    23558919.190         234.000
         4.000
 04  3  1  1 58 30.0000000  0  8G24G17G 4G29G26G 7G10G 5
 -18438863.28749 -14367909.52246  21978656.405    21978653.831         442.000
        20.000
  -8102869.36648  -6313919.20945  23014220.791    23014217.289         224.000
         6.000
 -13758428.37549 -10720815.82346  22157851.845    22157850.556         426.000
        19.000
 -11013305.87648  -8581786.44045  23367504.475    23367502.072         231.000
         7.000
  -4308700.10748  -3357420.48744  24289101.458    24289098.677         168.000
         3.000
 -17835698.32249 -13897913.58246  21665604.348    21665601.706         512.000
        31.000
 -21360035.76649 -16644160.86547  21287766.980    21287764.675         633.000
        41.000
  -8264501.64548  -6439870.27645  23557106.351    23557102.089         224.000
         4.000
 04  3  1  1 59  0.0000000  0  8G24G17G 4G29G26G 7G10G 5
 -18462001.25849 -14385939.10146  21974253.467    21974250.520         434.000
        20.000
  -8133433.45648  -6337735.39645  23008403.205    23008400.854         223.000
         5.000
 -13754599.42449 -10717832.21946  22158581.280    22158579.179         423.000
        19.000
 -11117401.37948  -8662899.78945  23347696.018    23347693.538         239.000
         7.000
  -4405839.82048  -3433113.69244  24270617.322    24270613.288         159.000
         3.000
 -17761137.65149 -13839814.36246  21679792.813    21679790.295         518.000
        31.000
 -21370268.60449 -16652134.49447  21285819.541    21285817.278         628.000
        42.000
  -8273641.37948  -6446992.15845  23555363.581    23555363.061         233.000
         4.000
 04  3  1  1 59 30.0000000  0  8G24G17G 4G29G26G 7G10G 5
 -18485168.57949 -14403991.55546  21969845.080    21969842.224         446.000
        21.000
  -8164022.30948  -6361570.84145  23002582.908    23002580.005         225.000
         6.000
 -13750750.09849 -10714832.74246  22159313.279    22159311.638         422.000
        19.000
 -11221442.58048  -8743970.83545  23327897.085    23327895.280         242.000
         8.000
  -4503007.32848  -3508828.50344  24252124.133    24252122.754         156.000
         3.000
 -17686222.00249 -13781438.53346  21694048.762    21694046.153         516.000
        31.000
 -21380142.87649 -16659828.72547  21283940.614    21283938.176         625.000
        42.000
  -8282378.85248  -6453800.57945  23553705.046    23553701.016         243.000
         5.000
 04  3  1  2  0  0.0000000  0  8G24G17G 4G29G26G 7G10G 5
 -18508363.58249 -14422065.58446  21965430.565    21965428.270         447.000
        21.000
  -8194635.26248  -6385425.07245  22996758.020    22996754.542         227.000
         6.000
 -13746878.18149 -10711815.65546  22160050.097    22160048.543         421.000
        19.000
 -11325425.45948  -8824996.42945  23308109.900    23308108.049         248.000
         7.000
  -4600198.84448  -3584562.10344  24233629.421    24233628.237         173.000
         3.000
 -17610951.68849 -13722786.34346  21708372.303    21708369.751         520.000
        30.000
 -21389658.59149 -16667243.56147  21282129.778    21282127.649         636.000
        42.000
  -8290713.65948  -6460295.23445  23552117.075    23552114.734         236.000
         4.000
 04  3  1  2  0 30.0000000  0  8G24G17G 4G29G26G 7G10G 5
 -18531580.78149 -14440156.90146  21961012.911    21961010.290         452.000
        21.000
  -8225267.91248  -6409294.66345  22990929.152    22990925.843         236.000
         6.000
 -13742977.40849 -10708776.09046  22160792.493    22160790.891         421.000
        18.000
 -11429342.18048  -8905970.46445  23288334.832    23288333.126         244.000
         8.000
  -4697406.82448  -3660308.55344  24215130.031    24215130.161         178.000
         3.000
 -17535323.15349 -13663855.02146  21722763.720    21722761.408         521.000
        30.000
 -21398811.63149 -16674375.79247  21280387.825    21280385.640         628.000
        42.000
  -8298641.78048  -6466473.01645  23550609.583    23550605.729         232.000
         4.000
 04  3  1  2  1  0.0000000  0  8G24G17G 4G29G26G 7G10G 5
 -18554824.46149 -14458268.85846  21956589.869    21956587.093         453.000
        21.000
  -8255925.73448  -6433183.85045  22985094.071    22985091.479         232.000
         7.000
 -13739051.39849 -10705716.85646  22161539.318    22161537.687         411.000
        18.000
 -11533194.54448  -8986894.35045  23268573.397    23268570.773         245.000
         8.000
  -4794633.64748  -3736069.64144  24196629.045    24196628.549         170.000
         3.000
 -17459343.01149 -13604649.71546  21737222.631    21737219.995         520.000
        30.000
 -21407608.06449 -16681230.14947  21278714.214    21278711.823         632.000
        43.000
  -8306169.17348  -6472338.50645  23549177.696    23549173.341         232.000
         5.000
 04  3  1  2  1 30.0000000  0  8G24G17G 4G29G26G 7G10G 5
 -18578102.83049 -14476407.84146  21952160.004    21952157.582         462.000
        21.000
  -8286618.03348  -6457099.90645  22979254.334    22979250.990         234.000
         7.000
 -13735107.43149 -10702643.63046  22162289.907    22162288.334         413.000
        18.000
 -11636988.41248  -9067772.67045  23248820.536    23248819.302         257.000
         8.000
  -4891885.41348  -3811850.19544  24178125.240    24178121.980         171.000
         3.000
 -17383021.55249 -13545178.44846  21751745.864    21751743.324         510.000
        29.000
 -21416058.06849 -16687814.56447  21277106.118    21277103.779         631.000
        43.000
  -8313305.68048  -6477899.42245  23547816.785    23547815.294         233.000
         4.000
 04  3  1  2  2  0.0000000  0  8G24G17G 4G29G26G 7G10G 5
 -18601401.68649 -14494562.78846  21947726.389    21947723.756         460.000
        21.000
  -8317331.51748  -6481032.48245  22973408.797    22973406.470         239.000
         6.000
 -13731130.80449 -10699544.95646  22163046.809    22163045.078         414.000
        19.000
 -11740707.06548  -9148592.37745  23229084.478    23229082.349         254.000
         8.000
  -4989145.85648  -3887637.48145  24159616.708    24159614.045         181.000
         4.000
 -17306346.47649 -13485431.64246  21766336.700    21766334.078         506.000
        29.000
 -21424148.99649 -16694119.17547  21275566.515    21275564.250         634.000
        43.000
  -8320038.39948  -6483145.69245  23546538.304    23546534.135         234.000
         5.000
 04  3  1  2  2 30.0000000  0  8G24G17G 4G29G26G 7G10G 5
 -18624720.79249 -14512733.51246  21943288.470    21943286.415         467.000
        21.000
  -8348067.14548  -6504982.30045  22967561.017    22967557.810         241.000
         7.000
 -13727120.18349 -10696419.79646  22163810.101    22163808.236         411.000
        18.000
 -11844348.03148  -9229351.53845  23209362.226    23209360.323         260.000
         8.000
  -5086412.69248  -3963429.76845  24141107.895    24141104.264         174.000
         4.000
 -17229319.86049 -13425410.90246  21780994.367    21780991.689         497.000
        28.000
 -21431882.28949 -16700145.11147  21274095.051    21274092.573         632.000
        43.000
  -8326368.56348  -6488078.28445  23545332.365    23545329.299         229.000
         5.000
 04  3  1  2  3  0.0000000  0  8G24G17G 4G29G26G 7G10G 5
 -18648051.59249 -14530913.35146  21938849.092    21938846.688         468.000
        21.000
  -8378817.31748  -6528943.46245  22961708.828    22961706.154         241.000
         6.000
 -13723066.56449 -10693261.12846  22164581.017    22164579.547         409.000
        18.000
 -11947899.98248  -9310041.35545  23189656.979    23189654.717         248.000
         8.000
  -5183675.42448  -4039218.87345  24122597.751    24122596.271         184.000
         4.000
 -17151935.23149 -13365111.19346  21795720.200    21795717.608         493.000
        28.000
 -21439251.40149 -16705887.27047  21272692.690    21272690.283         631.000
        42.000
  -8332289.92548  -6492692.34745  23544205.965    23544202.717         229.000
         5.000
 04  3  1  2  3 30.0000000  0  8G24G17G 4G29G26G 7G10G 5
 -18671402.35449 -14549108.74946  21934405.743    21934403.128         467.000
        22.000
  -8409591.70548  -6552923.48945  22955853.691    22955850.131         241.000
         7.000
 -13718977.55349 -10690074.88546  22165359.432    22165357.649         408.000
        19.000
 -12051369.17448  -9390666.66545  23169967.968    23169965.661         262.000
         8.000
  -5280940.56148  -4115009.80945  24104087.789    24104087.271         195.000
         4.000
 -17074203.36949 -13304540.91246  21810511.568    21810509.451         487.000
        27.000
 -21446266.58349 -16711353.63747  21271357.717    21271355.248         628.000
        42.000
  -8337812.16448  -6496995.39745  23543153.907    23543151.063         221.000
         5.000
 04  3  1  2  4  0.0000000  0  8G24G17G 4G29G26G 7G10G 5
 -18694785.25249 -14567329.18546  21929955.555    21929953.469         471.000
        22.000
  -8440403.23448  -6576932.47045  22949990.059    22949986.613         237.000
         6.000
 -13714864.54649 -10686869.94046  22166141.619    22166140.090         403.000
        19.000
 -12154765.30448  -9471235.04045  23150291.908    23150289.639         261.000
         9.000
  -5378217.98648  -4190810.37545  24085577.625    24085575.728         183.000
         4.000
 -16996138.36649 -13243711.04346  21825367.255    21825364.487         473.000
        27.000
 -21452941.37049 -16716554.76247  21270087.360    21270085.095         629.000
        42.000
  -8342948.86148  -6500998.00245  23542177.617    23542174.118         226.000
         5.000
 04  3  1  2  4 30.0000000  0  8G24G17G 4G29G26G 7G10G 5
 -18718188.54349 -14585565.51546  21925502.483    21925499.970         475.000
        21.000
  -8471241.28348  -6600962.10845  22944120.294    22944118.216         234.000
         6.000
 -13710714.78449 -10683636.35846  22166931.475    22166929.872         405.000
        18.000
 -12258073.99648  -9551735.30245  23130632.624    23130630.605         263.000
         9.000
  -5475493.91448  -4266609.74144  24067065.001    24067064.617         178.000
         3.000
 -16917730.65749 -13182614.12946  21840287.645    21840285.125         469.000
        26.000
 -21459265.79049 -16721482.87347  21268883.895    21268881.658         632.000
        42.000
  -8347689.60048  -6504692.08445  23541275.777    23541272.048         230.000
         5.000
 04  3  1  2  5  0.0000000  0  8G24G17G 4G29G26G 7G10G 5
 -18741622.59449 -14603825.80746  21921042.973    21921040.666         475.000
        22.000
  -8502117.28448  -6625021.31645  22938245.730    22938242.678         230.000
         6.000
 -13706538.01449 -10680381.73146  22167726.147    22167724.908         411.000
        18.000
 -12361303.24948  -9632173.65945  23110988.781    23110986.695         263.000
         8.000
  -5572776.68348  -4342414.43545  24048553.080    24048552.583         192.000
         4.000
 -16838992.97149 -13121260.09446  21855271.014    21855268.440         464.000
        26.000
 -21465252.53549 -16726147.86047  21267744.599    21267742.355         630.000
        42.000
  -8352046.93148  -6508087.41945  23540446.518    23540443.157         230.000
         5.000
 04  3  1  2  5 30.0000000  0  8G24G17G 4G29G26G 7G10G 5
 -18765075.01949 -14622100.42046  21916580.602    21916577.876         481.000
        23.000
  -8533020.15648  -6649101.46945  22932365.017    22932362.090         231.000
         7.000
 -13702321.31349 -10677095.98946  22168528.707    22168527.223         410.000
        19.000
 -12464438.53948  -9712538.79345  23091363.234    23091360.557         258.000
         8.000
  -5670052.18848  -4418213.47345  24030043.061    24030041.847         202.000
         5.000
 -16759915.30649 -13059641.13846  21870319.177    21870316.412         459.000
        25.000
 -21470891.16049 -16730541.58447  21266671.579    21266669.431         631.000
        42.000
  -8356010.25948  -6511175.72645  23539693.081    23539688.657         228.000
         6.000
 04  3  1  2  6  0.0000000  0  8G24G17G 4G29G26G 7G10G 5
 -18788543.68949 -14640387.69346  21912114.176    21912111.773         478.000
        23.000
  -8563948.62348  -6673201.54145  22926480.422    22926476.405         231.000
         7.000
 -13698061.49349 -10673776.64746  22169339.846    22169338.133         418.000
        19.000
 -12567475.08648  -9792826.98945  23071755.661    23071753.480         270.000
         9.000
  -5767316.09248  -4494003.47645  24011535.215    24011532.580         189.000
         4.000
 -16680497.58049 -12997757.20046  21885431.840    21885429.129         454.000
        25.000
 -21476181.08849 -16734663.59647  21265664.894    21265662.677         626.000
        42.000
  -8359578.89848  -6513956.49945  23539012.077    23539009.840         232.000
         5.000
 04  3  1  2  6 30.0000000  0  8G24G17G 4G29G26G 7G10G 5
 -18812032.04149 -14658690.29546  21907644.736    21907642.110         482.000
        23.000
  -8594907.22048  -6697325.10545  22920589.017    22920585.164         231.000
         7.000
 -13693761.49549 -10670425.99846  22170157.454    22170156.195         412.000
        19.000
 -12670414.06248  -9873039.15345  23052166.288    23052164.715         271.000
         9.000
  -5864569.81948  -4569785.55245  23993029.140    23993025.795         191.000
         4.000
 -16600745.59349 -12935612.79546  21900608.068    21900605.499         455.000
        25.000
 -21481127.74949 -16738518.13147  21264723.607    21264721.267         624.000
        41.000
  -8362758.21848  -6516433.87045  23538408.127    23538404.959         233.000
         6.000
 04  3  1  2  7  0.0000000  0  8G24G17G 4G29G26G 7G10G 5
 -18835526.77949 -14676997.88146  21903173.601    21903171.326         486.000
        23.000
  -8625883.82948  -6721462.71545  22914693.822    22914690.648         236.000
         6.000
 -13689407.19149 -10667033.03146  22170986.058    22170984.638         408.000
        19.000
 -12773239.98848  -9953163.22945  23032599.493    23032598.053         285.000
         9.000
  -5961798.34148  -4645547.95945  23974524.471    23974524.159         196.000
         4.000
 -16520648.55249 -12873199.52346  21915850.198    21915847.334         448.000
        25.000
 -21485720.18149 -16742096.64147  21263849.892    21263847.533         629.000
        42.000
  -8365536.54448  -6518598.81845  23537879.130    23537876.382         233.000
         5.000
 04  3  1  2  7 30.0000000  0  8G24G17G 4G29G26G 7G10G 5
 -18859039.02049 -14695319.11146  21898699.251    21898696.852         478.000
        23.000
  -8656890.88948  -6745624.04345  22908793.400    22908790.373         241.000
         7.000
 -13685009.42449 -10663606.19146  22171823.485    22171821.546         407.000
        19.000
 -12875961.69148 -10033206.08545  23013051.342    23013050.091         274.000
         9.000
  -6059010.98848  -4721298.03845  23956026.228    23956024.789         190.000
         4.000
 -16440220.21449 -12810528.09646  21931155.111    21931152.331         449.000
        24.000
 -21489971.49349 -16745409.34547  21263041.060    21263038.324         619.000
        42.000
  -8367927.55648  -6520461.95045  23537424.143    23537420.908         224.000
         5.000
 04  3  1  2  8  0.0000000  0  8G24G17G 4G29G26G 7G10G 5
 -18882576.58749 -14713660.06946  21894220.564    21894217.948         485.000
        23.000
  -8687937.41348  -6769816.14045  22902886.447    22902882.304         239.000
         8.000
 -13680575.32449 -10660151.04946  22172666.994    22172665.177         404.000
        18.000
 -12978584.71648 -10113172.07045  22993523.502    22993521.901         286.000
         9.000
  -6156213.60448  -4797040.28645  23937530.982    23937528.117         200.000
         5.000
 -16359470.61849 -12747606.34146  21946521.119    21946518.388         447.000
        24.000
 -21493891.25649 -16748463.69647  21262294.959    21262292.417         618.000
        42.000
  -8369940.60648  -6522030.56145  23537041.170    23537037.864         226.000
         6.000
 04  3  1  2  8 30.0000000  0  8G24G17G 4G29G26G 7G10G 5
 -18906126.27749 -14732010.47246  21889739.174    21889736.611         485.000
        23.000
  -8719010.54548  -6794028.93845  22896971.444    22896969.199         242.000
         7.000
 -13676090.31049 -10656656.23046  22173520.506    22173519.136         416.000
        19.000
 -13081092.92348 -10193048.56746  22974016.985    22974015.437         303.000
        10.000
  -6253390.46248  -4872762.45545  23919037.656    23919035.829         200.000
         5.000
 -16278388.64449 -12684425.58546  21961950.791    21961948.032         456.000
        24.000
 -21497468.02449 -16751250.77947  21261614.371    21261611.828         617.000
        42.000
  -8371563.93648  -6523295.48245  23536731.600    23536729.345         232.000
         5.000
 04  3  1  2  9  0.0000000  0  8G24G17G 4G29G26G 7G10G 5
 -18929689.19249 -14750371.18146  21885255.096    21885252.811         493.000
        23.000
  -8750112.52048  -6818264.22845  22891054.205    22891050.767         249.000
         7.000
 -13671554.85849 -10653122.10946  22174383.403    22174382.039         413.000
        18.000
 -13183485.01048 -10272834.60046  22954531.904    22954530.717         301.000
        10.000
  -6350540.71248  -4948463.88045  23900550.809    23900549.116         205.000
         5.000
 -16196977.57449 -12620988.39446  21977442.677    21977439.969         452.000
        24.000
 -21500704.74849 -16753772.89347  21260998.325    21260995.874         620.000
        42.000
  -8372800.37148  -6524258.94645  23536496.578    23536493.747         226.000
         5.000
 04  3  1  2  9 30.0000000  0  8G24G17G 4G29G26G 7G10G 5
 -18953269.69149 -14768745.59246  21880768.266    21880765.848         504.000
        24.000
  -8781249.30148  -6842526.63745  22885127.231    22885126.056         257.000
         7.000
 -13666972.85349 -10649551.71246  22175255.612    22175253.810         408.000
        19.000
 -13285763.50848 -10352532.11146  22935068.761    22935067.740         298.000
        10.000
  -6447667.12248  -5024146.75445  23882067.036    23882065.990         197.000
         4.000
 -16115244.73149 -12557300.46746  21992995.771    21992993.350         460.000
        24.000
 -21503608.48349 -16756035.53547  21260445.819    21260443.374         620.000
        42.000
  -8373656.77048  -6524926.26245  23536334.139    23536331.413         235.000
         5.000
 04  3  1  2 10  0.0000000  0  8G24G17G 4G29G26G 7G10G 5
 -18976879.70649 -14787143.00746  21876275.276    21876272.774         498.000
        24.000
  -8812433.81548  -6866826.25745  22879194.212    22879191.721         257.000
         7.000
 -13662355.69849 -10645953.92946  22176134.379    22176132.273         404.000
        18.000
 -13387938.08348 -10432148.64046  22915626.273    22915624.479         296.000
        10.000
  -6544779.87148  -5099818.99245  23863587.285    23863585.955         192.000
         4.000
 -16033204.63349 -12493373.11746  22008607.574    22008605.157         461.000
        24.000
 -21506193.32949 -16758049.69347  21259954.009    21259951.457         619.000
        43.000
  -8374146.99248  -6525308.24745  23536241.414    23536237.653         229.000
         6.000
 04  3  1  2 10 30.0000000  0  8G24G17G 4G29G26G 7G10G 5
 -19000502.70949 -14805550.53846  21871779.724    21871777.244         490.000
        24.000
  -8843650.71648  -6891151.10945  22873254.564    22873251.426         259.000
         8.000
 -13657686.24649 -10642315.38846  22177022.548    22177021.090         410.000
        19.000
 -13489989.89248 -10511669.50746  22896206.036    22896204.754         301.000
        10.000
  -6641860.40748  -5175466.10945  23845112.993    23845112.260         207.000
         5.000
 -15950843.16449 -12429195.35446  22024280.480    22024278.040         465.000
        24.000
 -21508444.86249 -16759804.12547  21259525.438    21259522.876         620.000
        43.000
  -8374257.15348  -6525394.08945  23536218.547    23536217.265         233.000
         6.000
 04  3  1  2 11  0.0000000  0  8G24G17G 4G29G26G 7G10G 5
 -19024136.65049 -14823966.59446  21867282.188    21867279.887         495.000
        24.000
  -8874898.86648  -6915500.30145  22867307.611    22867305.018         256.000
         7.000
 -13652961.49049 -10638633.75546  22177921.650    22177920.025         408.000
        18.000
 -13591914.47548 -10591091.24846  22876809.919    22876809.257         312.000
        10.000
  -6738904.54548  -5251084.90445  23826645.351    23826645.140         202.000
         4.000
 -15868160.56249 -12364767.35546  22040014.137    22040011.830         459.000
        23.000
 -21510362.96649 -16761298.74647  21259160.314    21259157.933         620.000
        43.000
  -8373986.61948  -6525183.27945  23536271.804    23536268.446         230.000
         6.000
 04  3  1  2 11 30.0000000  0  8G24G17G 4G29G26G 7G10G 5
 -19047780.41749 -14842390.30946  21862783.398    21862780.661         498.000
        24.000
  -8906178.57948  -6939874.07845  22861355.493    22861352.531         253.000
         8.000
 -13648179.98349 -10634907.90646  22178831.537    22178830.314         419.000
        18.000
 -13693708.51448 -10670411.26646  22857440.034    22857438.651         309.000
        11.000
  -6835909.77148  -5326673.33745  23808185.045    23808185.330         199.000
         4.000
 -15785158.69749 -12300090.58346  22055809.054    22055806.728         465.000
        23.000
 -21511949.13049 -16762534.71247  21258858.573    21258856.147         623.000
        43.000
  -8373336.60948  -6524676.76445  23536395.237    23536392.333         234.000
         6.000
 04  3  1  2 12  0.0000000  0  8G24G17G 4G29G26G 7G10G 5
 -19071439.81549 -14860826.20546  21858280.383    21858278.427         496.000
        24.000
  -8937496.75948  -6964277.83845  22855395.394    22855392.721         253.000
         8.000
 -13643346.99549 -10631141.93646  22179750.953    22179749.894         416.000
        18.000
 -13795375.84648 -10749632.53546  22838092.745    22838091.307         289.000
        10.000
  -6932880.07648  -5402234.57445  23789735.205    23789732.730         205.000
         5.000
 -15701846.01549 -12235171.61346  22071662.819    22071660.686         467.000
        23.000
 -21513211.31249 -16763518.22347  21258618.214    21258615.888         622.000
        43.000
  -8372315.16648  -6523880.83545  23536588.004    23536586.540         232.000
         6.000
 04  3  1  2 12 30.0000000  0  8G24G17G 4G29G26G 7G10G 5
 -19095114.67749 -14879274.14746  21853775.725    21853773.212         494.000
        24.000
  -8968854.31648  -6988712.28345  22849428.766    22849425.621         257.000
         8.000
 -13638461.35949 -10627334.94246  22180680.741    22180679.330         410.000
        19.000
 -13896913.67848 -10828752.90246  22818770.357    22818769.673         297.000
        10.000
  -7029812.95148  -5477766.62945  23771287.904    23771286.842         205.000
         4.000
 -15618224.51349 -12170012.00246  22087575.683    22087573.352         465.000
        23.000
 -21514151.20349 -16764250.59747  21258439.442    21258437.125         623.000
        42.000
  -8370924.05648  -6522796.83945  23536853.687    23536850.933         229.000
         6.000
 04  3  1  2 13  0.0000000  0  8G24G17G 4G29G26G 7G10G 5
 -19118798.58949 -14897729.13846  21849269.011    21849266.230         489.000
        24.000
  -9000245.73848  -7013173.12045  22843454.803    22843452.203         260.000
         8.000
 -13633515.85649 -10623481.30146  22181622.020    22181620.584         413.000
        19.000
 -13998313.19148 -10907765.49546  22799474.488    22799473.893         303.000
        10.000
  -7126700.25048  -5553263.18545  23752851.255    23752850.197         217.000
         5.000
 -15534290.49449 -12104608.87446  22103548.119    22103545.402         459.000
        22.000
 -21514764.63049 -16764728.58947  21258322.851    21258320.411         624.000
        43.000
  -8369158.79748  -6521421.32245  23537188.806    23537187.275         235.000
         6.000
 04  3  1  2 13 30.0000000  0  8G24G17G 4G29G26G 7G10G 5
 -19142491.64649 -14916191.26246  21844760.372    21844757.649         492.000
        24.000
  -9031672.51848  -7037661.50045  22837474.365    22837471.679         259.000
         8.000
 -13628510.28649 -10619580.85746  22182574.591    22182572.998         411.000
        19.000
 -14099572.74248 -10986669.01346  22780206.715    22780204.767         302.000
        11.000
  -7223540.42648  -5628723.04845  23734424.302    23734421.810         212.000
         5.000
 -15450046.97549 -12038964.57846  22119579.031    22119576.390         455.000
        23.000
 -21515054.36649 -16764954.35347  21258267.389    21258265.156         624.000
        43.000
  -8367022.17648  -6519756.40945  23537596.302    23537593.728         234.000
         6.000
 04  3  1  2 14  0.0000000  0  8G24G17G 4G29G26G 7G10G 5
 -19166195.96049 -14934662.15646  21840249.269    21840247.107         500.000
        24.000
  -9063137.73448  -7062179.84045  22831486.552    22831484.144         263.000
         8.000
 -13623446.17049 -10615634.78946  22183538.102    22183536.608         411.000
        18.000
 -14200691.87848 -11065463.12646  22760963.325    22760962.492         300.000
        11.000
  -7320333.58148  -5704146.23545  23716003.782    23716002.800         221.000
         5.000
 -15365498.43849 -11973082.60346  22135667.847    22135665.500         455.000
        22.000
 -21515024.54649 -16764931.11247  21258273.319    21258270.924         624.000
        43.000
  -8364518.47848  -6517805.47345  23538071.898    23538070.383         237.000
         6.000
 04  3  1  2 14 30.0000000  0  8G24G17G 4G29G26G 7G10G 5
 -19189910.46749 -14953140.98946  21835736.730    21835734.296         495.000
        24.000
  -9094641.22648  -7086728.00145  22825492.565    22825489.221         265.000
         8.000
 -13618321.44449 -10611641.49546  22184513.167    22184511.907         413.000
        19.000
 -14301667.06148 -11144145.05646  22741749.671    22741747.640         304.000
        12.000
  -7417076.43348  -5779530.25645  23697596.119    23697593.118         223.000
         5.000
 -15280646.29549 -11906964.05346  22151814.574    22151812.141         447.000
        22.000
 -21514675.86949 -16764659.41147  21258339.583    21258337.229         625.000
        42.000
  -8361648.37848  -6515569.04345  23538618.087    23538616.322         234.000
         6.000
 04  3  1  2 15  0.0000000  0  8G24G17G 4G29G26G 7G10G 5
 -19213635.43149 -14971627.97446  21831221.881    21831219.446         490.000
        24.000
  -9126184.42448  -7111307.10145  22819489.707    22819486.696         268.000
         8.000
 -13613135.76649 -10607600.70946  22185500.345    22185498.934         421.000
        18.000
 -14402496.54548 -11222713.47246  22722561.793    22722560.408         314.000
        12.000
  -7513767.69448  -5854874.06045  23679196.366    23679193.554         219.000
         6.000
 -15195493.77149 -11840611.44446  22168018.776    22168016.104         442.000
        21.000
 -21514011.37049 -16764141.61447  21258466.084    21258463.715         625.000
        43.000
  -8358414.47148  -6513049.09245  23539233.910    23539231.958         234.000
         6.000
 04  3  1  2 15 30.0000000  0  8G24G17G 4G29G26G 7G10G 5
 -19237364.98249 -14990118.52646  21826706.360    21826703.855         491.000
        25.000
  -9157762.88548  -7135913.67745  22813480.307    22813477.396         270.000
         8.000
 -13607882.86649 -10603507.53546  22186499.955    22186498.210         415.000
        19.000
 -14503172.31849 -11301162.09946  22703403.935    22703402.522         323.000
        13.000
  -7610399.75248  -5930171.73145  23660805.957    23660804.772         232.000
         6.000
 -15110037.65949 -11774022.27246  22184280.173    22184277.832         433.000
        21.000
 -21513027.63649 -16763375.06047  21258653.256    21258650.784         620.000
        43.000
  -8354813.60048  -6510243.23045  23539918.977    23539917.106         233.000
         6.000
 04  3  1  2 16  0.0000000  0  8G24G17G 4G29G26G 7G10G 5
 -19261097.54249 -15008611.43546  21822189.985    21822187.784         493.000
        24.000
  -9189376.04448  -7160547.29445  22807463.936    22807461.807         271.000
         8.000
 -13602560.48649 -10599360.22646  22187513.092    22187511.088         418.000
        19.000
 -14603690.59049 -11379488.01146  22684275.859    22684274.207         323.000
        13.000
  -7706968.98748  -6005420.46445  23642430.583    23642428.603         225.000
         6.000
 -15024279.02549 -11707197.36446  22200600.113    22200597.341         434.000
        21.000
 -21511725.04349 -16762360.04547  21258901.018    21258898.723         624.000
        43.000
  -8350846.08648  -6507151.66845  23540674.489    23540672.385         238.000
         5.000
 04  3  1  2 16 30.0000000  0  8G24G17G 4G29G26G 7G10G 5
 -19284837.98749 -15027110.47546  21817672.437    21817670.074         491.000
        24.000
  -9221029.71848  -7185212.47945  22801440.916    22801437.913         263.000
         8.000
 -13597172.62149 -10595161.89046  22188538.103    22188536.254         415.000
        19.000
 -14704054.14349 -11457693.35946  22665177.134    22665175.858         326.000
        13.000
  -7803478.70248  -6080622.80645  23624063.837    23624063.342         237.000
         6.000
 -14938225.51449 -11640142.68446  22216975.409    22216972.724         425.000
        20.000
 -21510111.10949 -16761102.42547  21259208.082    21259205.761         622.000
        42.000
  -8346519.47848  -6503780.27245  23541498.310    23541495.106         228.000
         5.000
 04  3  1  2 17  0.0000000  0  8G24G17G 4G29G26G 7G10G 5
 -19308584.66949 -15045614.38346  21813153.604    21813151.149         488.000
        24.000
  -9252723.67048  -7209909.04845  22795409.601    22795407.201         271.000
         8.000
 -13591717.50849 -10590911.14746  22189575.975    22189574.567         423.000
        19.000
 -14804259.06249 -11535775.09546  22646108.664    22646107.686         336.000
        13.000
  -7899925.35448  -6155776.00845  23605711.138    23605709.721         229.000
         6.000
 -14851878.50249 -11572859.30546  22233406.728    22233403.844         413.000
        20.000
 -21508186.84149 -16759602.98647  21259574.305    21259571.965         624.000
        43.000
  -8341834.51648  -6500129.67045  23542389.564    23542386.665         226.000
         6.000
 04  3  1  2 17 30.0000000  0  8G24G17G 4G29G26G 7G10G 5
 -19332342.64049 -15064127.08246  21808632.999    21808630.193         487.000
        25.000
  -9284463.98348  -7234641.74745  22789369.868    22789367.154         275.000
         8.000
 -13586199.42249 -10586611.33846  22190626.063    22190624.615         421.000
        19.000
 -14904308.21649 -11613735.45446  22627069.921    22627068.894         344.000
        14.000
  -7996312.38148  -6230882.75345  23587369.023    23587367.658         227.000
         6.000
 -14765245.63549 -11505353.17746  22249892.618    22249889.621         408.000
        19.000
 -21505959.47549 -16757867.36847  21259998.146    21259995.979         630.000
        42.000
  -8336798.68348  -6496205.66045  23543346.244    23543344.931         228.000
         5.000
 04  3  1  2 18  0.0000000  0  8G24G17G 4G29G26G 7G10G 5
 -19356089.77149 -15082631.33546  21804113.689    21804111.348         490.000
        24.000
  -9316229.75848  -7259394.28645  22783324.427    22783322.354         276.000
         8.000
 -13580595.77949 -10582244.87046  22191692.730    22191691.029         426.000
        19.000
 -15004177.50249 -11691555.66046  22608065.561    22608064.386         343.000
        14.000
  -8092615.65848  -6305924.24345  23569044.776    23569042.299         242.000
         7.000
 -14678307.71949 -11437609.35146  22266436.479    22266433.268         398.000
        18.000
 -21503409.57649 -16755880.42447  21260483.496    21260481.211         629.000
        43.000
  -8331392.35448  -6491993.09545  23544376.116    23544373.711         227.000
         6.000
 04  3  1  2 18 30.0000000  0  8G24G17G 4G29G26G 7G10G 5
 -19379841.31749 -15101139.03146  21799593.710    21799591.615         495.000
        24.000
  -9348037.18448  -7284179.28145  22777272.264    22777269.449         273.000
         8.000
 -13574920.81549 -10577822.81246  22192772.342    22192770.786         419.000
        19.000
 -15103879.81149 -11769245.75946  22589092.601    22589091.499         337.000
        13.000
  -8188848.69248  -6380910.97645  23550731.217    23550729.300         232.000
         6.000
 -14591082.74849 -11369641.85046  22283034.730    22283031.778         393.000
        19.000
 -21500554.63449 -16753655.78747  21261026.385    21261024.445         630.000
        42.000
  -8325632.99048  -6487505.00745  23545471.387    23545469.767         227.000
         5.000
 04  3  1  2 19  0.0000000  0  8G24G17G 4G29G26G 7G10G 5
 -19403605.64849 -15119656.68946  21795071.633    21795069.196         489.000
        25.000
  -9379895.98548  -7309004.30345  22771210.642    22771206.998         273.000
         8.000
 -13569182.76349 -10573351.60246  22193864.121    22193862.845         421.000
        19.000
 -15203421.68949 -11846810.84546  22570151.145    22570149.546         346.000
        13.000
  -8285018.23448  -6455848.25945  23532431.221    23532429.025         243.000
         6.000
 -14503582.10249 -11301459.53246  22299684.759    22299682.367         383.000
        18.000
 -21497405.41649 -16751201.84147  21261625.650    21261623.842         636.000
        42.000
  -8319531.78348  -6482750.87445  23546633.869    23546631.034         231.000
         6.000
 04  3  1  2 19 30.0000000  0  8G24G17G 4G29G26G 7G10G 5
 -19427376.00149 -15138179.03646  21790548.156    21790546.048         494.000
        25.000
  -9411800.18448  -7333864.70245  22765137.391    22765135.324         272.000
         8.000
 -13563373.88249 -10568825.20146  22194969.797    22194968.146         418.000
        19.000
 -15302793.51749 -11924243.42746  22551240.540    22551239.517         341.000
        13.000
  -8381115.40048  -6530729.13145  23514144.142    23514142.517         237.000
         7.000
 -14415801.47649 -11233059.05046  22316389.652    22316386.536         378.000
        17.000
 -21493957.57649 -16748515.20247  21262282.016    21262279.844         629.000
        42.000
  -8313083.96948  -6477726.61145  23547860.341    23547857.716         228.000
         6.000
 04  3  1  2 20  0.0000000  0  8G24G17G 4G29G26G 7G10G 5
 -19451151.71249 -15156705.56546  21786024.121    21786021.577         490.000
        25.000
  -9443750.38848  -7358760.94545  22759057.763    22759055.897         280.000
         8.000
 -13557493.05949 -10564242.73746  22196088.666    22196087.123         414.000
        19.000
 -15401992.93049 -12001541.65646  22532364.487    22532362.571         347.000
        14.000
  -8477137.90948  -6605551.83345  23495870.290    23495870.046         249.000
         7.000
 -14327743.21749 -11164442.23146  22333146.068    22333143.324         372.000
        17.000
 -21490213.04449 -16745597.37447  21262994.744    21262992.270         621.000
        42.000
  -8306291.53148  -6472433.80345  23549152.146    23549150.675         234.000
         6.000
 04  3  1  2 20 30.0000000  0  8G24G17G 4G29G26G 7G10G 5
 -19474921.90649 -15175227.78846  21781500.966    21781498.179         488.000
        25.000
  -9475736.56148  -7383685.21945  22752971.273    22752969.188         281.000
         8.000
 -13551528.61449 -10559595.11946  22197223.639    22197221.891         408.000
        19.000
 -15501006.72749 -12078695.25146  22513522.161    22513520.930         350.000
        13.000
  -8573072.95548  -6680306.39345  23477616.671    23477614.401         247.000
         7.000
 -14239399.43249 -11095602.92946  22349957.436    22349954.661         373.000
        16.000
 -21486163.20049 -16742441.64347  21263765.246    21263762.909         622.000
        42.000
  -8299146.07448  -6466865.92045  23550513.091    23550510.332         230.000
         6.000
 04  3  1  2 21  0.0000000  0  8G24G17G 4G29G26G 7G10G 5
 -19498684.38649 -15193744.00146  21776979.134    21776976.410         487.000
        25.000
  -9507758.28248  -7408637.19545  22746877.822    22746875.344         280.000
         8.000
 -13545478.48149 -10554880.72646  22198374.849    22198373.511         415.000
        18.000
 -15599831.22849 -12155701.34846  22494716.714    22494715.058         343.000
        13.000
  -8668917.24548  -6754990.22245  23459378.233    23459375.935         251.000
         7.000
 -14150771.07149 -11026541.87646  22366823.048    22366820.303         379.000
        17.000
 -21481809.05049 -16739048.79247  21264593.912    21264591.592         626.000
        42.000
  -8291648.45748  -6461023.59945  23551939.708    23551936.953         225.000
         6.000
 04  3  1  2 21 30.0000000  0  8G24G17G 4G29G26G 7G10G 5
 -19522443.92849 -15212257.92746  21772457.665    21772455.001         484.000
        25.000
  -9539821.31648  -7433621.36045  22740776.963    22740774.137         285.000
         9.000
 -13539346.52349 -10550102.57246  22199541.516    22199540.485         417.000
        18.000
 -15698468.78549 -12232561.76746  22475946.196    22475944.768         347.000
        14.000
  -8764673.57048  -6829605.51145  23441156.266    23441153.408         240.000
         7.000
 -14061865.76949 -10957265.02146  22383741.132    22383738.317         379.000
        16.000
 -21477157.81249 -16735424.44647  21265478.746    21265476.509         620.000
        42.000
  -8283806.11048  -6454912.68445  23553430.741    23553429.245         226.000
         5.000
 04  3  1  2 22  0.0000000  0  8G24G17G 4G29G26G 7G10G 5
 -19546205.44249 -15230773.38946  21767935.972    21767933.227         481.000
        25.000
  -9571931.53848  -7458642.30245  22734665.920    22734663.725         288.000
         9.000
 -13533137.08549 -10545264.04946  22200723.534    22200721.922         412.000
        18.000
 -15796922.12049 -12309278.64046  22457210.929    22457210.010         361.000
        15.000
  -8860345.03248  -6904154.67345  23422950.097    23422947.838         253.000
         7.000
 -13972691.31849 -10887778.44046  22400710.629    22400707.860         386.000
        17.000
 -21472216.79949 -16731574.29747  21266419.272    21266416.909         625.000
        41.000
  -8275626.37748  -6448538.86445  23554987.143    23554985.709         222.000
         5.000
 04  3  1  2 22 30.0000000  0  8G24G17G 4G29G26G 7G10G 5
 -19569958.40149 -15249282.18346  21763415.815    21763413.149         478.000
        25.000
  -9604079.61548  -7483692.73445  22728548.376    22728546.166         290.000
         9.000
 -13526839.07349 -10540356.50846  22201921.947    22201920.273         409.000
        18.000
 -15895178.52649 -12385842.07246  22438513.845    22438512.403         362.000
        15.000
  -8955919.16048  -6978627.98545  23404763.206    23404760.486         250.000
         7.000
 -13883240.06049 -10818076.16646  22417732.361    22417729.616         384.000
        17.000
 -21466978.17949 -16727492.24247  21267415.739    21267413.664         619.000
        41.000
  -8267101.01648  -6441895.74045  23556609.352    23556608.059         223.000
         6.000
 04  3  1  2 23  0.0000000  0  8G24G17G 4G29G26G 7G10G 5
 -19593713.20349 -15267792.41546  21758895.508    21758892.964         486.000
        25.000
  -9636276.91348  -7508781.51445  22722421.818    22722419.155         287.000
         9.000
 -13520462.49149 -10535387.74746  22203135.511    22203133.910         414.000
        18.000
 -15993246.75349 -12462258.86246  22419852.101    22419850.442         360.000
        16.000
  -9051405.00448  -7053032.52245  23386592.587    23386590.546         259.000
         7.000
 -13793525.59149 -10748168.79346  22434804.657    22434801.852         388.000
        17.000
 -21461454.93749 -16723188.40847  21268466.921    21268464.665         620.000
        41.000
  -8258243.62548  -6434993.86245  23558294.368    23558293.427         220.000
         6.000
 04  3  1  2 23 30.0000000  0  8G24G17G 4G29G26G 7G10G 5
 -19617461.59749 -15286297.65546  21754376.262    21754373.535         478.000
        25.000
  -9668516.73748  -7533903.43245  22716286.915    22716284.095         289.000
         9.000
 -13513998.39749 -10530350.78446  22204365.258    22204363.962         416.000
        17.000
 -16091116.43349 -12538520.93446  22401228.497    22401226.492         366.000
        16.000
  -9146792.59248  -7127360.49045  23368440.899    23368438.694         254.000
         7.000
 -13703542.86849 -10678052.39746  22451927.221    22451924.942         388.000
        17.000
 -21455641.53449 -16718658.47247  21269572.973    21269570.942         624.000
        41.000
  -8249048.56348  -6427828.86545  23560044.902    23560043.176         217.000
         5.000
 04  3  1  2 24  0.0000000  0  8G24G17G 4G29G26G 7G10G 5
 -19641203.15649 -15304797.56846  21749858.733    21749856.006         490.000
        25.000
  -9700799.48948  -7559058.81545  22710143.399    22710141.012         291.000
         9.000
 -13507445.91949 -10525244.94946  22205612.284    22205610.934         417.000
        18.000
 -16188784.83549 -12614626.16946  22382642.074    22382640.671         370.000
        16.000
  -9242079.74948  -7201610.17645  23350307.904    23350306.308         264.000
         7.000
 -13613294.15349 -10607728.72746  22469101.060    22469098.741         388.000
        17.000
 -21449539.86249 -16713903.91347  21270734.138    21270732.073         621.000
        41.000
  -8239517.74948  -6420402.27245  23561858.712    23561856.574         212.000
         5.000
 04  3  1  2 24 30.0000000  0  8G24G17G 4G29G26G 7G10G 5
 -19664946.45449 -15323298.83746  21745340.269    21745337.531         481.000
        25.000
  -9733134.98448  -7584255.29045  22703990.019    22703988.062         298.000
         9.000
 -13500813.21149 -10520076.59346  22206874.226    22206872.954         414.000
        18.000
 -16286258.79049 -12690579.89046  22364093.701    22364092.294         379.000
        17.000
  -9337273.43448  -7275787.06145  23332193.306    23332191.559         268.000
         7.000
 -13522791.18649 -10537206.93546  22486323.760    22486321.069         392.000
        17.000
 -21443161.34649 -16708933.63347  21271948.059    21271945.887         622.000
        41.000
  -8229662.95948  -6412723.20645  23563734.380    23563732.281         217.000
         6.000
 04  3  1  2 25  0.0000000  0  8G24G17G 4G29G26G 7G10G 5
 -19688678.34149 -15341791.21546  21740823.705    21740821.531         483.000
        25.000
  -9765511.44148  -7609483.69246  22697829.489    22697826.835         296.000
        10.000
 -13494086.61549 -10514835.10346  22208154.895    22208153.058         416.000
        22.000
 -16383523.20349 -12766370.32946  22345584.326    22345583.132         369.000
        16.000
  -9432359.06548  -7349879.73645  23314098.326    23314097.239         272.000
         7.000
 -13432024.21749 -10466479.42846  22503596.062    22503593.651         393.000
        17.000
 -21436496.14649 -16703739.96747  21273216.458    21273214.246         621.000
        42.000
  -8219474.06848  -6404783.80245  23565673.023    23565670.845         213.000
         5.000
 04  3  1  2 25 30.0000000  0  8G24G17G 4G29G26G 7G10G 5
 -19712390.07549 -15360267.89146  21736312.238    21736309.593         492.000
        26.000
  -9797920.79448  -7634737.72345  22691662.260    22691659.529         293.000
         9.000
 -13487256.82649 -10509513.22546  22209453.748    22209452.811         421.000
        17.000
 -16480567.04349 -12841988.88646  22327118.074    22327116.449         371.000
        17.000
  -9527325.78848  -7423879.75745  23296027.158    23296025.805         273.000
         7.000
 -13340987.09649 -10395541.42146  22520918.730    22520917.103         382.000
        16.000
 -21429537.81649 -16698317.87347  21274540.426    21274538.330         619.000
        41.000
  -8208944.78748  -6396579.18145  23567675.636    23567674.985         217.000
         5.000
 04  3  1  2 26  0.0000000  0  8G24G17G 4G29G26G 7G10G 5
 -19736096.11849 -15378740.12746  21731800.749    21731798.300         487.000
        26.000
  -9830379.08648  -7660029.88445  22685484.694    22685482.887         292.000
         9.000
 -13480337.94849 -10504121.87946  22210770.945    22210769.324         419.000
        18.000
 -16577403.02849 -12917445.48746  22308690.332    22308689.100         370.000
        17.000
  -9622186.83748  -7497797.42945  23277975.452    23277974.039         277.000
         8.000
 -13249697.65649 -10324406.79746  22538291.723    22538288.661         374.000
        17.000
 -21422303.51249 -16692680.74747  21275917.071    21275915.047         624.000
        41.000
  -8198092.44848  -6388122.80745  23569741.380    23569739.820         215.000
         5.000
 04  3  1  2 26 30.0000000  0  8G24G17G 4G29G26G 7G10G 5
 -19759798.21849 -15397209.29646  21727290.602    21727288.045         490.000
        25.000
  -9862888.93648  -7685362.22845  22679299.518    22679296.362         290.000
         9.000
 -13473331.06549 -10498661.96046  22212103.933    22212102.750         424.000
        18.000
 -16674030.80449 -12992739.84746  22290303.387    22290301.767         378.000
        17.000
  -9716942.05748  -7571632.64945  23259944.841    23259943.011         285.000
         8.000
 -13158160.71249 -10253079.31646  22555710.276    22555707.926         379.000
        16.000
 -21414797.71849 -16686832.06947  21277345.444    21277343.214         619.000
        41.000
  -8186921.72148  -6379418.35945  23571867.310    23571865.909         217.000
         5.000
 04  3  1  2 27  0.0000000  0  8G24G17G 4G29G26G 7G10G 5
 -19783488.15049 -15415668.97846  21722782.638    21722779.826         484.000
        25.000
  -9895443.13548  -7710729.10745  22673104.530    22673101.553         292.000
         9.000
 -13466227.30849 -10493126.56646  22213455.570    22213454.629         428.000
        18.000
 -16770440.10749 -13067863.96546  22271956.776    22271955.294         372.000
        17.000
  -9811581.56548  -7645377.70345  23241935.211    23241933.233         280.000
         8.000
 -13066371.07749 -10181554.93346  22573177.872    22573174.981         375.000
        16.000
 -21407014.76849 -16680767.42847  21278826.236    21278824.140         613.000
        41.000
  -8175426.93648  -6370461.36745  23574054.775    23574053.238         215.000
         5.000
 04  3  1  2 27 30.0000000  0  8G24G17G 4G29G26G 7G10G 5
 -19807166.83349 -15434119.89846  21718276.466    21718274.170         493.000
        25.000
  -9928044.20948  -7736132.54345  22666900.699    22666897.705         291.000
         9.000
 -13459027.64949 -10487516.43946  22214826.236    22214824.764         429.000
        18.000
 -16866630.02549 -13142817.13646  22253652.307    22253650.830         370.000
        16.000
  -9906104.94448  -7719032.26545  23223947.783    23223946.240         284.000
         8.000
 -12974332.98749 -10109836.94646  22590691.135    22590688.759         360.000
        16.000
 -21398958.69049 -16674489.96047  21280359.477    21280357.167         616.000
        42.000
  -8163612.37248  -6361255.24045  23576302.117    23576301.560         217.000
         5.000
 04  3  1  2 28  0.0000000  0  8G24G17G 4G29G26G 7G10G 5
 -19830835.89249 -15452563.32146  21713772.506    21713770.005         494.000
        25.000
  -9960694.62648  -7761574.41545  22660686.680    22660684.271         281.000
         9.000
 -13451732.92649 -10481832.23946  22216213.454    22216212.742         428.000
        18.000
 -16962600.21249 -13217599.08546  22235390.208    22235388.459         378.000
        18.000
 -10000512.07948  -7792596.24945  23205984.203    23205981.265         293.000
         8.000
 -12882051.19249 -10037929.06646  22608252.219    22608249.731         362.000
        15.000
 -21390633.62049 -16668002.89047  21281943.745    21281941.491         623.000
        42.000
  -8151482.54148  -6351803.42045  23578612.026    23578609.299         209.000
         5.000
 04  3  1  2 28 30.0000000  0  8G24G17G 4G29G26G 7G10G 5
 -19854490.57749 -15470995.53846  21709271.345    21709268.608         491.000
        26.000
  -9993390.57548  -7787051.76945  22654465.282    22654462.251         278.000
         9.000
 -13444337.62249 -10476069.66646  22217621.122    22217620.046         428.000
        18.000
 -17058343.77449 -13292204.44846  22217170.011    22217169.031         383.000
        17.000
 -10094796.42448  -7866064.55245  23188041.166    23188039.389         289.000
         8.000
 -12789523.98249  -9965829.94846  22625859.878    22625857.092         359.000
        15.000
 -21382037.46549 -16661304.57747  21283579.365    21283577.381         629.000
        42.000
  -8139034.93948  -6342103.99745  23580980.207    23580978.074         209.000
         5.000
 04  3  1  2 29  0.0000000  0  8G24G17G 4G29G26G 7G10G 5
 -19878131.86349 -15489417.31046  21704772.374    21704769.722         490.000
        26.000
 -10026134.36048  -7812566.39446  22648234.398    22648231.757         288.000
        10.000
 -13436842.60149 -10470229.38346  22219047.596    22219046.315         428.000
        18.000
 -17153859.89949 -13366632.58446  22198994.102    22198993.052         392.000
        17.000
 -10188957.55048  -7939436.83745  23170122.475    23170121.350         300.000
         9.000
 -12696755.63749  -9893542.93046  22643512.970    22643510.055         348.000
        15.000
 -21373174.51149 -16654398.37547  21285265.996    21285263.880         628.000
        42.000
  -8126274.04748  -6332160.44045  23583408.120    23583406.464         206.000
         5.000
 04  3  1  2 29 30.0000000  0  8G24G17G 4G29G26G 7G10G 5
 -19901748.67249 -15507820.01546  21700278.442    21700275.620         490.000
        26.000
 -10058916.14748  -7838110.62646  22641996.648    22641993.346         289.000
        10.000
 -13429236.52449 -10464302.57446  22220495.456    22220493.544         422.000
        18.000
 -17249135.91149 -13440873.62946  22180864.390    22180862.780         401.000
        19.000
 -10282982.97148  -8012703.37145  23152229.900    23152228.629         289.000
         9.000
 -12603738.48349  -9821062.04646  22661212.945    22661210.569         344.000
        14.000
 -21364036.49949 -16647277.84247  21287005.027    21287002.834         629.000
        42.000
  -8113191.91548  -6321966.57345  23585897.552    23585896.110         213.000
         5.000
 04  3  1  2 30  0.0000000  0  8G24G17G 4G29G26G 7G10G 5
 -19925346.72949 -15526208.11046  21695787.988    21695785.135         493.000
        26.000
 -10091742.88148  -7863689.89346  22635750.349    22635746.965         294.000
        11.000
 -13421524.63249 -10458293.30946  22221962.538    22221961.118         422.000
        18.000
 -17344175.48649 -13514930.42746  22162778.399    22162777.396         409.000
        18.000
 -10376876.81248  -8085867.39845  23134363.016    23134361.431         294.000
         9.000
 -12510481.44349  -9748394.22746  22678960.169    22678957.076         345.000
        14.000
 -21354631.97949 -16639949.64147  21288794.684    21288792.400         628.000
        42.000
  -8099797.31848  -6311529.23145  23588447.877    23588445.015         212.000
         5.000
 04  3  1  2 30 30.0000000  0  8G24G17G 4G29G26G 7G10G 5
 -19948921.25049 -15544577.86046  21691301.279    21691298.944         493.000
        26.000
 -10124610.64048  -7889301.11246  22629495.549    22629492.062         288.000
        10.000
 -13413701.41349 -10452197.29346  22223451.494    22223449.855         420.000
        18.000
 -17438971.79849 -13588797.67546  22144739.206    22144738.132         416.000
        19.000
 -10470632.54748  -8158923.79945  23116521.383    23116519.859         289.000
         9.000
 -12416982.77149  -9675538.12846  22696752.349    22696749.402         345.000
        14.000
 -21344958.81749 -16632412.10347  21290635.243    21290633.225         632.000
        42.000
  -8086088.42048  -6300846.97145  23591055.362    23591053.133         203.000
         5.000
 04  3  1  2 31  0.0000000  0  8G24G17G 4G29G26G 7G10G 5
 -19972468.09249 -15562926.04646  21686820.784    21686818.222         497.000
        26.000
 -10157516.31948  -7914941.89046  22623233.183    22623230.200         283.000
        10.000
 -13405762.23449 -10446010.92146  22224961.833    22224960.703         421.000
        18.000
 -17533518.86549 -13662470.70446  22126747.673    22126746.423         418.000
        19.000
 -10564244.52148  -8231868.17345  23098708.206    23098706.208         290.000
         9.000
 -12323241.48349  -9602492.97746  22714590.702    22714587.560         338.000
        14.000
 -21335015.68449 -16624664.19647  21292527.553    21292525.376         633.000
        42.000
  -8072063.91248  -6289918.81445  23593724.323    23593721.930         206.000
         5.000
 04  3  1  2 31 30.0000000  0  8G24G17G 4G29G26G 7G10G 5
 -19996003.68749 -15581265.47046  21682342.015    21682339.566         498.000
        26.000
 -10190477.92548  -7940626.24346  22616960.808    22616957.781         286.000
        10.000
 -13397723.45149 -10439746.93846  22226491.678    22226490.174         414.000
        18.000
 -17627831.42349 -13735961.00346  22108800.684    22108799.251         413.000
        19.000
 -10657727.70948  -8304712.19145  23080919.346    23080916.682         279.000
         9.000
 -12229277.63749  -9529274.40546  22732471.012    22732468.187         334.000
        13.000
 -21324822.10649 -16616721.14347  21294467.213    21294465.071         629.000
        41.000
  -8057743.48548  -6278760.03745  23596448.886    23596447.725         217.000
         5.000
 04  3  1  2 32  0.0000000  0  8G24G17G 4G29G26G 7G10G 5
 -20019522.51149 -15599591.82046  21677866.691    21677864.236         504.000
        26.000
 -10223491.05048  -7966350.74746  22610678.383    22610675.716         289.000
        10.000
 -13389579.07449 -10433400.66846  22228041.315    22228040.104         414.000
        18.000
 -17721902.16949 -13809262.87946  22090899.396    22090898.192         412.000
        19.000
 -10751075.22548  -8377450.49845  23063155.276    23063153.213         287.000
         9.000
 -12135089.01449  -9455880.68246  22750394.555    22750391.733         330.000
        13.000
 -21314375.69049 -16608581.07147  21296455.122    21296452.970         630.000
        42.000
  -8043124.65348  -6267368.73945  23599231.835    23599229.542         219.000
         5.000
 04  3  1  2 32 30.0000000  0  8G24G17G 4G29G26G 7G10G 5
 -20043021.28849 -15617902.55046  21673395.090    21673392.476         502.000
        26.000
 -10256553.45348  -7992113.64546  22604387.831    22604383.802         281.000
        10.000
 -13381325.52949 -10426969.34246  22229612.214    22229610.890         419.000
        18.000
 -17815726.07449 -13882372.40146  22073045.494    22073044.231         415.000
        19.000
 -10844282.38648  -8450079.43345  23045418.578    23045416.796         292.000
         9.000
 -12040675.62149  -9382311.81146  22768360.887    22768358.244         331.000
        13.000
 -21303676.17549 -16600243.77947  21298491.142    21298488.916         627.000
        42.000
  -8028207.26148  -6255744.82145  23602069.750    23602067.727         211.000
         4.000
 04  3  1  2 33  0.0000000  0  8G24G17G 4G29G26G 7G10G 5
 -20066493.97549 -15636192.95446  21668928.362    21668925.590         497.000
        26.000
 -10289660.28248  -8017911.15946  22598087.826    22598083.843         278.000
        10.000
 -13372956.22949 -10420447.80746  22231204.723    22231203.395         417.000
        18.000
 -17909294.96049 -13955283.21246  22055240.278    22055238.591         412.000
        20.000
 -10937341.43748  -8522592.95545  23027709.864    23027708.065         290.000
         9.000
 -11946034.76849  -9308565.70246  22786370.630    22786367.901         331.000
        13.000
 -21292720.01449 -16591706.50347  21300576.245    21300574.120         640.000
        42.000
  -8012988.76948  -6243886.25145  23604966.951    23604963.822         213.000
         4.000
 04  3  1  2 33 30.0000000  0  8G24G17G 4G29G26G 7G10G 5
 -20089932.09949 -15654456.42446  21664468.051    21664465.630         503.000
        26.000
 -10322803.64348  -8043737.13746  22591779.611    22591776.499         274.000
        10.000
 -13364462.08349 -10413828.99446  22232821.119    22232819.993         423.000
        18.000
 -18002598.30349 -14027987.10846  22037484.383    22037483.172         399.000
        20.000
 -11030242.00748  -8594982.98745  23010031.388    23010029.899         300.000
         9.000
 -11851160.99649  -9234638.09746  22804424.164    22804421.604         326.000
        13.000
 -21281501.46649 -16582964.76947  21302710.805    21302708.745         634.000
        42.000
  -7997463.33948  -6231788.51545  23607921.286    23607918.170         217.000
         5.000
 04  3  1  2 34  0.0000000  0  8G24G17G 4G29G26G 7G10G 5
 -20113342.45749 -15672698.26146  21660012.827    21660010.644         500.000
        26.000
 -10355992.18448  -8069598.32346  22585464.495    22585461.259         280.000
        10.000
 -13355850.19849 -10407118.43246  22234460.274    22234458.581         417.000
        18.000
 -18095641.80449 -14100488.52746  22019779.387    22019777.778         401.000
        20.000
 -11122990.10548  -8667254.21446  22992381.999    22992380.074         294.000
        10.000
 -11756064.87049  -9160537.21946  22822520.654    22822517.950         325.000
        12.000
 -21270030.73249 -16574026.52947  21304893.845    21304891.612         634.000
        43.000
  -7981641.47248  -6219459.79445  23610932.370    23610928.973         223.000
         5.000
 04  3  1  2 34 30.0000000  0  8G24G17G 4G29G26G 7G10G 5
 -20136728.58349 -15690921.20946  21655563.258    21655560.583         505.000
        26.000
 -10389230.29648  -8095498.14846  22579139.210    22579136.387         284.000
        10.000
 -13347123.24149 -10400318.20946  22236120.406    22236119.317         420.000
        18.000
 -18188427.06949 -14172788.72546  22002122.924    22002121.271         400.000
        20.000
 -11215587.57248  -8739408.04046  22974761.335    22974759.453         299.000
        10.000
 -11660753.31848  -9086268.48846  22840658.036    22840654.881         316.000
        11.000
 -21258314.55649 -16564897.03247  21307123.341    21307121.070         632.000
        42.000
  -7965529.70448  -6206905.18245  23613998.735    23613995.343         228.000
         5.000
 04  3  1  2 35  0.0000000  0  8G24G17G 4G29G26G 7G10G 5
 -20160098.45549 -15709131.49146  21651115.740    21651113.245         498.000
        26.000
 -10422527.17148  -8121443.74646  22572803.352    22572800.168         287.000
        10.000
 -13338288.97749 -10393434.37146  22237801.602    22237800.439         421.000
        18.000
 -18280960.18549 -14244892.43946  21984514.744    21984512.913         409.000
        22.000
 -11308040.94548  -8811449.62746  22957168.261    22957166.300         315.000
        14.000
 -11565237.60748  -9011840.66746  22858834.115    22858831.030         315.000
        12.000
 -21246363.82349 -16555584.76947  21309397.458    21309395.198         629.000
        42.000
  -7949139.23748  -6194133.39645  23617115.844    23617114.100         227.000
         5.000
 04  3  1  2 35 30.0000000  0  8G24G17G 4G29G26G 7G10G 5
 -20183442.88049 -15727321.95546  21646673.639    21646671.037         503.000
        26.000
 -10455874.55248  -8147428.71546  22566457.741    22566454.505         293.000
        11.000
 -13329337.52449 -10386459.21646  22239505.489    22239503.826         422.000
        18.000
 -18373230.01949 -14316791.00046  21966955.867    21966954.513         411.000
        21.000
 -11400339.57148  -8883370.68945  22939604.147    22939602.315         310.000
         9.000
 -11469511.70548  -8937249.06646  22877049.823    22877046.978         308.000
        11.000
 -21234172.09149 -16546084.71047  21311717.534    21311715.311         631.000
        42.000
  -7932463.73448  -6181139.49145  23620289.225    23620287.769         234.000
         5.000
 04  3  1  2 36  0.0000000  0  8G24G17G 4G29G26G 7G10G 5
 -20206750.39749 -15745483.65146  21642238.334    21642235.742         502.000
        27.000
 -10489262.24748  -8173445.08446  22560103.721    22560100.969         296.000
        11.000
 -13320257.31349 -10379383.72546  22241233.235    22241231.620         420.000
        18.000
 -18465223.48549 -14388474.20946  21949450.233    21949448.558         410.000
        21.000
 -11492470.41749  -8955160.92046  22922072.134    22922070.718         322.000
        10.000
 -11373567.67948  -8862487.49946  22895307.759    22895304.582         307.000
        11.000
 -21221731.22249 -16536390.51847  21314085.045    21314082.649         628.000
        42.000
  -7915495.47348  -6167917.45845  23623518.336    23623516.557         226.000
         5.000
 04  3  1  2 36 30.0000000  0  8G24G17G 4G29G26G 7G10G 5
 -20230014.28749 -15763611.35546  21637811.300    21637808.840         509.000
        27.000
 -10522684.50948  -8199488.39446  22553743.846    22553740.831         295.000
        11.000
 -13311041.57849 -10372202.63546  22242986.636    22242985.432         421.000
        18.000
 -18556932.13549 -14459935.48646  21931998.748    21931997.145         422.000
        21.000
 -11584425.43649  -9026814.16046  22904573.872    22904572.284         327.000
        10.000
 -11277402.39848  -8787553.52046  22913607.574    22913604.296         309.000
        11.000
 -21209037.25949 -16526499.10547  21316500.465    21316498.116         621.000
        42.000
  -7898230.91148  -6154464.55645  23626803.431    23626801.586         225.000
         5.000
 04  3  1  2 37  0.0000000  0  8G24G17G 4G29G26G 7G10G 5
 -20253249.29149 -15781716.54746  21633389.811    21633387.351         506.000
        27.000
 -10556157.61448  -8225571.31646  22547374.002    22547371.210         298.000
        11.000
 -13301704.34849 -10364926.87146  22244763.494    22244762.342         423.000
        18.000
 -18648369.33849 -14531185.24946  21914598.816    21914597.170         428.000
        22.000
 -11676218.27149  -9098341.03246  22887105.656    22887104.413         329.000
        10.000
 -11181034.19448  -8712461.41846  22931946.132    22931942.579         306.000
        12.000
 -21196108.42649 -16516424.68147  21318960.843    21318958.375         619.000
        41.000
  -7880688.54148  -6140795.18245  23630142.112    23630140.106         226.000
         5.000
 04  3  1  2 37 30.0000000  0  8G24G17G 4G29G26G 7G10G 5
 -20276446.16749 -15799792.03246  21628975.453    21628973.145         510.000
        27.000
 -10589673.33748  -8251687.46046  22540996.783    22540993.492         303.000
        11.000
 -13292236.24249 -10357549.13246  22246565.840    22246564.100         423.000
        18.000
 -18739524.04249 -14602214.88646  21897252.238    21897251.057         434.000
        21.000
 -11767838.02249  -9169733.02646  22869671.942    22869669.848         326.000
        11.000
 -11084457.13848  -8637206.58046  22950324.168    22950320.723         306.000
        11.000
 -21182938.72549 -16506162.57047  21321466.765    21321464.441         618.000
        41.000
  -7862862.07248  -6126904.42945  23633534.857    23633532.001         222.000
         5.000
 04  3  1  2 38  0.0000000  0  8G24G17G 4G29G26G 7G10G 5
 -20299601.37249 -15817835.04646  21624569.517    21624566.969         515.000
        27.000
 -10623229.14048  -8277834.82746  22534611.008    22534607.916         303.000
        11.000
 -13282633.49849 -10350066.47946  22248392.903    22248391.547         428.000
        18.000
 -18830390.84449 -14673020.18146  21879961.071    21879959.356         428.000
        22.000
 -11859279.67349  -9240986.24446  22852269.992    22852268.858         332.000
        10.000
 -10987671.09348  -8561788.88646  22968742.175    22968738.362         301.000
        11.000
 -21169527.14749 -16495711.98247  21324018.785    21324016.704         620.000
        41.000
  -7844751.26048  -6112792.11845  23636980.652    23636978.621         224.000
         5.000
 04  3  1  2 38 30.0000000  0  8G24G17G 4G29G26G 7G10G 5
 -20322725.79649 -15835854.07046  21620169.117    21620166.416         513.000
        28.000
 -10656837.22848  -8304022.93746  22528214.973    22528212.620         308.000
        10.000
 -13272906.62549 -10342487.10546  22250244.076    22250242.418         428.000
        18.000
 -18920979.20149 -14743608.50246  21862722.860    21862721.044         434.000
        23.000
 -11950553.02349  -9312108.33246  22834901.449    22834900.265         333.000
        10.000
 -10890690.53748  -8486219.63446  22987195.908    22987192.975         298.000
        10.000
 -21155887.94249 -16485084.02147  21326614.457    21326612.065         616.000
        41.000
  -7826370.22248  -6098469.21945  23640477.903    23640476.319         221.000
         5.000
 04  3  1  2 39  0.0000000  0  8G24G17G 4G29G26G 7G10G 5
 -20345819.63049 -15853849.26146  21615774.394    21615771.699         509.000
        28.000
 -10690498.48548  -8330252.48046  22521809.184    22521807.087         307.000
        10.000
 -13263055.25149 -10334810.71246  22252117.944    22252116.940         421.000
        18.000
 -19011287.26849 -14813978.41846  21845537.529    21845536.224         450.000
        24.000
 -12041656.53449  -9383098.06646  22817564.992    22817563.626         325.000
        11.000
 -10793519.06348  -8410501.61246  23005687.512    23005684.097         296.000
        11.000
 -21142024.23549 -16474281.12847  21329252.489    21329250.240         613.000
        40.000
  -7807722.53048  -6083938.55645  23644027.223    23644025.103         227.000
         5.000
 04  3  1  2 39 30.0000000  0  8G24G17G 4G29G26G 7G10G 5
 -20368871.78849 -15871811.97446  21611387.798    21611385.169         518.000
        28.000
 -10724203.01648  -8356515.74246  22515396.162    22515393.345         308.000
        11.000
 -13253068.25649 -10327028.63946  22254018.603    22254017.508         425.000
        18.000
 -19101302.49649 -14884120.15046  21828408.364    21828406.963         452.000
        25.000
 -12132577.91049  -9453945.87946  22800263.536    22800262.122         334.000
        11.000
 -10696149.00748  -8334628.85246  23024216.402    23024212.759         290.000
        10.000
 -21127927.96549 -16463297.01147  21331935.145    21331932.707         615.000
        41.000
  -7788800.69648  -6069194.27745  23647628.128    23647625.521         217.000
         5.000
 04  3  1  2 40  0.0000000  0  8G24G17G 4G29G26G 7G10G 5
 -20391883.42749 -15889743.11546  21607008.824    21607006.363         526.000
        28.000
 -10757953.41648  -8382814.74346  22508973.373    22508970.996         313.000
        11.000
 -13242946.51249 -10319141.56946  22255944.306    22255943.435         421.000
        18.000
 -19191024.52249 -14954033.41046  21811334.909    21811333.309         450.000
        25.000
 -12223317.22449  -9524651.82046  22782996.827    22782994.809         330.000
        11.000
 -10598585.28348  -8258605.18046  23042781.667    23042778.866         295.000
        11.000
 -21113603.65449 -16452135.20147  21334660.931    21334658.463         610.000
        41.000
  -7769609.54948  -6054240.15845  23651279.256    23651277.867         222.000
         5.000
 04  3  1  2 40 30.0000000  0  8G24G17G 4G29G26G 7G10G 5
 -20414842.42549 -15907633.23946  21602639.569    21602637.152         521.000
        29.000
 -10791738.52548  -8409140.79746  22502544.039    22502541.646         313.000
        11.000
 -13232677.56649 -10311139.80046  22257899.097    22257897.769         427.000
        18.000
 -19280439.47549 -15023707.39146  21794319.883    21794318.312         457.000
        26.000
 -12313860.73649  -9595205.19546  22765767.492    22765764.861         329.000
        11.000
 -10500819.10448  -8182423.75146  23061386.151    23061383.024         292.000
        11.000
 -21099042.11549 -16440788.54247  21337431.691    21337429.384         602.000
        40.000
  -7750140.09748  -6039069.16245  23654984.601    23654982.323         215.000
         5.000
 04  3  1  2 41  0.0000000  0  8G24G17G 4G29G26G 7G10G 5
 -20437762.83749 -15925493.29246  21598278.316    21598275.692         526.000
        28.000
 -10825573.72149  -8435505.87346  22496105.785    22496103.039         319.000
        11.000
 -13222275.54749 -10303034.33446  22259878.488    22259877.128         426.000
        18.000
 -19369560.21949 -15093152.11846  21777360.590    21777359.200         466.000
        26.000
 -12404221.56949  -9665616.21946  22748571.252    22748569.979         334.000
        11.000
 -10402868.43448  -8106098.56346  23080025.971    23080022.933         301.000
        10.000
 -21084261.07049 -16429270.83447  21340244.270    21340242.070         600.000
        40.000
  -7730410.44648  -6023695.40545  23658738.022    23658737.416         221.000
         5.000
 04  3  1  2 41 30.0000000  0  8G24G17G 4G29G26G 7G10G 5
 -20460633.67449 -15943314.71846  21593925.821    21593923.392         525.000
        29.000
 -10859448.90349  -8461902.10546  22489659.451    22489656.889         324.000
        12.000
 -13211729.04249 -10294816.28246  22261885.229    22261884.021         425.000
        18.000
 -19458373.80849 -15162357.50446  21760460.042    21760458.563         471.000
        27.000
 -12494387.13549  -9735875.09046  22731413.977    22731411.909         330.000
        11.000
 -10304725.49648  -8029623.55246  23098701.064    23098698.846         296.000
        10.000
 -21069252.37149 -16417575.73447  21343100.445    21343098.159         604.000
        39.000
  -7710412.51548  -6008112.58945  23662544.532    23662542.426         214.000
         5.000
 04  3  1  2 42  0.0000000  0  8G24G17G 4G29G26G 7G10G 5
 -20483466.35849 -15961106.41746  21589581.049    21589578.525         528.000
        29.000
 -10893376.63949  -8488339.29746  22483203.495    22483200.679         326.000
        12.000
 -13201048.75949 -10286493.98646  22263917.836    22263916.524         428.000
        18.000
 -19546890.14849 -15231331.27146  21743615.825    21743614.428         472.000
        27.000
 -12584367.48049  -9805989.63046  22714290.670    22714289.232         333.000
        12.000
 -10206405.37648  -7953010.48446  23117411.749    23117408.550         295.000
        10.000
 -21054030.50649 -16405714.52947  21345996.958    21345994.712         601.000
        40.000
  -7690161.16148  -5992332.31545  23666399.613    23666396.034         210.000
         5.000
 04  3  1  2 42 30.0000000  0  8G24G17G 4G29G26G 7G10G 5
 -20506253.47349 -15978862.60046  21585244.728    21585242.300         531.000
        30.000
 -10927350.54849  -8514812.46746  22476738.758    22476735.883         333.000
        12.000
 -13190227.55249 -10278061.88146  22265976.581    22265975.503         424.000
        18.000
 -19635100.31049 -15300066.45246  21726829.938    21726828.592         473.000
        27.000
 -12674154.04749  -9875953.17646  22697205.206    22697203.314         336.000
        13.000
 -10107904.39148  -7876256.48145  23136154.547    23136152.820         294.000
         9.000
 -21038591.50249 -16393684.12647  21348934.869    21348932.821         605.000
        39.000
  -7669652.95348  -5976351.88745  23670301.734    23670298.728         208.000
         5.000
 04  3  1  2 43  0.0000000  0  8G24G17G 4G29G26G 7G10G 5
 -20528988.46449 -15996578.17446  21580918.470    21580916.017         539.000
        30.000
 -10961365.38649  -8541317.52746  22470265.284    22470262.804         326.000
        12.000
 -13179258.55649 -10269514.60946  22268064.309    22268062.908         424.000
        18.000
 -19722996.30249 -15368556.83046  21710103.763    21710102.630         478.000
        26.000
 -12763739.09549  -9945759.68446  22680157.789    22680155.853         342.000
        13.000
 -10009219.52848  -7799359.19045  23154934.498    23154931.484         284.000
         9.000
 -21022932.00849 -16381481.92147  21351914.535    21351912.605         602.000
        39.000
  -7648884.66548  -5960168.81245  23674253.952    23674250.890         212.000
         4.000
 04  3  1  2 43 30.0000000  0  8G24G17G 4G29G26G 7G10G 5
 -20551670.79249 -16014252.70746  21576602.271    21576599.681         541.000
        30.000
 -10995421.92649  -8567855.08546  22463784.686    22463781.921         320.000
        11.000
 -13168141.37749 -10260851.88046  22270179.510    22270178.333         420.000
        18.000
 -19810576.33049 -15436801.00246  21693438.253    21693436.903         484.000
        27.000
 -12853120.99849 -10015407.91046  22663149.190    22663147.479         358.000
        14.000
  -9910354.15548  -7722321.24445  23173747.621    23173745.133         282.000
         9.000
 -21007054.84749 -16369110.09847  21354936.147    21354934.051         606.000
        39.000
  -7627859.31648  -5943785.42245  23678253.694    23678252.074         211.000
         5.000
 04  3  1  2 44  0.0000000  0  8G24G17G 4G29G26G 7G10G 5
 -20574303.57049 -16031888.62846  21572295.353    21572292.843         545.000
        31.000
 -11029524.26049  -8594428.31846  22457295.706    22457292.275         317.000
        12.000
 -13156878.63849 -10252075.72046  22272322.941    22272321.640         423.000
        17.000
 -19897841.72649 -15504800.01146  21676831.631    21676830.550         473.000
        26.000
 -12942301.57549 -10084899.25946  22646178.234    22646176.684         351.000
        14.000
  -9811314.76348  -7645147.70245  23192594.373    23192591.467         278.000
         9.000
 -20990966.05549 -16356573.37147  21357997.621    21357995.649         607.000
        40.000
  -7606583.71248  -5927207.02845  23682302.963    23682300.198         206.000
         4.000
 04  3  1  2 44 30.0000000  0  8G24G17G 4G29G26G 7G10G 5
 -20596887.48849 -16049486.48646  21567997.847    21567995.217         546.000
        31.000
 -11063674.04148  -8621038.52946  22450796.622    22450793.791         315.000
        11.000
 -13145470.79249 -10243186.49446  22274494.448    22274492.821         432.000
        18.000
 -19984791.85349 -15572553.34746  21660285.838    21660284.395         467.000
        26.000
 -13031280.06749 -10154233.13746  22629246.449    22629244.735         357.000
        13.000
  -9712105.70348  -7567841.95445  23211473.145    23211470.283         267.000
         9.000
 -20974669.67349 -16343874.88647  21361098.639    21361096.635         602.000
        39.000
  -7585061.91648  -5910436.80445  23686397.168    23686396.291         214.000
         4.000
 04  3  1  2 45  0.0000000  0  8G24G17G 4G29G26G 7G10G 5
 -20619416.30049 -16067041.40046  21563710.038    21563707.927         545.000
        31.000
 -11097865.99749  -8647681.59246  22444290.123    22444287.654         327.000
        12.000
 -13133911.15149 -10234178.98646  22276693.197    22276692.322         426.000
        17.000
 -20071418.54249 -15640054.65846  21643801.053    21643799.741         462.000
        26.000
 -13120049.00249 -10223403.72346  22612354.209    22612352.496         364.000
        14.000
  -9612724.04748  -7490401.71845  23230385.296    23230382.534         275.000
         9.000
 -20958162.56249 -16331012.19747  21364239.954    21364237.889         600.000
        39.000
  -7563290.93848  -5893472.40245  23690540.226    23690538.939         210.000
         4.000
 04  3  1  2 45 30.0000000  0  8G24G17G 4G29G26G 7G10G 5
 -20641893.78849 -16084556.31846  21559433.300    21559430.786         554.000
        31.000
 -11132105.06049  -8674361.37646  22437775.129    22437772.315         334.000
        12.000
 -13122203.43449 -10225056.09146  22278921.280    22278920.313         427.000
        18.000
 -20157724.58249 -15707306.11046  21627377.575    21627376.219         462.000
        26.000
 -13208611.00849 -10292413.05846  22595501.138    22595499.601         363.000
        15.000
  -9513177.50248  -7412832.99545  23249328.698    23249325.289         267.000
         8.000
 -20941451.68049 -16317990.72847  21367420.176    21367417.929         598.000
        39.000
  -7541278.45548  -5876319.82345  23694729.303    23694727.572         209.000
         4.000
 04  3  1  2 46  0.0000000  0  8G24G17G 4G29G26G 7G10G 5
 -20664324.21349 -16102034.56947  21555164.913    21555162.579         564.000
        32.000
 -11166396.58649  -8701082.04446  22431248.766    22431246.687         327.000
        12.000
 -13110351.73949 -10215821.01146  22281176.841    22281175.241         418.000
        17.000
 -20243712.49549 -15774309.67346  21611014.830    21611013.426         470.000
        26.000
 -13296969.05549 -10361263.47446  22578687.452    22578685.727         371.000
        15.000
  -9413473.90648  -7335141.88645  23268300.281    23268298.396         267.000
         8.000
 -20924544.69049 -16304816.44547  21370637.193    21370635.179         595.000
        39.000
  -7519032.73548  -5858985.48845  23698962.048    23698960.558         206.000
         5.000
 04  3  1  2 46 30.0000000  0  8G24G17G 4G29G26G 7G10G 5
 -20686690.74449 -16119463.02447  21550908.562    21550906.247         563.000
        32.000
 -11200725.14649  -8727831.56046  22424716.084    22424713.962         326.000
        12.000
 -13098339.39449 -10206460.74446  22283462.464    22283461.163         420.000
        18.000
 -20329364.27449 -15841051.30946  21594715.415    21594714.280         471.000
        27.000
 -13385105.56549 -10429941.26446  22561915.039    22561913.853         373.000
        14.000
  -9313600.46648  -7257318.43345  23287306.470    23287303.647         267.000
         8.000
 -20907428.35349 -16291479.03247  21373894.380    21373892.175         592.000
        38.000
  -7496540.48148  -5841459.06745  23703242.498    23703240.891         208.000
         4.000
 04  3  1  2 47  0.0000000  0  8G24G17G 4G29G26G 7G10G 5
 -20709002.65249 -16136848.92047  21546662.627    21546660.425         568.000
        32.000
 -11235100.83749  -8754617.79046  22418175.310    22418172.711         332.000
        13.000
 -13086175.00649 -10196982.00846  22285777.809    22285776.075         424.000
        18.000
 -20414687.58149 -15907536.99946  21578479.188    21578477.834         477.000
        27.000
 -13473028.13249 -10498452.34846  22545183.336    22545182.680         368.000
        14.000
  -9213569.81248  -7179372.48745  23306340.919    23306338.686         261.000
         8.000
 -20890114.99749 -16277988.10047  21377188.909    21377186.811         590.000
        38.000
  -7473814.15448  -5823750.23345  23707567.042    23707565.105         204.000
         4.000
 04  3  1  2 47 30.0000000  0  8G24G17G 4G29G26G 7G10G 5
 -20731249.11549 -16154183.82047  21542429.694    21542427.132         574.000
        33.000
 -11269514.03249  -8781433.25946  22411627.286    22411623.858         325.000
        12.000
 -13073848.03049 -10187376.57246  22288123.471    22288121.891         424.000
        17.000
 -20499670.51949 -15973757.45946  21562307.332    21562306.083         483.000
        28.000
 -13560725.12949 -10566787.66346  22528495.897    22528494.886         382.000
        14.000
  -9113375.05148  -7101298.65545  23325406.877    23325405.042         260.000
         8.000
 -20872597.15649 -16264337.82647  21380522.731    21380520.285         585.000
        38.000
  -7450847.21448  -5805853.92745  23711937.348    23711935.399         202.000
         4.000
 04  3  1  2 48  0.0000000  0  8G24G17G 4G29G26G 7G10G 5
 -20753432.80549 -16171469.80747  21538207.979    21538205.619         573.000
        33.000
 -11303968.53949  -8808280.91446  22405070.192    22405067.334         321.000
        12.000
 -13061361.15049 -10177646.54346  22290499.771    22290498.070         426.000
        18.000
 -20584314.33849 -16039713.68046  21546200.513    21546198.956         493.000
        29.000
 -13648198.13349 -10634948.43546  22511849.817    22511849.119         381.000
        15.000
  -9013022.54048  -7023101.90645  23344504.325    23344501.730         260.000
         8.000
 -20854880.93749 -16250532.97447  21383893.723    21383891.389         577.000
        38.000
  -7427646.09148  -5787775.12445  23716353.955    23716350.813         207.000
         5.000
 04  3  1  2 48 30.0000000  0  8G24G17G 4G29G26G 7G10G 5
 -20775551.52449 -16188705.16747  21533999.060    21533996.645         578.000
        33.000
 -11338463.56749  -8835160.14446  22398505.834    22398503.053         319.000
        12.000
 -13048711.80449 -10167789.91346  22292906.680    22292905.665         440.000
        18.000
 -20668615.52249 -16105402.90846  21530158.684    21530157.020         499.000
        29.000
 -13735443.88949 -10702932.13846  22495247.379    22495246.644         378.000
        15.000
  -8912513.93048  -6944783.51445  23363630.481    23363627.322         254.000
         8.000
 -20836967.46049 -16236574.41447  21387302.668    21387300.373         581.000
        38.000
  -7404212.30148  -5769515.04745  23720812.061    23720809.821         203.000
         4.000
 04  3  1  2 49  0.0000000  0  8G24G17G 4G29G26G 7G10G 5
 -20797599.04449 -16205885.04747  21529803.565    21529801.058         576.000
        33.000
 -11372993.32349  -8862066.44246  22391935.302    22391932.322         320.000
        12.000
 -13035893.58049 -10157801.68946  22295345.474    22295344.529         431.000
        18.000
 -20752566.39549 -16170819.16646  21514183.162    21514181.663         502.000
        30.000
 -13822454.81849 -10770732.84846  22478690.694    22478689.198         389.000
        15.000
  -8811846.53248  -6866341.40545  23382786.125    23382784.227         262.000
         8.000
 -20818853.62549 -16222459.73547  21390749.584    21390747.372         580.000
        38.000
  -7380543.09248  -5751071.49645  23725315.153    23725313.975         203.000
         4.000
 04  3  1  2 49 30.0000000  0  8G24G17G 4G29G26G 7G10G 5
 -20819579.85349 -16223012.94247  21525620.866    21525618.269         577.000
        33.000
 -11407563.66449  -8889004.35646  22385356.531    22385353.838         321.000
        12.000
 -13022911.02049 -10147685.41746  22297816.514    22297815.119         436.000
        18.000
 -20836170.01149 -16235964.83646  21498273.756    21498272.388         508.000
        30.000
 -13909234.35549 -10838353.26146  22462176.498    22462175.440         386.000
        15.000
  -8711028.59548  -6787781.98045  23401972.305    23401969.234         261.000
         8.000
 -20800547.34249 -16208195.09347  21394233.280    21394230.804         573.000
        38.000
  -7356646.91048  -5732451.10045  23729864.944    23729861.749         208.000
         4.000
 04  3  1  2 50  0.0000000  0  8G24G17G 4G29G26G 7G10G 5
 -20841491.92249 -16240087.27447  21521450.711    21521448.531         580.000
        33.000
 -11442173.58449  -8915973.11746  22378771.405    22378767.858         320.000
        13.000
 -13009761.60149 -10137439.12146  22300318.795    22300317.277         430.000
        18.000
 -20919422.99749 -16300837.28546  21482431.246    21482430.227         520.000
        31.000
 -13995779.26349 -10905790.84146  22445707.325    22445706.542         397.000
        15.000
  -8610061.69648  -6709106.48345  23421185.507    23421183.036         269.000
         8.000
 -20782049.59949 -16193781.26447  21397753.385    21397750.560         565.000
        37.000
  -7332525.12648  -5713654.91045  23734453.128    23734451.805         206.000
         4.000
 04  3  1  2 50 30.0000000  0  8G24G17G 4G29G26G 7G10G 5
 -20863334.60749 -16257107.53847  21517294.381    21517292.004         576.000
        33.000
 -11476823.59148  -8942973.12046  22372176.978    22372173.850         312.000
        13.000
 -12996445.03449 -10127062.58846  22302852.920    22302851.453         434.000
        18.000
 -21002323.83349 -16365435.33546  21466655.560    21466654.571         517.000
        31.000
 -14082088.15149 -10973044.52146  22429283.984    22429282.489         402.000
        16.000
  -8508949.21248  -6630317.54845  23440426.281    23440423.949         262.000
         7.000
 -20763363.50249 -16179220.66447  21401309.218    21401306.537         568.000
        38.000
  -7308180.81548  -5694685.31845  23739086.376    23739084.834         210.000
         5.000
 04  3  1  2 51  0.0000000  0  8G24G17G 4G29G26G 7G10G 5
 -20885112.58549 -16274077.38347  21513150.249    21513147.795         576.000
        33.000
 -11511519.28349  -8970008.71046  22365575.140    22365571.696         318.000
        13.000
 -12982965.80849 -10116559.30146  22305417.567    22305416.191         426.000
        18.000
 -21084875.42449 -16429761.24446  21450946.692    21450945.400         513.000
        31.000
 -14168164.34249 -11040116.87046  22412904.044    22412902.599         398.000
        16.000
  -8407699.49248  -6551421.67545  23459693.026    23459690.743         256.000
         8.000
 -20744496.73249 -16164519.27747  21404899.413    21404896.997         580.000
        38.000
  -7283622.68548  -5675549.12345  23743759.506    23743757.892         204.000
         5.000
 04  3  1  2 51 30.0000000  0  8G24G17G 4G29G26G 7G10G 5
 -20906821.63049 -16290993.51347  21509019.369    21509016.883         583.000
        33.000
 -11546257.53048  -8997077.45846  22358964.303    22358961.048         314.000
        13.000
 -12969319.37549 -10105925.71846  22308014.686    22308013.095         428.000
        18.000
 -21167072.44749 -16493810.86547  21435305.143    21435303.857         516.000
        32.000
 -14254002.43249 -11107003.68346  22396569.600    22396568.159         402.000
        17.000
  -8306311.90848  -6472418.36945  23478986.286    23478983.996         249.000
         8.000
 -20725448.48249 -16149676.48047  21408523.950    21408521.764         583.000
        38.000
  -7258850.27548  -5656245.95045  23748473.315    23748471.321         194.000
         4.000
 04  3  1  2 52  0.0000000  0  8G24G17G 4G29G26G 7G10G 5
 -20928451.81749 -16307848.19647  21504903.229    21504900.766         579.000
        33.000
 -11581029.60949  -9024172.57246  22352347.085    22352344.357         319.000
        13.000
 -12955496.14449 -10095154.37746  22310644.798    22310643.669         429.000
        18.000
 -21248904.02449 -16557575.72647  21419733.169    21419732.006         528.000
        32.000
 -14339591.83449 -11173696.71446  22380282.450    22380281.169         407.000
        18.000
  -8204780.61948  -6393303.09645  23498307.594    23498304.962         251.000
         7.000
 -20706212.40949 -16134687.32747  21412184.503    21412182.217         580.000
        38.000
  -7233857.47148  -5636771.01645  23753230.130    23753227.901         204.000
         4.000
 04  3  1  2 52 30.0000000  0  8G24G17G 4G29G26G 7G10G 5
 -20950012.08649 -16324648.39847  21500800.025    21500797.704         571.000
        33.000
 -11615845.55748  -9051301.86846  22345722.294    22345718.936         315.000
        12.000
 -12941504.71549 -10084251.96946  22313308.036    22313306.145         428.000
        18.000
 -21330377.67649 -16621061.68147  21404229.609    21404227.960         525.000
        33.000
 -14424940.49649 -11240202.16046  22364041.320    22364039.893         411.000
        17.000
  -8103118.41848  -6314085.79945  23517652.398    23517650.833         251.000
         7.000
 -20686800.95149 -16119561.50647  21415878.407    21415876.214         587.000
        38.000
  -7208657.32548  -5617134.54545  23758026.195    23758023.326         200.000
         4.000
 04  3  1  2 53  0.0000000  0  8G24G17G 4G29G26G 7G10G 5
 -20971493.41549 -16341387.09047  21496712.040    21496709.934         571.000
        32.000
 -11650697.29749  -9078459.06246  22339090.364    22339086.932         319.000
        13.000
 -12927336.20149 -10073211.57246  22316003.619    22316002.221         422.000
        18.000
 -21411483.09249 -16684260.70247  21388795.348    21388793.975         521.000
        33.000
 -14510038.04949 -11306511.93846  22347848.119    22347846.286         408.000
        18.000
  -8001319.79848  -6234762.20745  23537024.670    23537022.226         243.000
         6.000
 -20667208.30149 -16104294.50147  21419606.818    21419604.644         592.000
        38.000
  -7183244.47648  -5597332.32945  23762861.003    23762859.324         201.000
         4.000
 04  3  1  2 53 30.0000000  0  8G24G17G 4G29G26G 7G10G 5
 -20992895.78549 -16358064.25247  21492639.729    21492637.338         575.000
        32.000
 -11685585.78649  -9105644.88646  22332451.578    22332447.919         322.000
        13.000
 -12912990.41949 -10062033.04946  22318733.684    22318732.127         422.000
        18.000
 -21492219.29449 -16747172.02247  21373432.115    21373430.481         524.000
        33.000
 -14594883.65349 -11372625.38546  22331702.215    22331700.582         398.000
        18.000
  -7899388.67148  -6155335.36445  23556421.690    23556419.529         246.000
         7.000
 -20647437.68149 -16088888.82047  21423368.860    21423366.953         597.000
        38.000
  -7157622.81248  -5577367.38745  23767736.255    23767734.435         192.000
         4.000
 04  3  1  2 54  0.0000000  0  8G24G17G 4G29G26G 7G10G 5
 -21014221.87149 -16374681.98047  21488581.401    21488578.987         568.000
        33.000
 -11720514.90649  -9132862.38146  22325804.037    22325800.977         325.000
        14.000
 -12898470.17549 -10050718.58446  22321496.605    22321495.303         426.000
        18.000
 -21572587.53649 -16809796.62247  21358138.275    21358137.022         531.000
        33.000
 -14679479.04449 -11438543.85846  22315604.296    22315602.506         397.000
        18.000
  -7797331.54648  -6075810.34145  23575842.689    23575840.547         245.000
         7.000
 -20627495.21849 -16073349.23247  21427163.836    21427161.945         600.000
        38.000
  -7131798.73148  -5557244.72945  23772649.126    23772648.021         184.000
         4.000
 04  3  1  2 54 30.0000000  0  8G24G17G 4G29G26G 7G10G 5
 -21035470.77149 -16391239.55847  21484537.941    21484535.474         569.000
        32.000
 -11755484.62149  -9160111.50546  22319149.934    22319146.734         336.000
        14.000
 -12883774.36649 -10039267.30646  22324293.355    22324291.731         421.000
        18.000
 -21652585.98549 -16872133.07047  21342915.177    21342913.766         530.000
        34.000
 -14763822.24249 -11504265.82246  22299554.092    22299552.462         397.000
        18.000
  -7695151.33848  -5996189.41545  23595287.547    23595284.447         235.000
         6.000
 -20607383.58549 -16057677.82547  21430990.817    21430988.822         590.000
        38.000
  -7105775.35148  -5536966.76645  23777602.192    23777601.084         195.000
         4.000
 04  3  1  2 55  0.0000000  0  8G24G17G 4G29G26G 7G10G 5
 -21056636.60149 -16407732.40547  21480510.300    21480507.718         568.000
        32.000
 -11790490.35849  -9187388.69546  22312488.070    22312484.980         332.000
        14.000
 -12868897.41849 -10027674.88846  22327124.750    22327122.663         416.000
        18.000
 -21732207.56049 -16934175.85147  21327763.600    21327762.110         521.000
        34.000
 -14847906.62949 -11569786.11746  22283553.702    22283551.837         399.000
        18.000
  -7592846.13448  -5916471.08545  23614755.495    23614752.553         234.000
         6.000
 -20587100.22149 -16041872.60647  21434850.919    21434848.524         583.000
        38.000
  -7079550.75748  -5516532.02645  23782593.418    23782591.478         192.000
         4.000
 04  3  1  2 55 30.0000000  0  8G24G17G 4G29G26G 7G10G 5
 -21077717.52849 -16424159.09747  21476498.512    21476496.223         571.000
        32.000
 -11825531.22449  -9214693.25546  22305820.698    22305817.381         341.000
        14.000
 -12853837.27249 -10015939.71946  22329990.384    22329988.606         418.000
        17.000
 -21811449.24749 -16995922.61147  21312684.501    21312682.820         515.000
        34.000
 -14931729.22649 -11635102.41346  22267602.726    22267600.803         400.000
        19.000
  -7490417.81648  -5836656.82145  23634247.278    23634243.976         229.000
         6.000
 -20566646.65949 -16025934.75747  21438743.173    21438740.801         583.000
        37.000
  -7053126.65048  -5495941.82145  23787621.126    23787619.625         191.000
         4.000
 04  3  1  2 56  0.0000000  0  8G24G17G 4G29G26G 7G10G 5
 -21098713.86949 -16440519.87847  21472502.941    21472500.860         578.000
        32.000
 -11860608.28049  -9242026.02446  22299145.634    22299142.383         344.000
        15.000
 -12838594.01149 -10004061.85746  22332891.097    22332889.342         418.000
        18.000
 -21890310.28049 -17057372.76047  21297677.867    21297675.977         513.000
        34.000
 -15015289.43849 -11700214.25846  22251701.648    22251699.733         400.000
        18.000
  -7387870.59548  -5756749.90845  23653761.444    23653758.122         228.000
         6.000
 -20546026.62349 -16009867.19547  21442666.696    21442664.522         575.000
        37.000
  -7026507.35848  -5475199.50045  23792687.380    23792686.007         205.000
         4.000
 04  3  1  2 56 30.0000000  0  8G24G17G 4G29G26G 7G10G 5
 -21119618.21449 -16456808.97447  21468525.067    21468522.828         572.000
        32.000
 -11895715.74549  -9269382.47446  22292464.031    22292461.668         347.000
        14.000
 -12823160.81949  -9992035.99446  22335827.396    22335826.142         412.000
        17.000
 -21968782.32349 -17118519.80147  21282745.047    21282743.473         527.000
        35.000
 -15098579.15449 -11765115.32546  22235852.340    22235850.449         415.000
        19.000
  -7285201.14648  -5676747.76045  23673297.093    23673295.218         221.000
         5.000
 -20525236.42049 -15993667.03647  21446623.105    21446620.652         570.000
        36.000
  -6999690.11848  -5454302.94745  23797790.086    23797788.345         193.000
         4.000
 04  3  1  2 57  0.0000000  0  8G24G17G 4G29G26G 7G10G 5
 -21140442.26849 -16473035.50347  21464562.331    21464560.098         571.000
        32.000
 -11930865.95449  -9296772.24446  22285775.364    22285772.586         347.000
        15.000
 -12807549.03149  -9979870.97246  22338798.736    22338797.005         410.000
        17.000
 -22046875.89649 -17179371.92647  21267884.251    21267882.658         530.000
        35.000
 -15181608.90349 -11829813.82246  22220052.053    22220050.598         423.000
        19.000
  -7182424.75548  -5596662.26445  23692856.245    23692853.061         218.000
         6.000
 -20504290.79249 -15977345.76547  21450608.988    21450606.367         565.000
        37.000
  -6972690.11648  -5433263.99445  23802928.741    23802926.167         186.000
         4.000
 04  3  1  2 57 30.0000000  0  8G24G17G 4G29G26G 7G10G 5
 -21161176.99449 -16489192.43047  21460616.596    21460614.353         568.000
        32.000
 -11966050.98349  -9324189.14446  22279080.137    22279077.253         354.000
        15.000
 -12791749.97949  -9967560.02846  22341804.892    22341803.496         407.000
        17.000
 -22124581.19949 -17239921.50747  21253097.292    21253095.745         535.000
        36.000
 -15264368.96449 -11894302.17746  22204303.149    22204301.639         429.000
        19.000
  -7079536.49848  -5516489.61345  23712434.540    23712432.089         217.000
         5.000
 -20483184.57449 -15960899.35747  21454625.453    21454622.794         568.000
        36.000
  -6945502.20448  -5412078.60545  23808101.613    23808099.932         188.000
         4.000
 04  3  1  2 58  0.0000000  0  8G24G17G 4G29G26G 7G10G 5
 -21181814.05649 -16505273.25347  21456689.519    21456687.145         563.000
        32.000
 -12001263.57749  -9351627.52646  22272379.726    22272376.536         359.000
        15.000
 -12775755.12349  -9955096.51846  22344849.122    22344847.049         401.000
        18.000
 -22201888.54649 -17300160.99647  21238386.036    21238384.739         549.000
        36.000
 -15346850.23949 -11958573.29246  22188607.150    22188606.036         433.000
        20.000
  -6976531.80448  -5436226.21945  23732035.414    23732033.259         218.000
         5.000
 -20461912.74249 -15944323.90347  21458673.123    21458670.785         571.000
        36.000
  -6918121.96848  -5390743.34745  23813313.684    23813310.496         190.000
         4.000
 04  3  1  2 58 30.0000000  0  7G24G17G 4G26G 7G10G 5
 -21202363.20749 -16521285.57047  21452779.140    21452776.897         569.000
        33.000
 -12036514.67549  -9379095.90946  22265671.070    22265668.553         361.000
        15.000
 -12759574.47749  -9942488.23146  22347928.216    22347926.049         395.000
        17.000
 -15429061.69449 -12022634.15946  22172963.320    22172961.692         440.000
        20.000
  -6873424.50148  -5355882.89045  23751655.725    23751653.667         215.000
         5.000
 -20440488.39449 -15927629.60047  21462749.982    21462747.707         569.000
        36.000
  -6890563.24648  -5369269.02945  23818556.303    23818554.682         188.000
         4.000
 04  3  1  2 59  0.0000000  0  8G24G17G 4G 6G26G 7G10G 5
 -21222814.91849 -16537221.96847  21448887.644    21448885.067         568.000
        33.000
 -12071795.45949  -9406587.41946  22258957.445    22258954.777         363.000
        15.000
 -12743198.70949  -9929727.89946  22351044.224    22351042.537         403.000
        17.000
        -1.14857                                  25188298.463          99.000

 -15510992.74649 -12086476.53446  22157372.217    22157370.658         442.000
        20.000
  -6770208.94348  -5275455.18945  23771296.360    23771294.948         212.000
         5.000
 -20418905.55749 -15910811.80047  21466856.997    21466854.747         570.000
        36.000
  -6862820.52348  -5347651.33845  23823835.354    23823833.640         179.000
         4.000
 04  3  1  2 59 30.0000000  0  8G24G17G 4G 6G26G 7G10G 5
 -21243168.69949 -16553082.05647  21445014.064    21445011.789         564.000
        32.000
 -12107106.25049  -9434102.31646  22252238.100    22252235.519         372.000
        15.000
 -12726627.05749  -9916814.93346  22354197.655    22354195.710         390.000
        17.000
   -101075.89347                                  25169064.793          97.000

 -15592641.90749 -12150099.25246  22141835.150    22141833.535         442.000
        20.000
  -6666888.29148  -5194945.59545  23790958.400    23790956.481         215.000
         5.000
 -20397167.01649 -15893872.67347  21470993.746    21470991.486         576.000
        36.000
  -6834897.48648  -5325893.12745  23829150.240    23829147.639         189.000
         4.000
 04  3  1  3  0  0.0000000  0  8G24G17G 4G 6G26G 7G10G 5
 -21263431.02349 -16568870.87647  21441158.554    21441156.137         568.000
        32.000
 -12142454.83349  -9461646.66446  22245511.469    22245508.734         370.000
        15.000
 -12709865.94949  -9903754.34246  22357387.587    22357385.263         391.000
        17.000
   -202043.69847                                  25149851.090          90.000

 -15674014.77549 -12213506.67446  22126350.011    22126348.713         440.000
        21.000
  -6563472.72948  -5114362.06045  23810637.334    23810635.320         205.000
         5.000
 -20375282.51049 -15876819.80647  21475158.382    21475156.222         585.000
        37.000
  -6806804.35448  -5304002.35745  23834495.080    23834493.936         191.000
         4.000
 04  3  1  3  0 30.0000000  0  8G24G17G 4G 6G26G 7G10G 5
 -21283593.81349 -16584582.13747  21437321.336    21437318.965         554.000
        32.000
 -12177834.22549  -9489215.01346  22238778.741    22238776.256         375.000
        15.000
 -12692907.95249  -9890540.32846  22360614.517    22360612.409         391.000
        16.000
   -302895.86247                                  25130660.157          92.000

 -15755102.90049 -12276692.22046  22110919.842    22110918.287         445.000
        21.000
  -6459958.75948  -5033701.81545  23830336.861    23830333.972         212.000
         5.000
 -20353247.93249 -15859650.00447  21479351.329    21479349.137         585.000
        37.000
  -6778537.14248  -5281975.96644  23839875.805    23839872.393         182.000
         3.000
 04  3  1  3  1  0.0000000  0  8G24G17G 4G 6G26G 7G10G 5
 -21303651.89849 -16600211.81247  21433504.665    21433502.231         561.000
        32.000
 -12213240.03849  -9516803.95246  22232041.590    22232038.705         375.000
        16.000
 -12675747.65149  -9877168.67946  22363879.717    22363877.856         388.000
        16.000
   -403625.49847                                  25111491.668          92.000

 -15835900.18349 -12339651.13446  22095544.467    22095542.773         437.000
        22.000
  -6356344.79448  -4952963.68845  23850052.223    23850050.518         205.000
         5.000
 -20331061.30949 -15842361.72247  21483573.261    21483571.226         585.000
        37.000
  -6750094.52348  -5259812.88544  23845287.615    23845284.382         176.000
         3.000
 04  3  1  3  1 30.0000000  0  8G24G17G 4G 6G26G 7G10G 5
 -21323606.67749 -16615760.98647  21429707.296    21429704.980         562.000
        32.000
 -12248674.54649  -9544415.24846  22225298.645    22225295.869         382.000
        16.000
 -12658386.46449  -9863640.49246  22367183.480    22367181.551         386.000
        16.000
   -504233.48147                                  25092346.805          92.000

 -15916406.90749 -12402383.63646  22080224.339    22080222.815         430.000
        21.000
  -6252636.03148  -4872151.67945  23869786.461    23869785.538         201.000
         5.000
 -20308727.50249 -15824958.75547  21487823.244    21487821.150         584.000
        37.000
  -6721481.92048  -5237517.38044  23850730.210    23850729.638         180.000
         3.000
 04  3  1  3  2  0.0000000  0  8G24G17G 4G 6G26G 7G10G 5
 -21343455.60249 -16631227.68047  21425930.132    21425927.730         556.000
        32.000
 -12284136.71349  -9572048.10146  22218550.120    22218547.788         388.000
        16.000
 -12640822.48049  -9849954.28646  22370526.186    22370523.948         387.000
        17.000
   -604716.69347                                  25073225.134          91.000

 -15996620.54349 -12464887.76046  22064960.335    22064958.686         432.000
        21.000
  -6148834.34648  -4791267.25145  23889542.785    23889538.746         208.000
         5.000
 -20286247.70349 -15807442.02347  21492101.422    21492098.994         587.000
        37.000
  -6692701.63848  -5215091.17544  23856208.887    23856206.337         178.000
         3.000
 04  3  1  3  2 30.0000000  0  8G24G17G 4G 6G26G 7G10G 5
 -21363213.78349 -16646623.65947  21422170.294    21422167.938         554.000
        32.000
 -12319642.33949  -9599714.82046  22211793.830    22211791.169         385.000
        16.000
 -12623070.84249  -9836121.85346  22373903.925    22373902.097         388.000
        16.000
   -705089.49947                                  25054126.579          98.000

 -16076555.01749 -12527174.35146  22049749.155    22049747.615         435.000
        22.000
  -6044958.46448  -4710325.01245  23909308.478    23909305.867         204.000
         5.000
 -20263640.42649 -15789825.95547  21496403.378    21496400.974         586.000
        37.000
  -6663772.54648  -5192549.03244  23861714.946    23861710.771         167.000
         3.000
 04  3  1  3  3  0.0000000  0  8G24G17G 4G 6G26G 7G10G 5
 -21382867.49949 -16661938.24047  21418430.771    21418427.961         556.000
        32.000
 -12355178.68249  -9627405.47446  22205031.182    22205028.847         387.000
        16.000
 -12605117.73149  -9822132.42846  22377320.687    22377318.337         382.000
        16.000
   -805336.67647   -627534.41444  25035049.653    25035048.149          93.000
         2.000
 -16156195.74949 -12589232.05446  22034594.235    22034592.912         451.000
        22.000
  -5940998.62048  -4629317.36545  23929090.290    23929088.854         205.000
         5.000
 -20240895.33949 -15772102.50647  21500731.310    21500729.046         582.000
        37.000
  -6634684.58248  -5169883.09444  23867249.577    23867245.611         157.000
         3.000
 04  3  1  3  3 30.0000000  0  8G24G17G 4G 6G26G 7G10G 5
 -21402410.69449 -16677166.69947  21414711.664    21414709.073         555.000
        32.000
 -12390740.26449  -9655115.79046  22198264.623    22198261.975         394.000
        16.000
 -12586956.99649  -9807981.21646  22380775.602    22380774.063         378.000
        16.000
   -905451.23447                                  25015996.912          94.000

 -16235535.81649 -12651055.47246  22019496.146    22019494.904         458.000
        22.000
  -5836952.52548  -4548242.49245  23948889.565    23948887.967         202.000
         5.000
 -20218009.42749 -15754269.32647  21505086.485    21505084.014         580.000
        37.000
  -6605435.50848  -5147091.64244  23872813.669    23872811.747         163.000
         3.000
 04  3  1  3  4  0.0000000  0  8G24G17G 4G 6G26G 7G10G 5
 -21421836.64149 -16692303.79946  21411014.743    21411012.344         554.000
        31.000
 -12426321.66749  -9682841.55946  22191493.086    22191490.767         389.000
        16.000
 -12568582.57949  -9793663.50646  22384271.483    22384270.434         371.000
        15.000
  -1005426.33548   -783448.30744  24996975.929    24996972.110         103.000
         1.000
 -16314568.01249 -12712638.99546  22004457.023    22004455.487         459.000
        23.000
  -5732817.55748  -4467098.37545  23968705.414    23968703.813         194.000
         4.000
 -20194979.93849 -15736324.26847  21509468.830    21509466.486         582.000
        36.000
  -6576023.30648  -5124173.04244  23878411.157    23878409.120         164.000
         3.000
 04  3  1  3  4 30.0000000  0  8G24G17G 4G 6G26G 7G10G 5
 -21441147.64349 -16707351.32646  21407339.771    21407337.597         551.000
        31.000
 -12461926.26349  -9710585.39346  22184717.797    22184715.318         385.000
        16.000
 -12549996.85849  -9779181.13046  22387809.295    22387807.396         373.000
        16.000
  -1105263.19048                                  24977974.191         108.000

 -16393294.18749 -12773984.06446  21989475.722    21989474.501         469.000
        24.000
  -5628600.03948  -4385889.93045  23988537.652    23988536.016         195.000
         4.000
 -20171812.69849 -15718271.86947  21513877.571    21513875.247         591.000
        36.000
  -6546454.23848  -5101132.19544  23884037.829    23884035.798         162.000
         3.000
 04  3  1  3  5  0.0000000  0  8G24G17G 4G 6G26G 7G10G 5
 -21460348.50349 -16722313.03546  21403686.168    21403683.764         552.000
        31.000
 -12497559.87549  -9738351.83846  22177936.512    22177934.521         383.000
        16.000
 -12531205.01949  -9764538.15646  22391384.660    22391383.613         378.000
        16.000
  -1204965.73348                                  24959001.767         103.000

 -16471718.43849 -12835093.85946  21974552.247    21974550.677         467.000
        23.000
  -5524309.00748  -4304624.22045  24008383.965    24008382.265         195.000
         4.000
 -20148516.04649 -15700118.63147  21518310.739    21518308.433         590.000
        36.000
  -6516737.35048  -5077976.17744  23889694.308    23889690.878         159.000
         3.000
 04  3  1  3  5 30.0000000  0  8G24G17G 4G 6G26G 7G10G 5
 -21479435.03349 -16737185.65446  21400054.034    21400051.560         545.000
        31.000
 -12533218.94949  -9766138.11846  22171151.041    22171148.483         377.000
        17.000
 -12512202.72549  -9749731.18946  22395001.457    22394999.396         370.000
        15.000
  -1304528.77747                                  24940054.956          93.000

 -16549835.62249 -12895964.38446  21959686.929    21959685.413         474.000
        24.000
  -5419943.84148  -4223300.72245  24028245.547    24028242.736         200.000
         4.000
 -20125088.95049 -15681863.75047  21522768.525    21522766.321         586.000
        36.000
  -6486872.23248  -5054704.66544  23895377.177    23895374.162         160.000
         3.000
 04  3  1  3  6  0.0000000  0  8G24G17G 4G 6G26G 7G10G 5
 -21498397.75749 -16751961.80047  21396445.703    21396443.247         551.000
        32.000
 -12568895.42249  -9793937.96446  22164362.288    22164360.053         389.000
        16.000
 -12492980.89149  -9734753.15146  22398657.997    22398657.165         367.000
        15.000
  -1403942.08547                                  24921137.342          85.000

 -16627635.91649 -12956587.98546  21944882.253    21944880.563         479.000
        25.000
  -5315499.37148  -4141915.41945  24048120.621    24048117.333         189.000
         4.000
 -20101525.71249 -15663502.78047  21527252.697    21527250.212         584.000
        36.000
  -6456854.09048  -5031313.89444  23901087.511    23901085.993         157.000
         3.000
