     2.10           Observation         G (GPS)             RINEX VERSION / TYPE
teqc  2004Jan13     gpsops              20151123 061818 UTC PGM / RUN BY / DATE
ZAMB                                                        MARKER NAME
GGN                 JPL                                     OBSERVER / AGENCY
T145                ROGUE SNR-8000      3.2.32.11           REC # / TYPE / VERS
372                 AOAD/M_T        NONE                    ANT # / TYPE
  5422185.0218  2920890.1107 -1676726.9836                  APPROX POSITION XYZ
        0.0540        0.0000        0.0000                  ANTENNA: DELTA H/E/N
     1     1                                                WAVELENGTH FACT L1/2
     6    L1    L2    P2    C1    S1    S2                  # / TYPES OF OBSERV
    30.000                                                  INTERVAL
  2004     3     1     0     0    0.0000000     GPS         TIME OF FIRST OBS
34601M001                                                   MARKER NUMBER
Linux 2.0.36|Pentium II|gcc -static|Linux|486/DX+           COMMENT
BIT 2 OF LLI FLAGS DATA COLLECTED UNDER A/S CONDITION       COMMENT
                                                            COMMENT
This data is provided as a public service by NASA/JPL.      COMMENT
No warranty is expressed or implied regarding suitability   COMMENT
for use.  For further information, contact:                 COMMENT
Dave Stowers, NASA/JPL m/s 238-600                          COMMENT
4800 Oak Grove Drive, Pasadena CA 91109 USA                 COMMENT
                                                            COMMENT
P1 =    P1  TurboRogue; =    Y1  Benchmark                  COMMENT
L1 = L1(P1) TurboRogue; = L1(Y1) Benchmark                  COMMENT
P2 =    P2  TurboRogue; =    Y2  Benchmark                  COMMENT
L2 = L2(P2) TurboRogue; = L2(Y2) Benchmark                  COMMENT
SNR is mapped to RINEX snr flag value [1,4-9]               COMMENT
SNR:  >=316 >=100 >=31.6 >=10 >=3.2    >0 bad=0             COMMENT
L1 & L2:      9     8     7     6     5     4     1         COMMENT
teqc windowed: start @ 2004 Mar  1 00:00:00.000             COMMENT
teqc windowed: delta = 86399.000 sec                        COMMENT
                                                            END OF HEADER
 04  3  1  0  0  0.0000000  0  8G04G07G08G10G13G17G20G24
 -15210387.25849 -11852213.75246  21881555.5144   21881553.5714        523.0004 
        26.0004 
 -23810771.89249 -18553815.41647  20528585.9684   20528583.2414        720.0004 
        64.0004 
  -2295560.87048         0.000          -0.134    24815225.6044        108.0004 
         0.000  
  -8024179.31548  -6252590.89645  23825501.9634   23825497.8304        204.0004 
         5.0004 
 -10426045.56549  -8124134.17846  22985194.6744   22985193.1364        323.0004 
        10.0004 
   -901411.67347         0.000          -0.242    24707426.1904         99.0004 
         0.000  
    108509.13348     84599.87344  24899688.5244   24899687.8974        142.0004 
         2.0004 
 -13082511.00248 -10194132.22445  22997940.1884   22997936.6084        293.0004 
         9.0004 
 04  3  1  0  0 30.0000000  0  8G04G07G08G10G13G17G20G24
 -15202856.41249 -11846345.54746  21882988.2294   21882986.5924        519.0004 
        26.0004 
 -23831671.01749 -18570100.43947  20524609.1354   20524606.4504        726.0004 
        64.0004 
  -2258867.94848         0.000          -0.134    24822208.0574        117.0004 
         0.000  
  -8119740.97148  -6327054.40645  23807316.1564   23807312.8794        217.0004 
         5.0004 
 -10462882.33749  -8152838.12446  22978184.2394   22978183.3024        320.0004 
        10.0004 
   -955904.84648   -744859.61944  24697059.4334   24697056.9294        106.0004 
         1.0004 
    211532.61348    164877.94444  24919292.9074   24919292.7274        140.0004 
         2.0004 
 -13111703.23648 -10216879.38845  22992383.9154   22992381.4334        292.0004 
         9.0004 
 04  3  1  0  1  0.0000000  0  8G04G07G08G10G13G17G20G24
 -15195279.58149 -11840441.50746  21884429.9944   21884428.3784        514.0004 
        26.0004 
 -23852271.05149 -18586152.40047  20520688.9594   20520686.2074        722.0004 
        64.0004 
  -2222466.97948         0.000          -0.134    24829134.3764        118.0004 
         0.000  
  -8215089.19948  -6401351.64745  23789172.0354   23789168.3634        215.0004 
         4.0004 
 -10499437.69649  -8181322.78346  22971228.0754   22971227.1034        320.0004 
        10.0004 
  -1010181.60848         0.000          -0.242    24686728.1174        100.0004 
         0.000  
    314603.68248    245193.06144  24938910.1614   24938906.7414        141.0004 
         2.0004 
 -13140752.67648 -10239515.27845  22986856.3944   22986853.7104        300.0004 
         9.0004 
 04  3  1  0  1 30.0000000  0  8G04G07G08G10G13G17G20G24
 -15187648.20649 -11834494.96746  21885882.2224   21885880.5864        515.0004 
        26.0004 
 -23872560.12949 -18601962.06047  20516828.1464   20516825.4144        727.0004 
        64.0004 
  -2186348.66848         0.000          -0.134    24836008.1304        122.0004 
         0.000  
  -8310211.84648  -6475473.08845  23771070.8634   23771067.4464        205.0004 
         4.0004 
 -10535699.14549  -8209578.42146  22964328.0354   22964326.7424        319.0004 
        10.0004 
  -1064232.26748         0.000          -0.242    24676442.3174        100.0004 
         0.000  
    417730.20548    325551.42944  24958532.4754   24958531.0974        141.0004 
         2.0004 
 -13169650.76248 -10262033.22245  22981356.7034   22981354.5224        301.0004 
         9.0004 
 04  3  1  0  2  0.0000000  0  8G04G07G08G10G13G17G20G24
 -15179977.85149 -11828518.05046  21887341.9054   21887340.1164        511.0004 
        26.0004 
 -23892550.73849 -18617539.14747  20513023.9794   20513021.2464        726.0004 
        65.0004 
  -2150528.25348         0.000          -0.134    24842824.3564        119.0004 
         0.000  
  -8405120.94448  -6549428.12745  23753011.2404   23753006.6374        217.0004 
         5.0004 
 -10571678.27349  -8237614.07046  22957481.5944   22957480.2284        324.0004 
        10.0004 
  -1118071.68947         0.000          -0.242    24666196.3814         98.0004 
         0.000  
    520895.50248    405939.92744  24978162.9584   24978161.9074        133.0004 
         2.0004 
 -13198412.72448 -10284445.10045  22975884.5924   22975881.2564        299.0004 
         9.0004 
 04  3  1  0  2 30.0000000  0  8G04G07G08G10G13G17G20G24
 -15172271.39349 -11822512.99946  21888808.2614   21888806.4704        507.0004 
        26.0004 
 -23912242.77749 -18632883.58447  20509276.6774   20509274.1074        734.0004 
        64.0004 
  -2115008.11548         0.000          -0.134    24849583.3574        112.0004 
         0.000  
  -8499816.06548  -6623216.42645  23734991.4664   23734986.9604        222.0004 
         6.0004 
 -10607374.23749  -8265429.08146  22950689.0874   22950687.2084        318.0004 
        10.0004 
  -1171702.29347         0.000          -0.242    24655990.3374         92.0004 
         0.000  
    624095.38548         0.000          -0.279    24997799.7844        127.0004 
         0.000  
 -13227041.40648 -10306753.13245  22970435.8834   22970432.8254        288.0004 
         9.0004 
 04  3  1  0  3  0.0000000  0  8G04G07G08G10G13G17G20G24
 -15164521.47249 -11816474.08946  21890283.0574   21890281.3514        509.0004 
        26.0004 
 -23931625.85449 -18647987.26947  20505588.2434   20505585.4934        725.0004 
        65.0004 
  -2079780.83348         0.000          -0.134    24856286.6944        116.0004 
         0.000  
  -8594286.62248  -6696829.74945  23717014.2604   23717009.7344        221.0004 
         5.0004 
 -10642775.64949  -8293014.56745  22943951.4974   22943950.7664        322.0004 
         9.0004 
  -1225115.78947         0.000          -0.242    24645826.5354         98.0004 
         0.000  
    727336.03148         0.000          -0.279    25017446.7844        132.0004 
         0.000  
 -13255529.52748 -10328951.62945  22965015.1474   22965011.8674        292.0004 
         9.0004 
 04  3  1  0  3 30.0000000  0  8G04G07G08G10G13G17G20G24
 -15156731.96049 -11810404.32646  21891765.6014   21891763.5434        509.0004 
        26.0004 
 -23950700.85949 -18662850.90047  20501958.3974   20501955.7654        733.0004 
        65.0004 
  -2044849.58648         0.000          -0.134    24862934.2474        116.0004 
         0.000  
  -8688532.94048  -6770268.33445  23699078.4654   23699074.8924        214.0004 
         5.0004 
 -10677882.76048  -8320370.73346  22937271.4864   22937269.6534        312.0004 
        10.0004 
  -1278315.44248         0.000          -0.242    24635703.0874        103.0004 
         0.000  
    830612.36148    647277.80144  25037097.4594   25037099.2504        124.0004 
         2.0004 
 -13283880.99548 -10351043.65146  22959620.6494   22959617.1894        303.0004 
        10.0004 
 04  3  1  0  4  0.0000000  0  8G04G07G08G10G13G17G20G24
 -15148908.50349 -11804308.11146  21893254.0164   21893252.3434        513.0004 
        26.0004 
 -23969470.29149 -18677476.42347  20498386.4014   20498383.7804        718.0004 
        64.0004 
  -2010219.69748         0.000          -0.134    24869524.4344        117.0004 
         0.000  
  -8782557.15248  -6843533.85045  23681186.3814   23681182.7034        216.0004 
         5.0004 
 -10712697.43249  -8347499.01945  22930645.4644   22930644.8264        318.0004 
         9.0004 
  -1331306.37748  -1037380.74544  24625624.4714   24625619.4904        101.0004 
         2.0004 
    933917.80148    727775.60944  25056761.0154   25056758.5354        129.0004 
         2.0004 
 -13312101.38948 -10373033.53246  22954250.4434   22954246.8744        299.0004 
        10.0004 
 04  3  1  0  4 30.0000000  0  8G04G07G08G10G13G17G20G24
 -15141055.14349 -11798188.59646  21894748.3894   21894746.8574        516.0004 
        25.0004 
 -23987935.46949 -18691864.86647  20494872.9944   20494870.3154        732.0004 
        64.0004 
  -1975894.66948         0.000          -0.134    24876056.2234        109.0004 
         0.000  
  -8876360.28648  -6916627.10945  23663335.6624   23663332.7044        229.0004 
         5.0004 
 -10747219.88949  -8374399.61846  22924076.5994   22924075.3844        321.0004 
        10.0004 
  -1384091.74247  -1078512.07544  24615577.4624   24615574.2404         99.0004 
         1.0004 
   1037247.14148    808291.94644  25076422.2544   25076420.7314        120.0004 
         2.0004 
 -13340194.63648 -10394924.33845  22948903.6394   22948900.6924        295.0004 
         9.0004 
 04  3  1  0  5  0.0000000  0  8G04G07G08G10G13G17G20G24
 -15133163.20449 -11792039.02046  21896249.9714   21896248.6594        518.0004 
        26.0004 
 -24006084.23949 -18706006.75647  20491419.1464   20491416.3924        720.0004 
        64.0004 
  -1941865.17847         0.000          -0.134    24882531.1914         99.0004 
         0.000  
  -8969929.92648  -6989538.40345  23645529.4604   23645526.9044        233.0004 
         6.0004 
 -10781437.54349  -8401062.70046  22917565.2814   22917564.0144        326.0004 
        10.0004 
  -1436662.31148         0.000          -0.242    24605570.6394        107.0004 
         0.000  
   1140608.06148         0.000          -0.279    25096090.2314        129.0004 
         0.000  
 -13368151.99548 -10416709.26146  22943584.3184   22943580.6854        296.0004 
        10.0004 
 04  3  1  0  5 30.0000000  0  8G04G07G08G10G13G17G20G24
 -15125237.13149 -11785862.84546  21897758.2814   21897756.8284        517.0004 
        26.0004 
 -24023918.23949 -18719903.37247  20488025.4704   20488022.6994        722.0004 
        64.0004 
  -1908135.33948         0.000          -0.134    24888949.7454        101.0004 
         0.000  
  -9063267.13848  -7062268.60045  23627769.6524   23627765.6444        236.0004 
         6.0004 
 -10815351.00749  -8427488.74646  22911111.8254   22911110.9944        340.0004 
        11.0004 
  -1489022.02747         0.000          -0.242    24595606.3634         98.0004 
         0.000  
   1243994.80148    969394.07444  25115764.5624   25115763.1664        112.0004 
         1.0004 
 -13395977.81548 -10438391.68746  22938289.2984   22938285.2004        290.0004 
        10.0004 
 04  3  1  0  6  0.0000000  0  8G04G07G08G10G13G17G20G24
 -15117282.67949 -11779664.55746  21899272.1714   21899270.6034        519.0004 
        26.0004 
 -24041440.49449 -18733557.07147  20484691.1504   20484688.5074        726.0004 
        64.0004 
  -1874710.80848         0.000          -0.134    24895310.2334        108.0004 
         0.000  
  -9156374.87148  -7134819.98545  23610049.8744   23610047.1314        220.0004 
         5.0004 
 -10848962.63649  -8453679.60246  22904715.6564   22904714.3874        333.0004 
        10.0004 
  -1541365.83347         0.000          -0.242    24585683.5184         74.0004 
         0.000  
   1347400.29148   1049969.79044  25135440.8024   25135441.4894        123.0004 
         2.0004 
 -13423678.40748 -10459976.52346  22933018.5394   22933014.4874        296.0004 
        10.0004 
 04  3  1  0  6 30.0000000  0  8G04G07G08G10G13G17G20G24
 -15109298.95349 -11773443.45346  21900791.2074   21900789.9214        522.0004 
        26.0004 
 -24058646.79749 -18746964.57447  20481416.7844   20481414.1024        719.0004 
        64.0004 
  -1841589.75647         0.000          -0.134    24901612.5974         97.0004 
         0.000  
  -9249248.44248  -7207188.89145  23592377.1114   23592373.7224        225.0004 
         6.0004 
 -10882267.43249  -8479631.37246  22898379.0214   22898376.5544        329.0004 
        10.0004 
  -1594062.43847         0.000          -0.242    24575792.5254         70.0004 
         0.000  
   1450824.55548   1130560.16544  25155122.6924   25155121.6764        109.0004 
         1.0004 
 -13451252.42148 -10481462.73746  22927770.3874   22927767.1134        293.0004 
        10.0004 
 04  3  1  0  7  0.0000000  0  7G04G07G08G10G13G20G24
 -15101282.75249 -11767197.04746  21902316.8054   21902315.2824        523.0004 
        26.0004 
 -24075531.23649 -18760121.27447  20478203.8364   20478201.1764        721.0004 
        64.0004 
  -1808768.69948         0.000          -0.134    24907858.5534        107.0004 
         0.000  
  -9341881.56948  -7279370.47245  23574749.5034   23574746.3914        245.0004 
         6.0004 
 -10915258.88549  -8505338.97446  22892100.1834   22892098.6534        331.0004 
        10.0004 
   1554269.51748   1211166.63844  25174812.1574   25174807.1614        120.0004 
         2.0004 
 -13478696.95648 -10502848.05846  22922548.3684   22922544.5724        292.0004 
        10.0004 
 04  3  1  0  7 30.0000000  0  8G04G07G08G10G13G17G20G24
 -15093241.64549 -11760931.23446  21903847.2014   21903845.5174        528.0004 
        27.0004 
 -24092098.34449 -18773030.70447  20475051.2304   20475048.4644        716.0004 
        64.0004 
  -1776254.84448         0.000          -0.134    24914045.6054        111.0004 
         0.000  
  -9434278.34948  -7351367.88645  23557167.5934   23557163.9654        247.0004 
         6.0004 
 -10947940.51849  -8530805.16546  22885881.4154   22885879.3934        324.0004 
        10.0004 
        -0.20258         0.000          -0.242    24556146.0535        109.0005 
         0.000  
   1657726.59148   1291782.51344  25194497.3174   25194494.0954        113.0004 
         2.0004 
 -13506019.41148 -10524138.25546  22917348.8234   22917344.9064        288.0004 
        10.0004 
 04  3  1  0  8  0.0000000  0  8G04G07G08G10G13G17G20G24
 -15085171.68249 -11754642.93746  21905382.8784   21905381.2274        529.0004 
        27.0004 
 -24108341.21549 -18785687.48047  20471960.4324   20471957.6464        720.0004 
        63.0004 
  -1744043.71048         0.000          -0.134    24920175.1564        105.0004 
         0.000  
  -9526431.61248  -7423175.55145  23539630.9064   23539627.6844        242.0004 
         6.0004 
 -10980304.92749  -8556024.15846  22879722.0364   22879720.4024        319.0004 
        10.0004 
    -51323.48648    -39991.32744  24546382.9854   24546379.3804        113.0004 
         2.0004 
   1761198.68748         0.000          -0.279    25214184.6914        113.0004 
         0.000  
 -13533216.04148 -10545330.40946  22912172.0854   22912169.5684        289.0004 
        10.0004 
 04  3  1  0  8 30.0000000  0  8G04G07G08G10G13G17G20G24
 -15077078.42149 -11748336.48546  21906923.0494   21906921.3154        531.0004 
        27.0004 
 -24124262.76149 -18798093.87447  20468930.4714   20468927.7534        716.0004 
        64.0004 
  -1712140.41748         0.000          -0.134    24926246.5864        122.0004 
         0.000  
  -9618343.83548  -7494795.35945  23522141.8564   23522137.2964        246.0004 
         7.0004 
 -11012353.98349  -8580997.41646  22873622.7264   22873621.8164        326.0004 
        10.0004 
   -102443.55347         0.000          -0.242    24536650.8214         97.0004 
         0.000  
   1864678.91048         0.000          -0.279    25233876.0994        119.0004 
         0.000  
 -13560292.54348 -10566428.95146  22907020.7294   22907017.2944        294.0004 
        10.0004 
 04  3  1  0  9  0.0000000  0  8G04G07G08G10G13G17G20G24
 -15068959.41849 -11742009.97046  21908467.7034   21908466.1744        527.0004 
        27.0004 
 -24139857.36349 -18810245.50847  20465962.7564   20465960.0884        716.0004 
        64.0004 
  -1680541.81048         0.000          -0.134    24932259.2924        127.0004 
         0.000  
  -9710009.27448  -7566222.89745  23504697.9734   23504694.0024        258.0004 
         7.0004 
 -11044081.49349  -8605720.12946  22867585.5984   22867584.3114        328.0004 
        10.0004 
   -153357.01148         0.000          -0.242    24526962.2374        106.0004 
         0.000  
   1968168.72448         0.000          -0.279    25253569.2174        110.0004 
         0.000  
 -13587246.29748 -10587431.83646  22901891.5814   22901887.9574        288.0004 
        10.0004 
 04  3  1  0  9 30.0000000  0  8G04G07G08G10G13G17G20G24
 -15060814.76449 -11735663.47346  21910017.6854   21910016.1514        527.0004 
        27.0004 
 -24155122.33249 -18822140.28547  20463057.9504   20463055.2414        716.0004 
        64.0004 
  -1649247.70448         0.000          -0.134    24938214.5614        134.0004 
         0.000  
  -9801424.94048  -7637455.82445  23487300.6614   23487298.1824        250.0004 
         6.0004 
 -11075483.87849  -8630189.48446  22861610.5544   22861608.5154        336.0004 
        11.0004 
   -204063.69548         0.000          -0.242    24517313.7624        113.0004 
         0.000  
   2071666.80948   1614333.43544  25273263.8524   25273264.6974        120.0004 
         1.0004 
 -13614077.51848 -10608339.24746  22896785.5384   22896781.9714        283.0004 
        10.0004 
 04  3  1  0 10  0.0000000  0  8G04G07G08G10G13G17G20G24
 -15052647.02749 -11729298.99546  21911572.3684   21911570.3324        522.0004 
        27.0004 
 -24170057.43549 -18833778.02347  20460215.9184   20460213.2364        723.0004 
        64.0004 
  -1618260.25548         0.000          -0.134    24944110.9404        124.0004 
         0.000  
  -9892590.23648  -7708493.63945  23469953.3894   23469949.9144        260.0004 
         7.0004 
 -11106560.63949  -8654405.11846  22855696.5944   22855694.9654        342.0004 
        11.0004 
   -254565.84448   -198361.82944  24507706.4514   24507703.4844        113.0004 
         2.0004 
   2175169.23748         0.000          -0.279    25292960.3154        112.0004 
         0.000  
 -13640788.94448 -10629153.32045  22891703.0734   22891699.0064        285.0004 
         9.0004 
 04  3  1  0 10 30.0000000  0  8G04G07G08G10G13G17G20G24
 -15044456.00849 -11722916.37246  21913130.6254   21913129.0224        521.0004 
        26.0004 
 -24184659.41349 -18845156.18447  20457437.1584   20457434.5784        725.0004 
        64.0004 
  -1587578.45048         0.000          -0.134    24949949.6064        126.0004 
         0.000  
  -9983501.31648  -7779333.37845  23452652.8184   23452650.0594        254.0004 
         7.0004 
 -11137307.21749  -8678363.46246  22849845.6304   22849844.3204        352.0004 
        10.0004 
   -304862.72548         0.000          -0.242    24498132.2964        114.0004 
         0.000  
   2278675.52748   1775638.91044  25312659.9374   25312656.3354        112.0004 
         1.0004 
 -13667380.35448 -10649873.86846  22886643.0404   22886638.9844        289.0004 
        10.0004 
 04  3  1  0 11  0.0000000  0  8G04G07G08G10G13G17G20G24
 -15036241.02349 -11716515.07146  21914693.7454   21914692.2104        516.0004 
        26.0004 
 -24198924.96649 -18856272.19347  20454722.5034   20454719.9864        729.0004 
        65.0004 
  -1557201.18348         0.000          -0.134    24955730.5084        135.0004 
         0.000  
 -10074154.64548  -7849972.25645  23435403.3964   23435398.9764        251.0004 
         7.0004 
 -11167719.76849  -8702061.53146  22844057.5364   22844056.6014        344.0004 
        11.0004 
   -354953.25348         0.000          -0.242    24488599.9914        111.0004 
         0.000  
   2382185.11448   1856295.73744  25332356.8054   25332354.0094        122.0004 
         2.0004 
 -13693851.45648 -10670500.67346  22881604.7974   22881601.7534        292.0004 
        10.0004 
 04  3  1  0 11 30.0000000  0  8G04G07G08G10G13G17G20G24
 -15028013.42049 -11710103.93846  21916259.1484   21916257.8294        515.0004 
        26.0004 
 -24212862.68049 -18867132.74647  20452070.4284   20452067.7744        734.0004 
        65.0004 
  -1527139.53948         0.000          -0.134    24961450.8014        128.0004 
         0.000  
 -10164558.39148  -7920416.66745  23418198.9544   23418195.7794        253.0004 
         7.0004 
 -11197806.08149  -8725505.38746  22838332.2954   22838331.4644        352.0004 
        11.0004 
   -404848.48248   -315465.05044  24479107.2864   24479105.9494        118.0004 
         1.0004 
   2485685.24048         0.000          -0.279    25352049.5204        113.0004 
         0.000  
 -13720213.72448 -10691042.66546  22876588.3954   22876584.9134        287.0004 
        10.0004 
 04  3  1  0 12  0.0000000  0  8G04G07G08G10G13G17G20G24
 -15019770.49949 -11703680.86946  21917828.2204   21917826.3374        510.0004 
        26.0004 
 -24226467.04349 -18877733.54347  20449481.5924   20449478.9014        733.0004 
        66.0004 
  -1497390.14148         0.000          -0.134    24967111.7474        119.0004 
         0.000  
 -10254706.61148  -7990661.96945  23401043.8084   23401041.2804        254.0004 
         7.0004 
 -11227560.04749  -8748690.28246  22832670.1114   22832669.5064        357.0004 
        11.0004 
   -454545.31048         0.000          -0.242    24469648.8244        120.0004 
         0.000  
   2589177.86648         0.000          -0.279    25371743.0984        112.0004 
         0.000  
 -13746464.40948 -10711497.70946  22871593.8884   22871589.7284        289.0004 
        10.0004 
 04  3  1  0 12 30.0000000  0  8G04G07G08G10G13G17G20G24
 -15011514.00249 -11697247.22246  21919399.4534   21919397.6224        510.0004 
        26.0004 
 -24239736.79049 -18888073.60247  20446956.3964   20446953.6814        730.0004 
        66.0004 
  -1467954.22448         0.000          -0.134    24972713.3064        110.0004 
         0.000  
 -10344597.88448  -8060707.04945  23383938.3924   23383935.5454        251.0004 
         7.0004 
 -11256979.57449  -8771614.56346  22827072.4284   22827071.2354        364.0004 
        11.0004 
   -504044.80348   -392760.78744  24460233.3874   24460228.8494        117.0004 
         2.0004 
   2692659.93748   2098224.23944  25391436.7024   25391435.0124        119.0004 
         1.0004 
 -13772605.30648 -10731867.21746  22866618.9664   22866615.1814        288.0004 
        10.0004 
 04  3  1  0 13  0.0000000  0  8G04G07G08G10G13G17G20G24
 -15003235.78349 -11690796.65346  21920974.3524   21920972.7384        505.0004 
        25.0004 
 -24252661.33949 -18898144.67547  20444497.0904   20444494.2874        732.0004 
        66.0004 
  -1438823.10148         0.000          -0.134    24978256.8884        127.0004 
         0.000  
 -10434221.26148  -8130543.38145  23366884.5384   23366880.5074        260.0004 
         7.0004 
 -11286053.32449  -8794269.41846  22821539.6154   22821538.7974        372.0004 
        11.0004 
   -553338.83148   -431171.68444  24450849.7664   24450848.8884        118.0004 
         2.0004 
   2796138.53548         0.000          -0.279    25411125.8824        105.0004 
         0.000  
 -13798628.36348 -10752144.89046  22861666.5304   22861663.0774        285.0004 
        10.0004 
 04  3  1  0 13 30.0000000  0  8G04G07G08G10G13G17G20G24
 -14994938.49049 -11684331.21946  21922553.4414   21922551.7844        506.0004 
        25.0004 
 -24265240.44049 -18907946.56547  20442103.0914   20442100.5084        729.0004 
        66.0004 
  -1409998.90948         0.000          -0.134    24983741.7914        113.0004 
         0.000  
 -10523576.18348  -8200170.52245  23349881.3904   23349876.5254        249.0004 
         7.0004 
 -11314780.38349  -8816654.11646  22816073.1424   22816072.1554        371.0004 
        11.0004 
   -602429.39348         0.000          -0.242    24441506.8634        116.0004 
         0.000  
   2899609.79448         0.000          -0.279    25430816.5714        123.0004 
         0.000  
 -13824536.65548 -10772333.13046  22856736.4914   22856733.4974        298.0004 
        10.0004 
 04  3  1  0 14  0.0000000  0  8G04G07G08G10G13G17G20G24
 -14986628.43349 -11677855.83046  21924135.0484   21924133.0974        501.0004 
        25.0004 
 -24277477.65549 -18917482.05147  20439774.5094   20439771.8764        730.0004 
        65.0004 
  -1381487.45848         0.000          -0.134    24989167.1784        112.0004 
         0.000  
 -10612665.85848  -8269590.98345  23332926.4364   23332923.5434        255.0004 
         7.0004 
 -11343163.84349  -8838771.07546  22810672.0664   22810670.6714        364.0004 
        11.0004 
   -651322.56948   -507522.55044  24432205.5284   24432203.1014        123.0004 
         1.0004 
   3003066.27848         0.000          -0.279    25450502.9164        114.0004 
         0.000  
 -13850336.68748 -10792437.04446  22851826.7694   22851823.5394        293.0004 
        10.0004 
 04  3  1  0 14 30.0000000  0  8G04G07G08G10G13G17G20G24
 -14978306.79949 -11671371.42846  21925718.4104   21925716.4994        499.0004 
        25.0004 
 -24289371.50049 -18926749.97547  20437511.1474   20437508.4934        726.0004 
        65.0004 
  -1353289.16648         0.000          -0.134    24994533.2094        113.0004 
         0.000  
 -10701488.24548  -8338803.17445  23316024.0414   23316021.1024        258.0004 
         7.0004 
 -11371201.18149  -8860618.33146  22805335.9384   22805335.3554        366.0004 
        11.0004 
   -700019.34748   -545468.03144  24422939.2894   24422936.3514        118.0004 
         2.0004 
   3106505.74848         0.000          -0.279    25470186.8934        103.0004 
         0.000  
 -13876029.59748 -10812457.45546  22846937.1264   22846934.2854        291.0004 
        10.0004 
 04  3  1  0 15  0.0000000  0  8G04G07G08G10G13G17G20G24
 -14969978.51049 -11664881.83746  21927303.1594   21927301.1734        490.0004 
        25.0004 
 -24300924.18449 -18935752.05847  20435312.7354   20435310.0334        724.0004 
        66.0004 
  -1325408.80348         0.000          -0.134    24999838.9254        115.0004 
         0.000  
 -10790045.48648  -8407808.74445  23299173.8474   23299169.6664        270.0004 
         8.0004 
 -11398893.99849  -8882197.12946  22800067.6044   22800065.6044        366.0004 
        11.0004 
   -748524.48548   -583264.17544  24413710.4594   24413705.4324        117.0004 
         2.0004 
   3209922.30848         0.000          -0.279    25489866.6234        114.0004 
         0.000  
 -13901620.48748 -10832398.37746  22842067.7454   22842064.4884        290.0004 
        10.0004 
 04  3  1  0 15 30.0000000  0  8G04G07G08G10G13G17G20G24
 -14961631.22749 -11658377.44446  21928891.7474   21928889.6874        489.0004 
        24.0004 
 -24312120.71649 -18944476.61947  20433182.0794   20433179.3684        722.0004 
        66.0004 
  -1297833.30048         0.000          -0.134    25005086.0454        115.0004 
         0.000  
 -10878322.23448  -8476595.75945  23282374.1374   23282370.8114        269.0004 
         8.0004 
 -11426226.86849  -8903495.44346  22794865.7434   22794864.5634        375.0004 
        11.0004 
   -796825.20748   -620901.06344  24404520.5494   24404515.3664        136.0004 
         2.0004 
   3313326.72948         0.000          -0.279    25509543.6434        106.0004 
         0.000  
 -13927097.30848 -10852250.43246  22837220.7324   22837216.2944        290.0004 
        10.0004 
 04  3  1  0 16  0.0000000  0  8G04G07G08G10G13G17G20G24
 -14953280.64949 -11651870.48646  21930480.6544   21930478.8434        492.0004 
        24.0004 
 -24322973.95049 -18952933.67747  20431116.7694   20431114.0614        722.0004 
        65.0004 
  -1270577.71848         0.000          -0.134    25010272.6404        119.0004 
         0.000  
 -10966330.89948  -8545173.86945  23265626.7204   23265623.2874        268.0004 
         8.0004 
 -11453211.64749  -8924522.52646  22789729.9834   22789729.2534        373.0004 
        11.0004 
   -844936.85048   -658390.64244  24395365.3814   24395358.4924        118.0004 
         2.0004 
   3416702.79848         0.000          -0.279    25529215.7084        103.0004 
         0.000  
 -13952475.81148 -10872025.87946  22832389.7144   22832386.7494        290.0004 
        10.0004 
 04  3  1  0 16 30.0000000  0  8G04G07G08G10G13G17G20G24
 -14944921.70749 -11645357.01146  21932071.3784   21932069.5204        492.0004 
        24.0004 
 -24333476.49949 -18961117.47447  20429118.1634   20429115.4634        719.0004 
        65.0004 
  -1243636.59648         0.000          -0.134    25015399.5784        121.0004 
         0.000  
 -11054063.69148  -8613537.02145  23248931.8494   23248928.0314        269.0004 
         8.0004 
 -11479840.19649  -8945272.02346  22784662.7554   22784662.2264        380.0004 
        11.0004 
   -892854.30648         0.000          -0.242    24386241.0024        129.0004 
         0.000  
   3520054.20348         0.000          -0.279    25548883.0234        103.0004 
         0.000  
 -13977750.95448 -10891720.76746  22827580.3444   22827576.9974        288.0004 
        10.0004 
 04  3  1  0 17  0.0000000  0  8G04G07G08G10G13G17G20G24
 -14936553.61049 -11638836.40546  21933663.2394   21933661.7874        491.0004 
        24.0004 
 -24343624.98849 -18969025.37847  20427186.9294   20427184.3214        723.0004 
        65.0004 
  -1217008.62848         0.000          -0.134    25020466.4454        119.0004 
         0.000  
 -11141516.96248  -8681682.35845  23232288.9664   23232286.3964        282.0004 
         8.0004 
 -11506108.65449  -8965740.93746  22779663.6934   22779663.3694        377.0004 
        11.0004 
   -940576.87048   -732915.22344  24377163.1774   24377159.4434        128.0004 
         2.0004 
   3623380.24748         0.000          -0.279    25568545.3634        115.0004 
         0.000  
 -14002922.55548 -10911334.98346  22822791.1134   22822787.3464        294.0004 
        10.0004 
 04  3  1  0 17 30.0000000  0  8G04G07G08G10G13G17G20G24
 -14928175.23449 -11632307.79046  21935258.0674   21935256.2304        491.0004 
        24.0004 
 -24353415.61949 -18976654.43447  20425323.8644   20425321.1504        717.0004 
        66.0004 
  -1190692.07048         0.000          -0.134    25025474.5334        122.0004 
         0.000  
 -11228686.64748  -8749606.73445  23215701.6104   23215698.6764        285.0004 
         9.0004 
 -11532012.27949  -8985925.56446  22774735.6924   22774734.0554        380.0004 
        12.0004 
   -988103.03948         0.000          -0.242    24368115.2464        121.0004 
         0.000  
   3726681.25547         0.000          -0.279    25588203.1014         98.0004 
         0.000  
 -14027989.64948 -10930867.76346  22818020.2144   22818017.1604        292.0004 
        10.0004 
 04  3  1  0 18  0.0000000  0  8G04G07G08G10G13G17G20G24
 -14919792.68249 -11625775.91846  21936852.9644   21936851.3964        490.0004 
        24.0004 
 -24362851.62249 -18984007.15947  20423528.3694   20423525.5554        721.0004 
        65.0004 
  -1164692.21348         0.000          -0.134    25030421.6314        111.0004 
         0.000  
 -11315575.78748  -8817312.49045  23199167.5564   23199164.2744        292.0004 
         9.0004 
 -11557554.01049  -9005828.19146  22769875.1194   22769873.5474        380.0004 
        12.0004 
  -1035438.38848   -806833.15744  24359112.0974   24359108.1894        128.0004 
         2.0004 
   3829950.10048         0.000          -0.279    25607854.6144        110.0004 
         0.000  
 -14052958.26348 -10950323.80646  22813269.4724   22813265.9084        295.0004 
        10.0004 
 04  3  1  0 18 30.0000000  0  8G04G07G08G10G13G17G20G24
 -14911409.08249 -11619243.23046  21938448.1714   21938446.5304        487.0004 
        24.0004 
 -24371933.54949 -18991083.98047  20421799.9494   20421797.1634        713.0004 
        65.0004 
  -1139011.61348         0.000          -0.134    25035308.5324        112.0004 
         0.000  
 -11402184.29348  -8884799.56945  23182686.4834   23182682.4254        279.0004 
         9.0004 
 -11582733.59449  -9025448.62846  22765083.5724   22765082.0364        385.0004 
        12.0004 
  -1082585.73048   -843571.37244  24350137.8624   24350135.3884        114.0004 
         2.0004 
   3933182.65447         0.000          -0.279    25627498.4304         99.0004 
         0.000  
 -14077831.89248 -10969705.82046  22808535.6644   22808532.4864        293.0004 
        10.0004 
 04  3  1  0 19  0.0000000  0  8G04G07G08G10G13G17G20G24
 -14903024.81849 -11612710.02346  21940043.9824   21940042.2424        493.0004 
        24.0004 
 -24380659.80749 -18997883.65447  20420139.3814   20420136.7974        720.0004 
        65.0004 
  -1113650.60748         0.000          -0.134    25040134.6704        123.0004 
         0.000  
 -11488510.12948  -8952066.38945  23166259.1904   23166255.9274        299.0004 
         9.0004 
 -11607548.57649  -9044784.93446  22760360.5534   22760360.0924        391.0004 
        12.0004 
  -1129545.92348         0.000          -0.242    24341199.9884        124.0004 
         0.000  
   4036376.80347         0.000          -0.279    25647135.1354         85.0004 
         0.000  
 -14102611.56748 -10989014.69145  22803820.6574   22803817.0984        294.0004 
         9.0004 
 04  3  1  0 19 30.0000000  0  8G04G07G08G10G13G17G20G24
 -14894635.76349 -11606173.08146  21941640.3344   21941638.5044        490.0004 
        24.0004 
 -24389023.18649 -19004400.56547  20418547.9644   20418545.2634        722.0004 
        66.0004 
  -1088604.01848         0.000          -0.134    25044900.9574        126.0004 
         0.000  
 -11574546.06548  -9019107.32046  23149886.6204   23149883.3634        293.0004 
        10.0004 
 -11631991.19749  -9063831.13346  22755708.8834   22755708.6424        390.0004 
        12.0004 
  -1176314.31048   -916606.50744  24332304.8404   24332299.3284        119.0004 
         2.0004 
   4139536.28948         0.000          -0.279    25666766.6854        100.0004 
         0.000  
 -14127293.01748 -11008246.93746  22799123.7164   22799120.3304        294.0004 
        10.0004 
 04  3  1  0 20  0.0000000  0  8G04G07G08G10G13G17G20G24
 -14886248.98149 -11599637.91246  21943235.9994   21943234.5894        494.0004 
        24.0004 
 -24397028.62749 -19010638.56847  20417024.5894   20417022.0254        729.0004 
        66.0004 
  -1063878.54248         0.000          -0.134    25049606.1724        121.0004 
         0.000  
 -11660296.55148  -9085925.81945  23133568.0664   23133565.5444        300.0004 
         9.0004 
 -11656065.64249  -9082590.42146  22751128.4874   22751127.5344        393.0004 
        12.0004 
  -1222898.25748   -952905.61844  24323436.6644   24323434.7334        120.0004 
         1.0004 
   4242652.47347         0.000          -0.279    25686388.3024         88.0004 
         0.000  
 -14151883.80248 -11027408.56446  22794444.6534   22794440.7094        289.0004 
        10.0004 
 04  3  1  0 20 30.0000000  0  7G04G07G08G10G13G17G24
 -14877857.25349 -11593098.88746  21944832.9694   21944831.3104        488.0004 
        24.0004 
 -24404666.40249 -19016590.08047  20415571.1324   20415568.5474        727.0004 
        66.0004 
  -1039466.50148         0.000          -0.134    25054251.1024        112.0004 
         0.000  
 -11745751.61948  -9152514.13546  23117307.2904   23117304.0374        301.0004 
        10.0004 
 -11679761.40949  -9101054.64746  22746618.4944   22746618.1824        388.0004 
        12.0004 
  -1269290.22348   -989055.20344  24314611.0904   24314607.3224        133.0004 
         2.0004 
 -14176376.88248 -11046494.07046  22789783.0524   22789779.5864        285.0004 
        10.0004 
 04  3  1  0 21  0.0000000  0  8G04G05G07G08G10G13G17G24
 -14869459.06349 -11586554.83046  21946431.4454   21946429.6444        495.0004 
        24.0004 
         0.23658         0.000          -0.244    25396368.0955        115.0005 
         0.000  
 -24411932.07949 -19022251.64147  20414188.5084   20414185.9104        727.0004 
        66.0004 
  -1015365.25948         0.000          -0.134    25058837.5184        116.0004 
         0.000  
 -11830906.62048  -9218868.62946  23101103.1574   23101099.7574        306.0004 
        10.0004 
 -11703073.65049  -9119220.01446  22742182.2684   22742181.9354        383.0004 
        12.0004 
  -1315488.28148  -1025053.68644  24305819.9254   24305815.9024        126.0004 
         2.0004 
 -14200770.74448 -11065502.24946  22785141.3254   22785137.7974        291.0004 
        10.0004 
 04  3  1  0 21 30.0000000  0  8G04G05G07G08G10G13G17G24
 -14861055.59049 -11580006.66146  21948030.2874   21948028.5254        494.0004 
        24.0004 
    -84575.14448         0.000          -0.244    25380271.4114        110.0004 
         0.000  
 -24418824.91449 -19027622.67947  20412876.7534   20412874.1894        725.0004 
        66.0004 
   -991575.91848         0.000          -0.134    25063364.6794        133.0004 
         0.000  
 -11915760.33748  -9284988.35846  23084956.0574   23084952.3354        299.0004 
        10.0004 
 -11726001.01249  -9137085.47746  22737820.4894   22737819.2594        391.0004 
        12.0004 
  -1361494.15848  -1060902.35244  24297068.8274   24297061.2764        125.0004 
         2.0004 
 -14225067.38948 -11084434.68346  22780516.9644   22780514.1194        290.0004 
        10.0004 
 04  3  1  0 22  0.0000000  0  8G04G05G07G08G10G13G17G24
 -14852664.96049 -11573468.49346  21949626.9984   21949625.3274        496.0004 
        24.0004 
   -168898.98047         0.000          -0.244    25364224.6034         95.0004 
         0.000  
 -24425360.11749 -19032715.04147  20411633.2494   20411630.5624        724.0004 
        67.0004 
   -968115.66248         0.000          -0.134    25067828.6514        110.0004 
         0.000  
 -12000327.62648  -9350884.88846  23068862.9634   23068859.5014        298.0004 
        10.0004 
 -11748558.05249  -9154662.37646  22733527.7224   22733526.5054        379.0004 
        12.0004 
  -1407325.29148  -1096614.89244  24288344.8834   24288339.5064        122.0004 
         2.0004 
 -14249284.50848 -11103305.14446  22775909.0944   22775906.0964        298.0004 
        10.0004 
 04  3  1  0 22 30.0000000  0  8G04G05G07G08G10G13G17G24
 -14844280.88549 -11566935.43646  21951222.3184   21951220.7114        493.0004 
        24.0004 
   -252962.08547         0.000          -0.244    25348227.7794         88.0004 
         0.000  
 -24431529.40149 -19037522.27147  20410459.2604   20410456.6144        725.0004 
        67.0004 
   -944977.71348         0.000          -0.134    25072232.1754        114.0004 
         0.000  
 -12084599.68248  -9416551.36746  23052826.8174   23052823.0994        304.0004 
        10.0004 
 -11770735.60949  -9171943.57646  22729307.6844   22729306.3704        383.0004 
        13.0004 
  -1452975.85148  -1132186.75344  24279658.5544   24279651.7144        116.0004 
         2.0004 
 -14273416.70848 -11122109.43946  22771316.8134   22771313.5784        293.0004 
        10.0004 
 04  3  1  0 23  0.0000000  0  8G04G05G07G08G10G13G17G24
 -14835895.21249 -11560401.13446  21952818.1634   21952816.6094        502.0004 
        24.0004 
   -336753.44448         0.000          -0.244    25332284.1174        101.0004 
         0.000  
 -24437322.00649 -19042035.98347  20409356.9424   20409354.2374        723.0004 
        67.0004 
   -922153.36548         0.000          -0.134    25076575.0174        130.0004 
         0.000  
 -12168565.80648  -9481979.46346  23036848.2144   23036844.9394        304.0004 
        10.0004 
 -11792522.61949  -9188920.43646  22725160.9074   22725160.4204        381.0004 
        12.0004 
  -1498437.61148  -1167611.45844  24271006.5034   24271000.7844        116.0004 
         2.0004 
 -14297455.98348 -11140841.31546  22766742.7504   22766738.8814        290.0004 
        10.0004 
 04  3  1  0 23 30.0000000  0  8G04G05G07G08G10G13G17G24
 -14827518.60249 -11553873.89546  21954411.9734   21954410.4504        497.0004 
        25.0004 
   -420280.70647         0.000          -0.244    25316387.9244         87.0004 
         0.000  
 -24442746.45349 -19046262.82147  20408324.7194   20408321.9844        723.0004 
        67.0004 
   -899652.69648         0.000          -0.134    25080856.7344        120.0004 
         0.000  
 -12252233.90248  -9547175.33346  23020926.2354   23020923.2274        301.0004 
        10.0004 
 -11813926.54749  -9205598.80846  22721088.5594   22721087.3514        375.0004 
        12.0004 
  -1543721.15348         0.000          -0.242    24262383.1864        114.0004 
         0.000  
 -14321413.43948 -11159509.44146  22762183.9694   22762180.1314        298.0004 
        10.0004 
 04  3  1  0 24  0.0000000  0  8G04G05G07G08G10G13G17G24
 -14819147.61249 -11547351.02546  21956005.1654   21956003.4814        504.0004 
        24.0004 
   -503537.67947   -392363.77944  25300549.5734   25300544.9284         93.0004 
         2.0004 
 -24447796.72849 -19050198.09447  20407363.7184   20407361.0154        728.0004 
        67.0004 
   -877471.72248         0.000          -0.134    25085077.5904        110.0004 
         0.000  
 -12335597.57248  -9612133.99746  23005063.4314   23005059.4974        295.0004 
        10.0004 
 -11834940.80849  -9221973.53546  22717089.3664   22717088.6134        379.0004 
        12.0004 
  -1588823.12648  -1238041.69344  24253807.8884   24253802.0164        127.0004 
         2.0004 
 -14345285.72248 -11178111.18846  22757640.9944   22757637.5324        305.0004 
        11.0004 
 04  3  1  0 24 30.0000000  0  8G04G05G07G08G10G13G17G24
 -14810779.55449 -11540830.45146  21957597.1164   21957595.8374        503.0004 
        24.0004 
   -586518.34148   -457020.58845  25284758.3064   25284755.2024        111.0004 
         4.0004 
 -24452467.87049 -19053837.94047  20406474.7604   20406472.1254        728.0004 
        67.0004 
   -855607.04248         0.000          -0.134    25089237.9944        106.0004 
         0.000  
 -12418651.64148  -9676851.40346  22989258.0304   22989254.7204        298.0004 
        10.0004 
 -11855560.13449  -9238040.52046  22713166.1074   22713164.8924        380.0004 
        12.0004 
  -1633740.92648  -1273042.51344  24245259.2974   24245255.2314        138.0004 
         2.0004 
 -14369070.66748 -11196644.90046  22753114.5264   22753111.2514        304.0004 
        11.0004 
 04  3  1  0 25  0.0000000  0  8G04G05G07G08G10G13G17G24
 -14802418.81049 -11534315.57646  21959188.3984   21959186.9584        506.0004 
        24.0004 
   -669224.29447   -521460.65046  25269019.0014   25269015.7234         95.0004 
        10.0004 
 -24456762.09349 -19057184.08247  20405657.5674   20405654.9734        731.0004 
        67.0004 
   -834062.51848         0.000          -0.134    25093337.7924        116.0004 
         0.000  
 -12501397.91248  -9741328.96946  22973511.6954   22973508.4504        292.0004 
        11.0004 
 -11875786.09949  -9253800.99246  22709316.6984   22709315.8464        372.0004 
        12.0004 
  -1678478.79448  -1307903.14444  24236747.7694   24236742.1224        137.0004 
         2.0004 
 -14392773.09948 -11215114.29746  22748603.9794   22748601.1694        312.0004 
        11.0004 
 04  3  1  0 25 30.0000000  0  8G04G05G07G08G10G13G17G24
 -14794062.91349 -11527804.47746  21960778.6364   21960776.8374        499.0004 
        24.0004 
   -751650.14447   -585686.88846  25253333.5814   25253330.0574         97.0004 
        11.0004 
 -24460674.59449 -19060232.77947  20404913.1804   20404910.5584        734.0004 
        67.0004 
   -812834.83048         0.000          -0.134    25097377.6074        123.0004 
         0.000  
 -12583831.28248  -9805562.72346  22957825.6204   22957822.3874        300.0004 
        11.0004 
 -11895612.80249  -9269250.35046  22705544.1684   22705543.1014        374.0004 
        13.0004 
  -1723034.40948         0.000          -0.242    24228262.6924        129.0004 
         0.000  
 -14416390.76148 -11233517.64746  22744109.5884   22744106.4434        305.0004 
        11.0004 
 04  3  1  0 26  0.0000000  0  8G04G05G07G08G10G13G17G24
 -14785719.30849 -11521302.95746  21962366.3894   21962364.6724        503.0004 
        24.0004 
   -833800.59148   -649705.60345  25237701.1874   25237698.4044        104.0004 
         8.0004 
 -24464210.56249 -19062988.07447  20404240.1454   20404237.4854        729.0004 
        68.0004 
   -791930.99848         0.000          -0.134    25101355.3944        122.0004 
         0.000  
 -12665956.48448  -9869556.34946  22942196.9584   22942194.3724        302.0004 
        10.0004 
 -11915045.34549  -9284392.57346  22701845.6514   22701845.1674        373.0004 
        12.0004 
  -1767415.34848  -1377204.30544  24219819.7294   24219816.1894        120.0004 
         2.0004 
 -14439931.16848 -11251860.79346  22739629.7624   22739626.7514        301.0004 
        10.0004 
 04  3  1  0 26 30.0000000  0  8G04G05G07G08G10G13G17G24
 -14777386.09649 -11514809.53346  21963952.0084   21963950.4364        503.0004 
        24.0004 
   -915671.30748   -713507.30344  25222119.4104   25222118.6514        104.0004 
         3.0004 
 -24467365.87849 -19065446.75647  20403639.7674   20403637.1024        731.0004 
        67.0004 
   -771348.43248         0.000          -0.134    25105271.9444        125.0004 
         0.000  
 -12747769.12948  -9933306.41646  22926628.9224   22926625.8804        299.0004 
        10.0004 
 -11934078.71149  -9299223.74646  22698224.0524   22698223.2094        372.0004 
        13.0004 
  -1811619.84848  -1411649.33844  24211411.0244   24211403.6194        118.0004 
         2.0004 
 -14463392.89248 -11270142.64146  22735165.8634   22735162.1384        306.0004 
        12.0004 
 04  3  1  0 27  0.0000000  0  8G04G05G07G08G10G13G17G24
 -14769064.56549 -11508325.21846  21965535.5044   21965534.0564        504.0004 
        24.0004 
   -997259.98047   -777085.49044  25206594.6684   25206592.4284         91.0004 
         2.0004 
 -24470139.53449 -19067608.04147  20403112.0714   20403109.3654        735.0004 
        67.0004 
   -751087.91648         0.000          -0.134    25109127.4954        120.0004 
         0.000  
 -12829267.93048  -9996811.93546  22911120.5124   22911116.9784        300.0004 
        10.0004 
 -11952711.44849  -9313742.74146  22694677.7514   22694677.4244        369.0004 
        12.0004 
  -1855649.39948  -1445958.01044  24203028.9754   24203025.5414        119.0004 
         2.0004 
 -14486777.74549 -11288364.58446  22730716.2154   22730712.5094        317.0004 
        11.0004 
 04  3  1  0 27 30.0000000  0  7G04G07G08G10G13G17G24
 -14760753.41649 -11501848.98546  21967116.7654   21967115.4584        500.0004 
        24.0004 
 -24472528.01849 -19069469.19547  20402657.4264   20402654.9064        738.0004 
        67.0004 
   -731147.34648         0.000          -0.134    25112921.7954        111.0004 
         0.000  
 -12910448.86148 -10060069.76346  22895672.4184   22895668.7554        308.0004 
        11.0004 
 -11970939.25349  -9327946.21246  22691209.8784   22691208.8124        369.0004 
        12.0004 
  -1899502.81048         0.000          -0.242    24194681.0494        122.0004 
         0.000  
 -14510084.59248 -11306525.74646  22726280.9154   22726277.2204        315.0004 
        11.0004 
 04  3  1  0 28  0.0000000  0  7G04G07G08G10G13G17G24
 -14752456.70149 -11495384.00246  21968695.7814   21968694.3704        501.0004 
        24.0004 
 -24474533.27549 -19071031.73047  20402275.8614   20402273.2854        737.0004 
        68.0004 
   -711530.08648         0.000          -0.134    25116654.9024        116.0004 
         0.000  
 -12991313.71549 -10123081.30446  22880283.9584   22880280.9844        319.0004 
        11.0004 
 -11988763.45349  -9341835.17746  22687817.9624   22687817.0024        369.0004 
        13.0004 
  -1943184.05748  -1514166.74144  24186375.0984   24186369.3974        128.0004 
         2.0004 
 -14533318.01048 -11324629.68646  22721859.6534   22721856.2244        315.0004 
        11.0004 
 04  3  1  0 28 30.0000000  0  8G04G05G07G08G10G13G17G24
 -14744167.87049 -11488925.16446  21970273.2364   21970271.6754        499.0004 
        24.0004 
        -0.12257         0.000          -0.244    25160342.3605         77.0005 
         0.000  
 -24476146.48349 -19072288.77347  20401968.7794   20401966.2104        733.0004 
        68.0004 
   -692228.85448         0.000          -0.134    25120327.2944        104.0004 
         0.000  
 -13071853.28148 -10185839.37346  22864957.4044   22864954.2554        310.0004 
        11.0004 
 -12006174.74849  -9355402.39846  22684505.0274   22684503.8504        369.0004 
        12.0004 
  -1986686.86048  -1548065.06544  24178093.3894   24178091.3944        134.0004 
         2.0004 
 -14556471.97948 -11342671.72446  22717453.1234   22717449.5594        307.0004 
        11.0004 
 04  3  1  0 29  0.0000000  0  7G04G07G08G10G13G17G24
 -14735894.48249 -11482478.36346  21971847.6164   21971846.0994        497.0004 
        24.0004 
 -24477373.27949 -19073244.71347  20401735.4504   20401732.8064        735.0004 
        68.0004 
   -673250.76948         0.000          -0.134    25123938.8464        115.0004 
         0.000  
 -13152072.84348 -10248348.08646  22849692.3944   22849689.0134        312.0004 
        12.0004 
 -12023178.12349  -9368651.76246  22681269.1754   22681267.8394        359.0004 
        12.0004 
  -2030019.15148  -1581830.42544  24169849.6254   24169845.9994        142.0004 
         2.0004 
 -14579554.57449 -11360658.13946  22713061.0174   22713057.4384        319.0004 
        11.0004 
 04  3  1  0 29 30.0000000  0  8G04G05G07G08G10G13G17G24
 -14727640.10849 -11476046.38046  21973418.4234   21973416.7674        492.0004 
        23.0004 
        -0.27058         0.000          -0.244    25129785.0895        107.0005 
         0.000  
 -24478214.95949 -19073900.56247  20401575.1554   20401572.6904        737.0004 
        67.0004 
   -654598.72848         0.000          -0.134    25127488.6324        119.0004 
         0.000  
 -13231973.25948 -10310608.10946  22834487.5724   22834484.3154        314.0004 
        12.0004 
 -12039774.49449  -9381583.97546  22678110.1104   22678109.7734        365.0004 
        12.0004 
  -2073184.66948  -1615465.87044  24161634.1764   24161630.8594        129.0004 
         2.0004 
 -14602569.62049 -11378591.92946  22708681.3394   22708677.6844        319.0004 
        11.0004 
 04  3  1  0 30  0.0000000  0  8G04G05G07G08G10G13G17G24
 -14719396.04449 -11469622.42746  21974987.0304   21974985.6854        493.0004 
        23.0004 
    -79847.60348    -62217.95044  25114596.6074   25114590.8494        124.0004 
         2.0004 
 -24478660.92349 -19074248.06247  20401490.4684   20401487.7554        734.0004 
        67.0004 
   -636263.51248         0.000          -0.134    25130977.4754        112.0004 
         0.000  
 -13311543.74149 -10372611.05946  22819345.7964   22819343.0714        334.0004 
        13.0004 
 -12055952.70049  -9394190.34846  22675032.4534   22675031.2034        368.0004 
        12.0004 
  -2116175.01648  -1648964.81544  24153453.3624   24153449.5904        125.0004 
         2.0004 
 -14625508.73549 -11396466.54846  22704316.3684   22704312.6794        324.0004 
        11.0004 
 04  3  1  0 30 30.0000000  0  8G04G05G07G08G10G13G17G24
 -14711168.94449 -11463211.69446  21976552.3644   21976550.9914        485.0004 
        23.0004 
   -159398.98648         0.000          -0.244    25099453.0634        131.0004 
         0.000  
 -24478715.50849 -19074290.59547  20401479.8384   20401477.2624        732.0004 
        68.0004 
   -618250.61948         0.000          -0.134    25134405.5064        103.0004 
         0.000  
 -13390788.19149 -10434359.95146  22804266.3494   22804263.4054        338.0004 
        13.0004 
 -12071716.00449  -9406473.41846  22672032.1324   22672031.2684        363.0004 
        12.0004 
  -2158996.67848  -1682332.30644  24145304.8874   24145301.2834        127.0004 
         2.0004 
 -14648378.71949 -11414287.29346  22699964.1944   22699960.5424        324.0004 
        12.0004 
 04  3  1  0 31  0.0000000  0  8G04G05G07G08G10G13G17G24
 -14702955.95549 -11456811.95946  21978115.5524   21978114.0414        488.0004 
        23.0004 
   -238648.99948         0.000          -0.244    25084372.4024        124.0004 
         0.000  
 -24478374.13049 -19074024.58547  20401544.9964   20401542.3744        737.0004 
        68.0004 
   -600557.13047         0.000          -0.134    25137772.1824         99.0004 
         0.000  
 -13469701.81649 -10495851.05146  22789249.8744   22789246.3804        330.0004 
        13.0004 
 -12087059.59749  -9418429.45646  22669112.1144   22669111.6264        368.0004 
        12.0004 
  -2201647.46148  -1715566.68244  24137189.0344   24137184.9694        127.0004 
         2.0004 
 -14671177.60949 -11432052.65446  22695625.3204   22695622.4504        334.0004 
        12.0004 
 04  3  1  0 31 30.0000000  0  8G04G05G07G08G10G13G17G24
 -14694767.19449 -11450431.09946  21979673.5074   21979672.1294        479.0004 
        22.0004 
   -317605.19948         0.000          -0.244    25069346.8434        100.0004 
         0.000  
 -24477644.80449 -19073456.27547  20401683.7114   20401681.0794        737.0004 
        68.0004 
   -583192.30448         0.000          -0.134    25141076.6164        108.0004 
         0.000  
 -13548292.34049 -10557090.38446  22774294.4654   22774291.1084        334.0004 
        13.0004 
 -12101991.02849  -9430064.31446  22666270.4104   22666270.0614        364.0004 
        12.0004 
  -2244137.78848  -1748675.98644  24129106.5484   24129099.6004        129.0004 
         2.0004 
 -14693915.66049 -11449770.59046  22691298.7144   22691295.3074        331.0004 
        12.0004 
 04  3  1  0 32  0.0000000  0  8G04G05G07G08G10G13G17G24
 -14686607.44449 -11444072.84546  21981226.3644   21981224.8084        474.0004 
        22.0004 
   -396269.71647         0.000          -0.244    25054376.6434         88.0004 
         0.000  
 -24476530.29949 -19072587.82947  20401895.8304   20401893.1404        737.0004 
        69.0004 
   -566160.39548         0.000          -0.134    25144317.9644        113.0004 
         0.000  
 -13626561.87749 -10618079.60346  22759399.6434   22759396.7824        331.0004 
        14.0004 
 -12116512.20649  -9441379.50146  22663507.9084   22663506.8324        366.0004 
        12.0004 
  -2286472.67048         0.000          -0.242    24121043.0744        124.0004 
         0.000  
 -14716598.42749 -11467445.45646  22686982.0084   22686978.9554        334.0004 
        12.0004 
 04  3  1  0 32 30.0000000  0  8G04G05G07G08G10G13G17G24
 -14678455.49449 -11437720.67946  21982777.9804   21982776.0354        469.0004 
        23.0004 
   -474618.33947         0.000          -0.244    25039466.9964         90.0004 
         0.000  
 -24475007.35749 -19071401.11847  20402185.5864   20402183.0364        744.0004 
        68.0004 
   -549439.29447         0.000          -0.134    25147499.1224         97.0004 
         0.000  
 -13704486.95549 -10678800.40946  22744570.7464   22744568.0304        336.0004 
        13.0004 
 -12130599.63749  -9452356.70646  22660827.2904   22660826.1834        370.0004 
        12.0004 
  -2328631.11048  -1814514.89044  24113022.7964   24113020.3684        127.0004 
         2.0004 
 -14739205.45349 -11485061.30846  22682680.2834   22682676.9184        334.0004 
        12.0004 
 04  3  1  0 33  0.0000000  0  8G04G05G07G08G10G13G17G24
 -14670320.65949 -11431381.83846  21984325.5774   21984323.8734        462.0004 
        22.0004 
   -552658.17348         0.000          -0.244    25024617.5714        112.0004 
         0.000  
 -24473083.35849 -19069901.89947  20402551.6024   20402549.0834        741.0004 
        69.0004 
   -533037.70147         0.000          -0.134    25150619.8254         90.0004 
         0.000  
 -13782074.77449 -10739258.42446  22729806.5704   22729803.6484        337.0004 
        13.0004 
 -12144259.67849  -9463000.87446  22658227.4764   22658226.8204        374.0004 
        12.0004 
  -2370622.71448  -1847235.57744  24105033.7684   24105030.3844        136.0004 
         2.0004 
 -14761745.84149 -11502625.23146  22678391.6584   22678387.6454        338.0004 
        13.0004 
 04  3  1  0 33 30.0000000  0  8G04G05G07G08G10G13G17G24
 -14662202.43749 -11425055.94646  21985870.1634   21985868.6864        461.0004 
        22.0004 
   -630385.80448         0.000          -0.244    25009826.6734        128.0004 
         0.000  
 -24470755.95749 -19068088.33847  20402994.5174   20402992.0674        747.0004 
        69.0004 
   -516954.32647         0.000          -0.134    25153680.7614         98.0004 
         0.000  
 -13859322.13749 -10799451.14546  22715106.6634   22715103.8454        332.0004 
        13.0004 
 -12157489.90249  -9473310.12346  22655709.7654   22655709.0754        375.0004 
        13.0004 
  -2412447.32848  -1879826.11444  24097072.7404   24097070.6734        127.0004 
         2.0004 
 -14784219.54349 -11520137.18246  22674113.9804   22674111.2414        345.0004 
        12.0004 
 04  3  1  0 34  0.0000000  0  8G04G05G07G08G10G13G17G24
 -14654107.91249 -11418748.52046  21987410.7854   21987409.3334        466.0004 
        22.0004 
   -707806.02348         0.000          -0.244    24995094.9464        145.0004 
         0.000  
 -24468030.30749 -19065964.45447  20403513.3564   20403510.7404        748.0004 
        69.0004 
   -501195.64347         0.000          -0.134    25156679.5424         96.0004 
         0.000  
 -13936234.29249 -10859382.66646  22700470.2264   22700467.7374        329.0004 
        13.0004 
 -12170294.80349  -9483287.95346  22653273.3024   22653272.5684        387.0004 
        13.0004 
  -2454112.46248  -1912292.46044  24089145.9004   24089142.1704        125.0004 
         2.0004 
 -14806634.30249 -11537603.21746  22669848.4754   22669845.7764        340.0004 
        13.0004 
 04  3  1  0 34 30.0000000  0  8G04G05G07G08G10G13G17G24
 -14646043.06649 -11412464.22046  21988945.7044   21988943.9144        462.0004 
        22.0004 
   -784922.42248   -611626.66744  24980421.6834   24980419.8614        149.0004 
         2.0004 
 -24464910.64649 -19063533.54747  20404106.9874   20404104.4464        752.0004 
        70.0004 
   -485767.19548         0.000          -0.134    25159616.1414        104.0004 
         0.000  
 -14012815.09349 -10919055.98546  22685898.6654   22685895.1684        337.0004 
        13.0004 
 -12182678.15549  -9492937.29946  22650917.0564   22650915.9164        384.0004 
        13.0004 
  -2495624.59348  -1944639.53544  24081245.4184   24081243.2914        133.0004 
         2.0004 
 -14828996.70749 -11555028.44846  22665593.5214   22665590.3144        345.0004 
        13.0004 
 04  3  1  0 35  0.0000000  0  8G04G05G07G08G10G13G17G24
 -14637997.52749 -11406194.96546  21990476.4284   21990474.7214        457.0004 
        21.0004 
   -861721.67748   -671470.22344  24965807.5394   24965805.5774        142.0004 
         2.0004 
 -24461384.47349 -19060785.87747  20404778.0584   20404775.4724        754.0004 
        70.0004 
   -470657.74848         0.000          -0.134    25162490.6444        102.0004 
         0.000  
 -14089051.83749 -10978461.21546  22671390.1364   22671387.7334        344.0004 
        14.0004 
 -12194626.74249  -9502247.87246  22648641.9204   22648642.1664        391.0004 
        13.0004 
  -2536973.48448  -1976859.40444  24073378.2904   24073374.7544        130.0004 
         2.0004 
 -14851296.77649 -11572405.12046  22661349.7814   22661346.3334        338.0004 
        13.0004 
 04  3  1  0 35 30.0000000  0  8G04G05G07G08G10G13G17G24
 -14629974.97649 -11399943.62046  21992003.6894   21992001.5384        461.0004 
        22.0004 
   -938205.23548         0.000          -0.244    24951251.2064        133.0004 
         0.000  
 -24457453.99849 -19057723.16747  20405525.9634   20405523.4044        755.0004 
        71.0004 
   -455870.42747         0.000          -0.134    25165304.4054         99.0004 
         0.000  
 -14164946.00849 -11037599.50746  22656948.5894   22656945.6224        347.0004 
        14.0004 
 -12206142.23549  -9511220.96546  22646451.2544   22646451.1884        400.0004 
        13.0004 
  -2578163.38048  -2008955.41844  24065541.2834   24065536.1364        126.0004 
         2.0004 
 -14873538.88449 -11589736.61546  22657117.3404   22657114.0064        345.0004 
        13.0004 
 04  3  1  0 36  0.0000000  0  8G04G05G07G08G10G13G17G24
 -14621977.68949 -11393711.96446  21993525.0354   21993523.2744        460.0004 
        22.0004 
  -1014372.58248         0.000          -0.244    24936756.2104        117.0004 
         0.000  
 -24453119.50149 -19054345.63247  20406350.7584   20406348.2464        756.0004 
        70.0004 
   -441406.58647         0.000          -0.134    25168056.8614         90.0004 
         0.000  
 -14240497.64749 -11096470.88546  22642571.1524   22642568.3164        337.0004 
        13.0004 
 -12217224.43449  -9519856.42846  22644342.1474   22644342.0984        398.0004 
        13.0004 
  -2619196.98848  -2040929.64444  24057733.0124   24057728.4224        135.0004 
         2.0004 
 -14895725.45949 -11607024.84046  22652895.7024   22652892.2164        349.0004 
        13.0004 
 04  3  1  0 36 30.0000000  0  8G04G05G07G08G10G13G17G24
 -14614005.74349 -11387500.05146  21995042.0894   21995040.4784        465.0004 
        23.0004 
  -1090221.29248         0.000          -0.244    24922323.0764        122.0004 
         0.000  
 -24448379.17149 -19050651.86547  20407252.8664   20407250.3344        755.0004 
        70.0004 
   -427265.64848         0.000          -0.134    25170748.7084        123.0004 
         0.000  
 -14315704.93549 -11155073.94046  22628259.8294   22628257.1374        348.0004 
        14.0004 
 -12227871.06649  -9528152.48946  22642317.1474   22642316.1174        401.0004 
        14.0004 
  -2660074.61648  -2072782.30544  24049952.9444   24049949.2874        133.0004 
         2.0004 
 -14917857.32649 -11624270.45446  22648684.3234   22648680.8024        355.0004 
        13.0004 
 04  3  1  0 37  0.0000000  0  8G04G05G07G08G10G13G17G24
 -14606052.40149 -11381302.63746  21996555.4154   21996553.9004        464.0004 
        22.0004 
  -1165742.52448         0.000          -0.244    24907951.9824        131.0004 
         0.000  
 -24443224.87549 -19046635.52647  20408233.7494   20408231.1004        753.0004 
        70.0004 
   -413440.46848         0.000          -0.134    25173378.9324        132.0004 
         0.000  
 -14390559.12049 -11213401.84746  22614015.3224   22614012.6924        348.0004 
        14.0004 
 -12238073.28949  -9536102.26146  22640376.0914   22640374.7824        405.0004 
        15.0004 
  -2700790.19748  -2104508.73844  24042203.4844   24042201.1214        134.0004 
         2.0004 
 -14939928.21249 -11641468.53446  22644483.3974   22644480.3444        346.0004 
        13.0004 
 04  3  1  0 37 30.0000000  0  8G04G05G07G08G10G13G17G24
 -14598123.46949 -11375124.24346  21998064.8444   21998062.7924        465.0004 
        23.0004 
  -1240939.44448         0.000          -0.244    24893642.2154        136.0004 
         0.000  
 -24437660.47449 -19042299.63047  20409292.4644   20409289.9384        750.0004 
        70.0004 
   -399935.96148         0.000          -0.134    25175948.3604        103.0004 
         0.000  
 -14465063.78749 -11271457.40446  22599837.7424   22599834.8114        359.0004 
        14.0004 
 -12247834.67649  -9543708.52346  22638518.1384   22638517.1414        402.0004 
        14.0004 
  -2741349.88848  -2136113.68744  24034486.1034   24034482.5154        128.0004 
         2.0004 
 -14961944.19449 -11658623.83946  22640293.7874   22640291.0814        354.0004 
        13.0004 
 04  3  1  0 38  0.0000000  0  8G04G05G07G08G10G13G17G24
 -14590227.32649 -11368971.39946  21999567.0824   21999565.3384        471.0004 
        23.0004 
  -1315817.89948  -1025311.31144  24879392.8444   24879393.6164        149.0004 
         1.0004 
 -24431692.54849 -19037649.29947  20410428.2294   20410425.6134        751.0004 
        70.0004 
   -386759.72847         0.000          -0.134    25178455.8424         98.0004 
         0.000  
 -14539225.14349 -11329245.46046  22585725.3174   22585722.4864        368.0004 
        15.0004 
 -12257160.99249  -9550975.76446  22636743.6194   22636742.1944        395.0004 
        15.0004 
  -2781762.48448  -2167604.03744  24026794.8414   24026792.1094        125.0004 
         2.0004 
 -14983914.12449 -11675743.25146  22636113.2344   22636110.4604        357.0004 
        14.0004 
 04  3  1  0 38 30.0000000  0  8G04G05G07G08G10G13G17G24
 -14582359.40949 -11362840.54846  22001064.2634   22001062.5974        470.0004 
        22.0004 
  -1390371.18248  -1083404.75044  24865209.9274   24865206.7894        163.0004 
         2.0004 
 -24425315.02849 -19032679.79747  20411641.6534   20411639.1594        749.0004 
        69.0004 
   -373906.48147         0.000          -0.134    25180901.7104         94.0004 
         0.000  
 -14613036.63949 -11386760.88346  22571679.8374   22571677.1074        382.0004 
        14.0004 
 -12266046.19149  -9557899.28246  22635052.5874   22635051.2614        391.0004 
        15.0004 
  -2822024.16148  -2198976.70744  24019135.9594   24019130.8474        130.0004 
         2.0004 
 -15005834.24449 -11692823.85946  22631942.1494   22631939.3354        361.0004 
        13.0004 
 04  3  1  0 39  0.0000000  0  8G04G05G07G08G10G13G17G24
 -14574515.21449 -11356728.17746  22002557.0774   22002555.1364        462.0004 
        22.0004 
  -1464592.45748  -1141239.50444  24851084.0584   24851082.9314        164.0004 
         2.0004 
 -24418521.82849 -19027386.39247  20412934.3444   20412931.8474        746.0004 
        70.0004 
   -361371.14448         0.000          -0.134    25183287.4784        101.0004 
         0.000  
 -14686491.84549 -11443998.68746  22557701.4214   22557698.5564        371.0004 
        15.0004 
 -12274483.16049  -9564473.52746  22633446.8384   22633445.8804        396.0004 
        14.0004 
  -2862130.76348  -2230228.60444  24011501.1714   24011498.7234        131.0004 
         2.0004 
 -15027700.73749 -11709862.67246  22627781.0544   22627778.1244        360.0004 
        13.0004 
 04  3  1  0 39 30.0000000  0  8G04G05G07G08G10G13G17G24
 -14566691.60949 -11350631.83746  22004045.4974   22004043.9074        465.0004 
        21.0004 
  -1538476.29448  -1198811.33444  24837025.8734   24837023.1494        156.0004 
         2.0004 
 -24411308.23549 -19021765.40847  20414307.0784   20414304.6554        750.0004 
        70.0004 
   -349149.95348         0.000          -0.134    25185612.2214        100.0004 
         0.000  
 -14759585.70949 -11500954.92446  22543792.2694   22543789.4964        380.0004 
        15.0004 
 -12282466.91049  -9570694.61846  22631927.1874   22631926.8044        401.0004 
        14.0004 
  -2902079.89948  -2261357.77244  24003902.4804   24003896.6314        135.0004 
         3.0004 
 -15049510.66049 -11726857.40546  22623630.8644   22623627.6414        356.0004 
        13.0004 
 04  3  1  0 40  0.0000000  0  8G04G05G07G08G10G13G17G24
 -14558897.04149 -11344558.04546  22005529.4724   22005527.2454        472.0004 
        19.0004 
  -1612028.48148  -1256124.73144  24823031.8254   24823025.8754        134.0004 
         2.0004 
 -24403680.93349 -19015822.04947  20415758.6214   20415756.0294        747.0004 
        68.0004 
   -337250.49948         0.000          -0.134    25187877.5624        113.0004 
         0.000  
 -14832324.71449 -11557634.64646  22529950.3424   22529947.6434        385.0004 
        16.0004 
 -12290003.46649  -9576567.24846  22630493.4554   22630492.4654        398.0004 
        14.0004 
  -2941880.41848  -2292371.14944  23996326.4814   23996323.3564        141.0004 
         3.0004 
 -15071273.27849 -11743815.26946  22619490.0794   22619486.5094        359.0004 
        13.0004 
 04  3  1  0 40 30.0000000  0  8G04G05G07G08G10G13G17G24
 -14551134.64049 -11338509.55246  22007005.8284   22007004.4624        473.0004 
        21.0004 
  -1685249.94548         0.000          -0.244    24809093.0154        124.0004 
         0.000  
 -24395641.49749 -19009557.55747  20417288.3644   20417285.9304        749.0004 
        69.0004 
   -325675.25447         0.000          -0.134    25190079.6254         99.0004 
         0.000  
 -14904710.20049 -11614038.90146  22516176.2994   22516173.0904        387.0004 
        17.0004 
 -12297094.18349  -9582092.46446  22629144.4824   22629143.1854        395.0004 
        14.0004 
  -2981535.90148  -2323271.53144  23988782.4724   23988775.8804        128.0004 
         2.0004 
 -15092992.22249 -11760739.10646  22615356.3884   22615353.3014        352.0004 
        13.0004 
 04  3  1  0 41  0.0000000  0  8G04G05G07G08G10G13G17G24
 -14543402.85949 -11332484.77246  22008477.3704   22008475.5924        467.0004 
        22.0004 
  -1758137.11848         0.000          -0.244    24795222.2244        118.0004 
         0.000  
 -24387186.93549 -19002969.58447  20418897.2764   20418894.7014        748.0004 
        69.0004 
   -314422.05147         0.000          -0.134    25192221.4944         99.0004 
         0.000  
 -14976738.56449 -11670164.87446  22502469.0944   22502466.4534        389.0004 
        17.0004 
 -12303735.50449  -9587267.51046  22627880.6104   22627879.4994        399.0004 
        14.0004 
  -3021045.57748  -2354058.29144  23981261.4714   23981257.5954        134.0004 
         2.0004 
 -15114666.39649 -11777628.05746  22611231.9714   22611229.0554        355.0004 
        13.0004 
 04  3  1  0 41 30.0000000  0  8G04G05G07G08G10G13G17G24
 -14535701.33949 -11326483.57646  22009942.5844   22009941.3344        478.0004 
        22.0004 
  -1830687.39848         0.000          -0.244    24781417.0114        131.0004 
         0.000  
 -24378315.34549 -18996056.65447  20420585.4614   20420582.9634        751.0004 
        69.0004 
   -303489.48247         0.000          -0.134    25194301.1144         92.0004 
         0.000  
 -15048407.46949 -11726010.75446  22488831.3714   22488828.3924        392.0004 
        17.0004 
 -12309925.04449  -9592090.51146  22626702.4974   22626701.6194        405.0004 
        14.0004 
  -3060409.52648  -2384731.45644  23973769.5644   23973766.9374        137.0004 
         3.0004 
 -15136296.02449 -11794482.29646  22607115.9524   22607112.7524        350.0004 
        13.0004 
 04  3  1  0 42  0.0000000  0  8G04G05G07G08G10G13G17G24
 -14528028.61249 -11320504.82246  22011403.2304   22011401.3054        476.0004 
        23.0004 
  -1902896.73948  -1482775.24844  24767676.8734   24767675.4484        141.0004 
         1.0004 
 -24369023.76249 -18988816.45847  20422353.5874   20422351.1524        753.0004 
        69.0004 
   -292875.76847         0.000          -0.134    25196321.2974         96.0004 
         0.000  
 -15119713.81049 -11781574.12646  22475261.7214   22475259.0504        386.0004 
        17.0004 
 -12315659.46649  -9596558.88146  22625611.3194   22625610.3104        397.0004 
        14.0004 
  -3099626.91048  -2415290.42044  23966308.4934   23966304.5364        143.0004 
         3.0004 
 -15157880.45049 -11811301.32346  22603008.6364   22603005.4454        354.0004 
        13.0004 
 04  3  1  0 42 30.0000000  0  8G04G05G07G08G10G13G17G24
 -14520381.43449 -11314545.97546  22012858.4734   22012856.5094        477.0004 
        23.0004 
  -1974759.69948  -1538772.42144  24754003.3194   24754001.1174        163.0004 
         2.0004 
 -24359307.30049 -18981245.18647  20424202.3414   20424199.9854        747.0004 
        69.0004 
   -282576.58747         0.000          -0.134    25198281.0974         96.0004 
         0.000  
 -15190652.16249 -11836850.73546  22461763.0684   22461760.0694        388.0004 
        17.0004 
 -12320933.16549  -9600668.24546  22624607.9254   22624606.6074        391.0004 
        14.0004 
  -3138694.81848  -2445732.93044  23958872.3174   23958869.6674        140.0004 
         2.0004 
 -15179416.77649 -11828082.85946  22598910.3014   22598907.1994        354.0004 
        13.0004 
 04  3  1  0 43  0.0000000  0  8G04G05G07G08G10G13G17G24
 -14512764.37349 -11308610.59946  22014307.6354   22014306.2904        488.0004 
        23.0004 
  -2046278.82048  -1594501.59344  24740392.1544   24740391.7944        167.0004 
         2.0004 
 -24349169.44749 -18973345.55847  20426131.8114   20426129.2924        751.0004 
        69.0004 
   -272596.10548         0.000          -0.134    25200180.2404        101.0004 
         0.000  
 -15261225.88749 -11891843.23846  22448333.0574   22448330.3714        392.0004 
        17.0004 
 -12325749.43449  -9604421.16946  22623691.1574   22623690.0384        389.0004 
        14.0004 
  -3177618.99048  -2476063.44544  23951466.4874   23951463.4914        150.0004 
         3.0004 
 -15200910.31749 -11844831.05446  22594820.1664   22594817.2174        358.0004 
        13.0004 
 04  3  1  0 43 30.0000000  0  8G04G05G07G08G10G13G17G24
 -14505183.71149 -11302703.58946  22015750.0214   22015748.7164        488.0004 
        23.0004 
  -2117458.17848  -1649966.04544  24726846.3594   24726846.2924        150.0004 
         2.0004 
 -24338614.76349 -18965121.12947  20428140.2114   20428137.7114        751.0004 
        69.0004 
   -262939.81748         0.000          -0.134    25202018.3114        104.0004 
         0.000  
 -15331439.08049 -11946554.79746  22434972.3454   22434969.1524        391.0004 
        17.0004 
 -12330112.29849  -9607820.78946  22622860.8914   22622859.7454        392.0004 
        14.0004 
  -3216405.98448  -2506287.04944  23944086.6214   23944082.1504        145.0004 
         3.0004 
 -15222367.89049 -11861551.22746  22590736.7154   22590733.8774        354.0004 
        13.0004 
 04  3  1  0 44  0.0000000  0  8G04G05G07G08G10G13G17G24
 -14497645.98849 -11296830.03946  22017184.3724   22017183.1264        488.0004 
        23.0004 
  -2188302.61848         0.000          -0.244    24713365.5854        138.0004 
         0.000  
 -24327648.69349 -18956576.13247  20430227.0694   20430224.4344        744.0004 
        68.0004 
   -253613.49648         0.000          -0.134    25203792.6614        117.0004 
         0.000  
 -15401296.73149 -12000989.31746  22421678.4174   22421675.6244        390.0004 
        18.0004 
 -12334026.46749  -9610870.77646  22622115.9024   22622114.9494        391.0004 
        14.0004 
  -3255063.36748  -2536409.66244  23936730.0004   23936726.2564        147.0004 
         2.0004 
 -15243796.35149 -11878248.72146  22586658.6694   22586656.2654        358.0004 
        13.0004 
 04  3  1  0 44 30.0000000  0  8G04G05G07G08G10G13G17G24
 -14490141.21849 -11290982.15946  22018612.6804   22018611.2124        484.0004 
        23.0004 
  -2258799.12948  -1760101.80544  24699951.3824   24699950.3224        135.0004 
         2.0004 
 -24316259.54149 -18947701.46647  20432394.1134   20432391.7234        745.0004 
        69.0004 
   -244606.30848         0.000          -0.134    25205506.2884        104.0004 
         0.000  
 -15470786.92449 -12055137.50446  22408455.2634   22408452.1154        386.0004 
        18.0004 
 -12337480.07449  -9613561.88246  22621458.4994   22621457.7844        391.0004 
        14.0004 
  -3293581.41848  -2566423.72144  23929402.6424   23929396.8494        147.0004 
         3.0004 
 -15265186.63149 -11894916.45646  22582588.2984   22582585.6344        357.0004 
        13.0004 
 04  3  1  0 45  0.0000000  0  8G04G05G07G08G10G13G17G24
 -14482672.56949 -11285162.42446  22020034.1354   22020032.3394        478.0004 
        23.0004 
  -2328949.35248         0.000          -0.244    24686601.1524        135.0004 
         0.000  
 -24304449.54849 -18938498.87047  20434641.4504   20434639.0624        742.0004 
        68.0004 
   -235920.94748         0.000          -0.134    25207159.2734        104.0004 
         0.000  
 -15539911.38449 -12109000.69946  22395301.3364   22395297.9804        378.0004 
        17.0004 
 -12340474.64749  -9615895.30846  22620888.5564   22620887.7554        388.0004 
        14.0004 
  -3331964.30948  -2596332.44844  23922095.8874   23922092.1254        145.0004 
         2.0004 
 -15286542.65349 -11911557.50346  22578524.2544   22578521.6154        353.0004 
        13.0004 
 04  3  1  0 45 30.0000000  0  8G04G05G07G08G10G13G17G24
 -14475231.97749 -11279364.55146  22021449.9614   22021448.2224        479.0004 
        22.0004 
  -2398743.16348         0.000          -0.244    24673319.9174        133.0004 
         0.000  
 -24292209.22849 -18928960.95447  20436970.8114   20436968.2964        740.0004 
        68.0004 
   -227548.31348         0.000          -0.134    25208752.4504        102.0004 
         0.000  
 -15608660.31449 -12162571.27646  22382218.3984   22382215.4634        380.0004 
        17.0004 
 -12343000.45949  -9617863.46046  22620408.7134   22620407.3434        396.0004 
        14.0004 
  -3370204.60848  -2626130.09744  23914817.3124   23914815.3854        145.0004 
         2.0004 
 -15307856.68349 -11928165.82346  22574469.0444   22574465.9604        358.0004 
        13.0004 
 04  3  1  0 46  0.0000000  0  8G04G05G07G08G10G13G17G24
 -14467828.05549 -11273595.25546  22022858.8454   22022857.3224        482.0004 
        22.0004 
  -2468186.77448         0.000          -0.244    24660104.9394        138.0004 
         0.000  
 -24279545.66349 -18919093.24047  20439380.6124   20439378.1324        740.0004 
        68.0004 
   -219496.41748         0.000          -0.134    25210285.0774        105.0004 
         0.000  
 -15677040.58549 -12215854.57746  22369206.4724   22369203.0864        380.0004 
        17.0004 
 -12345064.30049  -9619471.63646  22620015.8624   22620014.7474        403.0004 
        14.0004 
  -3408311.53948  -2655823.76244  23907568.2884   23907563.3504        143.0004 
         3.0004 
 -15329138.09849 -11944748.74546  22570419.3844   22570416.4024        361.0004 
        13.0004 
 04  3  1  0 46 30.0000000  0  8G04G05G07G08G10G13G17G24
 -14460459.89049 -11267853.81846  22024260.5794   22024259.0454        471.0004 
        22.0004 
  -2537277.61548  -1977097.98944  24646959.8834   24646957.6674        155.0004 
         1.0004 
 -24266456.81149 -18908894.12947  20441871.2914   20441868.8654        741.0004 
        68.0004 
   -211763.54148         0.000          -0.134    25211756.2224        113.0004 
         0.000  
 -15745049.52649 -12268848.54646  22356264.6834   22356261.5374        389.0004 
        18.0004 
 -12346663.61449  -9620717.84046  22619711.5284   22619710.1934        397.0004 
        15.0004 
  -3446284.92148  -2685413.42144  23900341.6574   23900337.7104        149.0004 
         2.0004 
 -15350386.14149 -11961305.63846  22566375.8514   22566372.7314        356.0004 
        13.0004 
 04  3  1  0 47  0.0000000  0  8G04G05G07G08G10G13G17G24
 -14453121.30849 -11262135.43946  22025657.0914   22025655.7754        477.0004 
        22.0004 
  -2606007.29148  -2030653.59844  24633880.8074   24633878.7904        154.0004 
         2.0004 
 -24252935.39149 -18898357.95347  20444444.5074   20444442.0074        744.0004 
        67.0004 
   -204342.97648         0.000          -0.134    25213167.9094        109.0004 
         0.000  
 -15812679.66649 -12321547.33846  22343394.5084   22343391.9084        394.0004 
        18.0004 
 -12347790.62749  -9621596.02146  22619497.3764   22619495.8414        400.0004 
        15.0004 
  -3484119.38548  -2714894.78544  23893141.3134   23893137.6714        145.0004 
         3.0004 
 -15371595.92549 -11977832.73346  22562339.6584   22562336.5264        353.0004 
        13.0004 
 04  3  1  0 47 30.0000000  0  8G04G05G07G08G10G13G17G24
 -14445819.53049 -11256445.73846  22027046.6984   22027045.1544        472.0004 
        21.0004 
  -2674381.06648         0.000          -0.244    24620866.6454        129.0004 
         0.000  
 -24238987.49949 -18887489.46247  20447098.6674   20447096.1074        740.0004 
        68.0004 
   -197241.11848         0.000          -0.134    25214519.9064        113.0004 
         0.000  
 -15879936.57049 -12373955.30146  22330596.1544   22330593.0934        386.0004 
        18.0004 
 -12348451.13449  -9622110.68346  22619371.1844   22619369.9534        394.0004 
        15.0004 
  -3521822.99048  -2744274.23944  23885967.5194   23885962.9204        144.0004 
         2.0004 
 -15392775.26549 -11994336.10946  22558309.4054   22558306.3214        355.0004 
        13.0004 
 04  3  1  0 48  0.0000000  0  8G04G05G07G08G10G13G17G24
 -14438552.74749 -11250783.30146  22028429.3714   22028427.8634        466.0004 
        22.0004 
  -2742395.43848  -2136930.01344  24607928.8994   24607924.1984        133.0004 
         2.0004 
 -24224609.98749 -18876286.20447  20449834.5044   20449831.8934        730.0004 
        68.0004 
   -190455.41148         0.000          -0.134    25215810.8524        110.0004 
         0.000  
 -15946816.74249 -12426069.70146  22317869.4314   22317866.1514        389.0004 
        18.0004 
 -12348641.53849  -9622259.04546  22619335.4164   22619333.8264        397.0004 
        15.0004 
  -3559394.47248  -2773550.66844  23878818.1874   23878813.8544        156.0004 
         3.0004 
 -15413922.44749 -12010814.41346  22554284.9894   22554282.2674        359.0004 
        13.0004 
 04  3  1  0 48 30.0000000  0  8G04G05G07G08G10G13G17G24
 -14431319.36749 -11245146.89946  22029805.7544   22029804.4304        469.0004 
        22.0004 
  -2810046.84148         0.000          -0.244    24595050.6384        138.0004 
         0.000  
 -24209800.18849 -18864746.10047  20452652.8914   20452650.2724        737.0004 
        69.0004 
   -183983.34748         0.000          -0.134    25217042.6494        112.0004 
         0.000  
 -16013317.28749 -12477888.29146  22305215.2094   22305211.7454        398.0004 
        18.0004 
 -12348358.59849  -9622038.55646  22619389.0024   22619387.5374        395.0004 
        15.0004 
  -3596833.38648  -2802723.84644  23871693.2044   23871688.5604        143.0004 
         3.0004 
 -15435036.95349 -12027267.26246  22550267.2654   22550264.1144        356.0004 
        13.0004 
 04  3  1  0 49  0.0000000  0  8G04G05G07G08G10G13G17G24
 -14424126.57049 -11239542.11546  22031175.1774   22031173.2354        466.0004 
        22.0004 
  -2877340.55348  -2242082.03844  24582248.8714   24582244.7954        135.0004 
         2.0004 
 -24194564.22949 -18852873.91947  20455552.2604   20455549.5464        735.0004 
        68.0004 
   -177831.55748         0.000          -0.134    25218213.1824        106.0004 
         0.000  
 -16079443.83749 -12529415.46146  22292631.0394   22292628.2694        411.0004 
        19.0004 
 -12347608.06849  -9621453.71546  22619531.5754   22619530.5284        401.0004 
        15.0004 
  -3634147.60348  -2831799.86144  23864591.5034   23864588.5914        155.0004 
         3.0004 
 -15456126.61449 -12043700.74846  22546254.4744   22546251.1804        365.0004 
        13.0004 
 04  3  1  0 49 30.0000000  0  8G04G05G07G08G10G13G17G24
 -14416976.46549 -11233970.59946  22032535.4544   22032533.5004        454.0004 
        22.0004 
  -2944276.95148  -2294240.24244  24569513.4184   24569507.9274        146.0004 
         2.0004 
 -24178903.26449 -18840670.56747  20458532.4394   20458529.7194        731.0004 
        68.0004 
   -172001.30847         0.000          -0.134    25219322.4554         94.0004 
         0.000  
 -16145197.16749 -12580651.80746  22280118.7564   22280115.9674        422.0004 
        20.0004 
 -12346390.79249  -9620505.17746  22619762.6484   22619761.9994        398.0004 
        14.0004 
  -3671340.11848  -2860781.02644  23857514.3054   23857511.2124        154.0004 
         3.0004 
 -15477194.25149 -12060117.07946  22542245.0044   22542241.9904        363.0004 
        13.0004 
 04  3  1  0 50  0.0000000  0  8G04G05G07G08G10G13G17G24
 -14409856.58249 -11228422.63246  22033890.3464   22033888.7224        466.0004 
        22.0004 
  -3010841.22748  -2346108.47544  24556842.5674   24556841.9674        166.0004 
         3.0004 
 -24162803.50849 -18828125.30147  20461596.0954   20461593.3724        728.0004 
        68.0004 
   -166479.49047         0.000          -0.134    25220373.1384         91.0004 
         0.000  
 -16210563.25149 -12631586.40846  22267680.6824   22267677.4344        437.0004 
        20.0004 
 -12344692.55249  -9619181.86046  22620086.2794   22620085.1534        397.0004 
        15.0004 
  -3708398.97948  -2889658.03044  23850462.1194   23850458.7984        151.0004 
         3.0004 
 -15498227.69649 -12076506.76246  22538242.3574   22538239.5834        365.0004 
        13.0004 
 04  3  1  0 50 30.0000000  0  8G04G05G07G08G10G13G17G24
 -14402768.34349 -11222899.33246  22035238.9694   22035237.8034        472.0004 
        22.0004 
  -3077033.25948  -2397686.66044  24544248.0674   24544245.3064        155.0004 
         2.0004 
 -24146265.35449 -18815238.42947  20464743.0974   20464740.4314        725.0004 
        68.0004 
   -161266.58748         0.000          -0.134    25221365.7084        114.0004 
         0.000  
 -16275542.10149 -12682219.27046  22255315.0384   22255311.9274        429.0004 
        20.0004 
 -12342513.44349  -9617483.83546  22620500.6784   22620500.1274        405.0004 
        14.0004 
  -3745326.76748  -2918432.93944  23843436.7394   23843432.0164        158.0004 
         3.0004 
 -15519229.08849 -12092871.46546  22534245.7794   22534242.8234        360.0004 
        13.0004 
 04  3  1  0 51  0.0000000  0  8G04G05G07G08G10G13G17G24
 -14395717.42349 -11217405.10346  22036581.1054   22036579.2914        463.0004 
        21.0004 
  -3142857.13948  -2448978.01644  24531722.8164   24531719.1594        143.0004 
         2.0004 
 -24129293.64949 -18802013.72347  20467972.6504   20467970.0024        724.0004 
        68.0004 
   -156367.47248         0.000          -0.134    25222297.7774        103.0004 
         0.000  
 -16340138.07449 -12732553.77746  22243023.3084   22243019.8694        437.0004 
        20.0004 
 -12339858.04649  -9615414.68246  22621005.6384   22621005.2724        401.0004 
        14.0004 
  -3782129.87548  -2947110.66444  23836434.5824   23836428.5784        160.0004 
         3.0004 
 -15540205.08949 -12109216.39246  22530254.3524   22530251.4984        365.0004 
        13.0004 
 04  3  1  0 51 30.0000000  0  8G04G05G07G08G10G13G17G24
 -14388709.25249 -11211944.18646  22037914.7144   22037912.5904        453.0004 
        22.0004 
  -3208316.17548  -2499985.03944  24519265.8854   24519262.9814        147.0004 
         2.0004 
 -24111892.77049 -18788454.59347  20471283.9624   20471281.3574        725.0004 
        67.0004 
   -151787.12347         0.000          -0.134    25223169.4714         91.0004 
         0.000  
 -16404355.31849 -12782593.17646  22230802.5994   22230799.6684        439.0004 
        20.0004 
 -12336730.19349  -9612977.37146  22621601.4734   22621600.6474        404.0004 
        14.0004 
  -3818814.68848  -2975696.21244  23829454.4634   23829447.5354        153.0004 
         3.0004 
 -15561161.71149 -12125546.21746  22526265.7824   22526263.3984        364.0004 
        13.0004 
 04  3  1  0 52  0.0000000  0  8G04G05G07G08G10G13G17G24
 -14381740.30649 -11206513.83346  22039240.3914   22039238.7844        455.0004 
        21.0004 
  -3273404.68748  -2550703.34244  24506879.7604   24506877.3194        161.0004 
         2.0004 
 -24094058.27149 -18774557.58047  20474677.9194   20474675.1534        723.0004 
        67.0004 
   -147520.97747         0.000          -0.134    25223981.0544         76.0004 
         0.000  
 -16468189.03449 -12832333.72546  22218656.1194   22218652.7184        449.0004 
        20.0004 
 -12333124.88949  -9610168.03646  22622287.7434   22622286.7724        406.0004 
        14.0004 
  -3855378.42948  -3004187.42944  23822493.0814   23822489.6094        156.0004 
         3.0004 
 -15582095.65749 -12141858.37246  22522282.5124   22522280.1794        371.0004 
        13.0004 
 04  3  1  0 52 30.0000000  0  7G04G05G07G10G13G17G24
 -14374816.55049 -11201118.69446  22040558.0404   22040556.5364        464.0004 
        22.0004 
  -3338127.40148  -2601136.62944  24494561.4604   24494560.2874        153.0004 
         2.0004 
 -24075795.22749 -18760326.63647  20478153.1514   20478150.4934        722.0004 
        66.0004 
 -16531643.90449 -12881779.06646  22206580.7004   22206577.7974        464.0004 
        21.0004 
 -12329046.99249  -9606990.43846  22623063.0594   22623062.5114        400.0004 
        14.0004 
  -3891828.03548  -3032589.73444  23815559.1274   23815553.8144        162.0004 
         3.0004 
 -15603014.23349 -12158158.55146  22518301.5484   22518299.1324        363.0004 
        13.0004 
 04  3  1  0 53  0.0000000  0  7G04G05G07G10G13G17G24
 -14367941.30749 -11195761.36146  22041866.1934   22041864.6804        459.0004 
        22.0004 
  -3402485.96348  -2651286.15244  24482314.6754   24482313.7364        152.0004 
         2.0004 
 -24057106.07849 -18745763.66447  20481709.3594   20481706.8304        721.0004 
        67.0004 
 -16594722.10449 -12930930.90246  22194576.7464   22194574.1114        452.0004 
        21.0004 
 -12324498.54549  -9603446.18446  22623928.3674   22623928.1514        406.0004 
        15.0004 
  -3928167.75148  -3060906.37944  23808640.9304   23808638.2444        156.0004 
         3.0004 
 -15623921.27549 -12174449.73546  22514323.3094   22514320.8754        368.0004 
        13.0004 
 04  3  1  0 53 30.0000000  0  7G04G05G07G10G13G17G24
 -14361092.21649 -11190424.39946  22043169.3974   22043168.1364        461.0004 
        22.0004 
  -3466456.53848  -2701133.35844  24470142.5884   24470140.1204        149.0004 
         2.0004 
 -24037967.60449 -18730850.56747  20485351.3374   20485348.8824        726.0004 
        67.0004 
 -16657399.82049 -12979770.66646  22182649.5374   22182647.1234        456.0004 
        21.0004 
 -12319455.97649  -9599516.89246  22624888.2074   22624887.6504        403.0004 
        14.0004 
  -3964376.24348  -3089120.78344  23801750.5554   23801748.1234        157.0004 
         3.0004 
 -15644795.00349 -12190714.96246  22510351.3264   22510348.6974        368.0004 
        13.0004 
 04  3  1  0 54  0.0000000  0  7G04G05G07G10G13G17G24
 -14354278.26949 -11185114.82646  22044466.6074   22044464.7724        460.0004 
        21.0004 
  -3530046.06148  -2750683.64144  24458041.4424   24458039.3044        160.0004 
         2.0004 
 -24018388.02249 -18715593.74547  20489077.2064   20489074.6754        724.0004 
        67.0004 
 -16719684.90449 -13028304.48746  22170797.3644   22170794.7194        455.0004 
        21.0004 
 -12313927.22649  -9595208.76246  22625940.3654   22625939.7834        403.0004 
        14.0004 
  -4000463.55448  -3117240.73744  23794886.0054   23794880.7894        155.0004 
         3.0004 
 -15665645.39149 -12206962.00346  22506383.7764   22506381.1324        367.0004 
        13.0004 
 04  3  1  0 54 30.0000000  0  8G04G05G07G10G13G17G24G28
 -14347501.95649 -11179834.57846  22045755.8804   22045754.3444        465.0004 
        22.0004 
  -3593255.68348  -2799937.89944  24446013.3274   24446011.1904        167.0004 
         3.0004 
 -23998369.08349 -18699994.57147  20492886.7224   20492884.2054        727.0004 
        67.0004 
 -16781578.70249 -13076533.40746  22159019.6274   22159016.4684        448.0004 
        21.0004 
 -12307913.65749  -9590522.85346  22627084.7104   22627084.3034        408.0004 
        14.0004 
  -4036433.00048  -3145268.87444  23788040.9474   23788035.7494        149.0004 
         3.0004 
 -15686475.42249 -12223193.18446  22502419.5714   22502417.0454        363.0004 
        13.0004 
        -0.01158         0.56955  23360011.1335   23360009.0175        280.0005 
         8.0005 
 04  3  1  0 55  0.0000000  0  8G04G05G07G10G13G17G24G28
 -14340763.66849 -11174583.95046  22047037.8264   22047036.5084        461.0004 
        22.0004 
  -3656083.94448  -2848894.99644  24434056.8064   24434055.6434        168.0004 
         3.0004 
 -23977910.11149 -18684052.51247  20496780.0294   20496777.5584        733.0004 
        67.0004 
 -16843080.25149 -13124456.67846  22147315.7274   22147313.2184        451.0004 
        21.0004 
 -12301414.29749  -9585458.41046  22628321.6884   22628321.0494        404.0004 
        15.0004 
  -4072285.65648  -3173206.00044  23781217.1964   23781213.0054        153.0004 
         3.0004 
 -15707285.70349 -12239408.97846  22498459.6184   22498456.9684        361.0004 
        14.0004 
     95071.86448     74082.54045  23378100.8604   23378100.5214        279.0004 
         7.0004 
 04  3  1  0 55 30.0000000  0  8G04G05G07G10G13G17G24G28
 -14334072.43249 -11169370.00246  22048311.3704   22048310.0084        467.0004 
        22.0004 
  -3718538.44748  -2897560.84144  24422174.0844   24422170.6134        169.0004 
         3.0004 
 -23957019.70349 -18667774.27247  20500755.4394   20500752.8714        732.0004 
        67.0004 
 -16904197.77549 -13172080.70446  22135685.7634   22135682.9774        450.0004 
        21.0004 
 -12294437.16849  -9580021.66046  22629650.0274   22629648.6524        398.0004 
        14.0004 
  -4108031.88248  -3201060.19744  23774412.8544   23774411.1954        158.0004 
         3.0004 
 -15728086.48849 -12255617.37246  22494501.9544   22494498.7804        363.0004 
        14.0004 
    190160.05548    148177.22045  23396197.2514   23396195.4734        279.0004 
         8.0004 
 04  3  1  0 56  0.0000000  0  8G04G05G07G10G13G17G24G28
 -14327417.44449 -11164184.29146  22049577.7364   22049576.3114        467.0004 
        22.0004 
  -3780606.85048  -2945925.85644  24410359.8594   24410359.4984        169.0004 
         3.0004 
 -23935686.18449 -18651150.75047  20504814.9894   20504812.3694        726.0004 
        67.0004 
 -16964919.22949 -13219396.10546  22124131.1624   22124128.0664        447.0004 
        21.0004 
 -12286970.55649  -9574203.51146  22631069.7354   22631069.4114        395.0004 
        13.0004 
  -4143661.72648  -3228823.70044  23767636.3874   23767631.3774        161.0004 
         3.0004 
 -15748867.77549 -12271810.57646  22490547.3754   22490544.1264        361.0004 
        14.0004 
    285273.09848    222291.26045  23414295.8974   23414294.3434        273.0004 
         8.0004 
 04  3  1  0 56 30.0000000  0  8G04G05G07G10G13G17G24G28
 -14320805.97449 -11159032.49146  22050835.9454   22050834.4324        469.0004 
        22.0004 
  -3842294.87948  -2993994.41844  24398624.5414   24398620.8694        162.0004 
         3.0004 
 -23913916.35349 -18634187.24247  20508957.6814   20508955.0164        724.0004 
        66.0004 
 -17025250.94349 -13266407.81846  22112650.3774   22112647.0694        436.0004 
        21.0004 
 -12279020.89349  -9568008.95846  22632582.3614   22632582.2764        394.0004 
        13.0004 
  -4179183.63748  -3256503.09444  23760873.8324   23760871.9334        164.0004 
         3.0004 
 -15769637.46449 -12287994.73946  22486594.7954   22486591.7684        360.0004 
        14.0004 
    380401.10848    296416.96545  23432397.7304   23432396.8744        273.0004 
         7.0004 
 04  3  1  0 57  0.0000000  0  8G04G05G07G10G13G17G24G28
 -14314229.69749 -11153908.11446  22052087.3864   22052085.8054        467.0004 
        22.0004 
  -3903592.37648  -3041758.70144  24386957.5794   24386955.8934        159.0004 
         3.0004 
 -23891700.90449 -18616876.49947  20513185.2174   20513182.5744        729.0004 
        67.0004 
 -17085183.30049 -13313108.33846  22101245.2194   22101242.1594        429.0004 
        21.0004 
 -12270578.42149  -9561430.39646  22634188.9094   22634188.4104        383.0004 
        13.0004 
  -4214590.11148  -3284092.52544  23754138.6034   23754133.6834        158.0004 
         3.0004 
 -15790387.57849 -12304163.63946  22482646.2144   22482643.0114        358.0004 
        14.0004 
    475550.05548    370558.98645  23450504.6934   23450503.2714        276.0004 
         7.0004 
 04  3  1  0 57 30.0000000  0  8G04G05G07G10G13G17G24G28
 -14307696.74849 -11148817.49846  22053330.8314   22053328.9694        468.0004 
        22.0004 
  -3964506.52248  -3089224.26944  24375369.6594   24375364.3414        171.0004 
         3.0004 
 -23869047.49849 -18599224.49247  20517495.9204   20517493.2934        726.0004 
        66.0004 
 -17144723.35849 -13359503.16846  22089915.3454   22089912.0894        428.0004 
        21.0004 
 -12261650.50349  -9554473.57046  22635887.7974   22635887.5434        386.0004 
        13.0004 
  -4249890.35248  -3311599.17644  23747419.1374   23747415.4784        148.0004 
         3.0004 
 -15811127.35349 -12320324.48446  22478699.2114   22478696.3474        356.0004 
        14.0004 
    570709.28348    444709.02445  23468613.4964   23468611.4364        272.0004 
         7.0004 
 04  3  1  0 58  0.0000000  0  8G04G05G07G10G13G17G24G28
 -14301213.08949 -11143765.29146  22054564.3244   22054562.7144        469.0004 
        23.0004 
  -4025041.76448  -3136394.58344  24363847.4344   24363845.2624        180.0004 
         3.0004 
 -23845961.50949 -18581235.41147  20521888.9584   20521886.3224        723.0004 
        66.0004 
 -17203876.54349 -13405596.54246  22078658.7414   22078655.6504        428.0004 
        21.0004 
 -12252242.16149  -9547142.38046  22637678.3414   22637678.0424        390.0004 
        13.0004 
  -4285091.24048  -3339028.43944  23740719.5064   23740717.9514        164.0004 
         3.0004 
 -15831863.47949 -12336482.49246  22474753.4834   22474750.4434        353.0004 
        14.0004 
    665870.53948    518860.64145  23486720.8244   23486719.9584        274.0004 
         7.0004 
 04  3  1  0 58 30.0000000  0  8G04G05G07G10G13G17G24G28
 -14294775.24949 -11138748.78646  22055789.0314   22055788.0454        476.0004 
        22.0004 
  -4085192.91448  -3183265.60844  24352402.9434   24352398.7784        178.0004 
         3.0004 
 -23822438.86649 -18562906.08047  20526365.2794   20526362.5994        725.0004 
        66.0004 
 -17262638.17849 -13451384.80846  22067477.0144   22067473.7084        429.0004 
        21.0004 
 -12242348.99449  -9539433.42546  22639560.4764   22639560.6654        388.0004 
        11.0004 
  -4320190.55248  -3366378.54745  23734041.3784   23734039.4474        171.0004 
         4.0004 
 -15852593.02949 -12352635.36446  22470808.3684   22470805.9034        356.0004 
        13.0004 
    761034.81848    593014.59945  23504831.3134   23504828.9924        267.0004 
         7.0004 
 04  3  1  0 59  0.0000000  0  8G04G05G07G10G13G17G24G28
 -14288378.02049 -11133763.92546  22057007.1914   22057005.4284        480.0004 
        23.0004 
  -4144953.70748  -3229832.46344  24341030.8434   24341026.7234        180.0004 
         3.0004 
 -23798473.96549 -18544232.13147  20530925.6954   20530922.9814        726.0004 
        66.0004 
 -17321002.14249 -13496863.20146  22056370.2864   22056367.3754        431.0004 
        21.0004 
 -12231965.23249  -9531342.14646  22641537.1974   22641536.3814        379.0004 
        13.0004 
  -4355184.18048  -3393646.29444  23727383.7204   23727379.4884        156.0004 
         3.0004 
 -15873311.94949 -12368779.96646  22466865.7684   22466862.8734        347.0004 
        13.0004 
    856204.47848    667172.76045  23522940.5564   23522939.6674        276.0004 
         7.0004 
 04  3  1  0 59 30.0000000  0  8G04G05G07G10G13G17G24G28
 -14282015.12249 -11128805.82546  22058218.0594   22058216.1844        479.0004 
        23.0004 
  -4204315.98848  -3276088.80244  24329732.8944   24329730.9714        188.0004 
         3.0004 
 -23774059.87849 -18525208.16947  20535571.2204   20535568.8244        725.0004 
        65.0004 
 -17378961.43749 -13542026.27546  22045340.5344   22045337.9004        432.0004 
        21.0004 
 -12221083.77249  -9522863.07346  22643607.3874   22643606.9374        375.0004 
        12.0004 
  -4390066.80548  -3420827.55144  23720744.5894   23720741.1794        154.0004 
         3.0004 
 -15894014.23449 -12384911.59046  22462926.4334   22462923.4334        350.0004 
        13.0004 
    951383.47048    741338.20045  23541052.6684   23541051.3074        269.0004 
         7.0004 
 04  3  1  1  0  0.0000000  0  8G04G05G07G10G13G17G24G28
 -14275694.50149 -11123880.66146  22059420.6844   22059418.7564        472.0004 
        23.0004 
  -4263286.95848  -3322040.21244  24318510.9384   24318508.7214        181.0004 
         3.0004 
 -23749204.16849 -18505840.08247  20540301.3824   20540298.8444        730.0004 
        65.0004 
 -17436523.16849 -13586879.55146  22034387.2754   22034384.3684        436.0004 
        21.0004 
 -12209711.83249  -9514001.80946  22645771.3084   22645770.9444        373.0004 
        12.0004 
  -4424847.66548  -3447929.50044  23714125.3364   23714122.9814        161.0004 
         3.0004 
 -15914709.05049 -12401037.40846  22458987.8504   22458985.2354        351.0004 
        12.0004 
   1046561.33048    815502.74245  23559165.1304   23559162.9934        267.0004 
         7.0004 
 04  3  1  1  0 30.0000000  0  8G04G05G07G10G13G17G24G28
 -14269406.24949 -11118980.72046  22060616.9284   22060615.2424        472.0004 
        23.0004 
  -4321855.02848  -3367677.62944  24307362.9154   24307362.6884        167.0004 
         3.0004 
 -23723896.37249 -18486119.71947  20545117.1884   20545114.6524        726.0004 
        65.0004 
 -17493676.59049 -13631414.67146  22023511.0444   22023508.3394        438.0004 
        21.0004 
 -12197838.52449  -9504749.87346  22648031.5764   22648030.5954        379.0004 
        12.0004 
  -4459517.88548  -3474945.23644  23707526.0154   23707525.2174        158.0004 
         3.0004 
 -15935386.82949 -12417149.95246  22455053.6914   22455050.4804        353.0004 
        13.0004 
   1141745.59048    889672.28045  23577277.9734   23577275.7374        259.0004 
         7.0004 
 04  3  1  1  1  0.0000000  0  8G04G05G07G10G13G17G24G28
 -14263160.50149 -11114113.89546  22061805.3344   22061803.9694        481.0004 
        23.0004 
  -4380029.26148  -3413008.20444  24296296.3714   24296293.1454        176.0004 
         3.0004 
 -23698146.50349 -18466054.88647  20550017.1714   20550014.6504        721.0004 
        65.0004 
 -17550431.16449 -13675638.99746  22012710.8634   22012708.1764        443.0004 
        22.0004 
 -12185473.40549  -9495114.69846  22650383.9514   22650383.2784        372.0004 
        12.0004 
  -4494088.76948  -3501883.56145  23700950.1344   23700946.8074        162.0004 
         4.0004 
 -15956058.62349 -12433257.83346  22451119.3654   22451116.8324        354.0004 
        13.0004 
   1236923.38948    963836.76845  23595388.3774   23595387.4544        255.0004 
         6.0004 
 04  3  1  1  1 30.0000000  0  8G04G05G07G10G13G17G24G28
 -14256959.34749 -11109281.81846  22062985.7134   22062984.0754        483.0004 
        23.0004 
  -4437810.36148  -3458032.43044  24285299.5844   24285297.6994        173.0004 
         3.0004 
 -23671955.92249 -18445646.63747  20555000.8934   20554998.6124        723.0004 
        64.0004 
 -17606787.74049 -13719553.19846  22001987.3264   22001984.0254        452.0004 
        22.0004 
 -12172618.01349  -9485097.49146  22652829.5054   22652829.6074        369.0004 
        12.0004 
  -4528563.52748  -3528747.00244  23694387.4494   23694386.4824        162.0004 
         3.0004 
 -15976727.44549 -12449363.38946  22447186.6564   22447183.8384        359.0004 
        13.0004 
   1332090.30048   1037992.79645  23613496.9144   23613497.3934        252.0004 
         7.0004 
 04  3  1  1  2  0.0000000  0  8G04G05G07G10G13G17G24G28
 -14250796.66149 -11104479.72746  22064158.4194   22064156.7884        483.0004 
        22.0004 
  -4495191.07448  -3502744.64944  24274382.6714   24274378.4584        172.0004 
         3.0004 
 -23645318.28249 -18424890.03247  20560070.1064   20560067.6274        724.0004 
        64.0004 
 -17662739.65149 -13763152.06946  21991340.0854   21991336.8974        463.0004 
        23.0004 
 -12159265.39249  -9474692.84346  22655371.1054   22655370.6114        368.0004 
        12.0004 
  -4562936.97848  -3555531.46144  23687850.7274   23687845.4584        161.0004 
         3.0004 
 -15997387.89249 -12465462.42546  22443255.1594   22443251.9944        355.0004 
        13.0004 
   1427249.96848   1112143.14845  23631607.0624   23631605.9564        257.0004 
         7.0004 
 04  3  1  1  2 30.0000000  0  8G04G05G07G10G13G17G24G28
 -14244676.69649 -11099710.91746  22065322.5454   22065321.4884        487.0004 
        22.0004 
  -4552174.76548  -3547147.54644  24263537.7184   24263534.9324        181.0004 
         3.0004 
 -23618237.59949 -18403788.19947  20565223.3254   20565220.8564        721.0004 
        64.0004 
 -17718290.78949 -13806438.65946  21980768.3924   21980765.7894        468.0004 
        23.0004 
 -12145419.28449  -9463903.66246  22658005.8994   22658005.4884        371.0004 
        12.0004 
  -4597214.76748  -3582241.41244  23681325.9764   23681322.8804        163.0004 
         3.0004 
 -16018044.91849 -12481558.78546  22439324.4984   22439321.2924        357.0004 
        14.0004 
   1522395.47348   1186282.49245  23649711.8494   23649711.1574        245.0004 
         6.0004 
 04  3  1  1  3  0.0000000  0  8G04G05G07G10G13G17G24G28
 -14238611.95549 -11094985.14446  22066476.7704   22066475.3964        482.0004 
        22.0004 
  -4608772.25848  -3591249.48844  24252768.8124   24252764.7974        179.0004 
         2.0004 
 -23590725.97849 -18382350.57047  20570458.5894   20570456.0214        714.0004 
        64.0004 
 -17773452.32349 -13849421.65946  21970271.6574   21970269.0194        482.0004 
        24.0004 
 -12131091.77649  -9452739.35746  22660732.2984   22660731.7324        369.0004 
        12.0004 
  -4631410.33248  -3608887.31144  23674819.1894   23674815.3134        159.0004 
         3.0004 
 -16038711.72249 -12497662.77246  22435391.7944   22435388.3554        354.0004 
        14.0004 
   1617511.97348   1260399.22345  23667812.2504   23667811.6094        245.0004 
         6.0004 
 04  3  1  1  3 30.0000000  0  7G04G05G07G10G13G17G24
 -14232583.09749 -11090287.33246  22067624.1954   22067622.7324        486.0004 
        22.0004 
  -4664963.48048  -3635034.87344  24242075.1384   24242072.1434        177.0004 
         2.0004 
 -23562763.72449 -18360561.79947  20575779.6304   20575777.1084        715.0004 
        64.0004 
 -17828204.59149 -13892085.75546  21959852.5374   21959849.9804        492.0004 
        25.0004 
 -12116262.71249  -9441184.23146  22663554.2464   22663553.5904        363.0004 
        12.0004 
  -4665505.66248  -3635455.07244  23668329.3084   23668327.7384        169.0004 
         3.0004 
 -16059369.89349 -12513760.03346  22431459.9634   22431457.2264        352.0004 
        13.0004 
 04  3  1  1  4  0.0000000  0  7G04G05G07G10G13G17G24
 -14226596.33649 -11085622.31646  22068763.3394   22068761.8904        484.0004 
        23.0004 
  -4720753.24648  -3678507.40744  24231458.0894   24231455.3134        170.0004 
         3.0004 
 -23534356.89949 -18338426.61147  20581185.4314   20581182.7294        712.0004 
        64.0004 
 -17882553.19249 -13934435.30246  21949510.7874   21949507.8704        497.0004 
        25.0004 
 -12100937.90349  -9429242.81346  22666470.7334   22666469.9884        368.0004 
        12.0004 
  -4699508.03948  -3661950.39444  23661859.3664   23661856.6064        162.0004 
         3.0004 
 -16080025.97649 -12529855.66346  22427529.0564   22427526.3134        350.0004 
        13.0004 
 04  3  1  1  4 30.0000000  0  8G04G05G07G10G13G17G24G29
 -14220648.09249 -11080987.31846  22069895.3424   22069894.0494        489.0004 
        22.0004 
  -4776137.20348  -3721663.71444  24220922.2634   24220916.1264        169.0004 
         3.0004 
 -23505501.85249 -18315942.15947  20586676.1714   20586673.6284        710.0004 
        63.0004 
 -17936493.83249 -13976466.95746  21939246.2444   21939243.3204        507.0004 
        25.0004 
 -12085113.42349  -9416912.03246  22669481.6534   22669481.2904        371.0004 
        12.0004 
  -4733415.40148  -3688371.69644  23655408.1544   23655404.1314        161.0004 
         3.0004 
 -16100677.48049 -12545947.73546  22423599.7684   22423596.6224        355.0004 
        14.0004 
        -0.72658         0.000           0.282    25463272.6575        111.0005 
         0.000  
 04  3  1  1  5  0.0000000  0  8G04G05G07G10G13G17G24G29
 -14214741.88949 -11076385.07446  22071018.9534   22071017.7894        484.0004 
        22.0004 
  -4831117.29448  -3764505.34244  24210456.2024   24210453.4604        168.0004 
         3.0004 
 -23476201.75949 -18293110.91647  20592251.9544   20592249.3654        713.0004 
        64.0004 
 -17990029.37549 -14018182.95446  21929058.5424   21929055.7734        509.0004 
        26.0004 
 -12068792.29649  -9404194.26146  22672587.7924   22672587.2574        373.0004 
        13.0004 
  -4767232.30248  -3714722.49944  23648973.3484   23648969.5254        168.0004 
         3.0004 
 -16121328.81149 -12562039.66446  22419669.7224   22419667.0774        361.0004 
        14.0004 
    -95203.32647         0.000           0.282    25445156.3274         95.0004 
         0.000  
 04  3  1  1  5 30.0000000  0  8G04G05G07G10G13G17G24G29
 -14208872.21849 -11071811.30146  22072136.3524   22072134.6404        481.0004 
        22.0004 
  -4885687.29648  -3807027.44144  24200068.5494   24200069.3474        176.0004 
         3.0004 
 -23446450.97649 -18269928.48747  20597913.2034   20597910.6624        712.0004 
        64.0004 
 -18043153.86849 -14059578.65446  21918949.1024   21918946.5424        516.0004 
        26.0004 
 -12051968.50549  -9391084.80246  22675789.1874   22675788.3784        365.0004 
        12.0004 
  -4800954.15048  -3740999.23744  23642556.1064   23642552.2144        163.0004 
         3.0004 
 -16141974.94149 -12578127.54146  22415740.9064   22415738.0034        358.0004 
        14.0004 
   -190604.46847         0.000           0.282    25427002.2494         94.0004 
         0.000  
 04  3  1  1  6  0.0000000  0  8G04G05G07G10G13G17G24G29
 -14203048.65649 -11067273.46146  22073244.4634   22073243.0884        484.0004 
        22.0004 
  -4939855.89148  -3849236.72544  24189765.5294   24189761.7284        179.0004 
         3.0004 
 -23416259.15649 -18246402.39147  20603658.6714   20603656.0014        712.0004 
        64.0004 
 -18095876.60249 -14100661.29346  21908916.2294   21908913.4914        511.0004 
        27.0004 
 -12034651.59649  -9377591.09546  22679084.4014   22679083.7054        366.0004 
        12.0004 
  -4834592.24948  -3767210.70944  23636154.4124   23636151.0224        166.0004 
         3.0004 
 -16162626.84649 -12594219.91946  22411811.3324   22411808.2384        363.0004 
        14.0004 
   -286212.12547         0.000           0.282    25408808.3284         89.0004 
         0.000  
 04  3  1  1  6 30.0000000  0  8G04G05G07G10G13G17G24G29
 -14197259.81649 -11062762.67246  22074345.8474   22074344.4064        481.0004 
        22.0004 
  -4993610.66848  -3891123.54244  24179536.7224   24179532.0294        172.0004 
         3.0004 
 -23385614.59049 -18222523.50647  20609489.8324   20609487.4334        714.0004 
        64.0004 
 -18148185.43649 -14141421.42046  21898962.3314   21898959.4964        513.0004 
        27.0004 
 -12016829.51349  -9363703.74946  22682475.3174   22682474.8284        360.0004 
        13.0004 
  -4868136.28348  -3793348.94144  23629769.2344   23629768.2164        171.0004 
         3.0004 
 -16183273.46649 -12610308.17846  22407882.6124   22407879.1854        360.0004 
        15.0004 
   -382012.97148         0.000           0.282    25390578.3844        104.0004 
         0.000  
 04  3  1  1  7  0.0000000  0  8G04G05G07G10G13G17G24G29
 -14191519.26649 -11058289.50946  22075438.5904   22075436.8534        478.0004 
        22.0004 
  -5046964.56848  -3932698.00944  24169384.8274   24169379.7934        185.0004 
         3.0004 
 -23354530.91549 -18198302.46047  20615405.2904   20615402.6644        723.0004 
        64.0004 
 -18200093.57149 -14181869.30646  21889084.5844   21889081.8554        521.0004 
        28.0004 
 -11998515.80149  -9349433.30646  22685960.7224   22685960.0474        366.0004 
        12.0004 
  -4901601.12848  -3819425.39945  23623401.0764   23623400.0694        171.0004 
         4.0004 
 -16203929.32749 -12626403.63946  22403951.8994   22403948.4324        361.0004 
        14.0004 
   -478018.71048         0.000           0.282    25372308.8854        112.0004 
         0.000  
 04  3  1  1  7 30.0000000  0  8G04G05G07G10G13G17G24G29
 -14185828.17049 -11053854.88346  22076521.2144   22076519.7574        477.0004 
        22.0004 
  -5099916.99648  -3973959.62044  24159305.8094   24159302.9664        186.0004 
         3.0004 
 -23323009.06149 -18173739.97547  20621403.5044   20621400.9714        721.0004 
        64.0004 
 -18251601.63749 -14222005.44946  21879282.9474   21879280.1824        520.0004 
        28.0004 
 -11979711.24949  -9334780.39846  22689540.0194   22689538.2914        363.0004 
        13.0004 
  -4934988.84448  -3845441.78345  23617048.0044   23617046.5224        173.0004 
         4.0004 
 -16224596.51049 -12642507.92446  22400018.1014   22400015.4464        357.0004 
        14.0004 
   -574228.24448         0.000           0.282    25354000.5044        118.0004 
         0.000  
 04  3  1  1  8  0.0000000  0  8G04G05G07G10G13G17G24G29
 -14180178.57149 -11049452.60046  22077596.3724   22077594.9224        478.0004 
        22.0004 
  -5152459.71448  -4014902.01344  24149304.8234   24149304.1594        175.0004 
         3.0004 
 -23291041.15549 -18148829.91847  20627486.6634   20627484.2184        722.0004 
        64.0004 
 -18302701.48449 -14261823.49646  21869558.9754   21869556.1464        519.0004 
        28.0004 
 -11960408.03449  -9319738.92046  22693212.4094   22693211.9104        375.0004 
        12.0004 
  -4968293.14648  -3871393.17844  23610713.6704   23610708.3094        161.0004 
         3.0004 
 -16245267.80749 -12658615.41346  22396085.0614   22396081.9124        363.0004 
        14.0004 
   -670632.03648         0.000           0.282    25335654.9194        100.0004 
         0.000  
 04  3  1  1  8 30.0000000  0  8G04G05G07G10G13G17G24G29
 -14174567.06149 -11045079.99246  22078664.4584   22078662.8374        477.0004 
        22.0004 
  -5204588.47148  -4055521.81744  24139385.5264   24139384.8744        186.0004 
         3.0004 
 -23258623.87449 -18123569.69947  20633655.6164   20633653.1634        729.0004 
        65.0004 
 -18353389.36249 -14301320.53446  21859913.5004   21859910.5934        520.0004 
        29.0004 
 -11940602.10049  -9304305.71346  22696981.2024   22696980.6064        369.0004 
        13.0004 
  -5001511.57648  -3897277.63944  23604390.8024   23604387.5404        171.0004 
         3.0004 
 -16265940.14349 -12674723.71346  22392151.0634   22392148.0064        361.0004 
        14.0004 
   -767224.79147         0.000           0.282    25317273.7704         95.0004 
         0.000  
 04  3  1  1  9  0.0000000  0  8G04G05G07G10G13G17G24G29
 -14169001.41749 -11040743.12146  22079723.7434   22079721.9434        480.0004 
        22.0004 
  -5256309.85848  -4095824.18944  24129543.9294   24129542.3664        181.0004 
         3.0004 
 -23225765.04149 -18097965.41247  20639908.5434   20639906.0214        728.0004 
        64.0004 
 -18403672.63749 -14340502.29146  21850344.8164   21850342.0734        525.0004 
        29.0004 
 -11920301.13549  -9288486.77646  22700844.8594   22700843.9194        373.0004 
        13.0004 
  -5034653.67848  -3923102.62944  23598086.4504   23598081.2044        178.0004 
         3.0004 
 -16286622.54049 -12690839.85046  22388214.8274   22388212.1944        362.0004 
        14.0004 
   -864012.32547         0.000           0.282    25298855.5244         86.0004 
         0.000  
 04  3  1  1  9 30.0000000  0  8G04G05G07G10G13G17G24G29
 -14163473.21749 -11036435.43246  22080775.4384   22080773.9794        478.0004 
        22.0004 
  -5307615.00648  -4135802.21744  24119784.0044   24119779.3564        178.0004 
         3.0004 
 -23192456.48449 -18072010.69247  20646246.7644   20646244.2384        720.0004 
        64.0004 
 -18453542.70549 -14379362.06846  21840854.9384   21840852.1364        524.0004 
        28.0004 
 -11899496.72849  -9272275.53346  22704803.1134   22704802.9464        376.0004 
        13.0004 
  -5067712.21348  -3948862.51545  23591791.9214   23591789.7334        173.0004 
         4.0004 
 -16307307.56149 -12706958.03446  22384279.0954   22384276.1794        366.0004 
        15.0004 
   -960984.35847         0.000           0.282    25280402.8174         91.0004 
         0.000  
 04  3  1  1 10  0.0000000  0  8G04G05G07G10G13G17G24G29
 -14157982.67149 -11032157.08146  22081820.4294   22081818.7044        475.0004 
        22.0004 
  -5358503.33848  -4175455.44944  24110098.4034   24110095.3944        176.0004 
         3.0004 
 -23158698.36649 -18045705.66247  20652670.8384   20652668.3174        726.0004 
        65.0004 
 -18502999.23049 -14417899.60446  21831443.4714   21831440.8774        525.0004 
        28.0004 
 -11878188.90449  -9255672.02346  22708858.4614   22708857.8284        379.0004 
        12.0004 
  -5100688.43948  -3974558.25045  23585517.6754   23585514.3204        169.0004 
         4.0004 
 -16327995.88149 -12723078.78146  22380342.4744   22380339.2054        364.0004 
        15.0004 
  -1058139.27847         0.000           0.282    25261915.0424         94.0004 
         0.000  
 04  3  1  1 10 30.0000000  0  8G04G05G07G10G13G17G24G29
 -14152537.40549 -11027914.01346  22082856.4444   22082854.9084        473.0004 
        22.0004 
  -5408981.77948  -4214789.31244  24100494.2744   24100490.0394        187.0004 
         3.0004 
 -23124498.47649 -18019056.39747  20659178.8134   20659176.3434        727.0004 
        65.0004 
 -18552049.77949 -14456120.79646  21822109.6264   21822106.7624        518.0004 
        29.0004 
 -11856385.53949  -9238682.38046  22713006.9424   22713006.3434        365.0004 
        12.0004 
  -5133591.54248  -4000197.00544  23579256.0834   23579253.3514        172.0004 
         3.0004 
 -16348696.30649 -12739208.97246  22376402.9764   22376399.8394        361.0004 
        15.0004 
  -1155482.72747         0.000           0.282    25243391.1404         99.0004 
         0.000  
 04  3  1  1 11  0.0000000  0  8G04G05G07G10G13G17G24G29
 -14147136.69449 -11023705.66446  22083883.7064   22083882.5944        470.0004 
        22.0004 
  -5459048.59848  -4253802.41445  24090967.0484   24090963.1974        196.0004 
         4.0004 
 -23089856.17249 -17992062.39347  20665771.0594   20665768.5324        724.0004 
        64.0004 
 -18600693.20449 -14494024.74646  21812853.1744   21812850.1514        516.0004 
        29.0004 
 -11834085.70349  -9221305.87546  22717250.8014   22717250.1404        372.0004 
        12.0004 
  -5166421.98948  -4025779.17644  23573009.0044   23573005.8294        172.0004 
         3.0004 
 -16369408.72349 -12755348.50346  22372462.1704   22372458.3194        357.0004 
        15.0004 
  -1253012.05548         0.000           0.282    25224831.4024        102.0004 
         0.000  
 04  3  1  1 11 30.0000000  0  8G04G05G07G10G13G17G24G29
 -14141766.70249 -11019521.24846  22084905.6794   22084904.2214        464.0004 
        22.0004 
  -5508689.70848  -4292483.79144  24081518.1054   24081515.1924        175.0004 
         3.0004 
 -23054758.08149 -17964713.23147  20672450.0394   20672447.5834        728.0004 
        64.0004 
 -18648915.67649 -14531600.68346  21803676.2874   21803673.4214        504.0004 
        28.0004 
 -11811275.71049  -9203531.84446  22721590.8214   22721590.6644        374.0004 
        12.0004 
  -5199167.44348  -4051295.08745  23566778.0524   23566774.5124        171.0004 
         4.0004 
 -16390120.04949 -12771487.18846  22368520.1364   22368516.9624        357.0004 
        14.0004 
  -1350711.50748         0.000           0.282    25206240.0284        104.0004 
         0.000  
 04  3  1  1 12  0.0000000  0  8G04G05G07G10G13G17G24G29
 -14136427.77049 -11015361.03746  22085921.7164   22085920.3184        466.0004 
        21.0004 
  -5557904.67748  -4330833.11344  24072154.6944   24072150.6664        188.0004 
         3.0004 
 -23019204.75549 -17937009.33947  20679215.7284   20679213.1564        728.0004 
        64.0004 
 -18696717.47649 -14568848.82446  21794580.1024   21794577.1934        505.0004 
        28.0004 
 -11787955.92849  -9185360.57946  22726028.9774   22726028.2464        373.0004 
        12.0004 
  -5231829.70248  -4076746.20545  23560562.1014   23560559.2504        174.0004 
         4.0004 
 -16410831.30049 -12787625.80646  22364579.7594   22364576.0314        366.0004 
        15.0004 
  -1448579.42348         0.000           0.282    25187616.2864        104.0004 
         0.000  
 04  3  1  1 12 30.0000000  0  8G04G05G07G10G13G17G24G29
 -14131136.92749 -11011238.29346  22086928.3144   22086927.2064        465.0004 
        21.0004 
  -5606709.56148  -4368862.91244  24062867.1534   24062863.6874        192.0004 
         3.0004 
 -22983213.23549 -17908964.00047  20686064.4964   20686061.9854        720.0004 
        64.0004 
 -18744115.18649 -14605782.09546  21785560.7804   21785557.7494        506.0004 
        28.0004 
 -11764143.34049  -9166805.30846  22730560.3984   22730559.5644        370.0004 
        12.0004 
  -5264426.90148  -4102146.58945  23554362.0564   23554356.4664        178.0004 
         4.0004 
 -16431560.61849 -12803778.50446  22360634.3904   22360631.2354        365.0004 
        15.0004 
  -1546631.01148         0.000           0.282    25168957.9224        100.0004 
         0.000  
 04  3  1  1 13  0.0000000  0  8G04G05G07G10G13G17G24G29
 -14125884.83149 -11007145.74446  22087928.3154   22087926.6624        467.0004 
        21.0004 
  -5655094.63748  -4406565.56444  24053656.8674   24053655.9674        192.0004 
         3.0004 
 -22946774.76449 -17880570.38547  20692998.5894   20692996.0444        721.0004 
        63.0004 
 -18791099.69449 -14642393.38546  21776619.9434   21776617.0414        513.0004 
        28.0004 
 -11739828.82049  -9147858.91846  22735187.6714   22735186.5184        371.0004 
        12.0004 
  -5296951.34248  -4127490.29344  23548171.6164   23548166.6934        168.0004 
         3.0004 
 -16452299.63949 -12819938.76546  22356687.9814   22356684.8774        374.0004 
        15.0004 
  -1644855.34047         0.000           0.282    25150266.1924         95.0004 
         0.000  
 04  3  1  1 13 30.0000000  0  8G04G05G07G10G13G17G24G29
 -14120672.75449 -11003084.38246  22088920.2734   22088918.4574        463.0004 
        21.0004 
  -5703060.55148  -4443941.59645  24044532.2124   24044528.8424        199.0004 
         4.0004 
 -22909890.63949 -17851829.50747  20700017.4614   20700014.9434        723.0004 
        62.0004 
 -18837671.59749 -14678683.17046  21767757.7374   21767754.5314        506.0004 
        28.0004 
 -11715013.82749  -9128522.54746  22739908.9674   22739908.5324        368.0004 
        12.0004 
  -5329405.25748  -4152779.04645  23541995.8544   23541991.4334        178.0004 
         4.0004 
 -16473050.02749 -12836107.88646  22352739.2124   22352736.2044        372.0004 
        16.0004 
  -1743251.47047         0.000           0.282    25131541.8734         98.0004 
         0.000  
 04  3  1  1 14  0.0000000  0  8G04G05G07G10G13G17G24G29
 -14115507.64749 -10999059.62146  22089902.7654   22089901.3144        461.0004 
        21.0004 
  -5750613.65248  -4480995.96045  24035481.9554   24035479.2244        195.0004 
         4.0004 
 -22872568.41949 -17822747.25947  20707119.4964   20707116.9364        716.0004 
        63.0004 
 -18883838.42849 -14714657.30546  21758972.1044   21758969.1634        504.0004 
        28.0004 
 -11689705.54149  -9108801.79446  22744725.4234   22744724.2594        365.0004 
        12.0004 
  -5361797.55648  -4178019.78945  23535832.8144   23535826.8974        174.0004 
         4.0004 
 -16493819.72649 -12852292.05346  22348786.5394   22348783.8654        376.0004 
        15.0004 
  -1841824.59848         0.000           0.282    25112784.0924        106.0004 
         0.000  
 04  3  1  1 14 30.0000000  0  8G04G05G07G10G13G17G24G29
 -14110380.70149 -10995064.59346  22090878.2174   22090876.8904        459.0004 
        21.0004 
  -5797744.74448  -4517721.48145  24026513.3044   24026510.8544        201.0004 
         4.0004 
 -22834799.51349 -17793316.94347  20714306.6604   20714304.1814        717.0004 
        63.0004 
 -18929591.31349 -14750308.89146  21750265.4854   21750262.7404        510.0004 
        27.0004 
 -11663895.27349  -9088689.89146  22749636.9654   22749636.1974        374.0004 
        12.0004 
  -5394120.39848  -4203206.41544  23529678.1994   23529676.3444        177.0004 
         3.0004 
 -16514600.85349 -12868485.12746  22344832.4684   22344829.4934        379.0004 
        15.0004 
  -1940563.82848  -1512125.56244  25094003.0654   25093994.1194        112.0004 
         2.0004 
 04  3  1  1 15  0.0000000  0  8G04G05G07G10G13G17G24G29
 -14105290.01149 -10991097.81446  22091847.0584   22091845.5634        456.0004 
        20.0004 
  -5844451.65348  -4554116.47744  24017624.7804   24017622.9584        202.0004 
         3.0004 
 -22796582.77049 -17763537.66547  20721579.0214   20721576.6624        719.0004 
        62.0004 
 -18974928.32949 -14785636.42446  21741638.1934   21741635.3254        512.0004 
        28.0004 
 -11637581.78349  -9068185.86646  22754643.6464   22754643.3414        374.0004 
        12.0004 
  -5426373.57848  -4228338.74844  23523541.6064   23523538.2584        173.0004 
         3.0004 
 -16535392.55449 -12884686.44446  22340875.6684   22340872.9244        378.0004 
        15.0004 
  -2039465.75348         0.000           0.282    25075173.1184        104.0004 
         0.000  
 04  3  1  1 15 30.0000000  0  8G04G05G07G10G13G17G24G29
 -14100248.93749 -10987169.70446  22092806.0234   22092804.8024        454.0004 
        21.0004 
  -5890746.89348  -4590190.67844  24008814.9744   24008813.1324        199.0004 
         3.0004 
 -22757931.61349 -17733419.87747  20728934.2564   20728931.7964        722.0004 
        62.0004 
 -19019862.72749 -14820650.23346  21733087.4864   21733084.7154        519.0004 
        29.0004 
 -11610778.15149  -9047299.91446  22759745.1614   22759744.2374        383.0004 
        13.0004 
  -5458571.61748  -4253428.10145  23517415.5284   23517411.5504        177.0004 
         4.0004 
 -16556208.49249 -12900906.64346  22336913.8554   22336911.7194        382.0004 
        15.0004 
  -2138541.48948         0.000           0.282    25056319.4054        100.0004 
         0.000  
 04  3  1  1 16  0.0000000  0  8G04G05G07G10G13G17G24G29
 -14095251.83449 -10983275.84646  22093757.3084   22093755.8654        457.0004 
        21.0004 
  -5936624.89248  -4625939.78545  24000084.0884   24000083.0334        208.0004 
         4.0004 
 -22718841.02249 -17702959.68047  20736372.9294   20736370.4354        717.0004 
        62.0004 
 -19064389.00049 -14855346.01346  21724614.3974   21724611.4684        516.0004 
        29.0004 
 -11583479.51049  -9026028.23146  22764939.4854   22764938.8634        381.0004 
        12.0004 
  -5490710.57548  -4278471.44244  23511300.0734   23511295.9234        183.0004 
         3.0004 
 -16577044.25649 -12917142.29146  22332949.2894   22332946.8694        387.0004 
        15.0004 
  -2237783.61347         0.000           0.282    25037433.9854         99.0004 
         0.000  
 04  3  1  1 16 30.0000000  0  8G04G05G07G10G13G17G24G29
 -14090282.74749 -10979403.82246  22094702.4694   22094701.1924        449.0004 
        21.0004 
  -5982069.21448  -4661350.94245  23991437.9254   23991434.6164        201.0004 
         4.0004 
 -22679295.51249 -17672144.99847  20743898.2714   20743895.6854        714.0004 
        62.0004 
 -19108491.08449 -14889711.26346  21716222.1184   21716219.2394        522.0004 
        29.0004 
 -11555670.19349  -9004358.62146  22770231.8444   22770230.5954        376.0004 
        12.0004 
  -5522775.67248  -4303457.21944  23505195.7834   23505193.6574        175.0004 
         3.0004 
 -16597884.41549 -12933381.36646  22328984.0174   22328981.3654        394.0004 
        16.0004 
  -2337174.25448         0.000           0.282    25018520.4914        106.0004 
         0.000  
 04  3  1  1 17  0.0000000  0  8G04G05G07G10G13G17G24G29
 -14085341.37849 -10975553.40246  22095643.2654   22095641.8054        457.0004 
        20.0004 
  -6027079.29348  -4696423.72945  23982872.1904   23982869.8374        203.0004 
         4.0004 
 -22639295.53349 -17640976.18547  20751509.8584   20751507.2414        702.0004 
        61.0004 
 -19152169.15649 -14923746.11446  21707910.2364   21707907.5834        528.0004 
        29.0004 
 -11527350.31349  -8982291.17346  22775620.2084   22775619.9624        387.0004 
        13.0004 
  -5554768.38848  -4328386.58545  23499109.9504   23499105.5714        176.0004 
         4.0004 
 -16618730.03449 -12949624.69346  22325016.7194   22325014.5704        397.0004 
        16.0004 
  -2436711.42248  -1898733.15644  24999586.1074   24999579.4194        112.0004 
         2.0004 
 04  3  1  1 17 30.0000000  0  8G04G05G07G10G13G17G24G29
 -14080433.12649 -10971728.78746  22096576.6154   22096575.6824        452.0004 
        20.0004 
  -6071659.90248  -4731161.86344  23974388.8274   23974386.4224        205.0004 
         3.0004 
 -22598846.86249 -17609457.73947  20759207.1304   20759204.4774        702.0004 
        61.0004 
 -19195428.79149 -14957454.90746  21699678.3704   21699675.8634        543.0004 
        30.0004 
 -11498525.92249  -8959830.60246  22781105.6654   22781104.9904        389.0004 
        12.0004 
  -5586695.58648  -4353264.92345  23493033.7834   23493030.2254        180.0004 
         4.0004 
 -16639587.09049 -12965876.92946  22321048.1464   22321045.5284        399.0004 
        16.0004 
  -2536398.49548         0.000           0.282    24980609.7864        112.0004 
         0.000  
 04  3  1  1 18  0.0000000  0  8G04G05G07G10G13G17G24G29
 -14075569.91949 -10967939.27246  22097502.7554   22097501.1574        453.0004 
        20.0004 
  -6115822.52748  -4765574.30445  23965984.8214   23965982.8894        214.0004 
         4.0004 
 -22557962.11549 -17577599.49847  20766987.3514   20766984.5994        700.0004 
        61.0004 
 -19238282.02949 -14990847.02946  21691523.4224   21691520.8774        536.0004 
        30.0004 
 -11469209.08749  -8936986.30446  22786685.2054   22786684.0104        397.0004 
        13.0004 
  -5618570.31948  -4378102.37245  23486968.0524   23486964.9134        185.0004 
         4.0004 
 -16660468.40949 -12982148.07646  22317074.5184   22317071.8434        396.0004 
        16.0004 
  -2636245.44948         0.000           0.282    24961609.3764        115.0004 
         0.000  
 04  3  1  1 18 30.0000000  0  8G04G05G07G10G13G17G24G29
 -14070754.47449 -10964186.97046  22098419.3394   22098417.5064        453.0004 
        20.0004 
  -6159569.84848  -4799663.13745  23957661.3184   23957657.8174        209.0004 
         4.0004 
 -22516644.62849 -17545404.05247  20774849.6514   20774846.9214        691.0004 
        60.0004 
 -19280731.83049 -15023924.78346  21683445.4904   21683442.8134        535.0004 
        30.0004 
 -11439403.33749  -8913761.03646  22792356.5574   22792355.5794        390.0004 
        13.0004 
  -5650397.05448  -4402902.42145  23480913.3904   23480908.5614        188.0004 
         4.0004 
 -16681377.61149 -12998440.94646  22313095.6004   22313093.1294        402.0004 
        16.0004 
  -2736253.41648  -2132141.89544  24942577.5674   24942577.9334        127.0004 
         2.0004 
 04  3  1  1 19  0.0000000  0  8G04G05G07G10G13G17G24G29
 -14065975.84449 -10960463.35546  22099328.3874   22099326.7704        449.0004 
        21.0004 
  -6202890.45848  -4833419.46245  23949416.9884   23949414.0114        207.0004 
         4.0004 
 -22474883.85849 -17512863.19447  20782796.3574   20782793.8054        691.0004 
        59.0004 
 -19322767.07649 -15056679.51146  21675446.3424   21675443.8214        540.0004 
        30.0004 
 -11409097.83049  -8890146.34946  22798123.4644   22798122.8274        398.0004 
        12.0004 
  -5682166.14148  -4427657.53645  23474866.2844   23474862.8404        186.0004 
         4.0004 
 -16702304.29949 -13014747.44246  22309113.0034   22309110.6714        402.0004 
        16.0004 
  -2836409.15348         0.000           0.282    24923518.0594        120.0004 
         0.000  
 04  3  1  1 19 30.0000000  0  8G04G05G07G10G13G17G24G29
 -14061229.00649 -10956764.51746  22100231.6144   22100230.1824        454.0004 
        21.0004 
  -6245779.77148  -4866839.68345  23941255.7774   23941252.2424        206.0004 
         4.0004 
 -22432675.96749 -17479973.92847  20790828.3254   20790825.8094        693.0004 
        59.0004 
 -19364383.62749 -15089107.98046  21667527.0644   21667524.5044        540.0004 
        30.0004 
 -11378288.72749  -8866139.24746  22803985.8404   22803985.2964        391.0004 
        12.0004 
  -5713874.52448  -4452365.35345  23468832.5934   23468829.1064        189.0004 
         4.0004 
 -16723244.74349 -13031064.66146  22305128.5164   22305125.8904        405.0004 
        16.0004 
  -2936706.13548         0.000           0.282    24904432.6794        111.0004 
         0.000  
 04  3  1  1 20  0.0000000  0  8G04G05G07G10G13G17G24G29
 -14056518.47249 -10953093.96746  22101128.1864   22101126.6444        456.0004 
        21.0004 
  -6288241.56048  -4899926.80145  23933173.9994   23933172.0574        209.0004 
         4.0004 
 -22390025.73149 -17446739.97947  20798944.2404   20798941.7674        684.0004 
        58.0004 
 -19405585.87049 -15121213.61546  21659686.4984   21659683.8754        542.0004 
        30.0004 
 -11346980.73649  -8841743.39946  22809943.7284   22809943.2184        395.0004 
        12.0004 
  -5745527.64648  -4477030.10145  23462809.9754   23462805.6024        190.0004 
         4.0004 
 -16744203.91849 -13047396.46946  22301140.1174   22301137.4484        407.0004 
        17.0004 
  -3037146.78048         0.000           0.282    24885319.5064        105.0004 
         0.000  
 04  3  1  1 20 30.0000000  0  8G04G05G07G10G13G17G24G29
 -14051846.11049 -10949453.16546  22102017.3694   22102015.6824        452.0004 
        21.0004 
  -6330277.49248  -4932682.07145  23925176.0004   23925173.0984        213.0004 
         4.0004 
 -22346935.96549 -17413163.53847  20807144.2234   20807141.5764        683.0004 
        58.0004 
 -19446376.41249 -15152998.43646  21651924.3804   21651921.8984        551.0004 
        30.0004 
 -11315176.44249  -8816960.81246  22815996.1814   22815995.5354        403.0004 
        13.0004 
  -5777129.02648  -4501654.53645  23456794.6894   23456792.0994        189.0004 
         4.0004 
 -16765184.53049 -13063744.98446  22297147.3004   22297145.1594        411.0004 
        16.0004 
  -3137731.15748  -2444980.87044  24866182.6104   24866179.3064        129.0004 
         2.0004 
 04  3  1  1 21  0.0000000  0  8G04G05G07G10G13G17G24G29
 -14047211.21549 -10945841.55446  22102899.3564   22102897.6954        452.0004 
        20.0004 
  -6371887.13148  -4965105.14445  23917257.5754   23917255.2924        215.0004 
         4.0004 
 -22303406.81749 -17379244.72347  20815427.4804   20815424.8344        673.0004 
        57.0004 
 -19486754.72849 -15184462.04546  21644240.5144   21644238.0634        551.0004 
        31.0004 
 -11282875.95049  -8791791.59046  22822142.7624   22822141.9224        397.0004 
        12.0004 
  -5808679.78248  -4526239.52645  23450792.2394   23450788.0924        190.0004 
         4.0004 
 -16786186.95149 -13080110.49646  22293150.8474   22293148.3874        411.0004 
        17.0004 
  -3238456.68748  -2523468.07244  24847015.5934   24847011.6314        147.0004 
         3.0004 
 04  3  1  1 21 30.0000000  0  8G04G05G07G10G13G17G24G29
 -14042614.40949 -10942259.62746  22103773.5274   22103772.4694        454.0004 
        21.0004 
  -6413070.83748  -4997196.35845  23909420.4474   23909418.3734        218.0004 
         4.0004 
 -22259439.52049 -17344984.48947  20823794.0524   20823791.4014        661.0004 
        56.0004 
 -19526721.86449 -15215605.25646  21636635.2434   21636632.7214        558.0004 
        31.0004 
 -11250080.57349  -8766236.73446  22828382.7474   22828382.7714        397.0004 
        12.0004 
  -5840181.77448  -4550786.53845  23444796.2294   23444793.0764        185.0004 
         4.0004 
 -16807212.71049 -13096494.18846  22289149.8054   22289147.3224        414.0004 
        17.0004 
  -3339322.15748  -2602064.35744  24827821.0454   24827817.3474        137.0004 
         2.0004 
 04  3  1  1 22  0.0000000  0  8G04G05G07G10G13G17G24G29
 -14038059.73049 -10938710.52246  22104640.5904   22104639.2554        454.0004 
        20.0004 
  -6453832.42148  -5028958.62145  23901664.3224   23901661.8974        224.0004 
         4.0004 
 -22215038.90949 -17310386.61247  20832243.1184   20832240.5934        660.0004 
        55.0004 
 -19566282.13449 -15246431.42847  21629106.6924   21629104.3664        555.0004 
        32.0004 
 -11216794.99049  -8740299.91346  22834717.1234   22834716.7524        391.0004 
        12.0004 
  -5871640.45948  -4575299.78645  23438810.2494   23438806.8184        188.0004 
         4.0004 
 -16828266.50849 -13112899.73246  22285143.6574   22285141.1034        416.0004 
        17.0004 
  -3440329.48948  -2680771.17444  24808595.2924   24808595.7324        115.0004 
         2.0004 
 04  3  1  1 22 30.0000000  0  8G04G05G07G10G13G17G24G29
 -14033533.18349 -10935183.34046  22105502.0374   22105500.4954        454.0004 
        20.0004 
  -6494158.11748  -5060381.25345  23893989.3994   23893987.8534        223.0004 
         4.0004 
 -22170192.14249 -17275441.07747  20840777.4944   20840774.7674        659.0004 
        55.0004 
 -19605422.21649 -15276930.18347  21621658.8144   21621656.5374        563.0004 
        32.0004 
 -11183005.99249  -8713970.80546  22841147.3364   22841146.6634        392.0004 
        12.0004 
  -5903043.75148  -4599769.86545  23432834.1864   23432830.7754        189.0004 
         4.0004 
 -16849335.61349 -13129317.20346  22281134.3654   22281131.5924        411.0004 
        16.0004 
  -3541463.42448         0.000           0.282    24789350.0514        112.0004 
         0.000  
 04  3  1  1 23  0.0000000  0  8G04G05G07G10G13G17G24G29
 -14029034.97249 -10931678.23946  22106357.8784   22106356.5644        456.0004 
        21.0004 
  -6534048.14448  -5091464.38745  23886400.5414   23886397.0994        223.0004 
         4.0004 
 -22124900.14849 -17240148.61847  20849395.9274   20849393.3364        650.0004 
        54.0004 
 -19644142.60349 -15307101.90147  21614290.6434   21614288.0444        557.0004 
        32.0004 
 -11148714.80149  -8687250.39046  22847672.7934   22847671.9974        388.0004 
        12.0004 
  -5934393.18248  -4624197.96945  23426869.5954   23426865.5974        196.0004 
         5.0004 
 -16870420.62949 -13145747.07046  22277122.5584   22277119.1494        411.0004 
        17.0004 
  -3642721.81948  -2838479.11644  24770085.2074   24770081.9184        135.0004 
         3.0004 
 04  3  1  1 23 30.0000000  0  8G04G05G07G10G13G17G24G29
 -14024565.91049 -10928195.85446  22107208.2984   22107207.0274        461.0004 
        21.0004 
  -6573503.22048  -5122208.59645  23878890.7454   23878889.0314        221.0004 
         4.0004 
 -22079164.65349 -17204510.56947  20858099.0484   20858096.5714        650.0004 
        54.0004 
 -19682444.60549 -15336947.60347  21607001.8314   21606999.3944        558.0004 
        32.0004 
 -11113923.16549  -8660140.01946  22854293.0284   22854292.4134        379.0004 
        12.0004 
  -5965691.17648  -4648585.99145  23420913.3874   23420910.0774        199.0004 
         4.0004 
 -16891523.39749 -13162190.77246  22273105.8364   22273103.4004        415.0004 
        17.0004 
  -3744103.75348  -2917477.84044  24750789.9774   24750790.0394        147.0004 
         2.0004 
 04  3  1  1 24  0.0000000  0  8G04G05G07G10G13G17G24G29
 -14020126.76549 -10924736.77346  22108053.1564   22108051.8514        464.0004 
        21.0004 
  -6612523.90548  -5152614.32745  23871464.7724   23871463.3934        220.0004 
         5.0004 
 -22032987.44649 -17168528.32947  20866886.3884   20866883.8554        649.0004 
        53.0004 
 -19720329.68349 -15366468.43247  21599792.6844   21599790.1154        557.0004 
        33.0004 
 -11078632.67549  -8632640.92446  22861008.8984   22861008.1914        383.0004 
        12.0004 
  -5996940.23448  -4672935.89945  23414965.4714   23414963.1464        194.0004 
         4.0004 
 -16912645.51749 -13178649.55546  22269086.6484   22269084.1994        424.0004 
        18.0004 
  -3845608.19848  -2996572.03744  24731479.0204   24731473.6584        130.0004 
         2.0004 
 04  3  1  1 24 30.0000000  0  8G04G05G07G10G13G17G24G29
 -14015720.10649 -10921303.00946  22108891.7814   22108890.2494        460.0004 
        21.0004 
  -6651113.35748  -5182684.02345  23864123.2884   23864120.2764        220.0004 
         4.0004 
 -21986372.03749 -17132204.63747  20875757.0434   20875754.4684        644.0004 
        52.0004 
 -19757800.86749 -15395666.74447  21592662.2464   21592659.6434        561.0004 
        32.0004 
 -11042846.46649  -8604755.56346  22867819.0574   22867818.1264        382.0004 
        12.0004 
  -6028144.36748  -4697250.78145  23409027.0504   23409025.1434        195.0004 
         4.0004 
 -16933790.71449 -13195126.31946  22265062.8594   22265060.3844        424.0004 
        17.0004 
  -3947235.86448  -3075762.28344  24712135.2804   24712134.8294        124.0004 
         2.0004 
 04  3  1  1 25  0.0000000  0  8G04G05G07G10G13G17G24G29
 -14011347.04549 -10917895.42846  22109723.8114   22109722.4994        462.0004 
        21.0004 
  -6689272.84648  -5212418.68945  23856861.5324   23856858.9494        222.0004 
         4.0004 
 -21939320.50549 -17095541.10847  20884710.7284   20884708.1964        645.0004 
        52.0004 
 -19794860.07949 -15424544.04047  21585610.1974   21585607.4874        563.0004 
        33.0004 
 -11006566.92549  -8576485.78446  22874721.9684   22874721.5464        370.0004 
        11.0004 
  -6059306.18848  -4721532.70945  23403098.3354   23403095.3054        196.0004 
         5.0004 
 -16954960.61449 -13211622.32546  22261034.1484   22261031.7174        417.0004 
        18.0004 
  -4048985.87748  -3155047.89044  24692775.0554   24692771.8384        133.0004 
         2.0004 
 04  3  1  1 25 30.0000000  0  8G04G05G07G10G13G17G24G29
 -14007010.55749 -10914516.34446  22110549.0334   22110547.6134        460.0004 
        21.0004 
  -6727005.37848  -5241820.66945  23849680.3484   23849678.4144        218.0004 
         4.0004 
 -21891836.97149 -17058540.95247  20893746.5384   20893743.9174        641.0004 
        52.0004 
 -19831510.84349 -15453103.06447  21578635.7014   21578632.9894        560.0004 
        33.0004 
 -10969798.13449  -8547834.76946  22881719.5124   22881718.6354        374.0004 
        11.0004 
  -6090430.40248  -4745785.31845  23397177.3364   23397172.6724        197.0004 
         5.0004 
 -16976159.14949 -13228140.65246  22256999.8364   22256997.7184        416.0004 
        17.0004 
  -4150859.38248  -3234429.70344  24673387.2124   24673386.1204        138.0004 
         2.0004 
 04  3  1  1 26  0.0000000  0  8G04G05G07G10G13G17G24G29
 -14002707.68349 -10911163.45246  22111367.6144   22111366.2894        454.0004 
        21.0004 
  -6764308.16048  -5270887.75745  23842582.7614   23842580.1044        219.0004 
         4.0004 
 -21843919.42849 -17021202.60947  20902865.0464   20902862.4194        643.0004 
        51.0004 
 -19867750.71249 -15481341.91047  21571739.3504   21571736.7054        560.0004 
        33.0004 
 -10932538.03549  -8518800.91746  22888809.0594   22888808.9924        372.0004 
        11.0004 
  -6121515.62848  -4770007.54845  23391261.0744   23391257.2774        197.0004 
         4.0004 
 -16997384.18649 -13244679.63246  22252960.7924   22252958.7054        418.0004 
        17.0004 
  -4252851.56648  -3313903.97944  24653980.0334   24653977.7154        129.0004 
         2.0004 
 04  3  1  1 26 30.0000000  0  8G04G05G07G10G13G17G24G29
 -13998432.46949 -10907832.11546  22112181.7584   22112180.1464        465.0004 
        22.0004 
  -6801175.55748  -5299615.59345  23835566.4114   23835564.1364        218.0004 
         4.0004 
 -21795563.10349 -16983522.35747  20912066.7104   20912064.2904        639.0004 
        51.0004 
 -19903574.55449 -15509256.57847  21564922.3644   21564919.7804        563.0004 
        34.0004 
 -10894781.68049  -8489380.37446  22895994.0504   22895993.6344        363.0004 
        11.0004 
  -6152557.44548  -4794195.92745  23385351.5114   23385350.3534        199.0004 
         4.0004 
 -17018630.72449 -13261235.36146  22248918.2644   22248915.7414        424.0004 
        17.0004 
  -4354954.77748  -3393464.75944  24634548.0284   24634547.9624        127.0004 
         2.0004 
 04  3  1  1 27  0.0000000  0  8G04G05G07G10G13G17G24G29
 -13994184.94749 -10904522.35746  22112989.5554   22112988.3474        462.0004 
        20.0004 
  -6837607.72848  -5328004.28545  23828634.6874   23828631.4544        220.0004 
         4.0004 
 -21746769.11049 -16945501.06747  20921351.9714   20921349.3254        628.0004 
        50.0004 
 -19938983.12049 -15536847.65847  21558184.2504   21558181.7794        567.0004 
        33.0004 
 -10856530.04849  -8459573.89746  22903273.6224   22903272.7584        364.0004 
        11.0004 
  -6183557.53148  -4818351.81945  23379454.1294   23379451.5994        204.0004 
         4.0004 
 -17039899.55049 -13277808.45746  22244870.7224   22244868.4854        426.0004 
        17.0004 
  -4457166.95348  -3473110.45444  24615100.0644   24615097.6824        142.0004 
         2.0004 
 04  3  1  1 27 30.0000000  0  8G04G05G07G10G13G17G24G29
 -13989976.40249 -10901242.97046  22113790.4454   22113789.2864        462.0004 
        21.0004 
  -6873616.61748  -5356063.15245  23821782.2384   23821779.5814        228.0004 
         4.0004 
 -21697550.12049 -16907148.61147  20930718.0274   20930715.3784        624.0004 
        49.0004 
 -19973988.88049 -15564124.86447  21551523.0124   21551520.4724        572.0004 
        34.0004 
 -10817796.20849  -8429391.67746  22910643.8354   22910643.6954        362.0004 
        10.0004 
  -6214529.07148  -4842485.45745  23373561.1534   23373557.1664        193.0004 
         4.0004 
 -17061203.20849 -13294408.69846  22240816.9494   22240814.5104        424.0004 
        18.0004 
  -4559498.01548  -3552848.87344  24595626.8904   24595624.6344        141.0004 
         2.0004 
 04  3  1  1 28  0.0000000  0  8G04G05G07G10G13G17G24G29
 -13985796.06949 -10897985.56646  22114585.9514   22114584.6304        460.0004 
        20.0004 
  -6909191.01748  -5383783.47145  23815012.2934   23815009.5084        220.0004 
         4.0004 
 -21647896.10449 -16868457.17347  20940167.0724   20940164.2534        624.0004 
        49.0004 
 -20008581.09249 -15591079.82547  21544940.3614   21544937.6014        565.0004 
        35.0004 
 -10778570.03249  -8398825.81046  22918108.4444   22918108.0304        354.0004 
        10.0004 
  -6245462.48548  -4866589.39045  23367672.4334   23367670.5114        191.0004 
         5.0004 
 -17082531.50949 -13311028.14246  22236758.4994   22236755.7634        421.0004 
        18.0004 
  -4661934.74948  -3632669.57744  24576132.3074   24576131.2544        130.0004 
         2.0004 
 04  3  1  1 28 30.0000000  0  8G04G05G07G10G13G17G24G29
 -13981641.77749 -10894748.45646  22115376.6914   22115375.2154        461.0004 
        21.0004 
  -6944329.84948  -5411164.35845  23808324.3384   23808323.0764        228.0004 
         4.0004 
 -21597806.36249 -16829426.20847  20949698.5004   20949695.8784        620.0004 
        49.0004 
 -20042758.63449 -15617711.66447  21538436.3354   21538433.6004        557.0004 
        35.0004 
 -10738850.62549  -8367875.62346  22925666.8674   22925666.3564        350.0004 
        10.0004 
  -6276357.37748  -4890663.33445  23361795.4934   23361791.8014        194.0004 
         5.0004 
 -17103883.03149 -13327665.67646  22232695.0244   22232692.4934        418.0004 
        17.0004 
  -4764473.49448  -3712569.78044  24556623.6644   24556618.6494        142.0004 
         3.0004 
 04  3  1  1 29  0.0000000  0  8G04G05G07G10G13G17G24G29
 -13977515.08749 -10891532.85046  22116161.9724   22116160.4284        456.0004 
        21.0004 
  -6979034.54548  -5438206.97945  23801720.8784   23801718.9004        225.0004 
         4.0004 
 -21547283.72149 -16790057.92147  20959312.7784   20959310.1294        625.0004 
        49.0004 
 -20076523.91149 -15644022.25747  21532011.0624   21532008.3314        560.0004 
        35.0004 
 -10698640.31449  -8336542.90646  22933318.1654   22933318.1894        349.0004 
        10.0004 
  -6307216.97348  -4914709.75945  23355921.8184   23355919.2844        191.0004 
         5.0004 
 -17125260.42849 -13344323.37746  22228627.0904   22228624.7064        424.0004 
        17.0004 
  -4867113.81448  -3792549.11844  24537090.1084   24537086.8674        150.0004 
         3.0004 
 04  3  1  1 29 30.0000000  0  8G04G05G07G10G13G17G24G29
 -13973420.82549 -10888342.51846  22116940.6984   22116939.2434        447.0004 
        21.0004 
  -7013310.54748  -5464915.53945  23795199.3944   23795196.2504        220.0004 
         4.0004 
 -21496334.25649 -16750357.04147  20969008.2054   20969005.5304        628.0004 
        49.0004 
 -20109882.85849 -15670016.23247  21525663.2664   21525660.6044        569.0004 
        35.0004 
 -10657945.79549  -8304832.87346  22941062.3894   22941061.6874        337.0004 
        10.0004 
  -6338047.92448  -4938733.85345  23350055.1364   23350051.9764        186.0004 
         4.0004 
 -17146669.39149 -13361005.67346  22224552.9844   22224550.5764        418.0004 
        17.0004 
  -4969858.88248  -3872610.09944  24517537.2644   24517535.0984        143.0004 
         3.0004 
 04  3  1  1 30  0.0000000  0  8G04G05G07G10G13G17G24G29
 -13969347.64949 -10885168.61346  22117715.5994   22117714.3844        449.0004 
        20.0004 
  -7047146.93048  -5491281.55245  23788760.3154   23788756.9644        208.0004 
         4.0004 
 -21444947.98449 -16710315.79247  20978786.7544   20978784.1184        636.0004 
        49.0004 
 -20142824.87049 -15695685.32347  21519394.6854   21519391.9424        570.0004 
        34.0004 
 -10616757.08849  -8272737.78045  22948899.9674   22948899.8664        338.0004 
         9.0004 
  -6368840.30248  -4962727.89945  23344196.1164   23344192.8074        193.0004 
         4.0004 
 -17168099.32049 -13377704.30646  22220475.7384   22220472.6524        417.0004 
        18.0004 
  -5072695.54748  -3952742.44244  24497966.8314   24497965.3374        144.0004 
         2.0004 
 04  3  1  1 30 30.0000000  0  8G04G05G07G10G13G17G24G29
 -13965298.70349 -10882013.58746  22118486.0964   22118485.0284        451.0004 
        20.0004 
  -7080547.05248  -5517307.59845  23782405.3524   23782401.5214        221.0004 
         4.0004 
 -21393129.27049 -16669937.57647  20988647.5754   20988644.8924        639.0004 
        49.0004 
 -20175353.92449 -15721032.63047  21513204.3454   21513201.6544        560.0004 
        34.0004 
 -10575078.24349  -8240260.75545  22956830.5684   22956830.8354        329.0004 
         9.0004 
  -6399598.91948  -4986695.63444  23338343.2874   23338339.3384        189.0004 
         3.0004 
 -17189554.40249 -13394422.54246  22216392.8624   22216389.8164        415.0004 
        18.0004 
  -5175624.73548  -4032946.91144  24478384.4314   24478378.8484        150.0004 
         3.0004 
 04  3  1  1 31  0.0000000  0  8G04G05G07G10G13G17G24G29
 -13961279.00349 -10878881.35246  22119251.0874   22119249.7854        446.0004 
        21.0004 
  -7113516.78448  -5542998.28345  23776130.0064   23776127.8114        227.0004 
         4.0004 
 -21340884.42349 -16629227.30747  20998589.4094   20998586.7464        642.0004 
        50.0004 
 -20207475.95949 -15746062.77447  21507091.9274   21507089.0524        562.0004 
        35.0004 
 -10532916.04149  -8207407.08346  22964855.3314   22964854.0124        327.0004 
        10.0004 
  -6430330.49748  -5010642.25744  23332494.5344   23332490.9514        182.0004 
         2.0004 
 -17211040.32249 -13411164.80546  22212303.4814   22212301.1264        414.0004 
        18.0004 
  -5278649.97348  -4113226.21444  24458777.6794   24458773.4524        145.0004 
         3.0004 
 04  3  1  1 31 30.0000000  0  8G04G05G07G10G13G17G24G29
 -13957289.03049 -10875772.28146  22120010.2634   22120009.3284        454.0004 
        20.0004 
  -7146057.05948  -5568354.34844  23769937.7064   23769935.5414        225.0004 
         3.0004 
 -21288215.46149 -16588186.55847  21008611.9334   21008609.2804        644.0004 
        50.0004 
 -20239192.54849 -15770776.99047  21501056.2164   21501053.6664        566.0004 
        35.0004 
 -10490272.05549  -8174178.00145  22972969.1304   22972969.1364        331.0004 
         9.0004 
  -6461037.04648  -5034569.37144  23326649.1874   23326648.3744        190.0004 
         2.0004 
 -17232558.65449 -13427932.32746  22208208.5364   22208206.2934        415.0004 
        17.0004 
  -5381769.72048  -4193579.14544  24439154.5294   24439150.4964        154.0004 
         3.0004 
 04  3  1  1 32  0.0000000  0  8G04G05G07G10G13G17G24G29
 -13953322.02349 -10872681.10746  22120765.7094   22120764.0544        448.0004 
        20.0004 
  -7178161.86548  -5593371.07245  23763829.5354   23763826.2024        219.0004 
         4.0004 
 -21235117.05349 -16546811.17547  21018716.3054   21018713.6574        647.0004 
        49.0004 
 -20270497.87449 -15795170.74047  21495099.2674   21495096.6424        572.0004 
        34.0004 
 -10447141.16249  -8140569.50745  22981176.6804   22981176.8494        333.0004 
         9.0004 
  -6491713.97148         0.000          -0.242    23320810.2764        189.0004 
         0.000  
 -17254103.37949 -13444720.41146  22204109.2934   22204106.6414        417.0004 
        18.0004 
  -5484975.64948  -4273999.30644  24419514.1254   24419511.6274        172.0004 
         3.0004 
 04  3  1  1 32 30.0000000  0  8G04G05G07G10G13G17G24G29
 -13949380.73049 -10869609.97046  22121515.4024   22121514.1134        449.0004 
        20.0004 
  -7209834.22748  -5618050.82245  23757803.1674   23757799.1864        219.0004 
         4.0004 
 -21181593.15249 -16505104.24247  21028901.2094   21028898.8624        645.0004 
        49.0004 
 -20301395.50149 -15819246.80547  21489219.5124   21489216.8864        567.0004 
        35.0004 
 -10403527.34149  -8106584.70346  22989476.6154   22989476.2314        332.0004 
        10.0004 
  -6522365.21048  -5082354.17146  23314979.6174   23314977.3244        185.0004 
        13.0004 
 -17275677.91049 -13461531.72346  22200003.7374   22200001.1744        418.0004 
        17.0004 
  -5588268.24248  -4354486.98244  24399853.8944   24399854.9294        159.0004 
         3.0004 
 04  3  1  1 33  0.0000000  0  8G04G05G07G10G13G17G24G29
 -13945457.42549 -10866552.84846  22122261.5814   22122260.6304        446.0004 
        20.0004 
  -7241067.00248  -5642388.04545  23751858.9614   23751855.4464        214.0004 
         4.0004 
 -21127637.87249 -16463061.16647  21039168.9104   21039166.2504        647.0004 
        49.0004 
 -20331879.12849 -15843000.27647  21483418.4444   21483415.8404        555.0004 
        35.0004 
 -10359424.33549  -8072218.71946  22997868.8594   22997868.5854        328.0004 
        10.0004 
  -6552984.95548  -5106217.83245  23309154.7854   23309150.7684        192.0004 
         4.0004 
 -17297275.79749 -13478361.23546  22195893.8764   22195891.1464        417.0004 
        17.0004 
  -5691638.49448  -4435035.14044  24380187.8614   24380184.1454        149.0004 
         3.0004 
 04  3  1  1 33 30.0000000  0  8G04G05G07G10G13G17G24G29
 -13941554.66549 -10863511.73746  22123004.5694   22123003.1714        444.0004 
        20.0004 
  -7271863.37348  -5666385.20845  23745999.8624   23745995.2874        223.0004 
         4.0004 
 -21073254.96649 -16420684.87647  21049517.4724   21049515.0444        645.0004 
        48.0004 
 -20361952.35249 -15866433.95247  21477695.2734   21477692.8134        549.0004 
        35.0004 
 -10314836.41649  -8037474.88046  23006354.5024   23006353.5574        334.0004 
        10.0004 
  -6583577.29748  -5130056.25644  23303333.2664   23303329.4094        194.0004 
         3.0004 
 -17318900.20249 -13495211.40846  22191778.8234   22191776.0414        413.0004 
        18.0004 
  -5795086.79448  -4515644.10844  24360501.5684   24360498.7934        165.0004 
         3.0004 
 04  3  1  1 34  0.0000000  0  8G04G05G07G10G13G17G24G29
 -13937675.53749 -10860489.03646  22123742.6734   22123741.3304        444.0004 
        20.0004 
  -7302227.29548  -5690045.39545  23740221.1694   23740217.3324        223.0004 
         4.0004 
 -21018449.17849 -16377979.06947  21059946.9224   21059944.2764        643.0004 
        48.0004 
 -20391619.33149 -15889551.07147  21472050.3264   21472047.9714        568.0004 
        35.0004 
 -10269768.33049  -8002356.89046  23014929.4504   23014929.3674        325.0004 
        10.0004 
  -6614147.20948  -5153876.90944  23297516.6074   23297512.0504        192.0004 
         2.0004 
 -17340555.06249 -13512085.31646  22187658.6054   22187655.3994        419.0004 
        18.0004 
  -5898614.66048  -4596315.11244  24340801.9054   24340797.7794        166.0004 
         3.0004 
 04  3  1  1 34 30.0000000  0  8G04G05G07G10G13G17G24G29
 -13933816.90449 -10857482.31046  22124476.9674   22124475.7494        446.0004 
        19.0004 
  -7332156.26048  -5713366.65945  23734524.7034   23734521.7274        219.0004 
         4.0004 
 -20963218.78149 -16334942.39747  21070456.7144   21070454.0854        631.0004 
        48.0004 
 -20420877.68949 -15912349.78447  21466482.8704   21466480.2844        572.0004 
        35.0004 
 -10224218.12749  -7966863.22345  23023597.6744   23023597.3514        327.0004 
         9.0004 
  -6644693.00348  -5177678.77745  23291699.9464   23291699.2514        191.0004 
         4.0004 
 -17362238.15149 -13528981.21846  22183531.8234   22183529.3074        420.0004 
        18.0004 
  -6002216.60648  -4677043.83044  24321083.0394   24321083.4364        167.0004 
         3.0004 
 04  3  1  1 35  0.0000000  0  8G04G05G07G10G13G17G24G29
 -13929981.08549 -10854493.35846  22125207.4694   22125205.8694        454.0004 
        20.0004 
  -7361653.43448  -5736351.46245  23728912.1384   23728908.7444        219.0004 
         4.0004 
 -20907567.76749 -16291577.97047  21081046.8094   21081044.1554        627.0004 
        47.0004 
 -20449731.55049 -15934833.30247  21460991.7184   21460989.2564        557.0004 
        35.0004 
 -10178190.00849  -7930997.15046  23032356.3514   23032356.4284        331.0004 
        10.0004 
  -6675219.08348  -5201465.31245  23285895.1374   23285890.3234        190.0004 
         4.0004 
 -17383952.67749 -13545901.61646  22179399.6304   22179397.0444        416.0004 
        17.0004 
  -6105893.64348  -4757831.07244  24301356.7254   24301354.0894        166.0004 
         3.0004 
 04  3  1  1 35 30.0000000  0  7G04G05G07G10G17G24G29
 -13926163.17449 -10851518.36346  22125933.6754   22125932.5584        458.0004 
        20.0004 
  -7390714.71148  -5758996.61344  23723381.8774   23723378.3874        215.0004 
         3.0004 
 -20851493.04949 -16247883.39047  21091717.5004   21091714.7894        621.0004 
        46.0004 
 -20478177.06149 -15956998.62447  21455578.5204   21455576.0124        550.0004 
        35.0004 
  -6705722.03448  -5225233.80145  23280088.6754   23280086.0064        192.0004 
         5.0004 
 -17405694.76849 -13562843.50446  22175261.8384   22175259.3744        410.0004 
        18.0004 
  -6209638.95948  -4838671.49345  24281614.5824   24281611.8624        164.0004 
         4.0004 
 04  3  1  1 36  0.0000000  0  8G04G05G07G10G17G24G26G29
 -13922361.05849 -10848555.67346  22126656.6884   22126655.7844        450.0004 
        20.0004 
  -7419338.62148  -5781300.93945  23717936.0984   23717931.7354        217.0004 
         4.0004 
 -20794993.88449 -16203858.06947  21102468.8754   21102466.0884        611.0004 
        46.0004 
 -20506213.22149 -15978844.97547  21450243.8044   21450241.1684        560.0004 
        35.0004 
  -6736201.47248  -5248984.00445  23274290.4384   23274285.7104        194.0004 
         5.0004 
 -17427463.05549 -13579805.79446  22171119.8044   22171117.0644        410.0004 
        18.0004 
        -0.46257         0.000           0.412    25109021.9195         97.0005 
         0.000  
  -6313448.60448  -4919562.06145  24261860.3734   24261857.7504        173.0004 
         4.0004 
 04  3  1  1 36 30.0000000  0  8G04G05G07G10G17G24G26G29
 -13918576.68549 -10845606.81046  22127377.1164   22127375.9624        452.0004 
        20.0004 
  -7447528.00448  -5803266.70145  23712571.0204   23712567.7134        222.0004 
         4.0004 
 -20738073.90349 -16159504.84247  21113300.4074   21113297.8474        615.0004 
        45.0004 
 -20533842.98349 -16000374.64947  21444986.3024   21444983.7204        572.0004 
        35.0004 
  -6766660.93548  -5272718.66745  23268493.2634   23268489.8824        198.0004 
         5.0004 
 -17449260.06349 -13596790.46946  22166971.7764   22166969.2494        410.0004 
        18.0004 
    -93657.18448         0.000           0.412    25091199.8644        117.0004 
         0.000  
  -6417322.61248  -5000502.77645  24242095.0344   24242091.1774        170.0004 
         4.0004 
 04  3  1  1 37  0.0000000  0  8G04G05G07G10G17G24G26G29
 -13914817.49549 -10842677.57246  22128092.7634   22128091.4164        452.0004 
        21.0004 
  -7475291.31548  -5824900.44344  23707287.6754   23707283.9094        217.0004 
         3.0004 
 -20680742.33449 -16114830.89247  21124209.9034   21124207.5384        606.0004 
        44.0004 
 -20561075.50549 -16021594.78447  21439803.4834   21439801.1104        558.0004 
        35.0004 
  -6797109.76348  -5296444.99145  23262699.2334   23262695.0684        188.0004 
         5.0004 
 -17471094.71049 -13613804.47046  22162816.9624   22162814.3184        411.0004 
        18.0004 
   -187447.33848         0.000           0.412    25073352.1534        113.0004 
         0.000  
  -6521266.81248  -5081498.19145  24222313.7474   24222311.2534        167.0004 
         4.0004 
 04  3  1  1 37 30.0000000  0  8G04G05G07G10G17G24G26G29
 -13911075.77949 -10839761.94146  22128804.9564   22128803.6984        462.0004 
        20.0004 
  -7502621.57048  -5846196.74444  23702087.1834   23702083.1834        216.0004 
         3.0004 
 -20622993.25449 -16069831.61247  21135199.3264   21135196.8534        602.0004 
        44.0004 
 -20587904.40949 -16042500.41447  21434698.2894   21434695.7914        562.0004 
        35.0004 
  -6827541.98448  -5320158.39345  23256907.8354   23256904.1214        191.0004 
         5.0004 
 -17492960.13349 -13630842.45546  22158656.4724   22158653.4244        410.0004 
        18.0004 
   -281361.85448         0.000           0.412    25055480.6994        106.0004 
         0.000  
  -6625271.53448  -5162540.75344  24202522.2774   24202519.3374        174.0004 
         3.0004 
 04  3  1  1 38  0.0000000  0  8G04G05G07G10G17G24G26G29
 -13907356.34949 -10836863.68946  22129512.4014   22129511.4144        457.0004 
        20.0004 
  -7529524.63948  -5867160.16844  23696966.7394   23696964.2964        228.0004 
         3.0004 
 -20564832.91349 -16024511.86747  21146267.0974   21146264.4844        601.0004 
        43.0004 
 -20614335.54549 -16063096.09747  21429668.8334   21429666.3514        573.0004 
        36.0004 
  -6857964.11348  -5343863.91845  23251119.5224   23251115.2034        194.0004 
         5.0004 
 -17514861.46649 -13647908.42246  22154488.6004   22154485.9244        416.0004 
        18.0004 
   -375403.99048         0.000           0.412    25037585.3374        111.0004 
         0.000  
  -6729339.59448  -5243632.69244  24182717.2624   24182716.2854        182.0004 
         3.0004 
 04  3  1  1 38 30.0000000  0  8G04G05G07G10G17G24G26G29
 -13903648.28449 -10833974.28646  22130218.5034   22130217.0304        458.0004 
        20.0004 
  -7555990.56448  -5887782.96744  23691932.8584   23691927.2934        213.0004 
         3.0004 
 -20506252.32649 -15978864.65847  21157414.6834   21157411.9004        593.0004 
        44.0004 
 -20640359.42149 -16083374.43147  21424716.4924   21424713.9624        570.0004 
        36.0004 
  -6888366.85248  -5367554.34345  23245332.5294   23245329.8984        196.0004 
         4.0004 
 -17536789.15049 -13664994.92446  22150315.8064   22150313.0604        412.0004 
        18.0004 
   -469561.46547         0.000           0.412    25019666.5184         97.0004 
         0.000  
  -6833458.68248  -5324764.40544  24162906.5074   24162903.0964        168.0004 
         3.0004 
 04  3  1  1 39  0.0000000  0  8G04G05G07G10G17G24G26G29
 -13899951.70249 -10831093.83146  22130921.5824   22130920.3884        451.0004 
        20.0004 
  -7582020.03148  -5908065.67944  23686976.3284   23686974.2344        216.0004 
         3.0004 
 -20447253.58349 -15932891.61347  21168641.7464   21168638.9014        588.0004 
        43.0004 
 -20665977.66349 -16103336.69047  21419841.5624   21419838.9344        567.0004 
        36.0004 
  -6918752.34848  -5391231.32045  23239551.6184   23239547.5144        198.0004 
         5.0004 
 -17558743.95749 -13682102.55846  22146137.9024   22146134.9994        404.0004 
        17.0004 
   -563833.19948         0.000           0.412    25001728.2514        108.0004 
         0.000  
  -6937627.00648  -5405934.41445  24143083.0234   24143080.2384        174.0004 
         4.0004 
 04  3  1  1 39 30.0000000  0  8G04G05G07G10G17G24G26G29
 -13896265.51349 -10828221.47546  22131623.3864   22131621.6844        445.0004 
        20.0004 
  -7607613.36048  -5928008.54844  23682106.1094   23682103.9164        217.0004 
         2.0004 
 -20387837.10749 -15886593.06447  21179948.1344   21179945.5984        589.0004 
        43.0004 
 -20691190.46349 -16122983.02047  21415043.7674   21415041.1854        572.0004 
        37.0004 
  -6949120.92448  -5414895.13145  23233770.6454   23233768.4594        197.0004 
         5.0004 
 -17580725.53449 -13699231.04946  22141955.2664   22141952.0574        407.0004 
        18.0004 
   -658216.63948   -512894.17444  24983768.6524   24983767.5984        124.0004 
         2.0004 
  -7041841.49848  -5487140.46245  24123252.8104   24123248.9724        184.0004 
         4.0004 
 04  3  1  1 40  0.0000000  0  8G04G05G07G10G17G24G26G29
 -13892593.77549 -10825360.38046  22132321.6664   22132320.0554        433.0004 
        20.0004 
  -7632775.64248  -5947615.51544  23677322.2754   23677315.8074        221.0004 
         2.0004 
 -20328009.07949 -15839973.82647  21191333.0914   21191330.5624        589.0004 
        42.0004 
 -20716003.41149 -16142317.77947  21410321.9724   21410319.6024        580.0004 
        37.0004 
  -6979478.77048  -5438550.57445  23227994.8564   23227991.4684        196.0004 
         5.0004 
 -17602738.86749 -13716384.29246  22137765.9564   22137763.2704        415.0004 
        18.0004 
   -752714.53648   -586528.67744  24965790.4974   24965785.2884        121.0004 
         2.0004 
  -7146104.51648  -5568384.31744  24103410.2484   24103408.0574        172.0004 
         3.0004 
 04  3  1  1 40 30.0000000  0  8G04G05G07G10G17G24G26G29
 -13888938.87049 -10822512.39846  22133016.8204   22133015.6234        433.0004 
        19.0004 
  -7657510.25248  -5966889.22344  23672613.3694   23672609.3224        226.0004 
         2.0004 
 -20267773.48849 -15793037.00247  21202795.4134   21202792.8004        579.0004 
        41.0004 
 -20740420.03449 -16161343.71147  21405675.8114   21405673.2484        582.0004 
        37.0004 
  -7009829.65448  -5462200.60045  23222219.2714   23222216.2624        204.0004 
         5.0004 
 -17624787.31249 -13733564.88646  22133570.6454   22133567.5104        414.0004 
        18.0004 
   -847327.66248         0.000           0.412    24947780.6934        123.0004 
         0.000  
  -7250416.44848  -5649666.27145  24083560.4984   24083558.1774        181.0004 
         4.0004 
 04  3  1  1 41  0.0000000  0  8G04G05G07G10G17G24G26G29
 -13885298.37049 -10819675.64446  22133709.7514   22133708.1684        424.0004 
        19.0004 
  -7681816.12448         0.000          -0.244    23667983.7494        222.0004 
         0.000  
 -20207129.92049 -15745782.27747  21214335.4744   21214333.0664        584.0004 
        41.0004 
 -20764439.70049 -16180060.32347  21401104.5764   21401102.1204        571.0004 
        37.0004 
  -7040173.18148  -5485844.90745  23216444.8744   23216441.8614        201.0004 
         4.0004 
 -17646869.37049 -13750771.67546  22129368.1994   22129365.4194        413.0004 
        18.0004 
   -942052.40348         0.000           0.412    24929755.0694        115.0004 
         0.000  
  -7354773.57348  -5730983.47345  24063701.3514   24063700.0844        186.0004 
         4.0004 
 04  3  1  1 41 30.0000000  0  8G04G05G07G10G17G24G26G29
 -13881668.78549 -10816847.40246  22134400.2804   22134398.9314        426.0004 
        19.0004 
  -7705690.24348  -6004432.60144  23663445.2774   23663440.7454        223.0004 
         2.0004 
 -20146076.67149 -15698208.31947  21225953.5664   21225951.0864        582.0004 
        40.0004 
 -20788060.29049 -16198465.96947  21396610.2394   21396607.5684        581.0004 
        37.0004 
  -7070507.24948  -5509481.81845  23210672.4894   23210669.3854        204.0004 
         5.0004 
 -17668981.94749 -13768002.24546  22125160.3534   22125157.4784        413.0004 
        18.0004 
  -1036883.72448   -807958.62944  24911710.8804   24911709.1174        114.0004 
         1.0004 
  -7459170.03448  -5812331.31445  24043836.9674   24043833.8474        182.0004 
         4.0004 
 04  3  1  1 42  0.0000000  0  8G04G05G07G10G17G24G26G29
 -13878051.13149 -10814028.44546  22135089.1124   22135087.4494        429.0004 
        20.0004 
  -7729135.22148  -6022703.06245  23658981.2924   23658979.0324        220.0004 
         4.0004 
 -20084616.94849 -15650317.62847  21237649.0004   21237646.4274        579.0004 
        41.0004 
 -20811284.61849 -16216562.83847  21392190.7434   21392188.1154        585.0004 
        38.0004 
  -7100835.07548  -5533113.87045  23204901.6884   23204898.2624        208.0004 
         5.0004 
 -17691127.25949 -13785258.31846  22120945.8284   22120943.3184        415.0004 
        18.0004 
  -1131821.47048         0.000           0.412    24893642.8074        110.0004 
         0.000  
  -7563605.44748  -5893709.47645  24023962.1084   24023960.2334        192.0004 
         4.0004 
 04  3  1  1 42 30.0000000  0  8G04G05G07G10G17G24G26G29
 -13874441.65949 -10811215.86646  22135775.3794   22135774.4774        433.0004 
        19.0004 
  -7752148.58748  -6040638.57345  23654602.0454   23654599.9554        225.0004 
         7.0004 
 -20022749.09349 -15602108.91147  21249421.8804   21249419.4384        573.0004 
        41.0004 
 -20834110.51849 -16234349.25047  21387846.8194   21387844.3754        583.0004 
        37.0004 
  -7131154.61148  -5556739.46445  23199131.3634   23199129.0534        212.0004 
         5.0004 
 -17713302.36249 -13802537.60646  22116726.4564   22116723.7484        420.0004 
        18.0004 
  -1226860.63248   -955992.09544  24875560.3724   24875556.8344        112.0004 
         2.0004 
  -7668074.28548  -5975113.71745  24004084.0184   24004080.4834        189.0004 
         4.0004 
 04  3  1  1 43  0.0000000  0  8G04G05G07G10G17G24G26G29
 -13870835.53149 -10808405.89346  22136461.9084   22136460.8454        438.0004 
        19.0004 
  -7774726.41748  -6058235.68646  23650306.4464   23650303.3874        225.0004 
        10.0004 
 -19960469.92049 -15553579.68847  21261273.6684   21261270.9214        576.0004 
        40.0004 
 -20856534.51749 -16251822.48047  21383579.6954   21383577.0024        576.0004 
        36.0004 
  -7161462.46148  -5580355.94245  23193365.1004   23193361.5364        213.0004 
         6.0004 
 -17735503.49649 -13819837.21146  22112501.7614   22112498.9944        420.0004 
        14.0004 
  -1321994.72148         0.000           0.412    24857452.9474        109.0004 
         0.000  
  -7772569.73448  -6056538.69245  23984198.9524   23984195.3634        193.0004 
         4.0004 
 04  3  1  1 43 30.0000000  0  8G04G05G07G10G17G24G26G29
 -13867236.66349 -10805601.57646  22137147.0424   22137145.9294        449.0004 
        19.0004 
  -7796874.10848  -6075498.19346  23646090.8084   23646088.8284        225.0004 
        14.0004 
 -19897785.57449 -15504734.74547  21273202.1824   21273199.3554        576.0004 
        40.0004 
 -20878562.12049 -16268986.84847  21379387.8544   21379385.5124        583.0004 
        37.0004 
  -7191764.62748  -5603967.98545  23187597.5764   23187595.2264        216.0004 
         6.0004 
 -17757735.31649 -13837160.67946  22108271.0104   22108268.4434        425.0004 
        18.0004 
  -1417226.41848  -1104328.58344  24839333.7984   24839330.9694        112.0004 
         1.0004 
  -7877093.94848  -6137986.10745  23964305.8764   23964305.0264        196.0004 
         4.0004 
 04  3  1  1 44  0.0000000  0  8G04G05G07G10G17G24G26G29
 -13863642.87849 -10802801.22646  22137830.8794   22137829.7304        446.0004 
        19.0004 
  -7818591.10548  -6092429.79246  23641959.5244   23641956.8964        236.0004 
        28.0004 
 -19834696.01149 -15455574.05047  21285207.5494   21285204.9024        575.0004 
        40.0004 
 -20900193.18749 -16285842.21147  21375271.8984   21375269.3084        588.0004 
        38.0004 
  -7222060.80548  -5627575.37845  23181833.6364   23181829.8594        211.0004 
         5.0004 
 -17779996.54449 -13854507.07546  22104034.5594   22104032.3034        426.0004 
        18.0004 
  -1512552.25248  -1178608.21744  24821195.0144   24821190.8684        111.0004 
         2.0004 
  -7981643.29148  -6219453.06445  23944412.1794   23944409.4714        192.0004 
         4.0004 
 04  3  1  1 44 30.0000000  0  8G04G05G07G10G17G24G26G29
 -13860063.12749 -10800011.80446  22138512.1974   22138511.1534        451.0004 
        19.0004 
  -7839887.29948  -6109034.47847  23637906.1024   23637903.5534        223.0004 
        38.0004 
 -19771212.21749 -15406106.15947  21297288.0374   21297285.4514        577.0004 
        39.0004 
 -20921438.26249 -16302396.80447  21371229.0834   21371226.3964        586.0004 
        38.0004 
  -7252361.68948  -5651186.42145  23176066.2934   23176063.5934        209.0004 
         5.0004 
 -17802296.87749 -13871883.94146  22099791.2374   22099788.8134        434.0004 
        18.0004 
  -1607980.05548         0.000           0.412    24803032.0434        110.0004 
         0.000  
  -8086224.74448  -6300945.06345  23924510.5354   23924509.0064        207.0004 
         5.0004 
 04  3  1  1 45  0.0000000  0  8G04G05G07G10G17G24G26G29
 -13856485.20549 -10797223.80746  22139193.1204   22139191.8734        447.0004 
        19.0004 
  -7860752.09148  -6125296.41447  23633936.2424   23633933.5314        225.0004 
        37.0004 
 -19707323.87649 -15356323.03647  21309445.6474   21309442.9694        572.0004 
        40.0004 
 -20942286.59249 -16318642.24047  21367261.9824   21367259.1154        588.0004 
        38.0004 
  -7282656.44948  -5674792.71445  23170302.0844   23170298.4954        206.0004 
         6.0004 
 -17824624.59449 -13889282.14846  22095542.3374   22095540.0084        436.0004 
        18.0004 
  -1703495.73248  -1327394.87144  24784857.1874   24784855.7584        123.0004 
         2.0004 
  -8190824.29948  -6382451.15545  23904606.1004   23904604.3994        203.0004 
         6.0004 
 04  3  1  1 45 30.0000000  0  8G04G05G07G10G17G24G26G29
 -13852914.50949 -10794441.44446  22139873.0674   22139871.1064        442.0004 
        19.0004 
  -7881191.96948  -6141219.43347  23630046.5684   23630043.8614        231.0004 
        38.0004 
 -19643038.79649 -15306230.76747  21321678.5734   21321675.9984        572.0004 
        39.0004 
 -20962745.50849 -16334584.25347  21363368.6064   21363365.8464        587.0004 
        39.0004 
  -7312952.81448  -5698400.24445  23164537.1954   23164533.2254        203.0004 
         6.0004 
 -17846986.38549 -13906706.90346  22091287.2684   22091284.5474        434.0004 
        18.0004 
  -1799103.75648  -1401894.36644  24766667.2944   24766662.1794        132.0004 
         2.0004 
  -8295445.57748  -6463974.17745  23884697.5024   23884695.4304        211.0004 
         5.0004 
 04  3  1  1 46  0.0000000  0  8G04G05G07G10G17G24G26G29
 -13849348.15349 -10791662.46446  22140550.8954   22140549.8134        442.0004 
        20.0004 
  -7901205.11148  -6156802.06047  23626237.9234   23626235.0474        224.0004 
        33.0004 
 -19578355.95349 -15255828.55247  21333987.5084   21333984.8204        576.0004 
        40.0004 
 -20982813.56649 -16350221.69247  21359549.7214   21359546.9774        588.0004 
        39.0004 
  -7343249.21348  -5722007.81145  23158770.9914   23158768.2704        211.0004 
         5.0004 
 -17869380.11549 -13924156.55646  22087025.4194   22087023.0924        430.0004 
        18.0004 
  -1894799.47748  -1476462.21544  24748455.8584   24748451.3634        131.0004 
         2.0004 
  -8400083.70948  -6545510.32745  23864784.1594   23864783.6854        210.0004 
         4.0004 
 04  3  1  1 46 30.0000000  0  8G04G05G07G10G17G24G26G29
 -13845783.39849 -10788884.72746  22141229.4594   22141228.1174        441.0004 
        20.0004 
  -7920790.67648  -6172053.24746  23622511.5214   23622508.7264        232.0004 
        15.0004 
 -19513275.09849 -15205116.20147  21346371.8824   21346369.3394        579.0004 
        40.0004 
 -21002490.23049 -16365554.14847  21355805.3784   21355802.7624        593.0004 
        39.0004 
  -7373545.05748  -5745614.93145  23153005.9804   23153002.8284        211.0004 
         6.0004 
 -17891804.04849 -13941629.74446  22082758.4884   22082756.2424        439.0004 
        19.0004 
  -1990579.20148  -1551095.53944  24730230.2114   24730224.8814        124.0004 
         2.0004 
  -8504734.50148  -6627056.37245  23844871.2824   23844868.8864        206.0004 
         5.0004 
 04  3  1  1 47  0.0000000  0  8G04G05G07G10G17G24G26G29
 -13842219.89749 -10786107.97246  22141907.7334   22141906.0574        435.0004 
        20.0004 
  -7939949.39148  -6186977.33245  23618866.4344   23618863.2394        240.0004 
         8.0004 
 -19447797.82549 -15154094.95347  21358831.7914   21358829.2364        578.0004 
        40.0004 
 -21021776.77749 -16380582.61647  21352135.3394   21352132.6464        597.0004 
        39.0004 
  -7403841.64748  -5769222.63645  23147241.5814   23147238.2064        222.0004 
         5.0004 
 -17914258.53949 -13959126.74146  22078485.7414   22078483.1664        436.0004 
        19.0004 
  -2086441.11448         0.000           0.412    24711982.4424        121.0004 
         0.000  
  -8609395.82448  -6708610.59245  23824953.8384   23824952.7904        218.0004 
         5.0004 
 04  3  1  1 47 30.0000000  0  8G04G05G07G10G17G24G26G29
 -13838650.78149 -10783326.84546  22142586.8944   22142584.8764        422.0004 
        20.0004 
  -7958676.67348  -6201567.21645  23615302.0994   23615299.1734        235.0004 
         6.0004 
 -19381919.74549 -15102761.38547  21371367.8104   21371365.3634        575.0004 
        39.0004 
 -21040668.35249 -16395303.31347  21348540.3964   21348537.7444        602.0004 
        40.0004 
  -7434133.97248  -5792827.03145  23141476.4474   23141473.5044        220.0004 
         5.0004 
 -17936737.55149 -13976642.84646  22074207.7574   22074205.3314        428.0004 
        18.0004 
  -2182377.08648  -1700547.98444  24693726.3214   24693726.6884        125.0004 
         1.0004 
  -8714059.03548  -6790166.32845  23805037.9714   23805035.5354        210.0004 
         5.0004 
 04  3  1  1 48  0.0000000  0  8G04G05G07G10G17G24G26G29
 -13835078.58549 -10780543.30546  22143266.3614   22143264.7274        424.0004 
        19.0004 
  -7976975.99648  -6215824.49644  23611819.8824   23611816.9724        239.0004 
         3.0004 
 -19315645.56449 -15051119.16947  21383979.5314   21383976.9974        578.0004 
        39.0004 
 -21059169.00749 -16409719.40147  21345019.8594   21345017.2614        604.0004 
        40.0004 
  -7464426.43348  -5816431.52845  23135711.8244   23135708.9954        219.0004 
         6.0004 
 -17959244.28049 -13994180.54546  22069924.9764   22069922.6414        433.0004 
        19.0004 
  -2278388.29948         0.000           0.412    24675456.3434        140.0004 
         0.000  
  -8818724.83448  -6871724.02645  23785121.2314   23785118.5924        214.0004 
         6.0004 
 04  3  1  1 48 30.0000000  0  8G04G05G07G10G17G24G26G29
 -13831512.26549 -10777764.35646  22143944.2884   22143943.2534        421.0004 
        19.0004 
  -7994857.89148  -6229757.57944  23608419.1254   23608414.1484        235.0004 
         2.0004 
 -19248986.34549 -14999176.92347  21396664.3424   21396661.7864        574.0004 
        38.0004 
 -21077289.59249 -16423839.33147  21341571.3404   21341568.9104        605.0004 
        40.0004 
  -7494729.67148  -5840044.42245  23129946.7914   23129942.2304        215.0004 
         6.0004 
 -17981788.76549 -14011747.66746  22065634.6324   22065632.1664        422.0004 
        19.0004 
  -2374482.01148  -1850239.79944  24657171.8044   24657170.1964        145.0004 
         2.0004 
  -8923400.47448  -6953289.42545  23765200.5334   23765199.4214        216.0004 
         5.0004 
 04  3  1  1 49  0.0000000  0  8G04G05G07G10G17G24G26G29
 -13827949.57349 -10774988.22846  22144622.7924   22144621.5494        428.0004 
        20.0004 
  -8012321.86648         0.000          -0.244    23605090.2654        225.0004 
         0.000  
 -19181942.28349 -14946934.79847  21409422.1624   21409419.8144        568.0004 
        37.0004 
 -21095029.92949 -16437662.96147  21338195.6784   21338193.0064        605.0004 
        40.0004 
  -7525043.23248  -5863665.36545  23124178.1054   23124173.7154        216.0004 
         6.0004 
 -18004369.49949 -14029343.03546  22061337.8684   22061335.4404        426.0004 
        19.0004 
  -2470654.92448  -1925179.55844  24638870.9374   24638869.1644        156.0004 
         3.0004 
  -9028081.80948  -7034859.25945  23745280.5794   23745279.2054        222.0004 
         6.0004 
 04  3  1  1 49 30.0000000  0  8G04G05G07G10G17G24G26G29
 -13824382.66149 -10772208.81046  22145301.9084   22145300.4564        433.0004 
        20.0004 
  -8029361.50948         0.000          -0.244    23601848.3174        233.0004 
         0.000  
 -19114507.76049 -14894388.42047  21422254.8074   21422252.4004        569.0004 
        37.0004 
 -21112383.95549 -16451185.56847  21334893.2384   21334890.7124        610.0004 
        41.0004 
  -7555361.12848  -5887289.68545  23118407.4114   23118404.5104        220.0004 
         6.0004 
 -18026979.39649 -14046961.12646  22057034.9854   22057032.8634        427.0004 
        19.0004 
  -2566897.74148  -2000173.76544  24620557.6874   24620554.5404        150.0004 
         3.0004 
  -9132759.22948  -7116426.01845  23725361.0734   23725359.3654        205.0004 
         5.0004 
 04  3  1  1 50  0.0000000  0  8G04G05G07G10G17G24G26G29
 -13820810.08649 -10769424.98746  22145981.8604   22145980.1544        429.0004 
        19.0004 
  -8045977.24848  -6269591.47344  23598687.5944   23598686.3284        232.0004 
         2.0004 
 -19046683.97549 -14841538.71947  21435161.3104   21435158.6534        558.0004 
        36.0004 
 -21129352.49949 -16464407.80547  21331664.0164   21331661.5694        606.0004 
        41.0004 
  -7585683.86648  -5910917.77745  23112637.6164   23112634.1674        220.0004 
         6.0004 
 -18049617.99849 -14064601.59146  22052727.5444   22052725.1374        430.0004 
        18.0004 
  -2663208.01948  -2075220.57044  24602229.4064   24602226.7464        137.0004 
         2.0004 
  -9237429.86648  -7197987.51045  23705441.7094   23705441.1624        217.0004 
         5.0004 
 04  3  1  1 50 30.0000000  0  8G04G05G07G10G17G24G26G29
 -13817229.59949 -10766634.99946  22146663.2414   22146661.5464        427.0004 
        19.0004 
  -8062168.24248  -6282207.83644  23595606.0294   23595605.2914        234.0004 
         2.0004 
 -18978470.79749 -14788385.59647  21448141.7364   21448139.1804        555.0004 
        36.0004 
 -21145935.16849 -16477329.36147  21328508.7144   21328506.0884        609.0004 
        41.0004 
  -7616010.74848  -5934549.09145  23106866.3304   23106863.4264        221.0004 
         6.0004 
 -18072283.79249 -14082263.24946  22048414.0744   22048411.7074        424.0004 
        18.0004 
  -2759581.80448  -2150316.91744  24583885.6684   24583886.9914        132.0004 
         2.0004 
  -9342089.57648  -7279540.51345  23685527.2194   23685525.0934        217.0004 
         6.0004 
 04  3  1  1 51  0.0000000  0  8G04G05G07G10G17G24G26G29
 -13813637.99249 -10763836.33946  22147346.0634   22147344.8304        422.0004 
        19.0004 
  -8077933.15048  -6294492.19244  23592608.2824   23592605.5494        240.0004 
         3.0004 
 -18909867.48249 -14734928.47047  21461196.5104   21461193.9134        546.0004 
        35.0004 
 -21162130.54349 -16489949.12547  21325426.6384   21325424.0614        606.0004 
        41.0004 
  -7646340.54848  -5958182.67845  23101095.0074   23101091.7914        219.0004 
         6.0004 
 -18094974.65049 -14099944.41646  22044096.5194   22044093.7504        421.0004 
        19.0004 
  -2856014.74548  -2225459.31844  24565541.7034   24565537.2204        150.0004 
         2.0004 
  -9446733.35748  -7361081.08145  23665614.3724   23665612.5444        223.0004 
         6.0004 
 04  3  1  1 51 30.0000000  0  8G04G05G07G10G17G24G26G29
 -13810048.68249 -10761039.47446  22148029.5904   22148028.1554        429.0004 
        19.0004 
  -8093287.16748  -6306456.37144  23589685.7794   23589683.5114        237.0004 
         3.0004 
 -18840889.90449 -14681179.71147  21474322.4034   21474319.8734        542.0004 
        35.0004 
 -21177954.30049 -16502279.31547  21322415.6774   21322412.9414        607.0004 
        41.0004 
  -7676688.44148  -5981830.36945  23095319.2234   23095316.5564        212.0004 
         6.0004 
 -18117704.18649 -14117655.74646  22039771.0184   22039768.3754        421.0004 
        19.0004 
  -2952518.93048  -2300657.26744  24547176.8314   24547172.8384        161.0004 
         3.0004 
  -9551372.97048  -7442618.39245  23645702.1064   23645699.9804        223.0004 
         6.0004 
 04  3  1  1 52  0.0000000  0  8G04G05G07G10G17G24G26G29
 -13806449.80249 -10758235.14946  22148714.0194   22148712.8954        427.0004 
        20.0004 
  -8108219.99148  -6318092.34544  23586842.2444   23586841.4844        228.0004 
         3.0004 
 -18771528.43649 -14627131.82047  21487521.5254   21487518.9114        536.0004 
        34.0004 
 -21193396.49349 -16514312.18347  21319477.0044   21319474.4164        609.0004 
        41.0004 
  -7707044.38748  -6005484.34245  23089543.0744   23089539.3904        203.0004 
         5.0004 
 -18140461.54449 -14135388.74346  22035439.8874   22035437.6904        421.0004 
        19.0004 
  -3049080.93148  -2375900.23944  24528797.7554   24528797.6134        169.0004 
         3.0004 
  -9655994.63948  -7524141.74245  23625793.4894   23625791.3084        225.0004 
         6.0004 
 04  3  1  1 52 30.0000000  0  8G04G05G07G10G17G24G26G29
 -13802842.06949 -10755423.92546  22149401.2174   22149399.5334        430.0004 
        19.0004 
  -8122733.96748  -6329401.93344  23584082.1034   23584079.1784        222.0004 
         2.0004 
 -18701786.36949 -14572787.35347  21500792.9794   21500790.4544        534.0004 
        33.0004 
 -21208460.02149 -16526049.98747  21316610.4614   21316607.9654        615.0004 
        41.0004 
  -7737410.92748  -6029146.58345  23083764.1054   23083761.1944        208.0004 
         6.0004 
 -18163248.72849 -14153144.98846  22031103.7404   22031101.2944        416.0004 
        19.0004 
  -3145700.27648  -2451187.91544  24510410.6434   24510411.2324        147.0004 
         2.0004 
  -9760597.58148  -7605650.48645  23605887.4834   23605885.4074        221.0004 
         6.0004 
 04  3  1  1 53  0.0000000  0  8G04G05G07G10G17G24G26G29
 -13799224.47949 -10752605.02346  22150089.1874   22150088.1044        435.0004 
        19.0004 
  -8136830.21848  -6340386.02844  23581399.0744   23581397.0774        226.0004 
         3.0004 
 -18631665.34849 -14518147.59847  21514136.4074   21514134.0024        529.0004 
        33.0004 
 -21223145.94849 -16537493.55747  21313815.6874   21313813.1984        609.0004 
        41.0004 
  -7767788.87648  -6052817.70645  23077983.8024   23077980.4684        209.0004 
         5.0004 
 -18186065.47649 -14170924.26446  22026762.4284   22026759.7284        426.0004 
        19.0004 
  -3242374.84548  -2526518.63644  24492016.5544   24492015.6014        152.0004 
         2.0004 
  -9865179.07148  -7687142.52645  23585987.3904   23585984.1394        225.0004 
         6.0004 
 04  3  1  1 53 30.0000000  0  8G04G05G07G10G17G24G26G29
 -13795594.16649 -10749776.21046  22150779.9304   22150778.7184        429.0004 
        19.0004 
  -8150507.44548  -6351043.60845  23578795.7604   23578794.4714        228.0004 
         4.0004 
 -18561164.93149 -14463212.21147  21527552.3724   21527549.6994        524.0004 
        33.0004 
 -21237453.43149 -16548642.23647  21311093.2624   21311090.6424        616.0004 
        42.0004 
  -7798177.12048  -6076496.83445  23072200.4074   23072197.9824        217.0004 
         6.0004 
 -18208909.42649 -14188724.73846  22022415.0864   22022412.6584        424.0004 
        19.0004 
  -3339100.12348  -2601888.86644  24473608.4724   24473608.6474        150.0004 
         1.0004 
  -9969734.20548  -7768614.03445  23566089.8884   23566088.1294        225.0004 
         6.0004 
 04  3  1  1 54  0.0000000  0  8G04G05G07G10G17G24G26G29
 -13791943.11949 -10746931.23946  22151474.4764   22151473.3454        428.0004 
        19.0004 
  -8163759.86548  -6361370.17945  23576273.5554   23576273.1224        238.0004 
         4.0004 
 -18490279.70249 -14407976.97147  21541041.6324   21541038.8494        524.0004 
        32.0004 
 -21251376.76449 -16559491.57647  21308443.8584   21308441.1794        620.0004 
        42.0004 
  -7828569.65648  -6100179.33645  23066417.7534   23066414.2994        219.0004 
         5.0004 
 -18231773.52149 -14206540.91346  22018063.9074   22018061.8874        428.0004 
        19.0004 
  -3435867.08348  -2677291.59844  24455197.6044   24455194.4764        156.0004 
         3.0004 
 -10074253.57248  -7850057.66045  23546200.2884   23546199.3684        240.0004 
         6.0004 
 04  3  1  1 54 30.0000000  0  8G04G05G07G10G17G24G26G29
 -13788281.09049 -10744077.70746  22152171.2484   22152170.2694        425.0004 
        19.0004 
  -8176598.76548  -6371374.50344  23573830.6544   23573829.7614        235.0004 
         3.0004 
 -18419021.96149 -14352451.45747  21554601.2854   21554598.7184        520.0004 
        33.0004 
 -21264927.54449 -16570050.61647  21305865.1634   21305862.6604        626.0004 
        41.0004 
  -7858978.12548  -6123874.21045  23060631.4314   23060628.4014        232.0004 
         6.0004 
 -18254668.39349 -14224381.06346  22013707.8584   22013704.8494        418.0004 
        19.0004 
  -3532684.06948  -2752733.29944  24436772.7444   24436770.7714        160.0004 
         3.0004 
 -10178745.07348  -7931479.58745  23526316.6804   23526314.5694        232.0004 
         7.0004 
 04  3  1  1 55  0.0000000  0  8G04G05G07G10G17G24G26G29
 -13784612.34949 -10741218.94646  22152869.7764   22152868.2894        424.0004 
        19.0004 
  -8189030.51548  -6381061.60045  23571467.1694   23571463.7184        229.0004 
         4.0004 
 -18347398.32349 -14296640.83347  21568230.8444   21568228.1744        517.0004 
        33.0004 
 -21278112.38949 -16580324.51647  21303355.9504   21303353.5404        623.0004 
        42.0004 
  -7889408.32348  -6147586.04645  23054840.8434   23054837.6434        234.0004 
         6.0004 
 -18277598.78949 -14242248.90046  22009344.6694   22009341.4224        423.0004 
        19.0004 
  -3629553.87848  -2828216.19244  24418335.8404   24418336.7484        160.0004 
         3.0004 
 -10283211.14548  -8012881.66045  23506437.9264   23506435.7164        236.0004 
         7.0004 
 04  3  1  1 55 30.0000000  0  8G04G05G07G10G17G24G26G29
 -13780927.14449 -10738347.36246  22153571.1584   22153569.6274        427.0004 
        19.0004 
  -8201047.12948  -6390425.18845  23569181.4744   23569176.9764        230.0004 
         4.0004 
 -18275401.74449 -14240539.60247  21581931.4554   21581928.8284        521.0004 
        33.0004 
 -21290923.84249 -16590307.45847  21300918.1024   21300915.5394        622.0004 
        42.0004 
  -7919852.44548  -6171308.72645  23049046.9154   23049044.2234        233.0004 
         6.0004 
 -18300555.89149 -14260137.54946  22004975.4414   22004972.6904        419.0004 
        19.0004 
  -3726465.67948  -2903731.82944  24399896.1734   24399894.2774        151.0004 
         2.0004 
 -10387640.36548  -8094255.05245  23486565.1794   23486563.1114        230.0004 
         6.0004 
 04  3  1  1 56  0.0000000  0  8G04G05G07G10G17G24G26G29
 -13777231.25749 -10735467.44446  22154274.6744   22154273.1024        433.0004 
        19.0004 
  -8212656.28448  -6399471.28845  23566970.6594   23566968.1224        232.0004 
         4.0004 
 -18203040.60349 -14184154.30547  21595701.1794   21595698.5524        513.0004 
        32.0004 
 -21303369.93649 -16600005.70647  21298549.6484   21298547.2434        626.0004 
        42.0004 
  -7950317.93748  -6195048.04745  23043249.7214   23043246.7704        232.0004 
         6.0004 
 -18323546.31349 -14278052.15246  22000600.4274   22000597.6954        421.0004 
        19.0004 
  -3823423.62148  -2979283.34644  24381447.7034   24381444.2024        150.0004 
         3.0004 
 -10492036.81448  -8175602.90345  23466699.2754   23466697.3844        237.0004 
         7.0004 
 04  3  1  1 56 30.0000000  0  8G04G05G07G10G17G24G26G29
 -13773516.24349 -10732572.62246  22154981.2064   22154980.1364        434.0004 
        19.0004 
  -8223851.91648  -6408195.15445  23564840.9054   23564837.7174        236.0004 
         4.0004 
 -18130309.21749 -14127480.50047  21609541.7914   21609538.9424        513.0004 
        32.0004 
 -21315444.42849 -16609414.39547  21296252.1094   21296249.5224        624.0004 
        42.0004 
  -7980798.44648  -6218799.08945  23037449.3864   23037446.2814        229.0004 
         6.0004 
 -18346562.41949 -14295986.78046  21996220.7914   21996218.4024        438.0004 
        20.0004 
  -3920418.21448  -3054863.45044  24362990.5384   24362987.3754        161.0004 
         3.0004 
 -10596390.40748  -8256917.37345  23446842.0504   23446839.6214        242.0004 
         6.0004 
 04  3  1  1 57  0.0000000  0  8G04G05G07G10G17G24G26G29
 -13769773.86449 -10729656.47846  22155693.6524   22155692.2774        435.0004 
        19.0004 
  -8234627.76348  -6416591.92845  23562790.5594   23562787.1294        233.0004 
         4.0004 
 -18057202.17849 -14070513.98247  21623453.5624   21623450.6984        510.0004 
        32.0004 
 -21327141.39049 -16618528.90747  21294025.9264   21294023.5424        622.0004 
        42.0004 
  -8011287.45648  -6242556.74545  23031647.6534   23031644.4164        224.0004 
         6.0004 
 -18369596.96649 -14313935.77346  21991837.6374   21991834.8754        434.0004 
        20.0004 
  -4017439.99548  -3130464.77344  24344527.1614   24344524.6904        166.0004 
         3.0004 
 -10700691.34448  -8338190.79645  23426994.1594   23426991.6464        238.0004 
         7.0004 
 04  3  1  1 57 30.0000000  0  8G04G05G07G10G17G24G26G29
 -13766015.57349 -10726727.93246  22156408.9294   22156407.4594        435.0004 
        19.0004 
  -8244996.97348  -6424671.82745  23560815.9474   23560813.9034        235.0004 
         4.0004 
 -17983733.32049 -14013265.52546  21637434.0184   21637431.4824        513.0004 
        31.0004 
 -21338474.54849 -16627359.92847  21291869.4124   21291866.9354        621.0004 
        42.0004 
  -8041798.18548  -6266331.32845  23025841.1704   23025838.2534        222.0004 
         6.0004 
 -18392661.81649 -14331908.38046  21987448.5214   21987445.5374        432.0004 
        20.0004 
  -4114498.95548  -3206095.02644  24326055.3864   24326054.5764        163.0004 
         2.0004 
 -10804949.23248  -8419430.67545  23407154.2854   23407151.4874        230.0004 
         7.0004 
 04  3  1  1 58  0.0000000  0  8G04G05G07G10G17G24G26G29
 -13762234.23449 -10723781.42746  22157128.5004   22157126.8234        427.0004 
        19.0004 
  -8254954.89148  -6432431.24145  23558922.1764   23558918.9464        234.0004 
         4.0004 
 -17909898.25949 -13955731.71246  21651484.5644   21651481.6994        509.0004 
        31.0004 
 -21349439.06249 -16635903.69847  21289782.8614   21289780.4614        622.0004 
        42.0004 
  -8072325.32348  -6290118.69745  23020032.0464   23020029.1744        219.0004 
         6.0004 
 -18415750.86049 -14349899.83846  21983054.4084   21983051.8774        433.0004 
        20.0004 
  -4211586.50648  -3281747.61144  24307578.0704   24307578.7664        162.0004 
         3.0004 
 -10909155.00248  -8500629.94745  23387324.3684   23387322.0494        242.0004 
         7.0004 
 04  3  1  1 58 30.0000000  0  8G04G05G07G10G17G24G26G29
 -13758428.37549 -10720815.82346  22157852.3264   22157851.0374        426.0004 
        19.0004 
  -8264501.64548  -6439870.27645  23557106.1074   23557101.8454        224.0004 
         4.0004 
 -17835698.32249 -13897913.58246  21665604.1834   21665601.5414        512.0004 
        31.0004 
 -21360035.76649 -16644160.86547  21287766.5214   21287764.2164        633.0004 
        41.0004 
  -8102869.36648  -6313919.20945  23014220.5494   23014217.0474        224.0004 
         6.0004 
 -18438863.28749 -14367909.52246  21978656.5174   21978653.9434        442.0004 
        20.0004 
  -4308700.10748  -3357420.48744  24289101.8704   24289099.0894        168.0004 
         3.0004 
 -11013305.87648  -8581786.44045  23367504.7574   23367502.3544        231.0004 
         7.0004 
 04  3  1  1 59  0.0000000  0  8G04G05G07G10G17G24G26G29
 -13754599.42449 -10717832.21946  22158581.7614   22158579.6604        423.0004 
        19.0004 
  -8273641.37948  -6446992.15845  23555363.3374   23555362.8174        233.0004 
         4.0004 
 -17761137.65149 -13839814.36246  21679792.6484   21679790.1304        518.0004 
        31.0004 
 -21370268.60449 -16652134.49447  21285819.0824   21285816.8194        628.0004 
        42.0004 
  -8133433.45648  -6337735.39645  23008402.9634   23008400.6124        223.0004 
         5.0004 
 -18462001.25849 -14385939.10146  21974253.5794   21974250.6324        434.0004 
        20.0004 
  -4405839.82048  -3433113.69244  24270617.7344   24270613.7004        159.0004 
         3.0004 
 -11117401.37948  -8662899.78945  23347696.3004   23347693.8204        239.0004 
         7.0004 
 04  3  1  1 59 30.0000000  0  8G04G05G07G10G17G24G26G29
 -13750750.09849 -10714832.74246  22159313.7604   22159312.1194        422.0004 
        19.0004 
  -8282378.85248  -6453800.57945  23553704.8024   23553700.7724        243.0004 
         5.0004 
 -17686222.00249 -13781438.53346  21694048.5974   21694045.9884        516.0004 
        31.0004 
 -21380142.87649 -16659828.72547  21283940.1554   21283937.7174        625.0004 
        42.0004 
  -8164022.30948  -6361570.84145  23002582.6664   23002579.7634        225.0004 
         6.0004 
 -18485168.57949 -14403991.55546  21969845.1924   21969842.3364        446.0004 
        21.0004 
  -4503007.32848  -3508828.50344  24252124.5454   24252123.1664        156.0004 
         3.0004 
 -11221442.58048  -8743970.83545  23327897.3674   23327895.5624        242.0004 
         8.0004 
 04  3  1  2  0  0.0000000  0  8G04G05G07G10G17G24G26G29
 -13746878.18149 -10711815.65546  22160050.5784   22160049.0244        421.0004 
        19.0004 
  -8290713.65948  -6460295.23445  23552116.8314   23552114.4904        236.0004 
         4.0004 
 -17610951.68849 -13722786.34346  21708372.1384   21708369.5864        520.0004 
        30.0004 
 -21389658.59149 -16667243.56147  21282129.3194   21282127.1904        636.0004 
        42.0004 
  -8194635.26248  -6385425.07245  22996757.7784   22996754.3004        227.0004 
         6.0004 
 -18508363.58249 -14422065.58446  21965430.6774   21965428.3824        447.0004 
        21.0004 
  -4600198.84448  -3584562.10344  24233629.8334   24233628.6494        173.0004 
         3.0004 
 -11325425.45948  -8824996.42945  23308110.1824   23308108.3314        248.0004 
         7.0004 
 04  3  1  2  0 30.0000000  0  8G04G05G07G10G17G24G26G29
 -13742977.40849 -10708776.09046  22160792.9744   22160791.3724        421.0004 
        18.0004 
  -8298641.78048  -6466473.01645  23550609.3394   23550605.4854        232.0004 
         4.0004 
 -17535323.15349 -13663855.02146  21722763.5554   21722761.2434        521.0004 
        30.0004 
 -21398811.63149 -16674375.79247  21280387.3664   21280385.1814        628.0004 
        42.0004 
  -8225267.91248  -6409294.66345  22990928.9104   22990925.6014        236.0004 
         6.0004 
 -18531580.78149 -14440156.90146  21961013.0234   21961010.4024        452.0004 
        21.0004 
  -4697406.82448  -3660308.55344  24215130.4434   24215130.5734        178.0004 
         3.0004 
 -11429342.18048  -8905970.46445  23288335.1144   23288333.4084        244.0004 
         8.0004 
 04  3  1  2  1  0.0000000  0  8G04G05G07G10G17G24G26G29
 -13739051.39849 -10705716.85646  22161539.7994   22161538.1684        411.0004 
        18.0004 
  -8306169.17348  -6472338.50645  23549177.4524   23549173.0974        232.0004 
         5.0004 
 -17459343.01149 -13604649.71546  21737222.4664   21737219.8304        520.0004 
        30.0004 
 -21407608.06449 -16681230.14947  21278713.7554   21278711.3644        632.0004 
        43.0004 
  -8255925.73448  -6433183.85045  22985093.8294   22985091.2374        232.0004 
         7.0004 
 -18554824.46149 -14458268.85846  21956589.9814   21956587.2054        453.0004 
        21.0004 
  -4794633.64748  -3736069.64144  24196629.4574   24196628.9614        170.0004 
         3.0004 
 -11533194.54448  -8986894.35045  23268573.6794   23268571.0554        245.0004 
         8.0004 
 04  3  1  2  1 30.0000000  0  8G04G05G07G10G17G24G26G29
 -13735107.43149 -10702643.63046  22162290.3884   22162288.8154        413.0004 
        18.0004 
  -8313305.68048  -6477899.42245  23547816.5414   23547815.0504        233.0004 
         4.0004 
 -17383021.55249 -13545178.44846  21751745.6994   21751743.1594        510.0004 
        29.0004 
 -21416058.06849 -16687814.56447  21277105.6594   21277103.3204        631.0004 
        43.0004 
  -8286618.03348  -6457099.90645  22979254.0924   22979250.7484        234.0004 
         7.0004 
 -18578102.83049 -14476407.84146  21952160.1164   21952157.6944        462.0004 
        21.0004 
  -4891885.41348  -3811850.19544  24178125.6524   24178122.3924        171.0004 
         3.0004 
 -11636988.41248  -9067772.67045  23248820.8184   23248819.5844        257.0004 
         8.0004 
 04  3  1  2  2  0.0000000  0  8G04G05G07G10G17G24G26G29
 -13731130.80449 -10699544.95646  22163047.2904   22163045.5594        414.0004 
        19.0004 
  -8320038.39948  -6483145.69245  23546538.0604   23546533.8914        234.0004 
         5.0004 
 -17306346.47649 -13485431.64246  21766336.5354   21766333.9134        506.0004 
        29.0004 
 -21424148.99649 -16694119.17547  21275566.0564   21275563.7914        634.0004 
        43.0004 
  -8317331.51748  -6481032.48245  22973408.5554   22973406.2284        239.0004 
         6.0004 
 -18601401.68649 -14494562.78846  21947726.5014   21947723.8684        460.0004 
        21.0004 
  -4989145.85648  -3887637.48145  24159617.1204   24159614.4574        181.0004 
         4.0004 
 -11740707.06548  -9148592.37745  23229084.7604   23229082.6314        254.0004 
         8.0004 
 04  3  1  2  2 30.0000000  0  8G04G05G07G10G17G24G26G29
 -13727120.18349 -10696419.79646  22163810.5824   22163808.7174        411.0004 
        18.0004 
  -8326368.56348  -6488078.28445  23545332.1214   23545329.0554        229.0004 
         5.0004 
 -17229319.86049 -13425410.90246  21780994.2024   21780991.5244        497.0004 
        28.0004 
 -21431882.28949 -16700145.11147  21274094.5924   21274092.1144        632.0004 
        43.0004 
  -8348067.14548  -6504982.30045  22967560.7754   22967557.5684        241.0004 
         7.0004 
 -18624720.79249 -14512733.51246  21943288.5824   21943286.5274        467.0004 
        21.0004 
  -5086412.69248  -3963429.76845  24141108.3074   24141104.6764        174.0004 
         4.0004 
 -11844348.03148  -9229351.53845  23209362.5084   23209360.6054        260.0004 
         8.0004 
 04  3  1  2  3  0.0000000  0  8G04G05G07G10G17G24G26G29
 -13723066.56449 -10693261.12846  22164581.4984   22164580.0284        409.0004 
        18.0004 
  -8332289.92548  -6492692.34745  23544205.7214   23544202.4734        229.0004 
         5.0004 
 -17151935.23149 -13365111.19346  21795720.0354   21795717.4434        493.0004 
        28.0004 
 -21439251.40149 -16705887.27047  21272692.2314   21272689.8244        631.0004 
        42.0004 
  -8378817.31748  -6528943.46245  22961708.5864   22961705.9124        241.0004 
         6.0004 
 -18648051.59249 -14530913.35146  21938849.2044   21938846.8004        468.0004 
        21.0004 
  -5183675.42448  -4039218.87345  24122598.1634   24122596.6834        184.0004 
         4.0004 
 -11947899.98248  -9310041.35545  23189657.2614   23189654.9994        248.0004 
         8.0004 
 04  3  1  2  3 30.0000000  0  8G04G05G07G10G17G24G26G29
 -13718977.55349 -10690074.88546  22165359.9134   22165358.1304        408.0004 
        19.0004 
  -8337812.16448  -6496995.39745  23543153.6634   23543150.8194        221.0004 
         5.0004 
 -17074203.36949 -13304540.91246  21810511.4034   21810509.2864        487.0004 
        27.0004 
 -21446266.58349 -16711353.63747  21271357.2584   21271354.7894        628.0004 
        42.0004 
  -8409591.70548  -6552923.48945  22955853.4494   22955849.8894        241.0004 
         7.0004 
 -18671402.35449 -14549108.74946  21934405.8554   21934403.2404        467.0004 
        22.0004 
  -5280940.56148  -4115009.80945  24104088.2014   24104087.6834        195.0004 
         4.0004 
 -12051369.17448  -9390666.66545  23169968.2504   23169965.9434        262.0004 
         8.0004 
 04  3  1  2  4  0.0000000  0  8G04G05G07G10G17G24G26G29
 -13714864.54649 -10686869.94046  22166142.1004   22166140.5714        403.0004 
        19.0004 
  -8342948.86148  -6500998.00245  23542177.3734   23542173.8744        226.0004 
         5.0004 
 -16996138.36649 -13243711.04346  21825367.0904   21825364.3224        473.0004 
        27.0004 
 -21452941.37049 -16716554.76247  21270086.9014   21270084.6364        629.0004 
        42.0004 
  -8440403.23448  -6576932.47045  22949989.8174   22949986.3714        237.0004 
         6.0004 
 -18694785.25249 -14567329.18546  21929955.6674   21929953.5814        471.0004 
        22.0004 
  -5378217.98648  -4190810.37545  24085578.0374   24085576.1404        183.0004 
         4.0004 
 -12154765.30448  -9471235.04045  23150292.1904   23150289.9214        261.0004 
         9.0004 
 04  3  1  2  4 30.0000000  0  8G04G05G07G10G17G24G26G29
 -13710714.78449 -10683636.35846  22166931.9564   22166930.3534        405.0004 
        18.0004 
  -8347689.60048  -6504692.08445  23541275.5334   23541271.8044        230.0004 
         5.0004 
 -16917730.65749 -13182614.12946  21840287.4804   21840284.9604        469.0004 
        26.0004 
 -21459265.79049 -16721482.87347  21268883.4364   21268881.1994        632.0004 
        42.0004 
  -8471241.28348  -6600962.10845  22944120.0524   22944117.9744        234.0004 
         6.0004 
 -18718188.54349 -14585565.51546  21925502.5954   21925500.0824        475.0004 
        21.0004 
  -5475493.91448  -4266609.74144  24067065.4134   24067065.0294        178.0004 
         3.0004 
 -12258073.99648  -9551735.30245  23130632.9064   23130630.8874        263.0004 
         9.0004 
 04  3  1  2  5  0.0000000  0  8G04G05G07G10G17G24G26G29
 -13706538.01449 -10680381.73146  22167726.6284   22167725.3894        411.0004 
        18.0004 
  -8352046.93148  -6508087.41945  23540446.2744   23540442.9134        230.0004 
         5.0004 
 -16838992.97149 -13121260.09446  21855270.8494   21855268.2754        464.0004 
        26.0004 
 -21465252.53549 -16726147.86047  21267744.1404   21267741.8964        630.0004 
        42.0004 
  -8502117.28448  -6625021.31645  22938245.4884   22938242.4364        230.0004 
         6.0004 
 -18741622.59449 -14603825.80746  21921043.0854   21921040.7784        475.0004 
        22.0004 
  -5572776.68348  -4342414.43545  24048553.4924   24048552.9954        192.0004 
         4.0004 
 -12361303.24948  -9632173.65945  23110989.0634   23110986.9774        263.0004 
         8.0004 
 04  3  1  2  5 30.0000000  0  8G04G05G07G10G17G24G26G29
 -13702321.31349 -10677095.98946  22168529.1884   22168527.7044        410.0004 
        19.0004 
  -8356010.25948  -6511175.72645  23539692.8374   23539688.4134        228.0004 
         6.0004 
 -16759915.30649 -13059641.13846  21870319.0124   21870316.2474        459.0004 
        25.0004 
 -21470891.16049 -16730541.58447  21266671.1204   21266668.9724        631.0004 
        42.0004 
  -8533020.15648  -6649101.46945  22932364.7754   22932361.8484        231.0004 
         7.0004 
 -18765075.01949 -14622100.42046  21916580.7144   21916577.9884        481.0004 
        23.0004 
  -5670052.18848  -4418213.47345  24030043.4734   24030042.2594        202.0004 
         5.0004 
 -12464438.53948  -9712538.79345  23091363.5164   23091360.8394        258.0004 
         8.0004 
 04  3  1  2  6  0.0000000  0  8G04G05G07G10G17G24G26G29
 -13698061.49349 -10673776.64746  22169340.3274   22169338.6144        418.0004 
        19.0004 
  -8359578.89848  -6513956.49945  23539011.8334   23539009.5964        232.0004 
         5.0004 
 -16680497.58049 -12997757.20046  21885431.6754   21885428.9644        454.0004 
        25.0004 
 -21476181.08849 -16734663.59647  21265664.4354   21265662.2184        626.0004 
        42.0004 
  -8563948.62348  -6673201.54145  22926480.1804   22926476.1634        231.0004 
         7.0004 
 -18788543.68949 -14640387.69346  21912114.2884   21912111.8854        478.0004 
        23.0004 
  -5767316.09248  -4494003.47645  24011535.6274   24011532.9924        189.0004 
         4.0004 
 -12567475.08648  -9792826.98945  23071755.9434   23071753.7624        270.0004 
         9.0004 
 04  3  1  2  6 30.0000000  0  8G04G05G07G10G17G24G26G29
 -13693761.49549 -10670425.99846  22170157.9354   22170156.6764        412.0004 
        19.0004 
  -8362758.21848  -6516433.87045  23538407.8834   23538404.7154        233.0004 
         6.0004 
 -16600745.59349 -12935612.79546  21900607.9034   21900605.3344        455.0004 
        25.0004 
 -21481127.74949 -16738518.13147  21264723.1484   21264720.8084        624.0004 
        41.0004 
  -8594907.22048  -6697325.10545  22920588.7754   22920584.9224        231.0004 
         7.0004 
 -18812032.04149 -14658690.29546  21907644.8484   21907642.2224        482.0004 
        23.0004 
  -5864569.81948  -4569785.55245  23993029.5524   23993026.2074        191.0004 
         4.0004 
 -12670414.06248  -9873039.15345  23052166.5704   23052164.9974        271.0004 
         9.0004 
 04  3  1  2  7  0.0000000  0  8G04G05G07G10G17G24G26G29
 -13689407.19149 -10667033.03146  22170986.5394   22170985.1194        408.0004 
        19.0004 
  -8365536.54448  -6518598.81845  23537878.8864   23537876.1384        233.0004 
         5.0004 
 -16520648.55249 -12873199.52346  21915850.0334   21915847.1694        448.0004 
        25.0004 
 -21485720.18149 -16742096.64147  21263849.4334   21263847.0744        629.0004 
        42.0004 
  -8625883.82948  -6721462.71545  22914693.5804   22914690.4064        236.0004 
         6.0004 
 -18835526.77949 -14676997.88146  21903173.7134   21903171.4384        486.0004 
        23.0004 
  -5961798.34148  -4645547.95945  23974524.8834   23974524.5714        196.0004 
         4.0004 
 -12773239.98848  -9953163.22945  23032599.7754   23032598.3354        285.0004 
         9.0004 
 04  3  1  2  7 30.0000000  0  8G04G05G07G10G17G24G26G29
 -13685009.42449 -10663606.19146  22171823.9664   22171822.0274        407.0004 
        19.0004 
  -8367927.55648  -6520461.95045  23537423.8994   23537420.6644        224.0004 
         5.0004 
 -16440220.21449 -12810528.09646  21931154.9464   21931152.1664        449.0004 
        24.0004 
 -21489971.49349 -16745409.34547  21263040.6014   21263037.8654        619.0004 
        42.0004 
  -8656890.88948  -6745624.04345  22908793.1584   22908790.1314        241.0004 
         7.0004 
 -18859039.02049 -14695319.11146  21898699.3634   21898696.9644        478.0004 
        23.0004 
  -6059010.98848  -4721298.03845  23956026.6404   23956025.2014        190.0004 
         4.0004 
 -12875961.69148 -10033206.08545  23013051.6244   23013050.3734        274.0004 
         9.0004 
 04  3  1  2  8  0.0000000  0  8G04G05G07G10G17G24G26G29
 -13680575.32449 -10660151.04946  22172667.4754   22172665.6584        404.0004 
        18.0004 
  -8369940.60648  -6522030.56145  23537040.9264   23537037.6204        226.0004 
         6.0004 
 -16359470.61849 -12747606.34146  21946520.9544   21946518.2234        447.0004 
        24.0004 
 -21493891.25649 -16748463.69647  21262294.5004   21262291.9584        618.0004 
        42.0004 
  -8687937.41348  -6769816.14045  22902886.2054   22902882.0624        239.0004 
         8.0004 
 -18882576.58749 -14713660.06946  21894220.6764   21894218.0604        485.0004 
        23.0004 
  -6156213.60448  -4797040.28645  23937531.3944   23937528.5294        200.0004 
         5.0004 
 -12978584.71648 -10113172.07045  22993523.7844   22993522.1834        286.0004 
         9.0004 
 04  3  1  2  8 30.0000000  0  8G04G05G07G10G17G24G26G29
 -13676090.31049 -10656656.23046  22173520.9874   22173519.6174        416.0004 
        19.0004 
  -8371563.93648  -6523295.48245  23536731.3564   23536729.1014        232.0004 
         5.0004 
 -16278388.64449 -12684425.58546  21961950.6264   21961947.8674        456.0004 
        24.0004 
 -21497468.02449 -16751250.77947  21261613.9124   21261611.3694        617.0004 
        42.0004 
  -8719010.54548  -6794028.93845  22896971.2024   22896968.9574        242.0004 
         7.0004 
 -18906126.27749 -14732010.47246  21889739.2864   21889736.7234        485.0004 
        23.0004 
  -6253390.46248  -4872762.45545  23919038.0684   23919036.2414        200.0004 
         5.0004 
 -13081092.92348 -10193048.56746  22974017.2674   22974015.7194        303.0004 
        10.0004 
 04  3  1  2  9  0.0000000  0  8G04G05G07G10G17G24G26G29
 -13671554.85849 -10653122.10946  22174383.8844   22174382.5204        413.0004 
        18.0004 
  -8372800.37148  -6524258.94645  23536496.3344   23536493.5034        226.0004 
         5.0004 
 -16196977.57449 -12620988.39446  21977442.5124   21977439.8044        452.0004 
        24.0004 
 -21500704.74849 -16753772.89347  21260997.8664   21260995.4154        620.0004 
        42.0004 
  -8750112.52048  -6818264.22845  22891053.9634   22891050.5254        249.0004 
         7.0004 
 -18929689.19249 -14750371.18146  21885255.2084   21885252.9234        493.0004 
        23.0004 
  -6350540.71248  -4948463.88045  23900551.2214   23900549.5284        205.0004 
         5.0004 
 -13183485.01048 -10272834.60046  22954532.1864   22954530.9994        301.0004 
        10.0004 
 04  3  1  2  9 30.0000000  0  8G04G05G07G10G17G24G26G29
 -13666972.85349 -10649551.71246  22175256.0934   22175254.2914        408.0004 
        19.0004 
  -8373656.77048  -6524926.26245  23536333.8954   23536331.1694        235.0004 
         5.0004 
 -16115244.73149 -12557300.46746  21992995.6064   21992993.1854        460.0004 
        24.0004 
 -21503608.48349 -16756035.53547  21260445.3604   21260442.9154        620.0004 
        42.0004 
  -8781249.30148  -6842526.63745  22885126.9894   22885125.8144        257.0004 
         7.0004 
 -18953269.69149 -14768745.59246  21880768.3784   21880765.9604        504.0004 
        24.0004 
  -6447667.12248  -5024146.75445  23882067.4484   23882066.4024        197.0004 
         4.0004 
 -13285763.50848 -10352532.11146  22935069.0434   22935068.0224        298.0004 
        10.0004 
 04  3  1  2 10  0.0000000  0  8G04G05G07G10G17G24G26G29
 -13662355.69849 -10645953.92946  22176134.8604   22176132.7544        404.0004 
        18.0004 
  -8374146.99248  -6525308.24745  23536241.1704   23536237.4094        229.0004 
         6.0004 
 -16033204.63349 -12493373.11746  22008607.4094   22008604.9924        461.0004 
        24.0004 
 -21506193.32949 -16758049.69347  21259953.5504   21259950.9984        619.0004 
        43.0004 
  -8812433.81548  -6866826.25745  22879193.9704   22879191.4794        257.0004 
         7.0004 
 -18976879.70649 -14787143.00746  21876275.3884   21876272.8864        498.0004 
        24.0004 
  -6544779.87148  -5099818.99245  23863587.6974   23863586.3674        192.0004 
         4.0004 
 -13387938.08348 -10432148.64046  22915626.5554   22915624.7614        296.0004 
        10.0004 
 04  3  1  2 10 30.0000000  0  8G04G05G07G10G17G24G26G29
 -13657686.24649 -10642315.38846  22177023.0294   22177021.5714        410.0004 
        19.0004 
  -8374257.15348  -6525394.08945  23536218.3034   23536217.0214        233.0004 
         6.0004 
 -15950843.16449 -12429195.35446  22024280.3154   22024277.8754        465.0004 
        24.0004 
 -21508444.86249 -16759804.12547  21259524.9794   21259522.4174        620.0004 
        43.0004 
  -8843650.71648  -6891151.10945  22873254.3224   22873251.1844        259.0004 
         8.0004 
 -19000502.70949 -14805550.53846  21871779.8364   21871777.3564        490.0004 
        24.0004 
  -6641860.40748  -5175466.10945  23845113.4054   23845112.6724        207.0004 
         5.0004 
 -13489989.89248 -10511669.50746  22896206.3184   22896205.0364        301.0004 
        10.0004 
 04  3  1  2 11  0.0000000  0  8G04G05G07G10G17G24G26G29
 -13652961.49049 -10638633.75546  22177922.1314   22177920.5064        408.0004 
        18.0004 
  -8373986.61948  -6525183.27945  23536271.5604   23536268.2024        230.0004 
         6.0004 
 -15868160.56249 -12364767.35546  22040013.9724   22040011.6654        459.0004 
        23.0004 
 -21510362.96649 -16761298.74647  21259159.8554   21259157.4744        620.0004 
        43.0004 
  -8874898.86648  -6915500.30145  22867307.3694   22867304.7764        256.0004 
         7.0004 
 -19024136.65049 -14823966.59446  21867282.3004   21867279.9994        495.0004 
        24.0004 
  -6738904.54548  -5251084.90445  23826645.7634   23826645.5524        202.0004 
         4.0004 
 -13591914.47548 -10591091.24846  22876810.2014   22876809.5394        312.0004 
        10.0004 
 04  3  1  2 11 30.0000000  0  8G04G05G07G10G17G24G26G29
 -13648179.98349 -10634907.90646  22178832.0184   22178830.7954        419.0004 
        18.0004 
  -8373336.60948  -6524676.76445  23536394.9934   23536392.0894        234.0004 
         6.0004 
 -15785158.69749 -12300090.58346  22055808.8894   22055806.5634        465.0004 
        23.0004 
 -21511949.13049 -16762534.71247  21258858.1144   21258855.6884        623.0004 
        43.0004 
  -8906178.57948  -6939874.07845  22861355.2514   22861352.2894        253.0004 
         8.0004 
 -19047780.41749 -14842390.30946  21862783.5104   21862780.7734        498.0004 
        24.0004 
  -6835909.77148  -5326673.33745  23808185.4574   23808185.7424        199.0004 
         4.0004 
 -13693708.51448 -10670411.26646  22857440.3164   22857438.9334        309.0004 
        11.0004 
 04  3  1  2 12  0.0000000  0  8G04G05G07G10G17G24G26G29
 -13643346.99549 -10631141.93646  22179751.4344   22179750.3754        416.0004 
        18.0004 
  -8372315.16648  -6523880.83545  23536587.7604   23536586.2964        232.0004 
         6.0004 
 -15701846.01549 -12235171.61346  22071662.6544   22071660.5214        467.0004 
        23.0004 
 -21513211.31249 -16763518.22347  21258617.7554   21258615.4294        622.0004 
        43.0004 
  -8937496.75948  -6964277.83845  22855395.1524   22855392.4794        253.0004 
         8.0004 
 -19071439.81549 -14860826.20546  21858280.4954   21858278.5394        496.0004 
        24.0004 
  -6932880.07648  -5402234.57445  23789735.6174   23789733.1424        205.0004 
         5.0004 
 -13795375.84648 -10749632.53546  22838093.0274   22838091.5894        289.0004 
        10.0004 
 04  3  1  2 12 30.0000000  0  8G04G05G07G10G17G24G26G29
 -13638461.35949 -10627334.94246  22180681.2224   22180679.8114        410.0004 
        19.0004 
  -8370924.05648  -6522796.83945  23536853.4434   23536850.6894        229.0004 
         6.0004 
 -15618224.51349 -12170012.00246  22087575.5184   22087573.1874        465.0004 
        23.0004 
 -21514151.20349 -16764250.59747  21258438.9834   21258436.6664        623.0004 
        42.0004 
  -8968854.31648  -6988712.28345  22849428.5244   22849425.3794        257.0004 
         8.0004 
 -19095114.67749 -14879274.14746  21853775.8374   21853773.3244        494.0004 
        24.0004 
  -7029812.95148  -5477766.62945  23771288.3164   23771287.2544        205.0004 
         4.0004 
 -13896913.67848 -10828752.90246  22818770.6394   22818769.9554        297.0004 
        10.0004 
 04  3  1  2 13  0.0000000  0  8G04G05G07G10G17G24G26G29
 -13633515.85649 -10623481.30146  22181622.5014   22181621.0654        413.0004 
        19.0004 
  -8369158.79748  -6521421.32245  23537188.5624   23537187.0314        235.0004 
         6.0004 
 -15534290.49449 -12104608.87446  22103547.9544   22103545.2374        459.0004 
        22.0004 
 -21514764.63049 -16764728.58947  21258322.3924   21258319.9524        624.0004 
        43.0004 
  -9000245.73848  -7013173.12045  22843454.5614   22843451.9614        260.0004 
         8.0004 
 -19118798.58949 -14897729.13846  21849269.1234   21849266.3424        489.0004 
        24.0004 
  -7126700.25048  -5553263.18545  23752851.6674   23752850.6094        217.0004 
         5.0004 
 -13998313.19148 -10907765.49546  22799474.7704   22799474.1754        303.0004 
        10.0004 
 04  3  1  2 13 30.0000000  0  8G04G05G07G10G17G24G26G29
 -13628510.28649 -10619580.85746  22182575.0724   22182573.4794        411.0004 
        19.0004 
  -8367022.17648  -6519756.40945  23537596.0584   23537593.4844        234.0004 
         6.0004 
 -15450046.97549 -12038964.57846  22119578.8664   22119576.2254        455.0004 
        23.0004 
 -21515054.36649 -16764954.35347  21258266.9304   21258264.6974        624.0004 
        43.0004 
  -9031672.51848  -7037661.50045  22837474.1234   22837471.4374        259.0004 
         8.0004 
 -19142491.64649 -14916191.26246  21844760.4844   21844757.7614        492.0004 
        24.0004 
  -7223540.42648  -5628723.04845  23734424.7144   23734422.2224        212.0004 
         5.0004 
 -14099572.74248 -10986669.01346  22780206.9974   22780205.0494        302.0004 
        11.0004 
 04  3  1  2 14  0.0000000  0  8G04G05G07G10G17G24G26G29
 -13623446.17049 -10615634.78946  22183538.5834   22183537.0894        411.0004 
        18.0004 
  -8364518.47848  -6517805.47345  23538071.6544   23538070.1394        237.0004 
         6.0004 
 -15365498.43849 -11973082.60346  22135667.6824   22135665.3354        455.0004 
        22.0004 
 -21515024.54649 -16764931.11247  21258272.8604   21258270.4654        624.0004 
        43.0004 
  -9063137.73448  -7062179.84045  22831486.3104   22831483.9024        263.0004 
         8.0004 
 -19166195.96049 -14934662.15646  21840249.3814   21840247.2194        500.0004 
        24.0004 
  -7320333.58148  -5704146.23545  23716004.1944   23716003.2124        221.0004 
         5.0004 
 -14200691.87848 -11065463.12646  22760963.6074   22760962.7744        300.0004 
        11.0004 
 04  3  1  2 14 30.0000000  0  8G04G05G07G10G17G24G26G29
 -13618321.44449 -10611641.49546  22184513.6484   22184512.3884        413.0004 
        19.0004 
  -8361648.37848  -6515569.04345  23538617.8434   23538616.0784        234.0004 
         6.0004 
 -15280646.29549 -11906964.05346  22151814.4094   22151811.9764        447.0004 
        22.0004 
 -21514675.86949 -16764659.41147  21258339.1244   21258336.7704        625.0004 
        42.0004 
  -9094641.22648  -7086728.00145  22825492.3234   22825488.9794        265.0004 
         8.0004 
 -19189910.46749 -14953140.98946  21835736.8424   21835734.4084        495.0004 
        24.0004 
  -7417076.43348  -5779530.25645  23697596.5314   23697593.5304        223.0004 
         5.0004 
 -14301667.06148 -11144145.05646  22741749.9534   22741747.9224        304.0004 
        12.0004 
 04  3  1  2 15  0.0000000  0  8G04G05G07G10G17G24G26G29
 -13613135.76649 -10607600.70946  22185500.8264   22185499.4154        421.0004 
        18.0004 
  -8358414.47148  -6513049.09245  23539233.6664   23539231.7144        234.0004 
         6.0004 
 -15195493.77149 -11840611.44446  22168018.6114   22168015.9394        442.0004 
        21.0004 
 -21514011.37049 -16764141.61447  21258465.6254   21258463.2564        625.0004 
        43.0004 
  -9126184.42448  -7111307.10145  22819489.4654   22819486.4544        268.0004 
         8.0004 
 -19213635.43149 -14971627.97446  21831221.9934   21831219.5584        490.0004 
        24.0004 
  -7513767.69448  -5854874.06045  23679196.7784   23679193.9664        219.0004 
         6.0004 
 -14402496.54548 -11222713.47246  22722562.0754   22722560.6904        314.0004 
        12.0004 
 04  3  1  2 15 30.0000000  0  8G04G05G07G10G17G24G26G29
 -13607882.86649 -10603507.53546  22186500.4364   22186498.6914        415.0004 
        19.0004 
  -8354813.60048  -6510243.23045  23539918.7334   23539916.8624        233.0004 
         6.0004 
 -15110037.65949 -11774022.27246  22184280.0084   22184277.6674        433.0004 
        21.0004 
 -21513027.63649 -16763375.06047  21258652.7974   21258650.3254        620.0004 
        43.0004 
  -9157762.88548  -7135913.67745  22813480.0654   22813477.1544        270.0004 
         8.0004 
 -19237364.98249 -14990118.52646  21826706.4724   21826703.9674        491.0004 
        25.0004 
  -7610399.75248  -5930171.73145  23660806.3694   23660805.1844        232.0004 
         6.0004 
 -14503172.31849 -11301162.09946  22703404.2174   22703402.8044        323.0004 
        13.0004 
 04  3  1  2 16  0.0000000  0  8G04G05G07G10G17G24G26G29
 -13602560.48649 -10599360.22646  22187513.5734   22187511.5694        418.0004 
        19.0004 
  -8350846.08648  -6507151.66845  23540674.2454   23540672.1414        238.0004 
         5.0004 
 -15024279.02549 -11707197.36446  22200599.9484   22200597.1764        434.0004 
        21.0004 
 -21511725.04349 -16762360.04547  21258900.5594   21258898.2644        624.0004 
        43.0004 
  -9189376.04448  -7160547.29445  22807463.6944   22807461.5654        271.0004 
         8.0004 
 -19261097.54249 -15008611.43546  21822190.0974   21822187.8964        493.0004 
        24.0004 
  -7706968.98748  -6005420.46445  23642430.9954   23642429.0154        225.0004 
         6.0004 
 -14603690.59049 -11379488.01146  22684276.1414   22684274.4894        323.0004 
        13.0004 
 04  3  1  2 16 30.0000000  0  8G04G05G07G10G17G24G26G29
 -13597172.62149 -10595161.89046  22188538.5844   22188536.7354        415.0004 
        19.0004 
  -8346519.47848  -6503780.27245  23541498.0664   23541494.8624        228.0004 
         5.0004 
 -14938225.51449 -11640142.68446  22216975.2444   22216972.5594        425.0004 
        20.0004 
 -21510111.10949 -16761102.42547  21259207.6234   21259205.3024        622.0004 
        42.0004 
  -9221029.71848  -7185212.47945  22801440.6744   22801437.6714        263.0004 
         8.0004 
 -19284837.98749 -15027110.47546  21817672.5494   21817670.1864        491.0004 
        24.0004 
  -7803478.70248  -6080622.80645  23624064.2494   23624063.7544        237.0004 
         6.0004 
 -14704054.14349 -11457693.35946  22665177.4164   22665176.1404        326.0004 
        13.0004 
 04  3  1  2 17  0.0000000  0  8G04G05G07G10G17G24G26G29
 -13591717.50849 -10590911.14746  22189576.4564   22189575.0484        423.0004 
        19.0004 
  -8341834.51648  -6500129.67045  23542389.3204   23542386.4214        226.0004 
         6.0004 
 -14851878.50249 -11572859.30546  22233406.5634   22233403.6794        413.0004 
        20.0004 
 -21508186.84149 -16759602.98647  21259573.8464   21259571.5064        624.0004 
        43.0004 
  -9252723.67048  -7209909.04845  22795409.3594   22795406.9594        271.0004 
         8.0004 
 -19308584.66949 -15045614.38346  21813153.7164   21813151.2614        488.0004 
        24.0004 
  -7899925.35448  -6155776.00845  23605711.5504   23605710.1334        229.0004 
         6.0004 
 -14804259.06249 -11535775.09546  22646108.9464   22646107.9684        336.0004 
        13.0004 
 04  3  1  2 17 30.0000000  0  8G04G05G07G10G17G24G26G29
 -13586199.42249 -10586611.33846  22190626.5444   22190625.0964        421.0004 
        19.0004 
  -8336798.68348  -6496205.66045  23543346.0004   23543344.6874        228.0004 
         5.0004 
 -14765245.63549 -11505353.17746  22249892.4534   22249889.4564        408.0004 
        19.0004 
 -21505959.47549 -16757867.36847  21259997.6874   21259995.5204        630.0004 
        42.0004 
  -9284463.98348  -7234641.74745  22789369.6264   22789366.9124        275.0004 
         8.0004 
 -19332342.64049 -15064127.08246  21808633.1114   21808630.3054        487.0004 
        25.0004 
  -7996312.38148  -6230882.75345  23587369.4354   23587368.0704        227.0004 
         6.0004 
 -14904308.21649 -11613735.45446  22627070.2034   22627069.1764        344.0004 
        14.0004 
 04  3  1  2 18  0.0000000  0  8G04G05G07G10G17G24G26G29
 -13580595.77949 -10582244.87046  22191693.2114   22191691.5104        426.0004 
        19.0004 
  -8331392.35448  -6491993.09545  23544375.8724   23544373.4674        227.0004 
         6.0004 
 -14678307.71949 -11437609.35146  22266436.3144   22266433.1034        398.0004 
        18.0004 
 -21503409.57649 -16755880.42447  21260483.0374   21260480.7524        629.0004 
        43.0004 
  -9316229.75848  -7259394.28645  22783324.1854   22783322.1124        276.0004 
         8.0004 
 -19356089.77149 -15082631.33546  21804113.8014   21804111.4604        490.0004 
        24.0004 
  -8092615.65848  -6305924.24345  23569045.1884   23569042.7114        242.0004 
         7.0004 
 -15004177.50249 -11691555.66046  22608065.8434   22608064.6684        343.0004 
        14.0004 
 04  3  1  2 18 30.0000000  0  8G04G05G07G10G17G24G26G29
 -13574920.81549 -10577822.81246  22192772.8234   22192771.2674        419.0004 
        19.0004 
  -8325632.99048  -6487505.00745  23545471.1434   23545469.5234        227.0004 
         5.0004 
 -14591082.74849 -11369641.85046  22283034.5654   22283031.6134        393.0004 
        19.0004 
 -21500554.63449 -16753655.78747  21261025.9264   21261023.9864        630.0004 
        42.0004 
  -9348037.18448  -7284179.28145  22777272.0224   22777269.2074        273.0004 
         8.0004 
 -19379841.31749 -15101139.03146  21799593.8224   21799591.7274        495.0004 
        24.0004 
  -8188848.69248  -6380910.97645  23550731.6294   23550729.7124        232.0004 
         6.0004 
 -15103879.81149 -11769245.75946  22589092.8834   22589091.7814        337.0004 
        13.0004 
 04  3  1  2 19  0.0000000  0  8G04G05G07G10G17G24G26G29
 -13569182.76349 -10573351.60246  22193864.6024   22193863.3264        421.0004 
        19.0004 
  -8319531.78348  -6482750.87445  23546633.6254   23546630.7904        231.0004 
         6.0004 
 -14503582.10249 -11301459.53246  22299684.5944   22299682.2024        383.0004 
        18.0004 
 -21497405.41649 -16751201.84147  21261625.1914   21261623.3834        636.0004 
        42.0004 
  -9379895.98548  -7309004.30345  22771210.4004   22771206.7564        273.0004 
         8.0004 
 -19403605.64849 -15119656.68946  21795071.7454   21795069.3084        489.0004 
        25.0004 
  -8285018.23448  -6455848.25945  23532431.6334   23532429.4374        243.0004 
         6.0004 
 -15203421.68949 -11846810.84546  22570151.4274   22570149.8284        346.0004 
        13.0004 
 04  3  1  2 19 30.0000000  0  8G04G05G07G10G17G24G26G29
 -13563373.88249 -10568825.20146  22194970.2784   22194968.6274        418.0004 
        19.0004 
  -8313083.96948  -6477726.61145  23547860.0974   23547857.4724        228.0004 
         6.0004 
 -14415801.47649 -11233059.05046  22316389.4874   22316386.3714        378.0004 
        17.0004 
 -21493957.57649 -16748515.20247  21262281.5574   21262279.3854        629.0004 
        42.0004 
  -9411800.18448  -7333864.70245  22765137.1494   22765135.0824        272.0004 
         8.0004 
 -19427376.00149 -15138179.03646  21790548.2684   21790546.1604        494.0004 
        25.0004 
  -8381115.40048  -6530729.13145  23514144.5544   23514142.9294        237.0004 
         7.0004 
 -15302793.51749 -11924243.42746  22551240.8224   22551239.7994        341.0004 
        13.0004 
 04  3  1  2 20  0.0000000  0  8G04G05G07G10G17G24G26G29
 -13557493.05949 -10564242.73746  22196089.1474   22196087.6044        414.0004 
        19.0004 
  -8306291.53148  -6472433.80345  23549151.9024   23549150.4314        234.0004 
         6.0004 
 -14327743.21749 -11164442.23146  22333145.9034   22333143.1594        372.0004 
        17.0004 
 -21490213.04449 -16745597.37447  21262994.2854   21262991.8114        621.0004 
        42.0004 
  -9443750.38848  -7358760.94545  22759057.5214   22759055.6554        280.0004 
         8.0004 
 -19451151.71249 -15156705.56546  21786024.2334   21786021.6894        490.0004 
        25.0004 
  -8477137.90948  -6605551.83345  23495870.7024   23495870.4584        249.0004 
         7.0004 
 -15401992.93049 -12001541.65646  22532364.7694   22532362.8534        347.0004 
        14.0004 
 04  3  1  2 20 30.0000000  0  8G04G05G07G10G17G24G26G29
 -13551528.61449 -10559595.11946  22197224.1204   22197222.3724        408.0004 
        19.0004 
  -8299146.07448  -6466865.92045  23550512.8474   23550510.0884        230.0004 
         6.0004 
 -14239399.43249 -11095602.92946  22349957.2714   22349954.4964        373.0004 
        16.0004 
 -21486163.20049 -16742441.64347  21263764.7874   21263762.4504        622.0004 
        42.0004 
  -9475736.56148  -7383685.21945  22752971.0314   22752968.9464        281.0004 
         8.0004 
 -19474921.90649 -15175227.78846  21781501.0784   21781498.2914        488.0004 
        25.0004 
  -8573072.95548  -6680306.39345  23477617.0834   23477614.8134        247.0004 
         7.0004 
 -15501006.72749 -12078695.25146  22513522.4434   22513521.2124        350.0004 
        13.0004 
 04  3  1  2 21  0.0000000  0  8G04G05G07G10G17G24G26G29
 -13545478.48149 -10554880.72646  22198375.3304   22198373.9924        415.0004 
        18.0004 
  -8291648.45748  -6461023.59945  23551939.4644   23551936.7094        225.0004 
         6.0004 
 -14150771.07149 -11026541.87646  22366822.8834   22366820.1384        379.0004 
        17.0004 
 -21481809.05049 -16739048.79247  21264593.4534   21264591.1334        626.0004 
        42.0004 
  -9507758.28248  -7408637.19545  22746877.5804   22746875.1024        280.0004 
         8.0004 
 -19498684.38649 -15193744.00146  21776979.2464   21776976.5224        487.0004 
        25.0004 
  -8668917.24548  -6754990.22245  23459378.6454   23459376.3474        251.0004 
         7.0004 
 -15599831.22849 -12155701.34846  22494716.9964   22494715.3404        343.0004 
        13.0004 
 04  3  1  2 21 30.0000000  0  8G04G05G07G10G17G24G26G29
 -13539346.52349 -10550102.57246  22199541.9974   22199540.9664        417.0004 
        18.0004 
  -8283806.11048  -6454912.68445  23553430.4974   23553429.0014        226.0004 
         5.0004 
 -14061865.76949 -10957265.02146  22383740.9674   22383738.1524        379.0004 
        16.0004 
 -21477157.81249 -16735424.44647  21265478.2874   21265476.0504        620.0004 
        42.0004 
  -9539821.31648  -7433621.36045  22740776.7214   22740773.8954        285.0004 
         9.0004 
 -19522443.92849 -15212257.92746  21772457.7774   21772455.1134        484.0004 
        25.0004 
  -8764673.57048  -6829605.51145  23441156.6784   23441153.8204        240.0004 
         7.0004 
 -15698468.78549 -12232561.76746  22475946.4784   22475945.0504        347.0004 
        14.0004 
 04  3  1  2 22  0.0000000  0  8G04G05G07G10G17G24G26G29
 -13533137.08549 -10545264.04946  22200724.0154   22200722.4034        412.0004 
        18.0004 
  -8275626.37748  -6448538.86445  23554986.8994   23554985.4654        222.0004 
         5.0004 
 -13972691.31849 -10887778.44046  22400710.4644   22400707.6954        386.0004 
        17.0004 
 -21472216.79949 -16731574.29747  21266418.8134   21266416.4504        625.0004 
        41.0004 
  -9571931.53848  -7458642.30245  22734665.6784   22734663.4834        288.0004 
         9.0004 
 -19546205.44249 -15230773.38946  21767936.0844   21767933.3394        481.0004 
        25.0004 
  -8860345.03248  -6904154.67345  23422950.5094   23422948.2504        253.0004 
         7.0004 
 -15796922.12049 -12309278.64046  22457211.2114   22457210.2924        361.0004 
        15.0004 
 04  3  1  2 22 30.0000000  0  8G04G05G07G10G17G24G26G29
 -13526839.07349 -10540356.50846  22201922.4284   22201920.7544        409.0004 
        18.0004 
  -8267101.01648  -6441895.74045  23556609.1084   23556607.8154        223.0004 
         6.0004 
 -13883240.06049 -10818076.16646  22417732.1964   22417729.4514        384.0004 
        17.0004 
 -21466978.17949 -16727492.24247  21267415.2804   21267413.2054        619.0004 
        41.0004 
  -9604079.61548  -7483692.73445  22728548.1344   22728545.9244        290.0004 
         9.0004 
 -19569958.40149 -15249282.18346  21763415.9274   21763413.2614        478.0004 
        25.0004 
  -8955919.16048  -6978627.98545  23404763.6184   23404760.8984        250.0004 
         7.0004 
 -15895178.52649 -12385842.07246  22438514.1274   22438512.6854        362.0004 
        15.0004 
 04  3  1  2 23  0.0000000  0  8G04G05G07G10G17G24G26G29
 -13520462.49149 -10535387.74746  22203135.9924   22203134.3914        414.0004 
        18.0004 
  -8258243.62548  -6434993.86245  23558294.1244   23558293.1834        220.0004 
         6.0004 
 -13793525.59149 -10748168.79346  22434804.4924   22434801.6874        388.0004 
        17.0004 
 -21461454.93749 -16723188.40847  21268466.4624   21268464.2064        620.0004 
        41.0004 
  -9636276.91348  -7508781.51445  22722421.5764   22722418.9134        287.0004 
         9.0004 
 -19593713.20349 -15267792.41546  21758895.6204   21758893.0764        486.0004 
        25.0004 
  -9051405.00448  -7053032.52245  23386592.9994   23386590.9584        259.0004 
         7.0004 
 -15993246.75349 -12462258.86246  22419852.3834   22419850.7244        360.0004 
        16.0004 
 04  3  1  2 23 30.0000000  0  8G04G05G07G10G17G24G26G29
 -13513998.39749 -10530350.78446  22204365.7394   22204364.4434        416.0004 
        17.0004 
  -8249048.56348  -6427828.86545  23560044.6584   23560042.9324        217.0004 
         5.0004 
 -13703542.86849 -10678052.39746  22451927.0564   22451924.7774        388.0004 
        17.0004 
 -21455641.53449 -16718658.47247  21269572.5144   21269570.4834        624.0004 
        41.0004 
  -9668516.73748  -7533903.43245  22716286.6734   22716283.8534        289.0004 
         9.0004 
 -19617461.59749 -15286297.65546  21754376.3744   21754373.6474        478.0004 
        25.0004 
  -9146792.59248  -7127360.49045  23368441.3114   23368439.1064        254.0004 
         7.0004 
 -16091116.43349 -12538520.93446  22401228.7794   22401226.7744        366.0004 
        16.0004 
 04  3  1  2 24  0.0000000  0  8G04G05G07G10G17G24G26G29
 -13507445.91949 -10525244.94946  22205612.7654   22205611.4154        417.0004 
        18.0004 
  -8239517.74948  -6420402.27245  23561858.4684   23561856.3304        212.0004 
         5.0004 
 -13613294.15349 -10607728.72746  22469100.8954   22469098.5764        388.0004 
        17.0004 
 -21449539.86249 -16713903.91347  21270733.6794   21270731.6144        621.0004 
        41.0004 
  -9700799.48948  -7559058.81545  22710143.1574   22710140.7704        291.0004 
         9.0004 
 -19641203.15649 -15304797.56846  21749858.8454   21749856.1184        490.0004 
        25.0004 
  -9242079.74948  -7201610.17645  23350308.3164   23350306.7204        264.0004 
         7.0004 
 -16188784.83549 -12614626.16946  22382642.3564   22382640.9534        370.0004 
        16.0004 
 04  3  1  2 24 30.0000000  0  8G04G05G07G10G17G24G26G29
 -13500813.21149 -10520076.59346  22206874.7074   22206873.4354        414.0004 
        18.0004 
  -8229662.95948  -6412723.20645  23563734.1364   23563732.0374        217.0004 
         6.0004 
 -13522791.18649 -10537206.93546  22486323.5954   22486320.9044        392.0004 
        17.0004 
 -21443161.34649 -16708933.63347  21271947.6004   21271945.4284        622.0004 
        41.0004 
  -9733134.98448  -7584255.29045  22703989.7774   22703987.8204        298.0004 
         9.0004 
 -19664946.45449 -15323298.83746  21745340.3814   21745337.6434        481.0004 
        25.0004 
  -9337273.43448  -7275787.06145  23332193.7184   23332191.9714        268.0004 
         7.0004 
 -16286258.79049 -12690579.89046  22364093.9834   22364092.5764        379.0004 
        17.0004 
 04  3  1  2 25  0.0000000  0  8G04G05G07G10G17G24G26G29
 -13494086.61549 -10514835.10346  22208155.3764   22208153.5394        416.0004 
        22.0004 
  -8219474.06848  -6404783.80245  23565672.7794   23565670.6014        213.0004 
         5.0004 
 -13432024.21749 -10466479.42846  22503595.8974   22503593.4864        393.0004 
        17.0004 
 -21436496.14649 -16703739.96747  21273215.9994   21273213.7874        621.0004 
        42.0004 
  -9765511.44148  -7609483.69246  22697829.2474   22697826.5934        296.0004 
        10.0004 
 -19688678.34149 -15341791.21546  21740823.8174   21740821.6434        483.0004 
        25.0004 
  -9432359.06548  -7349879.73645  23314098.7384   23314097.6514        272.0004 
         7.0004 
 -16383523.20349 -12766370.32946  22345584.6084   22345583.4144        369.0004 
        16.0004 
 04  3  1  2 25 30.0000000  0  8G04G05G07G10G17G24G26G29
 -13487256.82649 -10509513.22546  22209454.2294   22209453.2924        421.0004 
        17.0004 
  -8208944.78748  -6396579.18145  23567675.3924   23567674.7414        217.0004 
         5.0004 
 -13340987.09649 -10395541.42146  22520918.5654   22520916.9384        382.0004 
        16.0004 
 -21429537.81649 -16698317.87347  21274539.9674   21274537.8714        619.0004 
        41.0004 
  -9797920.79448  -7634737.72345  22691662.0184   22691659.2874        293.0004 
         9.0004 
 -19712390.07549 -15360267.89146  21736312.3504   21736309.7054        492.0004 
        26.0004 
  -9527325.78848  -7423879.75745  23296027.5704   23296026.2174        273.0004 
         7.0004 
 -16480567.04349 -12841988.88646  22327118.3564   22327116.7314        371.0004 
        17.0004 
 04  3  1  2 26  0.0000000  0  8G04G05G07G10G17G24G26G29
 -13480337.94849 -10504121.87946  22210771.4264   22210769.8054        419.0004 
        18.0004 
  -8198092.44848  -6388122.80745  23569741.1364   23569739.5764        215.0004 
         5.0004 
 -13249697.65649 -10324406.79746  22538291.5584   22538288.4964        374.0004 
        17.0004 
 -21422303.51249 -16692680.74747  21275916.6124   21275914.5884        624.0004 
        41.0004 
  -9830379.08648  -7660029.88445  22685484.4524   22685482.6454        292.0004 
         9.0004 
 -19736096.11849 -15378740.12746  21731800.8614   21731798.4124        487.0004 
        26.0004 
  -9622186.83748  -7497797.42945  23277975.8644   23277974.4514        277.0004 
         8.0004 
 -16577403.02849 -12917445.48746  22308690.6144   22308689.3824        370.0004 
        17.0004 
 04  3  1  2 26 30.0000000  0  8G04G05G07G10G17G24G26G29
 -13473331.06549 -10498661.96046  22212104.4144   22212103.2314        424.0004 
        18.0004 
  -8186921.72148  -6379418.35945  23571867.0664   23571865.6654        217.0004 
         5.0004 
 -13158160.71249 -10253079.31646  22555710.1114   22555707.7614        379.0004 
        16.0004 
 -21414797.71849 -16686832.06947  21277344.9854   21277342.7554        619.0004 
        41.0004 
  -9862888.93648  -7685362.22845  22679299.2764   22679296.1204        290.0004 
         9.0004 
 -19759798.21849 -15397209.29646  21727290.7144   21727288.1574        490.0004 
        25.0004 
  -9716942.05748  -7571632.64945  23259945.2534   23259943.4234        285.0004 
         8.0004 
 -16674030.80449 -12992739.84746  22290303.6694   22290302.0494        378.0004 
        17.0004 
 04  3  1  2 27  0.0000000  0  8G04G05G07G10G17G24G26G29
 -13466227.30849 -10493126.56646  22213456.0514   22213455.1104        428.0004 
        18.0004 
  -8175426.93648  -6370461.36745  23574054.5314   23574052.9944        215.0004 
         5.0004 
 -13066371.07749 -10181554.93346  22573177.7074   22573174.8164        375.0004 
        16.0004 
 -21407014.76849 -16680767.42847  21278825.7774   21278823.6814        613.0004 
        41.0004 
  -9895443.13548  -7710729.10745  22673104.2884   22673101.3114        292.0004 
         9.0004 
 -19783488.15049 -15415668.97846  21722782.7504   21722779.9384        484.0004 
        25.0004 
  -9811581.56548  -7645377.70345  23241935.6234   23241933.6454        280.0004 
         8.0004 
 -16770440.10749 -13067863.96546  22271957.0584   22271955.5764        372.0004 
        17.0004 
 04  3  1  2 27 30.0000000  0  8G04G05G07G10G17G24G26G29
 -13459027.64949 -10487516.43946  22214826.7174   22214825.2454        429.0004 
        18.0004 
  -8163612.37248  -6361255.24045  23576301.8734   23576301.3164        217.0004 
         5.0004 
 -12974332.98749 -10109836.94646  22590690.9704   22590688.5944        360.0004 
        16.0004 
 -21398958.69049 -16674489.96047  21280359.0184   21280356.7084        616.0004 
        42.0004 
  -9928044.20948  -7736132.54345  22666900.4574   22666897.4634        291.0004 
         9.0004 
 -19807166.83349 -15434119.89846  21718276.5784   21718274.2824        493.0004 
        25.0004 
  -9906104.94448  -7719032.26545  23223948.1954   23223946.6524        284.0004 
         8.0004 
 -16866630.02549 -13142817.13646  22253652.5894   22253651.1124        370.0004 
        16.0004 
 04  3  1  2 28  0.0000000  0  8G04G05G07G10G17G24G26G29
 -13451732.92649 -10481832.23946  22216213.9354   22216213.2234        428.0004 
        18.0004 
  -8151482.54148  -6351803.42045  23578611.7824   23578609.0554        209.0004 
         5.0004 
 -12882051.19249 -10037929.06646  22608252.0544   22608249.5664        362.0004 
        15.0004 
 -21390633.62049 -16668002.89047  21281943.2864   21281941.0324        623.0004 
        42.0004 
  -9960694.62648  -7761574.41545  22660686.4384   22660684.0294        281.0004 
         9.0004 
 -19830835.89249 -15452563.32146  21713772.6184   21713770.1174        494.0004 
        25.0004 
 -10000512.07948  -7792596.24945  23205984.6154   23205981.6774        293.0004 
         8.0004 
 -16962600.21249 -13217599.08546  22235390.4904   22235388.7414        378.0004 
        18.0004 
 04  3  1  2 28 30.0000000  0  8G04G05G07G10G17G24G26G29
 -13444337.62249 -10476069.66646  22217621.6034   22217620.5274        428.0004 
        18.0004 
  -8139034.93948  -6342103.99745  23580979.9634   23580977.8304        209.0004 
         5.0004 
 -12789523.98249  -9965829.94846  22625859.7134   22625856.9274        359.0004 
        15.0004 
 -21382037.46549 -16661304.57747  21283578.9064   21283576.9224        629.0004 
        42.0004 
  -9993390.57548  -7787051.76945  22654465.0404   22654462.0094        278.0004 
         9.0004 
 -19854490.57749 -15470995.53846  21709271.4574   21709268.7204        491.0004 
        26.0004 
 -10094796.42448  -7866064.55245  23188041.5784   23188039.8014        289.0004 
         8.0004 
 -17058343.77449 -13292204.44846  22217170.2934   22217169.3134        383.0004 
        17.0004 
 04  3  1  2 29  0.0000000  0  8G04G05G07G10G17G24G26G29
 -13436842.60149 -10470229.38346  22219048.0774   22219046.7964        428.0004 
        18.0004 
  -8126274.04748  -6332160.44045  23583407.8764   23583406.2204        206.0004 
         5.0004 
 -12696755.63749  -9893542.93046  22643512.8054   22643509.8904        348.0004 
        15.0004 
 -21373174.51149 -16654398.37547  21285265.5374   21285263.4214        628.0004 
        42.0004 
 -10026134.36048  -7812566.39446  22648234.1564   22648231.5154        288.0004 
        10.0004 
 -19878131.86349 -15489417.31046  21704772.4864   21704769.8344        490.0004 
        26.0004 
 -10188957.55048  -7939436.83745  23170122.8874   23170121.7624        300.0004 
         9.0004 
 -17153859.89949 -13366632.58446  22198994.3844   22198993.3344        392.0004 
        17.0004 
 04  3  1  2 29 30.0000000  0  8G04G05G07G10G17G24G26G29
 -13429236.52449 -10464302.57446  22220495.9374   22220494.0254        422.0004 
        18.0004 
  -8113191.91548  -6321966.57345  23585897.3084   23585895.8664        213.0004 
         5.0004 
 -12603738.48349  -9821062.04646  22661212.7804   22661210.4044        344.0004 
        14.0004 
 -21364036.49949 -16647277.84247  21287004.5684   21287002.3754        629.0004 
        42.0004 
 -10058916.14748  -7838110.62646  22641996.4064   22641993.1044        289.0004 
        10.0004 
 -19901748.67249 -15507820.01546  21700278.5544   21700275.7324        490.0004 
        26.0004 
 -10282982.97148  -8012703.37145  23152230.3124   23152229.0414        289.0004 
         9.0004 
 -17249135.91149 -13440873.62946  22180864.6724   22180863.0624        401.0004 
        19.0004 
 04  3  1  2 30  0.0000000  0  8G04G05G07G10G17G24G26G29
 -13421524.63249 -10458293.30946  22221963.0194   22221961.5994        422.0004 
        18.0004 
  -8099797.31848  -6311529.23145  23588447.6334   23588444.7714        212.0004 
         5.0004 
 -12510481.44349  -9748394.22746  22678960.0044   22678956.9114        345.0004 
        14.0004 
 -21354631.97949 -16639949.64147  21288794.2254   21288791.9414        628.0004 
        42.0004 
 -10091742.88148  -7863689.89346  22635750.1074   22635746.7234        294.0004 
        11.0004 
 -19925346.72949 -15526208.11046  21695788.1004   21695785.2474        493.0004 
        26.0004 
 -10376876.81248  -8085867.39845  23134363.4284   23134361.8434        294.0004 
         9.0004 
 -17344175.48649 -13514930.42746  22162778.6814   22162777.6784        409.0004 
        18.0004 
 04  3  1  2 30 30.0000000  0  8G04G05G07G10G17G24G26G29
 -13413701.41349 -10452197.29346  22223451.9754   22223450.3364        420.0004 
        18.0004 
  -8086088.42048  -6300846.97145  23591055.1184   23591052.8894        203.0004 
         5.0004 
 -12416982.77149  -9675538.12846  22696752.1844   22696749.2374        345.0004 
        14.0004 
 -21344958.81749 -16632412.10347  21290634.7844   21290632.7664        632.0004 
        42.0004 
 -10124610.64048  -7889301.11246  22629495.3074   22629491.8204        288.0004 
        10.0004 
 -19948921.25049 -15544577.86046  21691301.3914   21691299.0564        493.0004 
        26.0004 
 -10470632.54748  -8158923.79945  23116521.7954   23116520.2714        289.0004 
         9.0004 
 -17438971.79849 -13588797.67546  22144739.4884   22144738.4144        416.0004 
        19.0004 
 04  3  1  2 31  0.0000000  0  8G04G05G07G10G17G24G26G29
 -13405762.23449 -10446010.92146  22224962.3144   22224961.1844        421.0004 
        18.0004 
  -8072063.91248  -6289918.81445  23593724.0794   23593721.6864        206.0004 
         5.0004 
 -12323241.48349  -9602492.97746  22714590.5374   22714587.3954        338.0004 
        14.0004 
 -21335015.68449 -16624664.19647  21292527.0944   21292524.9174        633.0004 
        42.0004 
 -10157516.31948  -7914941.89046  22623232.9414   22623229.9584        283.0004 
        10.0004 
 -19972468.09249 -15562926.04646  21686820.8964   21686818.3344        497.0004 
        26.0004 
 -10564244.52148  -8231868.17345  23098708.6184   23098706.6204        290.0004 
         9.0004 
 -17533518.86549 -13662470.70446  22126747.9554   22126746.7054        418.0004 
        19.0004 
 04  3  1  2 31 30.0000000  0  8G04G05G07G10G17G24G26G29
 -13397723.45149 -10439746.93846  22226492.1594   22226490.6554        414.0004 
        18.0004 
  -8057743.48548  -6278760.03745  23596448.6424   23596447.4814        217.0004 
         5.0004 
 -12229277.63749  -9529274.40546  22732470.8474   22732468.0224        334.0004 
        13.0004 
 -21324822.10649 -16616721.14347  21294466.7544   21294464.6124        629.0004 
        41.0004 
 -10190477.92548  -7940626.24346  22616960.5664   22616957.5394        286.0004 
        10.0004 
 -19996003.68749 -15581265.47046  21682342.1274   21682339.6784        498.0004 
        26.0004 
 -10657727.70948  -8304712.19145  23080919.7584   23080917.0944        279.0004 
         9.0004 
 -17627831.42349 -13735961.00346  22108800.9664   22108799.5334        413.0004 
        19.0004 
 04  3  1  2 32  0.0000000  0  8G04G05G07G10G17G24G26G29
 -13389579.07449 -10433400.66846  22228041.7964   22228040.5854        414.0004 
        18.0004 
  -8043124.65348  -6267368.73945  23599231.5914   23599229.2984        219.0004 
         5.0004 
 -12135089.01449  -9455880.68246  22750394.3904   22750391.5684        330.0004 
        13.0004 
 -21314375.69049 -16608581.07147  21296454.6634   21296452.5114        630.0004 
        42.0004 
 -10223491.05048  -7966350.74746  22610678.1414   22610675.4744        289.0004 
        10.0004 
 -20019522.51149 -15599591.82046  21677866.8034   21677864.3484        504.0004 
        26.0004 
 -10751075.22548  -8377450.49845  23063155.6884   23063153.6254        287.0004 
         9.0004 
 -17721902.16949 -13809262.87946  22090899.6784   22090898.4744        412.0004 
        19.0004 
 04  3  1  2 32 30.0000000  0  8G04G05G07G10G17G24G26G29
 -13381325.52949 -10426969.34246  22229612.6954   22229611.3714        419.0004 
        18.0004 
  -8028207.26148  -6255744.82145  23602069.5064   23602067.4834        211.0004 
         4.0004 
 -12040675.62149  -9382311.81146  22768360.7224   22768358.0794        331.0004 
        13.0004 
 -21303676.17549 -16600243.77947  21298490.6834   21298488.4574        627.0004 
        42.0004 
 -10256553.45348  -7992113.64546  22604387.5894   22604383.5604        281.0004 
        10.0004 
 -20043021.28849 -15617902.55046  21673395.2024   21673392.5884        502.0004 
        26.0004 
 -10844282.38648  -8450079.43345  23045418.9904   23045417.2084        292.0004 
         9.0004 
 -17815726.07449 -13882372.40146  22073045.7764   22073044.5134        415.0004 
        19.0004 
 04  3  1  2 33  0.0000000  0  8G04G05G07G10G17G24G26G29
 -13372956.22949 -10420447.80746  22231205.2044   22231203.8764        417.0004 
        18.0004 
  -8012988.76948  -6243886.25145  23604966.7074   23604963.5784        213.0004 
         4.0004 
 -11946034.76849  -9308565.70246  22786370.4654   22786367.7364        331.0004 
        13.0004 
 -21292720.01449 -16591706.50347  21300575.7864   21300573.6614        640.0004 
        42.0004 
 -10289660.28248  -8017911.15946  22598087.5844   22598083.6014        278.0004 
        10.0004 
 -20066493.97549 -15636192.95446  21668928.4744   21668925.7024        497.0004 
        26.0004 
 -10937341.43748  -8522592.95545  23027710.2764   23027708.4774        290.0004 
         9.0004 
 -17909294.96049 -13955283.21246  22055240.5604   22055238.8734        412.0004 
        20.0004 
 04  3  1  2 33 30.0000000  0  8G04G05G07G10G17G24G26G29
 -13364462.08349 -10413828.99446  22232821.6004   22232820.4744        423.0004 
        18.0004 
  -7997463.33948  -6231788.51545  23607921.0424   23607917.9264        217.0004 
         5.0004 
 -11851160.99649  -9234638.09746  22804423.9994   22804421.4394        326.0004 
        13.0004 
 -21281501.46649 -16582964.76947  21302710.3464   21302708.2864        634.0004 
        42.0004 
 -10322803.64348  -8043737.13746  22591779.3694   22591776.2574        274.0004 
        10.0004 
 -20089932.09949 -15654456.42446  21664468.1634   21664465.7424        503.0004 
        26.0004 
 -11030242.00748  -8594982.98745  23010031.8004   23010030.3114        300.0004 
         9.0004 
 -18002598.30349 -14027987.10846  22037484.6654   22037483.4544        399.0004 
        20.0004 
 04  3  1  2 34  0.0000000  0  8G04G05G07G10G17G24G26G29
 -13355850.19849 -10407118.43246  22234460.7554   22234459.0624        417.0004 
        18.0004 
  -7981641.47248  -6219459.79445  23610932.1264   23610928.7294        223.0004 
         5.0004 
 -11756064.87049  -9160537.21946  22822520.4894   22822517.7854        325.0004 
        12.0004 
 -21270030.73249 -16574026.52947  21304893.3864   21304891.1534        634.0004 
        43.0004 
 -10355992.18448  -8069598.32346  22585464.2534   22585461.0174        280.0004 
        10.0004 
 -20113342.45749 -15672698.26146  21660012.9394   21660010.7564        500.0004 
        26.0004 
 -11122990.10548  -8667254.21446  22992382.4114   22992380.4864        294.0004 
        10.0004 
 -18095641.80449 -14100488.52746  22019779.6694   22019778.0604        401.0004 
        20.0004 
 04  3  1  2 34 30.0000000  0  8G04G05G07G10G17G24G26G29
 -13347123.24149 -10400318.20946  22236120.8874   22236119.7984        420.0004 
        18.0004 
  -7965529.70448  -6206905.18245  23613998.4914   23613995.0994        228.0004 
         5.0004 
 -11660753.31848  -9086268.48846  22840657.8714   22840654.7164        316.0004 
        11.0004 
 -21258314.55649 -16564897.03247  21307122.8824   21307120.6114        632.0004 
        42.0004 
 -10389230.29648  -8095498.14846  22579138.9684   22579136.1454        284.0004 
        10.0004 
 -20136728.58349 -15690921.20946  21655563.3704   21655560.6954        505.0004 
        26.0004 
 -11215587.57248  -8739408.04046  22974761.7474   22974759.8654        299.0004 
        10.0004 
 -18188427.06949 -14172788.72546  22002123.2064   22002121.5534        400.0004 
        20.0004 
 04  3  1  2 35  0.0000000  0  8G04G05G07G10G17G24G26G29
 -13338288.97749 -10393434.37146  22237802.0834   22237800.9204        421.0004 
        18.0004 
  -7949139.23748  -6194133.39645  23617115.6004   23617113.8564        227.0004 
         5.0004 
 -11565237.60748  -9011840.66746  22858833.9504   22858830.8654        315.0004 
        12.0004 
 -21246363.82349 -16555584.76947  21309396.9994   21309394.7394        629.0004 
        42.0004 
 -10422527.17148  -8121443.74646  22572803.1104   22572799.9264        287.0004 
        10.0004 
 -20160098.45549 -15709131.49146  21651115.8524   21651113.3574        498.0004 
        26.0004 
 -11308040.94548  -8811449.62746  22957168.6734   22957166.7124        315.0004 
        14.0004 
 -18280960.18549 -14244892.43946  21984515.0264   21984513.1954        409.0004 
        22.0004 
 04  3  1  2 35 30.0000000  0  8G04G05G07G10G17G24G26G29
 -13329337.52449 -10386459.21646  22239505.9704   22239504.3074        422.0004 
        18.0004 
  -7932463.73448  -6181139.49145  23620288.9814   23620287.5254        234.0004 
         5.0004 
 -11469511.70548  -8937249.06646  22877049.6584   22877046.8134        308.0004 
        11.0004 
 -21234172.09149 -16546084.71047  21311717.0754   21311714.8524        631.0004 
        42.0004 
 -10455874.55248  -8147428.71546  22566457.4994   22566454.2634        293.0004 
        11.0004 
 -20183442.88049 -15727321.95546  21646673.7514   21646671.1494        503.0004 
        26.0004 
 -11400339.57148  -8883370.68945  22939604.5594   22939602.7274        310.0004 
         9.0004 
 -18373230.01949 -14316791.00046  21966956.1494   21966954.7954        411.0004 
        21.0004 
 04  3  1  2 36  0.0000000  0  8G04G05G07G10G17G24G26G29
 -13320257.31349 -10379383.72546  22241233.7164   22241232.1014        420.0004 
        18.0004 
  -7915495.47348  -6167917.45845  23623518.0924   23623516.3134        226.0004 
         5.0004 
 -11373567.67948  -8862487.49946  22895307.5944   22895304.4174        307.0004 
        11.0004 
 -21221731.22249 -16536390.51847  21314084.5864   21314082.1904        628.0004 
        42.0004 
 -10489262.24748  -8173445.08446  22560103.4794   22560100.7274        296.0004 
        11.0004 
 -20206750.39749 -15745483.65146  21642238.4464   21642235.8544        502.0004 
        27.0004 
 -11492470.41749  -8955160.92046  22922072.5464   22922071.1304        322.0004 
        10.0004 
 -18465223.48549 -14388474.20946  21949450.5154   21949448.8404        410.0004 
        21.0004 
 04  3  1  2 36 30.0000000  0  8G04G05G07G10G17G24G26G29
 -13311041.57849 -10372202.63546  22242987.1174   22242985.9134        421.0004 
        18.0004 
  -7898230.91148  -6154464.55645  23626803.1874   23626801.3424        225.0004 
         5.0004 
 -11277402.39848  -8787553.52046  22913607.4094   22913604.1314        309.0004 
        11.0004 
 -21209037.25949 -16526499.10547  21316500.0064   21316497.6574        621.0004 
        42.0004 
 -10522684.50948  -8199488.39446  22553743.6044   22553740.5894        295.0004 
        11.0004 
 -20230014.28749 -15763611.35546  21637811.4124   21637808.9524        509.0004 
        27.0004 
 -11584425.43649  -9026814.16046  22904574.2844   22904572.6964        327.0004 
        10.0004 
 -18556932.13549 -14459935.48646  21931999.0304   21931997.4274        422.0004 
        21.0004 
 04  3  1  2 37  0.0000000  0  8G04G05G07G10G17G24G26G29
 -13301704.34849 -10364926.87146  22244763.9754   22244762.8234        423.0004 
        18.0004 
  -7880688.54148  -6140795.18245  23630141.8684   23630139.8624        226.0004 
         5.0004 
 -11181034.19448  -8712461.41846  22931945.9674   22931942.4144        306.0004 
        12.0004 
 -21196108.42649 -16516424.68147  21318960.3844   21318957.9164        619.0004 
        41.0004 
 -10556157.61448  -8225571.31646  22547373.7604   22547370.9684        298.0004 
        11.0004 
 -20253249.29149 -15781716.54746  21633389.9234   21633387.4634        506.0004 
        27.0004 
 -11676218.27149  -9098341.03246  22887106.0684   22887104.8254        329.0004 
        10.0004 
 -18648369.33849 -14531185.24946  21914599.0984   21914597.4524        428.0004 
        22.0004 
 04  3  1  2 37 30.0000000  0  8G04G05G07G10G17G24G26G29
 -13292236.24249 -10357549.13246  22246566.3214   22246564.5814        423.0004 
        18.0004 
  -7862862.07248  -6126904.42945  23633534.6134   23633531.7574        222.0004 
         5.0004 
 -11084457.13848  -8637206.58046  22950324.0034   22950320.5584        306.0004 
        11.0004 
 -21182938.72549 -16506162.57047  21321466.3064   21321463.9824        618.0004 
        41.0004 
 -10589673.33748  -8251687.46046  22540996.5414   22540993.2504        303.0004 
        11.0004 
 -20276446.16749 -15799792.03246  21628975.5654   21628973.2574        510.0004 
        27.0004 
 -11767838.02249  -9169733.02646  22869672.3544   22869670.2604        326.0004 
        11.0004 
 -18739524.04249 -14602214.88646  21897252.5204   21897251.3394        434.0004 
        21.0004 
 04  3  1  2 38  0.0000000  0  8G04G05G07G10G17G24G26G29
 -13282633.49849 -10350066.47946  22248393.3844   22248392.0284        428.0004 
        18.0004 
  -7844751.26048  -6112792.11845  23636980.4084   23636978.3774        224.0004 
         5.0004 
 -10987671.09348  -8561788.88646  22968742.0104   22968738.1974        301.0004 
        11.0004 
 -21169527.14749 -16495711.98247  21324018.3264   21324016.2454        620.0004 
        41.0004 
 -10623229.14048  -8277834.82746  22534610.7664   22534607.6744        303.0004 
        11.0004 
 -20299601.37249 -15817835.04646  21624569.6294   21624567.0814        515.0004 
        27.0004 
 -11859279.67349  -9240986.24446  22852270.4044   22852269.2704        332.0004 
        10.0004 
 -18830390.84449 -14673020.18146  21879961.3534   21879959.6384        428.0004 
        22.0004 
 04  3  1  2 38 30.0000000  0  8G04G05G07G10G17G24G26G29
 -13272906.62549 -10342487.10546  22250244.5574   22250242.8994        428.0004 
        18.0004 
  -7826370.22248  -6098469.21945  23640477.6594   23640476.0754        221.0004 
         5.0004 
 -10890690.53748  -8486219.63446  22987195.7434   22987192.8104        298.0004 
        10.0004 
 -21155887.94249 -16485084.02147  21326613.9984   21326611.6064        616.0004 
        41.0004 
 -10656837.22848  -8304022.93746  22528214.7314   22528212.3784        308.0004 
        10.0004 
 -20322725.79649 -15835854.07046  21620169.2294   21620166.5284        513.0004 
        28.0004 
 -11950553.02349  -9312108.33246  22834901.8614   22834900.6774        333.0004 
        10.0004 
 -18920979.20149 -14743608.50246  21862723.1424   21862721.3264        434.0004 
        23.0004 
 04  3  1  2 39  0.0000000  0  8G04G05G07G10G17G24G26G29
 -13263055.25149 -10334810.71246  22252118.4254   22252117.4214        421.0004 
        18.0004 
  -7807722.53048  -6083938.55645  23644026.9794   23644024.8594        227.0004 
         5.0004 
 -10793519.06348  -8410501.61246  23005687.3474   23005683.9324        296.0004 
        11.0004 
 -21142024.23549 -16474281.12847  21329252.0304   21329249.7814        613.0004 
        40.0004 
 -10690498.48548  -8330252.48046  22521808.9424   22521806.8454        307.0004 
        10.0004 
 -20345819.63049 -15853849.26146  21615774.5064   21615771.8114        509.0004 
        28.0004 
 -12041656.53449  -9383098.06646  22817565.4044   22817564.0384        325.0004 
        11.0004 
 -19011287.26849 -14813978.41846  21845537.8114   21845536.5064        450.0004 
        24.0004 
 04  3  1  2 39 30.0000000  0  8G04G05G07G10G17G24G26G29
 -13253068.25649 -10327028.63946  22254019.0844   22254017.9894        425.0004 
        18.0004 
  -7788800.69648  -6069194.27745  23647627.8844   23647625.2774        217.0004 
         5.0004 
 -10696149.00748  -8334628.85246  23024216.2374   23024212.5944        290.0004 
        10.0004 
 -21127927.96549 -16463297.01147  21331934.6864   21331932.2484        615.0004 
        41.0004 
 -10724203.01648  -8356515.74246  22515395.9204   22515393.1034        308.0004 
        11.0004 
 -20368871.78849 -15871811.97446  21611387.9104   21611385.2814        518.0004 
        28.0004 
 -12132577.91049  -9453945.87946  22800263.9484   22800262.5344        334.0004 
        11.0004 
 -19101302.49649 -14884120.15046  21828408.6464   21828407.2454        452.0004 
        25.0004 
 04  3  1  2 40  0.0000000  0  8G04G05G07G10G17G24G26G29
 -13242946.51249 -10319141.56946  22255944.7874   22255943.9164        421.0004 
        18.0004 
  -7769609.54948  -6054240.15845  23651279.0124   23651277.6234        222.0004 
         5.0004 
 -10598585.28348  -8258605.18046  23042781.5024   23042778.7014        295.0004 
        11.0004 
 -21113603.65449 -16452135.20147  21334660.4724   21334658.0044        610.0004 
        41.0004 
 -10757953.41648  -8382814.74346  22508973.1314   22508970.7544        313.0004 
        11.0004 
 -20391883.42749 -15889743.11546  21607008.9364   21607006.4754        526.0004 
        28.0004 
 -12223317.22449  -9524651.82046  22782997.2394   22782995.2214        330.0004 
        11.0004 
 -19191024.52249 -14954033.41046  21811335.1914   21811333.5914        450.0004 
        25.0004 
 04  3  1  2 40 30.0000000  0  8G04G05G07G10G17G24G26G29
 -13232677.56649 -10311139.80046  22257899.5784   22257898.2504        427.0004 
        18.0004 
  -7750140.09748  -6039069.16245  23654984.3574   23654982.0794        215.0004 
         5.0004 
 -10500819.10448  -8182423.75146  23061385.9864   23061382.8594        292.0004 
        11.0004 
 -21099042.11549 -16440788.54247  21337431.2324   21337428.9254        602.0004 
        40.0004 
 -10791738.52548  -8409140.79746  22502543.7974   22502541.4044        313.0004 
        11.0004 
 -20414842.42549 -15907633.23946  21602639.6814   21602637.2644        521.0004 
        29.0004 
 -12313860.73649  -9595205.19546  22765767.9044   22765765.2734        329.0004 
        11.0004 
 -19280439.47549 -15023707.39146  21794320.1654   21794318.5944        457.0004 
        26.0004 
 04  3  1  2 41  0.0000000  0  8G04G05G07G10G17G24G26G29
 -13222275.54749 -10303034.33446  22259878.9694   22259877.6094        426.0004 
        18.0004 
  -7730410.44648  -6023695.40545  23658737.7784   23658737.1724        221.0004 
         5.0004 
 -10402868.43448  -8106098.56346  23080025.8064   23080022.7684        301.0004 
        10.0004 
 -21084261.07049 -16429270.83447  21340243.8114   21340241.6114        600.0004 
        40.0004 
 -10825573.72149  -8435505.87346  22496105.5434   22496102.7974        319.0004 
        11.0004 
 -20437762.83749 -15925493.29246  21598278.4284   21598275.8044        526.0004 
        28.0004 
 -12404221.56949  -9665616.21946  22748571.6644   22748570.3914        334.0004 
        11.0004 
 -19369560.21949 -15093152.11846  21777360.8724   21777359.4824        466.0004 
        26.0004 
 04  3  1  2 41 30.0000000  0  8G04G05G07G10G17G24G26G29
 -13211729.04249 -10294816.28246  22261885.7104   22261884.5024        425.0004 
        18.0004 
  -7710412.51548  -6008112.58945  23662544.2884   23662542.1824        214.0004 
         5.0004 
 -10304725.49648  -8029623.55246  23098700.8994   23098698.6814        296.0004 
        10.0004 
 -21069252.37149 -16417575.73447  21343099.9864   21343097.7004        604.0004 
        39.0004 
 -10859448.90349  -8461902.10546  22489659.2094   22489656.6474        324.0004 
        12.0004 
 -20460633.67449 -15943314.71846  21593925.9334   21593923.5044        525.0004 
        29.0004 
 -12494387.13549  -9735875.09046  22731414.3894   22731412.3214        330.0004 
        11.0004 
 -19458373.80849 -15162357.50446  21760460.3244   21760458.8454        471.0004 
        27.0004 
 04  3  1  2 42  0.0000000  0  8G04G05G07G10G17G24G26G29
 -13201048.75949 -10286493.98646  22263918.3174   22263917.0054        428.0004 
        18.0004 
  -7690161.16148  -5992332.31545  23666399.3694   23666395.7904        210.0004 
         5.0004 
 -10206405.37648  -7953010.48446  23117411.5844   23117408.3854        295.0004 
        10.0004 
 -21054030.50649 -16405714.52947  21345996.4994   21345994.2534        601.0004 
        40.0004 
 -10893376.63949  -8488339.29746  22483203.2534   22483200.4374        326.0004 
        12.0004 
 -20483466.35849 -15961106.41746  21589581.1614   21589578.6374        528.0004 
        29.0004 
 -12584367.48049  -9805989.63046  22714291.0824   22714289.6444        333.0004 
        12.0004 
 -19546890.14849 -15231331.27146  21743616.1074   21743614.7104        472.0004 
        27.0004 
 04  3  1  2 42 30.0000000  0  8G04G05G07G10G17G24G26G29
 -13190227.55249 -10278061.88146  22265977.0624   22265975.9844        424.0004 
        18.0004 
  -7669652.95348  -5976351.88745  23670301.4904   23670298.4844        208.0004 
         5.0004 
 -10107904.39148  -7876256.48145  23136154.3824   23136152.6554        294.0004 
         9.0004 
 -21038591.50249 -16393684.12647  21348934.4104   21348932.3624        605.0004 
        39.0004 
 -10927350.54849  -8514812.46746  22476738.5164   22476735.6414        333.0004 
        12.0004 
 -20506253.47349 -15978862.60046  21585244.8404   21585242.4124        531.0004 
        30.0004 
 -12674154.04749  -9875953.17646  22697205.6184   22697203.7264        336.0004 
        13.0004 
 -19635100.31049 -15300066.45246  21726830.2204   21726828.8744        473.0004 
        27.0004 
 04  3  1  2 43  0.0000000  0  8G04G05G07G10G17G24G26G29
 -13179258.55649 -10269514.60946  22268064.7904   22268063.3894        424.0004 
        18.0004 
  -7648884.66548  -5960168.81245  23674253.7084   23674250.6464        212.0004 
         4.0004 
 -10009219.52848  -7799359.19045  23154934.3334   23154931.3194        284.0004 
         9.0004 
 -21022932.00849 -16381481.92147  21351914.0764   21351912.1464        602.0004 
        39.0004 
 -10961365.38649  -8541317.52746  22470265.0424   22470262.5624        326.0004 
        12.0004 
 -20528988.46449 -15996578.17446  21580918.5824   21580916.1294        539.0004 
        30.0004 
 -12763739.09549  -9945759.68446  22680158.2014   22680156.2654        342.0004 
        13.0004 
 -19722996.30249 -15368556.83046  21710104.0454   21710102.9124        478.0004 
        26.0004 
 04  3  1  2 43 30.0000000  0  8G04G05G07G10G17G24G26G29
 -13168141.37749 -10260851.88046  22270179.9914   22270178.8144        420.0004 
        18.0004 
  -7627859.31648  -5943785.42245  23678253.4504   23678251.8304        211.0004 
         5.0004 
  -9910354.15548  -7722321.24445  23173747.4564   23173744.9684        282.0004 
         9.0004 
 -21007054.84749 -16369110.09847  21354935.6884   21354933.5924        606.0004 
        39.0004 
 -10995421.92649  -8567855.08546  22463784.4444   22463781.6794        320.0004 
        11.0004 
 -20551670.79249 -16014252.70746  21576602.3834   21576599.7934        541.0004 
        30.0004 
 -12853120.99849 -10015407.91046  22663149.6024   22663147.8914        358.0004 
        14.0004 
 -19810576.33049 -15436801.00246  21693438.5354   21693437.1854        484.0004 
        27.0004 
 04  3  1  2 44  0.0000000  0  8G04G05G07G10G17G24G26G29
 -13156878.63849 -10252075.72046  22272323.4224   22272322.1214        423.0004 
        17.0004 
  -7606583.71248  -5927207.02845  23682302.7194   23682299.9544        206.0004 
         4.0004 
  -9811314.76348  -7645147.70245  23192594.2084   23192591.3024        278.0004 
         9.0004 
 -20990966.05549 -16356573.37147  21357997.1624   21357995.1904        607.0004 
        40.0004 
 -11029524.26049  -8594428.31846  22457295.4644   22457292.0334        317.0004 
        12.0004 
 -20574303.57049 -16031888.62846  21572295.4654   21572292.9554        545.0004 
        31.0004 
 -12942301.57549 -10084899.25946  22646178.6464   22646177.0964        351.0004 
        14.0004 
 -19897841.72649 -15504800.01146  21676831.9134   21676830.8324        473.0004 
        26.0004 
 04  3  1  2 44 30.0000000  0  8G04G05G07G10G17G24G26G29
 -13145470.79249 -10243186.49446  22274494.9294   22274493.3024        432.0004 
        18.0004 
  -7585061.91648  -5910436.80445  23686396.9244   23686396.0474        214.0004 
         4.0004 
  -9712105.70348  -7567841.95445  23211472.9804   23211470.1184        267.0004 
         9.0004 
 -20974669.67349 -16343874.88647  21361098.1804   21361096.1764        602.0004 
        39.0004 
 -11063674.04148  -8621038.52946  22450796.3804   22450793.5494        315.0004 
        11.0004 
 -20596887.48849 -16049486.48646  21567997.9594   21567995.3294        546.0004 
        31.0004 
 -13031280.06749 -10154233.13746  22629246.8614   22629245.1474        357.0004 
        13.0004 
 -19984791.85349 -15572553.34746  21660286.1204   21660284.6774        467.0004 
        26.0004 
 04  3  1  2 45  0.0000000  0  8G04G05G07G10G17G24G26G29
 -13133911.15149 -10234178.98646  22276693.6784   22276692.8034        426.0004 
        17.0004 
  -7563290.93848  -5893472.40245  23690539.9824   23690538.6954        210.0004 
         4.0004 
  -9612724.04748  -7490401.71845  23230385.1314   23230382.3694        275.0004 
         9.0004 
 -20958162.56249 -16331012.19747  21364239.4954   21364237.4304        600.0004 
        39.0004 
 -11097865.99749  -8647681.59246  22444289.8814   22444287.4124        327.0004 
        12.0004 
 -20619416.30049 -16067041.40046  21563710.1504   21563708.0394        545.0004 
        31.0004 
 -13120049.00249 -10223403.72346  22612354.6214   22612352.9084        364.0004 
        14.0004 
 -20071418.54249 -15640054.65846  21643801.3354   21643800.0234        462.0004 
        26.0004 
 04  3  1  2 45 30.0000000  0  8G04G05G07G10G17G24G26G29
 -13122203.43449 -10225056.09146  22278921.7614   22278920.7944        427.0004 
        18.0004 
  -7541278.45548  -5876319.82345  23694729.0594   23694727.3284        209.0004 
         4.0004 
  -9513177.50248  -7412832.99545  23249328.5334   23249325.1244        267.0004 
         8.0004 
 -20941451.68049 -16317990.72847  21367419.7174   21367417.4704        598.0004 
        39.0004 
 -11132105.06049  -8674361.37646  22437774.8874   22437772.0734        334.0004 
        12.0004 
 -20641893.78849 -16084556.31846  21559433.4124   21559430.8984        554.0004 
        31.0004 
 -13208611.00849 -10292413.05846  22595501.5504   22595500.0134        363.0004 
        15.0004 
 -20157724.58249 -15707306.11046  21627377.8574   21627376.5014        462.0004 
        26.0004 
 04  3  1  2 46  0.0000000  0  8G04G05G07G10G17G24G26G29
 -13110351.73949 -10215821.01146  22281177.3224   22281175.7224        418.0004 
        17.0004 
  -7519032.73548  -5858985.48845  23698961.8044   23698960.3144        206.0004 
         5.0004 
  -9413473.90648  -7335141.88645  23268300.1164   23268298.2314        267.0004 
         8.0004 
 -20924544.69049 -16304816.44547  21370636.7344   21370634.7204        595.0004 
        39.0004 
 -11166396.58649  -8701082.04446  22431248.5244   22431246.4454        327.0004 
        12.0004 
 -20664324.21349 -16102034.56947  21555165.0254   21555162.6914        564.0004 
        32.0004 
 -13296969.05549 -10361263.47446  22578687.8644   22578686.1394        371.0004 
        15.0004 
 -20243712.49549 -15774309.67346  21611015.1124   21611013.7084        470.0004 
        26.0004 
 04  3  1  2 46 30.0000000  0  8G04G05G07G10G17G24G26G29
 -13098339.39449 -10206460.74446  22283462.9454   22283461.6444        420.0004 
        18.0004 
  -7496540.48148  -5841459.06745  23703242.2544   23703240.6474        208.0004 
         4.0004 
  -9313600.46648  -7257318.43345  23287306.3054   23287303.4824        267.0004 
         8.0004 
 -20907428.35349 -16291479.03247  21373893.9214   21373891.7164        592.0004 
        38.0004 
 -11200725.14649  -8727831.56046  22424715.8424   22424713.7204        326.0004 
        12.0004 
 -20686690.74449 -16119463.02447  21550908.6744   21550906.3594        563.0004 
        32.0004 
 -13385105.56549 -10429941.26446  22561915.4514   22561914.2654        373.0004 
        14.0004 
 -20329364.27449 -15841051.30946  21594715.6974   21594714.5624        471.0004 
        27.0004 
 04  3  1  2 47  0.0000000  0  8G04G05G07G10G17G24G26G29
 -13086175.00649 -10196982.00846  22285778.2904   22285776.5564        424.0004 
        18.0004 
  -7473814.15448  -5823750.23345  23707566.7984   23707564.8614        204.0004 
         4.0004 
  -9213569.81248  -7179372.48745  23306340.7544   23306338.5214        261.0004 
         8.0004 
 -20890114.99749 -16277988.10047  21377188.4504   21377186.3524        590.0004 
        38.0004 
 -11235100.83749  -8754617.79046  22418175.0684   22418172.4694        332.0004 
        13.0004 
 -20709002.65249 -16136848.92047  21546662.7394   21546660.5374        568.0004 
        32.0004 
 -13473028.13249 -10498452.34846  22545183.7484   22545183.0924        368.0004 
        14.0004 
 -20414687.58149 -15907536.99946  21578479.4704   21578478.1164        477.0004 
        27.0004 
 04  3  1  2 47 30.0000000  0  8G04G05G07G10G17G24G26G29
 -13073848.03049 -10187376.57246  22288123.9524   22288122.3724        424.0004 
        17.0004 
  -7450847.21448  -5805853.92745  23711937.1044   23711935.1554        202.0004 
         4.0004 
  -9113375.05148  -7101298.65545  23325406.7124   23325404.8774        260.0004 
         8.0004 
 -20872597.15649 -16264337.82647  21380522.2724   21380519.8264        585.0004 
        38.0004 
 -11269514.03249  -8781433.25946  22411627.0444   22411623.6164        325.0004 
        12.0004 
 -20731249.11549 -16154183.82047  21542429.8064   21542427.2444        574.0004 
        33.0004 
 -13560725.12949 -10566787.66346  22528496.3094   22528495.2984        382.0004 
        14.0004 
 -20499670.51949 -15973757.45946  21562307.6144   21562306.3654        483.0004 
        28.0004 
 04  3  1  2 48  0.0000000  0  8G04G05G07G10G17G24G26G29
 -13061361.15049 -10177646.54346  22290500.2524   22290498.5514        426.0004 
        18.0004 
  -7427646.09148  -5787775.12445  23716353.7114   23716350.5694        207.0004 
         5.0004 
  -9013022.54048  -7023101.90645  23344504.1604   23344501.5654        260.0004 
         8.0004 
 -20854880.93749 -16250532.97447  21383893.2644   21383890.9304        577.0004 
        38.0004 
 -11303968.53949  -8808280.91446  22405069.9504   22405067.0924        321.0004 
        12.0004 
 -20753432.80549 -16171469.80747  21538208.0914   21538205.7314        573.0004 
        33.0004 
 -13648198.13349 -10634948.43546  22511850.2294   22511849.5314        381.0004 
        15.0004 
 -20584314.33849 -16039713.68046  21546200.7954   21546199.2384        493.0004 
        29.0004 
 04  3  1  2 48 30.0000000  0  8G04G05G07G10G17G24G26G29
 -13048711.80449 -10167789.91346  22292907.1614   22292906.1464        440.0004 
        18.0004 
  -7404212.30148  -5769515.04745  23720811.8174   23720809.5774        203.0004 
         4.0004 
  -8912513.93048  -6944783.51445  23363630.3164   23363627.1574        254.0004 
         8.0004 
 -20836967.46049 -16236574.41447  21387302.2094   21387299.9144        581.0004 
        38.0004 
 -11338463.56749  -8835160.14446  22398505.5924   22398502.8114        319.0004 
        12.0004 
 -20775551.52449 -16188705.16747  21533999.1724   21533996.7574        578.0004 
        33.0004 
 -13735443.88949 -10702932.13846  22495247.7914   22495247.0564        378.0004 
        15.0004 
 -20668615.52249 -16105402.90846  21530158.9664   21530157.3024        499.0004 
        29.0004 
 04  3  1  2 49  0.0000000  0  8G04G05G07G10G17G24G26G29
 -13035893.58049 -10157801.68946  22295345.9554   22295345.0104        431.0004 
        18.0004 
  -7380543.09248  -5751071.49645  23725314.9094   23725313.7314        203.0004 
         4.0004 
  -8811846.53248  -6866341.40545  23382785.9604   23382784.0624        262.0004 
         8.0004 
 -20818853.62549 -16222459.73547  21390749.1254   21390746.9134        580.0004 
        38.0004 
 -11372993.32349  -8862066.44246  22391935.0604   22391932.0804        320.0004 
        12.0004 
 -20797599.04449 -16205885.04747  21529803.6774   21529801.1704        576.0004 
        33.0004 
 -13822454.81849 -10770732.84846  22478691.1064   22478689.6104        389.0004 
        15.0004 
 -20752566.39549 -16170819.16646  21514183.4444   21514181.9454        502.0004 
        30.0004 
 04  3  1  2 49 30.0000000  0  8G04G05G07G10G17G24G26G29
 -13022911.02049 -10147685.41746  22297816.9954   22297815.6004        436.0004 
        18.0004 
  -7356646.91048  -5732451.10045  23729864.7004   23729861.5054        208.0004 
         4.0004 
  -8711028.59548  -6787781.98045  23401972.1404   23401969.0694        261.0004 
         8.0004 
 -20800547.34249 -16208195.09347  21394232.8214   21394230.3454        573.0004 
        38.0004 
 -11407563.66449  -8889004.35646  22385356.2894   22385353.5964        321.0004 
        12.0004 
 -20819579.85349 -16223012.94247  21525620.9784   21525618.3814        577.0004 
        33.0004 
 -13909234.35549 -10838353.26146  22462176.9104   22462175.8524        386.0004 
        15.0004 
 -20836170.01149 -16235964.83646  21498274.0384   21498272.6704        508.0004 
        30.0004 
 04  3  1  2 50  0.0000000  0  8G04G05G07G10G17G24G26G29
 -13009761.60149 -10137439.12146  22300319.2764   22300317.7584        430.0004 
        18.0004 
  -7332525.12648  -5713654.91045  23734452.8844   23734451.5614        206.0004 
         4.0004 
  -8610061.69648  -6709106.48345  23421185.3424   23421182.8714        269.0004 
         8.0004 
 -20782049.59949 -16193781.26447  21397752.9264   21397750.1014        565.0004 
        37.0004 
 -11442173.58449  -8915973.11746  22378771.1634   22378767.6164        320.0004 
        13.0004 
 -20841491.92249 -16240087.27447  21521450.8234   21521448.6434        580.0004 
        33.0004 
 -13995779.26349 -10905790.84146  22445707.7374   22445706.9544        397.0004 
        15.0004 
 -20919422.99749 -16300837.28546  21482431.5284   21482430.5094        520.0004 
        31.0004 
 04  3  1  2 50 30.0000000  0  8G04G05G07G10G17G24G26G29
 -12996445.03449 -10127062.58846  22302853.4014   22302851.9344        434.0004 
        18.0004 
  -7308180.81548  -5694685.31845  23739086.1324   23739084.5904        210.0004 
         5.0004 
  -8508949.21248  -6630317.54845  23440426.1164   23440423.7844        262.0004 
         7.0004 
 -20763363.50249 -16179220.66447  21401308.7594   21401306.0784        568.0004 
        38.0004 
 -11476823.59148  -8942973.12046  22372176.7364   22372173.6084        312.0004 
        13.0004 
 -20863334.60749 -16257107.53847  21517294.4934   21517292.1164        576.0004 
        33.0004 
 -14082088.15149 -10973044.52146  22429284.3964   22429282.9014        402.0004 
        16.0004 
 -21002323.83349 -16365435.33546  21466655.8424   21466654.8534        517.0004 
        31.0004 
 04  3  1  2 51  0.0000000  0  8G04G05G07G10G17G24G26G29
 -12982965.80849 -10116559.30146  22305418.0484   22305416.6724        426.0004 
        18.0004 
  -7283622.68548  -5675549.12345  23743759.2624   23743757.6484        204.0004 
         5.0004 
  -8407699.49248  -6551421.67545  23459692.8614   23459690.5784        256.0004 
         8.0004 
 -20744496.73249 -16164519.27747  21404898.9544   21404896.5384        580.0004 
        38.0004 
 -11511519.28349  -8970008.71046  22365574.8984   22365571.4544        318.0004 
        13.0004 
 -20885112.58549 -16274077.38347  21513150.3614   21513147.9074        576.0004 
        33.0004 
 -14168164.34249 -11040116.87046  22412904.4564   22412903.0114        398.0004 
        16.0004 
 -21084875.42449 -16429761.24446  21450946.9744   21450945.6824        513.0004 
        31.0004 
 04  3  1  2 51 30.0000000  0  8G04G05G07G10G17G24G26G29
 -12969319.37549 -10105925.71846  22308015.1674   22308013.5764        428.0004 
        18.0004 
  -7258850.27548  -5656245.95045  23748473.0714   23748471.0774        194.0004 
         4.0004 
  -8306311.90848  -6472418.36945  23478986.1214   23478983.8314        249.0004 
         8.0004 
 -20725448.48249 -16149676.48047  21408523.4914   21408521.3054        583.0004 
        38.0004 
 -11546257.53048  -8997077.45846  22358964.0614   22358960.8064        314.0004 
        13.0004 
 -20906821.63049 -16290993.51347  21509019.4814   21509016.9954        583.0004 
        33.0004 
 -14254002.43249 -11107003.68346  22396570.0124   22396568.5714        402.0004 
        17.0004 
 -21167072.44749 -16493810.86547  21435305.4254   21435304.1394        516.0004 
        32.0004 
 04  3  1  2 52  0.0000000  0  8G04G05G07G10G17G24G26G29
 -12955496.14449 -10095154.37746  22310645.2794   22310644.1504        429.0004 
        18.0004 
  -7233857.47148  -5636771.01645  23753229.8864   23753227.6574        204.0004 
         4.0004 
  -8204780.61948  -6393303.09645  23498307.4294   23498304.7974        251.0004 
         7.0004 
 -20706212.40949 -16134687.32747  21412184.0444   21412181.7584        580.0004 
        38.0004 
 -11581029.60949  -9024172.57246  22352346.8434   22352344.1154        319.0004 
        13.0004 
 -20928451.81749 -16307848.19647  21504903.3414   21504900.8784        579.0004 
        33.0004 
 -14339591.83449 -11173696.71446  22380282.8624   22380281.5814        407.0004 
        18.0004 
 -21248904.02449 -16557575.72647  21419733.4514   21419732.2884        528.0004 
        32.0004 
 04  3  1  2 52 30.0000000  0  8G04G05G07G10G17G24G26G29
 -12941504.71549 -10084251.96946  22313308.5174   22313306.6264        428.0004 
        18.0004 
  -7208657.32548  -5617134.54545  23758025.9514   23758023.0824        200.0004 
         4.0004 
  -8103118.41848  -6314085.79945  23517652.2334   23517650.6684        251.0004 
         7.0004 
 -20686800.95149 -16119561.50647  21415877.9484   21415875.7554        587.0004 
        38.0004 
 -11615845.55748  -9051301.86846  22345722.0524   22345718.6944        315.0004 
        12.0004 
 -20950012.08649 -16324648.39847  21500800.1374   21500797.8164        571.0004 
        33.0004 
 -14424940.49649 -11240202.16046  22364041.7324   22364040.3054        411.0004 
        17.0004 
 -21330377.67649 -16621061.68147  21404229.8914   21404228.2424        525.0004 
        33.0004 
 04  3  1  2 53  0.0000000  0  8G04G05G07G10G17G24G26G29
 -12927336.20149 -10073211.57246  22316004.1004   22316002.7024        422.0004 
        18.0004 
  -7183244.47648  -5597332.32945  23762860.7594   23762859.0804        201.0004 
         4.0004 
  -8001319.79848  -6234762.20745  23537024.5054   23537022.0614        243.0004 
         6.0004 
 -20667208.30149 -16104294.50147  21419606.3594   21419604.1854        592.0004 
        38.0004 
 -11650697.29749  -9078459.06246  22339090.1224   22339086.6904        319.0004 
        13.0004 
 -20971493.41549 -16341387.09047  21496712.1524   21496710.0464        571.0004 
        32.0004 
 -14510038.04949 -11306511.93846  22347848.5314   22347846.6984        408.0004 
        18.0004 
 -21411483.09249 -16684260.70247  21388795.6304   21388794.2574        521.0004 
        33.0004 
 04  3  1  2 53 30.0000000  0  8G04G05G07G10G17G24G26G29
 -12912990.41949 -10062033.04946  22318734.1654   22318732.6084        422.0004 
        18.0004 
  -7157622.81248  -5577367.38745  23767736.0114   23767734.1914        192.0004 
         4.0004 
  -7899388.67148  -6155335.36445  23556421.5254   23556419.3644        246.0004 
         7.0004 
 -20647437.68149 -16088888.82047  21423368.4014   21423366.4944        597.0004 
        38.0004 
 -11685585.78649  -9105644.88646  22332451.3364   22332447.6774        322.0004 
        13.0004 
 -20992895.78549 -16358064.25247  21492639.8414   21492637.4504        575.0004 
        32.0004 
 -14594883.65349 -11372625.38546  22331702.6274   22331700.9944        398.0004 
        18.0004 
 -21492219.29449 -16747172.02247  21373432.3974   21373430.7634        524.0004 
        33.0004 
 04  3  1  2 54  0.0000000  0  8G04G05G07G10G17G24G26G29
 -12898470.17549 -10050718.58446  22321497.0864   22321495.7844        426.0004 
        18.0004 
  -7131798.73148  -5557244.72945  23772648.8824   23772647.7774        184.0004 
         4.0004 
  -7797331.54648  -6075810.34145  23575842.5244   23575840.3824        245.0004 
         7.0004 
 -20627495.21849 -16073349.23247  21427163.3774   21427161.4864        600.0004 
        38.0004 
 -11720514.90649  -9132862.38146  22325803.7954   22325800.7354        325.0004 
        14.0004 
 -21014221.87149 -16374681.98047  21488581.5134   21488579.0994        568.0004 
        33.0004 
 -14679479.04449 -11438543.85846  22315604.7084   22315602.9184        397.0004 
        18.0004 
 -21572587.53649 -16809796.62247  21358138.5574   21358137.3044        531.0004 
        33.0004 
 04  3  1  2 54 30.0000000  0  8G04G05G07G10G17G24G26G29
 -12883774.36649 -10039267.30646  22324293.8364   22324292.2124        421.0004 
        18.0004 
  -7105775.35148  -5536966.76645  23777601.9484   23777600.8404        195.0004 
         4.0004 
  -7695151.33848  -5996189.41545  23595287.3824   23595284.2824        235.0004 
         6.0004 
 -20607383.58549 -16057677.82547  21430990.3584   21430988.3634        590.0004 
        38.0004 
 -11755484.62149  -9160111.50546  22319149.6924   22319146.4924        336.0004 
        14.0004 
 -21035470.77149 -16391239.55847  21484538.0534   21484535.5864        569.0004 
        32.0004 
 -14763822.24249 -11504265.82246  22299554.5044   22299552.8744        397.0004 
        18.0004 
 -21652585.98549 -16872133.07047  21342915.4594   21342914.0484        530.0004 
        34.0004 
 04  3  1  2 55  0.0000000  0  8G04G05G07G10G17G24G26G29
 -12868897.41849 -10027674.88846  22327125.2314   22327123.1444        416.0004 
        18.0004 
  -7079550.75748  -5516532.02645  23782593.1744   23782591.2344        192.0004 
         4.0004 
  -7592846.13448  -5916471.08545  23614755.3304   23614752.3884        234.0004 
         6.0004 
 -20587100.22149 -16041872.60647  21434850.4604   21434848.0654        583.0004 
        38.0004 
 -11790490.35849  -9187388.69546  22312487.8284   22312484.7384        332.0004 
        14.0004 
 -21056636.60149 -16407732.40547  21480510.4124   21480507.8304        568.0004 
        32.0004 
 -14847906.62949 -11569786.11746  22283554.1144   22283552.2494        399.0004 
        18.0004 
 -21732207.56049 -16934175.85147  21327763.8824   21327762.3924        521.0004 
        34.0004 
 04  3  1  2 55 30.0000000  0  8G04G05G07G10G17G24G26G29
 -12853837.27249 -10015939.71946  22329990.8654   22329989.0874        418.0004 
        17.0004 
  -7053126.65048  -5495941.82145  23787620.8824   23787619.3814        191.0004 
         4.0004 
  -7490417.81648  -5836656.82145  23634247.1134   23634243.8114        229.0004 
         6.0004 
 -20566646.65949 -16025934.75747  21438742.7144   21438740.3424        583.0004 
        37.0004 
 -11825531.22449  -9214693.25546  22305820.4564   22305817.1394        341.0004 
        14.0004 
 -21077717.52849 -16424159.09747  21476498.6244   21476496.3354        571.0004 
        32.0004 
 -14931729.22649 -11635102.41346  22267603.1384   22267601.2154        400.0004 
        19.0004 
 -21811449.24749 -16995922.61147  21312684.7834   21312683.1024        515.0004 
        34.0004 
 04  3  1  2 56  0.0000000  0  8G04G05G07G10G17G24G26G29
 -12838594.01149 -10004061.85746  22332891.5784   22332889.8234        418.0004 
        18.0004 
  -7026507.35848  -5475199.50045  23792687.1364   23792685.7634        205.0004 
         4.0004 
  -7387870.59548  -5756749.90845  23653761.2794   23653757.9574        228.0004 
         6.0004 
 -20546026.62349 -16009867.19547  21442666.2374   21442664.0634        575.0004 
        37.0004 
 -11860608.28049  -9242026.02446  22299145.3924   22299142.1414        344.0004 
        15.0004 
 -21098713.86949 -16440519.87847  21472503.0534   21472500.9724        578.0004 
        32.0004 
 -15015289.43849 -11700214.25846  22251702.0604   22251700.1454        400.0004 
        18.0004 
 -21890310.28049 -17057372.76047  21297678.1494   21297676.2594        513.0004 
        34.0004 
 04  3  1  2 56 30.0000000  0  8G04G05G07G10G17G24G26G29
 -12823160.81949  -9992035.99446  22335827.8774   22335826.6234        412.0004 
        17.0004 
  -6999690.11848  -5454302.94745  23797789.8424   23797788.1014        193.0004 
         4.0004 
  -7285201.14648  -5676747.76045  23673296.9284   23673295.0534        221.0004 
         5.0004 
 -20525236.42049 -15993667.03647  21446622.6464   21446620.1934        570.0004 
        36.0004 
 -11895715.74549  -9269382.47446  22292463.7894   22292461.4264        347.0004 
        14.0004 
 -21119618.21449 -16456808.97447  21468525.1794   21468522.9404        572.0004 
        32.0004 
 -15098579.15449 -11765115.32546  22235852.7524   22235850.8614        415.0004 
        19.0004 
 -21968782.32349 -17118519.80147  21282745.3294   21282743.7554        527.0004 
        35.0004 
 04  3  1  2 57  0.0000000  0  8G04G05G07G10G17G24G26G29
 -12807549.03149  -9979870.97246  22338799.2174   22338797.4864        410.0004 
        17.0004 
  -6972690.11648  -5433263.99445  23802928.4974   23802925.9234        186.0004 
         4.0004 
  -7182424.75548  -5596662.26445  23692856.0804   23692852.8964        218.0004 
         6.0004 
 -20504290.79249 -15977345.76547  21450608.5294   21450605.9084        565.0004 
        37.0004 
 -11930865.95449  -9296772.24446  22285775.1224   22285772.3444        347.0004 
        15.0004 
 -21140442.26849 -16473035.50347  21464562.4434   21464560.2104        571.0004 
        32.0004 
 -15181608.90349 -11829813.82246  22220052.4654   22220051.0104        423.0004 
        19.0004 
 -22046875.89649 -17179371.92647  21267884.5334   21267882.9404        530.0004 
        35.0004 
