     2.10           Observation         G (GPS)             RINEX VERSION / TYPE
teqc  2002Mar14     agnes               20151123 010205 UTC PGM / RUN BY / DATE
ZIMM                                                        MARKER NAME
GPSBASE             SWISSTOPO                               OBSERVER / AGENCY
20224769            TRIMBLE 4700        Nav  1.30 / Boot  1 REC # / TYPE / VERS
99390               TRM29659.00     NONE                    ANT # / TYPE
  4331297.3380   567555.6400  4633133.7180                  APPROX POSITION XYZ
        0.0000        0.0000        0.0000                  ANTENNA: DELTA H/E/N
     1     1                                                WAVELENGTH FACT L1/2
     8    C1    P2    L1    L2    S1    S2    D1    D2      # / TYPES OF OBSERV
    30.000                                                  INTERVAL
  2004     3     1     0     0    0.0000000     GPS         TIME OF FIRST OBS
14001M004                                                   MARKER NUMBER
     0                                                      RCV CLOCK OFFS APPL
CC2nonCC ESOC Version 6.5, 21 Mar 2012                      COMMENT
CC2nonCC executed 20151123 090203.996                       COMMENT
C1 converted to P1 for compatibility                        COMMENT
average P1-C1 biases applied by CC2nonCC by PRN (ps):       COMMENT
49          83  1603  -814   652  -551  -447   516 -1531    COMMENT
775        1649   460  -880  -283  -808   141 -5558  -931   COMMENT
-171   683         375   779  1373    84  -124   942  2124  COMMENT
-193                                                        COMMENT
Linux 2.0.36|Pentium II|gcc -static|Linux|486/DX+           COMMENT
GPSBASE 2.10 2270                       01-Mar-04 00:01:52  COMMENT
                                                            END OF HEADER
 04  3  1  0  0  0.0000000  0 10G08G10G13G17G21G26G27G28G29G31
  20311924.562    20311920.174   -18349025.365 9 -14288793.548 8        51.000  
        48.000        1812.891        1412.642  
  20702671.390    20702667.896   -15480207.629 9 -12054603.833 7        50.000  
        47.000        1777.881        1385.362  
  25229441.012    25229436.958    15323306.977 3  11466154.281 1        35.000  
        17.000        3815.610        2973.203  
  23383494.154    23383494.209    -3103676.256 4  -2404703.461 1        38.000  
        24.000        3401.016        2650.142  
  24547643.531    24547637.891    -2119473.199 5  -1646608.849 1        42.000  
        23.000        -491.011        -382.606  
  21841240.924    21841237.039   -10810650.557 9  -9002222.506 4        51.000  
        39.000       -2008.071       -1564.731  
  22620982.200    22620978.029    -1601862.808 8  -1229425.317 3        48.000  
        35.000        3142.403        2448.625  
  21896688.146    21896683.740   -14275719.736 9 -11111677.795 5        52.000  
        41.000       -1678.105       -1307.615  
  21380238.450    21380233.990   -15156294.477 9 -11805028.205 6        51.000  
        44.000       -1319.141       -1027.902  
  24776207.921           0.000     -123497.571 4         0.000          38.000  
         0.000        -404.023           0.000  
 04  3  1  0  0 30.0000000  0 10G08G10G13G17G21G26G27G28G29G31
  20322313.324    20322309.183   -18294431.379 9 -14246252.777 8        53.000  
        48.000        1826.782        1423.467  
  20712873.768    20712870.251   -15426594.027 9 -12012827.004 7        53.000  
        47.000        1796.504        1399.873  
  25251228.744    25251224.358    15437802.511 3  11555371.582 1        36.000  
        17.000        3817.358        2974.565  
  23402938.631    23402936.298    -3001501.960 6  -2325087.118 1        43.000  
        28.000        3410.562        2657.580  
  24544893.592    24544887.188    -2133931.736 6  -1657875.251 1        43.000  
        22.000        -472.715        -368.349  
  21829797.498    21829793.543   -10870786.575 9  -9049081.727 4        51.000  
        39.000       -2000.986       -1559.210  
  22638934.917    22638930.889    -1507521.073 8  -1155912.279 3        49.000  
        35.000        3147.144        2452.320  
  21887147.231    21887142.812   -14325857.121 9 -11150745.862 5        52.000  
        41.000       -1664.326       -1296.878  
  21372728.464    21372724.089   -15195760.401 9 -11835780.858 6        52.000  
        43.000       -1311.948       -1022.297  
  24773950.033    24773946.408     -135363.497 4   -170060.500 1        38.000  
        11.000        -386.987        -301.549  
 04  3  1  0  1  0.0000000  0 10G08G10G13G17G21G26G27G28G29G31
  20332781.940    20332777.991   -18239418.528 8 -14203385.614 8        49.000  
        48.000        1840.659        1434.280  
  20723182.878    20723179.834   -15372419.229 8 -11970612.902 7        49.000  
        47.000        1815.137        1414.392  
  25273027.466    25273023.520    15552356.646 3  11644634.510 1        35.000  
        19.000        3819.668        2976.365  
  23422437.875    23422435.011    -2899041.823 7  -2245248.141 1        45.000  
        30.000        3419.937        2664.885  
  24542244.784    24542240.792    -2147842.705 5  -1668714.965 1        41.000  
        22.000        -454.536        -354.184  
  21818395.574    21818390.534   -10930705.452 9  -9095771.746 4        50.000  
        39.000       -1993.691       -1553.526  
  22656914.520    22656910.845    -1413036.882 8  -1082288.249 3        49.000  
        37.000        3151.812        2455.957  
  21877686.254    21877681.665   -14375574.358 9 -11189486.550 5        51.000  
        41.000       -1650.278       -1285.931  
  21365260.338    21365255.891   -15235005.775 9 -11866361.665 6        52.000  
        43.000       -1304.561       -1016.541  
  24771787.546    24771785.231     -146719.836 3   -178909.523 1        36.000  
        11.000        -370.068        -288.365  
 04  3  1  0  1 30.0000000  0  9G08G10G17G21G26G27G28G29G31
  20343330.278    20343325.969   -18183987.184 8 -14160192.363 8        49.000  
        48.000        1854.517        1445.078  
  20733598.872    20733595.466   -15317683.059 8 -11927961.355 7        49.000  
        47.000        1833.770        1428.911  
  23441988.392    23441985.303    -2796297.910 6  -2165187.944 1        43.000  
        27.000        3429.321        2672.198  
  24539702.137    24539695.988    -2161204.129 5  -1679126.428 1        42.000  
        20.000        -436.348        -340.011  
  21807035.084    21807030.284   -10990404.678 9  -9142290.617 4        50.000  
        39.000       -1986.426       -1547.864  
  22674921.397    22674917.804    -1318410.460 8  -1008553.381 3        48.000  
        36.000        3156.392        2459.526  
  21868306.113    21868301.491   -14424868.159 9 -11227897.297 5        52.000  
        41.000       -1636.162       -1274.932  
  21357834.642    21357830.093   -15274028.320 9 -11896768.832 6        52.000  
        44.000       -1297.158       -1010.773  
  24769724.869    24769721.492     -157563.615 1   -187359.230 1        32.000  
         9.000        -353.306        -275.303  
 04  3  1  0  2  0.0000000  0  9G08G10G17G21G26G27G28G29G31
  20353958.045    20353953.979   -18128136.488 9 -14116672.337 8        52.000  
        48.000        1868.828        1456.230  
  20744122.135    20744118.530   -15262383.923 9 -11884871.136 7        53.000  
        47.000        1852.842        1443.773  
  23461592.016    23461591.573    -2693271.351 4  -2084907.565 1        39.000  
        25.000        3439.141        2679.850  
  24537265.959    24537256.998    -2174012.881 6  -1689107.443 1        44.000  
        22.000        -417.500        -325.325  
  21795717.304    21795712.603   -11049880.568 9  -9188635.456 4        50.000  
        39.000       -1978.608       -1541.773  
  22692955.079    22692951.108    -1223640.351 8   -934706.559 2        48.000  
        34.000        3161.543        2463.540  
  21859007.092    21859002.585   -14473734.035 9 -11265974.581 5        52.000  
        41.000       -1621.533       -1263.532  
  21350452.029    21350447.557   -15312824.619 9 -11926999.710 6        52.000  
        43.000       -1289.316       -1004.662  
  24767759.970           0.000     -167890.732 2         0.000          34.000  
         0.000        -335.625           0.000  
 04  3  1  0  2 30.0000000  0  9G08G10G17G21G26G27G28G29G31
  20364666.609    20364662.217   -18071863.716 9 -14072823.419 7        54.000  
        47.000        1882.661        1467.009  
  20754752.665    20754748.973   -15206518.737 9 -11841339.829 7        53.000  
        47.000        1871.450        1458.273  
  23481252.165    23481250.441    -2589961.411 5  -2004406.277 1        40.000  
        27.000        3448.232        2686.934  
  24534934.390    24534926.615    -2186264.384 6  -1698654.040 1        43.000  
        23.000        -399.180        -311.049  
  21784442.651    21784438.191   -11109127.961 9  -9234802.239 5        50.000  
        40.000       -1971.250       -1536.039  
  22711017.415    22711013.330    -1128724.035 8   -860745.797 3        48.000  
        35.000        3166.201        2467.170  
  21849790.964    21849786.297   -14522165.780 9 -11303713.594 5        52.000  
        42.000       -1607.285       -1252.430  
  21343113.373    21343108.821   -15351389.430 9 -11957050.195 6        52.000  
        43.000       -1281.724        -998.746  
  24765893.783           0.000     -177695.503 1         0.000          31.000  
         0.000        -318.145           0.000  
 04  3  1  0  3  0.0000000  0  9G08G10G17G21G26G27G28G29G31
  20375454.188    20375450.126   -18015174.843 9 -14028650.280 8        54.000  
        48.000        1896.665        1477.921  
  20765490.414    20765486.487   -15150092.763 9 -11797371.562 7        54.000  
        47.000        1890.347        1472.997  
  23500964.836    23500962.048    -2486375.369 5  -1923689.983 1        41.000  
        26.000        3457.607        2694.240  
  24532706.498    24532702.211    -2197961.219 5  -1707768.403 1        40.000  
        23.000        -380.503        -296.496  
  21773211.233    21773206.493   -11168149.421 9  -9280792.984 4        50.000  
        39.000       -1963.467       -1529.974  
  22729106.528    22729102.410    -1033666.852 8   -786675.285 3        49.000  
        35.000        3171.025        2470.929  
  21840656.997    21840652.132   -14570165.266 9 -11341115.781 5        52.000  
        42.000       -1592.573       -1240.966  
  21335818.206    21335813.641   -15389725.587 9 -11986922.530 6        52.000  
        44.000       -1273.906        -992.654  
  24764127.356           0.000     -186980.331 2         0.000          34.000  
         0.000        -300.825           0.000  
 04  3  1  0  3 30.0000000  0  9G08G10G17G21G26G27G28G29G31
  20386321.255    20386317.183   -17958067.586 9 -13984151.114 7        53.000  
        47.000        1910.605        1488.783  
  20776335.268    20776331.105   -15093103.285 9 -11752964.195 7        54.000  
        47.000        1909.131        1487.634  
  23520728.430    23520726.524    -2382513.208 5  -1842758.471 1        40.000  
        24.000        3466.665        2701.298  
  24530587.617    24530582.082    -2209099.552 5  -1716447.718 1        41.000  
        22.000        -361.924        -282.019  
  21762023.614    21762019.194   -11226940.446 9  -9326604.159 4        50.000  
        39.000       -1955.840       -1524.031  
  22747222.190    22747218.957     -938466.577 7   -712493.276 3        47.000  
        35.000        3175.781        2474.635  
  21831606.191    21831601.141   -14617727.229 9 -11378177.034 5        52.000  
        42.000       -1577.979       -1229.594  
  21328567.583    21328562.655   -15427828.663 9 -12016613.232 6        51.000  
        44.000       -1266.147        -986.608  
  24762459.873           0.000     -195740.327 1         0.000          30.000  
         0.000        -283.184           0.000  
 04  3  1  0  4  0.0000000  0  9G08G10G17G21G26G27G28G29G31
  20397267.272    20397263.129   -17900545.975 9 -13939329.081 8        54.000  
        48.000        1924.214        1499.387  
  20787286.471    20787282.423   -15035553.604 9 -11708120.299 7        55.000  
        47.000        1927.607        1502.032  
  23540543.331    23540542.051    -2278380.999 5  -1761616.431 1        41.000  
        26.000        3475.513        2708.192  
  24528574.467    24528568.044    -2219680.663 5  -1724692.750 1        42.000  
        20.000        -343.462        -267.633  
  21750879.499    21750875.057   -11285502.062 8  -9372236.566 4        49.000  
        39.000       -1948.232       -1518.103  
  22765364.902    22765361.210     -843126.812 7   -638202.559 3        47.000  
        35.000        3180.337        2478.185  
  21822638.632    21822634.036   -14664851.713 9 -11414897.392 5        52.000  
        41.000       -1563.520       -1218.328  
  21321360.640    21321356.022   -15465699.915 9 -12046123.289 6        52.000  
        44.000       -1258.525        -980.669  
  24760891.443           0.000           0.000           0.000          28.000  
         0.000        -265.635           0.000  
 04  3  1  0  4 30.0000000  0  9G08G10G17G21G26G27G28G29G31
  20408291.376    20408287.496   -17842613.599 9 -13894186.973 7        54.000  
        47.000        1937.900        1510.052  
  20798343.556    20798339.933   -14977447.116 9 -11662842.538 7        54.000  
        47.000        1946.167        1516.494  
  23560411.571    23560409.730    -2173983.635 5  -1680267.886 1        42.000  
        28.000        3484.204        2714.964  
  24526666.295    24526660.683    -2229705.985 5  -1732504.732 1        40.000  
        21.000        -324.951        -253.209  
  21739779.234    21739774.712   -11343835.076 8  -9417690.853 5        49.000  
        40.000       -1940.693       -1512.229  
  22783533.626    22783528.928     -747650.793 7   -563805.679 2        47.000  
        34.000        3184.751        2481.624  
  21813754.390    21813749.564   -14711538.915 9 -11451277.018 5        52.000  
        42.000       -1549.004       -1207.016  
  21314198.078    21314193.732   -15503340.306 9 -12075453.458 6        52.000  
        44.000       -1250.825        -974.669  
  24759425.260           0.000     -211687.989 3         0.000          36.000  
         0.000        -248.291           0.000  
 04  3  1  0  5  0.0000000  0  9G08G10G17G21G26G27G28G29G31
  20419393.105    20419389.228   -17784273.407 9 -13848727.077 7        54.000  
        47.000        1951.455        1520.614  
  20809506.385    20809503.057   -14918786.211 9 -11617132.751 7        54.000  
        47.000        1964.585        1530.845  
  23580325.777    23580323.897    -2069326.471 5  -1598716.850 1        40.000  
        26.000        3492.808        2721.668  
  24524865.389    24524859.203    -2239176.497 5  -1739884.365 1        42.000  
        23.000        -306.470        -238.808  
  21728722.055    21728718.179   -11401939.739 9  -9462967.203 5        50.000  
        40.000       -1933.022       -1506.251  
  22801727.713    22801723.718     -652041.359 8   -489304.832 3        48.000  
        35.000        3189.175        2485.071  
  21804953.265    21804949.199   -14757788.134 9 -11487315.355 5        52.000  
        42.000       -1534.316       -1195.571  
  21307079.109    21307074.513   -15540750.081 9 -12104603.935 6        52.000  
        44.000       -1243.125        -968.669  
  24758056.385           0.000     -218876.417 2         0.000          33.000  
         0.000        -230.903           0.000  
 04  3  1  0  5 30.0000000  0  9G08G10G17G21G26G27G28G29G31
  20430572.448    20430568.417   -17725524.655 9 -13802948.832 7        51.000  
        47.000        1965.029        1531.192  
  20820775.128    20820771.783   -14859569.402 9 -11570989.806 7        53.000  
        47.000        1983.130        1545.296  
  23600291.120    23600289.548    -1964410.427 5  -1516964.123 1        41.000  
        27.000        3501.470        2728.418  
  24523169.253    24523163.229    -2248089.074 3  -1746829.249 1        37.000  
        22.000        -287.764        -224.231  
  21717709.462    21717705.180   -11459812.334 9  -9508062.722 5        50.000  
        40.000       -1925.195       -1500.152  
  22819946.557    22819943.487     -556297.393 7   -414699.147 3        47.000  
        35.000        3193.672        2488.575  
  21796236.624    21796232.065   -14803595.099 9 -11523009.084 5        52.000  
        42.000       -1519.492       -1184.020  
  21300004.934    21300000.435   -15577925.783 9 -12133572.014 6        53.000  
        44.000       -1235.293        -962.566  
  24756789.830           0.000     -225537.154 1         0.000          32.000  
         0.000        -213.086           0.000  
 04  3  1  0  6  0.0000000  0  9G08G10G17G21G26G27G28G29G31
  20441830.058    20441825.931   -17666367.769 8 -13756852.560 7        48.000  
        47.000        1978.701        1541.845  
  20832149.404    20832145.873   -14799796.993 8 -11524413.916 7        48.000  
        47.000        2001.685        1559.754  
  23620304.310    23620302.057    -1859237.624 5  -1435011.325 1        40.000  
        26.000        3509.927        2735.008  
  24521576.490    24521573.908    -2256441.936 1  -1753337.941 1        32.000  
        19.000        -269.209        -209.773  
  21706741.577    21706737.179   -11517450.400 8  -9552975.480 5        49.000  
        40.000       -1917.397       -1494.076  
  22838191.915    22838188.204     -460418.846 7   -339988.631 2        47.000  
        34.000        3198.223        2492.122  
  21787604.740    21787599.406   -14848956.656 9 -11558355.731 5        52.000  
        42.000       -1504.624       -1172.434  
  21292975.392    21292970.803   -15614865.153 9 -12162355.937 6        52.000  
        44.000       -1227.378        -956.398  
  24755622.824           0.000     -231667.635 2         0.000          33.000  
         0.000        -195.571           0.000  
 04  3  1  0  6 30.0000000  0  9G08G10G17G21G26G27G28G29G31
  20453164.318    20453160.410   -17606805.323 8 -13710440.263 7        49.000  
        47.000        1992.036        1552.236  
  20843629.232    20843625.829   -14739470.984 8 -11477406.651 7        49.000  
        47.000        2019.956        1573.992  
  23640366.431    23640364.812    -1753812.526 5  -1352861.987 1        41.000  
        24.000        3518.374        2741.590  
  24520093.950    24520091.066    -2264235.261 3  -1759410.612 1        36.000  
        19.000        -250.571        -195.250  
  21695817.796    21695813.199   -11574853.790 8  -9597705.385 5        49.000  
        40.000       -1909.663       -1488.049  
  22856462.494    22856458.140     -364408.135 8   -265175.088 2        48.000  
        34.000        3202.500        2495.455  
  21779057.573    21779052.438   -14893871.947 9 -11593354.645 5        52.000  
        42.000       -1489.893       -1160.955  
  21285991.083    21285986.546   -15651568.111 9 -12190955.632 6        52.000  
        44.000       -1219.546        -950.296  
  24754556.660           0.000     -237267.412 1         0.000          32.000  
         0.000        -178.237           0.000  
 04  3  1  0  7  0.0000000  0  9G08G10G17G21G26G27G28G29G31
  20464575.556    20464571.497   -17546839.783 9 -13663713.869 7        54.000  
        47.000        2005.527        1562.749  
  20855214.110    20855210.483   -14678593.491 9 -11429969.661 7        54.000  
        47.000        2038.364        1588.336  
  23660475.628    23660473.020    -1648139.787 4  -1270519.575 1        39.000  
        25.000        3526.431        2747.868  
  24518719.581    24518715.126    -2271469.655 5  -1765047.813 1        40.000  
        26.000        -231.904        -180.705  
  21684939.269    21684934.752   -11632022.272 8  -9642252.247 5        48.000  
        40.000       -1901.768       -1481.897  
  22874757.518    22874753.080     -268267.378 7   -190260.208 2        47.000  
        34.000        3206.860        2498.852  
  21770595.645    21770591.217   -14938339.896 9 -11628004.981 5        52.000  
        42.000       -1474.814       -1149.206  
  21279052.064    21279047.649   -15688034.622 9 -12219371.101 6        52.000  
        44.000       -1211.650        -944.143  
  24753592.679           0.000     -242336.060 1         0.000          32.000  
         0.000        -160.552           0.000  
 04  3  1  0  7 30.0000000  0  9G08G10G17G21G26G27G28G29G31
  20476062.848    20476058.906   -17486472.302 9 -13616674.273 7        50.000  
        47.000        2018.867        1573.143  
  20866902.946    20866899.499   -14617164.860 8 -11382103.213 7        48.000  
        47.000        2056.758        1602.668  
  23680631.496    23680628.689    -1542221.648 5  -1187985.987 1        42.000  
        25.000        3534.604        2754.237  
  24517449.862    24517445.099    -2278143.810 4  -1770248.513 1        39.000  
        23.000        -213.311        -166.216  
  21674105.006    21674100.917   -11688953.768 7  -9686614.429 5        46.000  
        40.000       -1893.799       -1475.687  
  22893076.455    22893073.271     -171997.270 7   -115244.570 2        47.000  
        34.000        3211.055        2502.121  
  21762219.123    21762214.390   -14982357.749 9 -11662304.578 5        52.000  
        42.000       -1459.863       -1137.556  
  21272157.776    21272153.484   -15724262.695 9 -12247600.772 6        52.000  
        44.000       -1203.726        -937.968  
  24752730.316           0.000     -246871.502 1         0.000          30.000  
         0.000        -142.559           0.000  
 04  3  1  0  8  0.0000000  0  9G08G10G17G21G26G27G28G29G31
  20487626.335    20487622.323   -17425705.395 9 -13569323.432 7        50.000  
        47.000        2032.183        1583.519  
  20878697.232    20878693.737   -14555187.418 9 -11333809.114 7        50.000  
        47.000        2075.034        1616.910  
  23700831.830    23700829.813    -1436063.127 5  -1105265.049 1        40.000  
        25.000        3542.627        2760.488  
  24516285.492    24516281.059    -2284257.818 4  -1775012.702 1        38.000  
        23.000        -194.565        -151.609  
  21663316.640    21663312.569   -11745648.135 8  -9730791.854 5        48.000  
        40.000       -1885.918       -1469.547  
  22911420.684    22911416.961      -75599.964 7    -40129.813 2        47.000  
        34.000        3215.381        2505.492  
  21753928.565    21753924.044   -15025924.660 9 -11696252.816 5        52.000  
        42.000       -1444.731       -1125.765  
  21265309.337    21265304.950   -15760252.243 9 -12275644.562 6        52.000  
        44.000       -1195.698        -931.713  
  24751965.270           0.000           0.000           0.000          25.000  
         0.000        -124.604           0.000  
 04  3  1  0  8 30.0000000  0  9G08G10G17G21G26G27G28G29G31
  20499265.182    20499261.627   -17364541.899 9 -13521663.572 7        53.000  
        47.000        2045.283        1593.727  
  20890594.891    20890591.582   -14492663.684 9 -11285089.341 7        52.000  
        47.000        2093.115        1630.999  
  23721078.870    23721076.132    -1329668.640 5  -1022360.271 1        42.000  
        27.000        3550.215        2766.401  
  24515228.248    24515223.626    -2289812.829 4  -1779341.301 1        38.000  
        23.000        -175.688        -136.900  
  21652573.270    21652569.203   -11802105.285 7  -9774784.427 5        46.000  
        40.000       -1878.076       -1463.436  
  22929788.423    22929784.112       20922.038 7     35082.153 2        46.000  
        34.000        3219.341        2508.577  
  21745723.983    21745719.278   -15069039.952 9 -11729849.134 5        51.000  
        42.000       -1429.751       -1114.092  
  21258506.342    21258501.384   -15796003.443 9 -12303502.638 6        52.000  
        44.000       -1187.842        -925.591  
  24751308.755           0.000     -254341.370 1         0.000          29.000  
         0.000        -106.851           0.000  
 04  3  1  0  9  0.0000000  0  9G08G10G17G21G26G27G28G29G31
  20510981.102    20510977.208   -17302975.419 9 -13473689.691 7        50.000  
        47.000        2058.833        1604.285  
  20902598.454    20902594.800   -14429587.108 8 -11235938.779 7        49.000  
        47.000        2111.743        1645.514  
  23741369.753    23741368.677    -1223033.546 4   -939268.042 1        39.000  
        22.000        3558.457        2772.824  
  24514280.213    24514274.480    -2294800.408 4  -1783227.704 1        39.000  
        23.000        -156.802        -122.183  
  21641876.820    21641872.368   -11858316.032 7  -9818585.013 5        47.000  
        40.000       -1869.604       -1456.835  
  22948180.934    22948176.561      117575.355 7    110396.388 2        45.000  
        33.000        3223.926        2512.150  
  21737607.362    21737602.497   -15111694.043 9 -11763086.068 5        52.000  
        42.000       -1414.136       -1101.924  
  21251749.738    21251745.152   -15831507.211 9 -12331167.913 6        52.000  
        44.000       -1179.355        -918.978  
  24750751.056           0.000     -257266.555 1         0.000          30.000  
         0.000         -88.545           0.000  
 04  3  1  0  9 30.0000000  0  9G08G10G17G21G26G27G28G29G31
  20522772.732    20522768.536   -17241010.434 9 -13425405.286 7        53.000  
        47.000        2072.192        1614.695  
  20914705.688    20914702.112   -14365961.706 9 -11186360.558 7        53.000  
        46.000        2130.020        1659.755  
  23761706.142    23761705.099    -1116164.205 4   -855993.214 1        39.000  
        24.000        3566.299        2778.934  
  24513438.705    24513433.187    -2299222.652 5  -1786673.672 1        40.000  
        23.000        -137.935        -107.481  
  21631226.862    21631222.434   -11914281.884 8  -9862194.764 5        48.000  
        40.000       -1861.309       -1450.370  
  22966597.507    22966593.703      214356.165 7    185809.993 2        47.000  
        33.000        3228.145        2515.437  
  21729578.006    21729573.374   -15153887.606 9 -11795964.158 5        52.000  
        42.000       -1398.677       -1089.878  
  21245040.321    21245035.813   -15866765.121 9 -12358641.601 7        52.000  
        45.000       -1171.040        -912.499  
  24750298.520           0.000     -259650.054 1         0.000          32.000  
         0.000         -70.254           0.000  
 04  3  1  0 10  0.0000000  0  9G08G10G17G21G26G27G28G29G31
  20534639.783    20534635.603   -17178649.069 9 -13376812.015 7        54.000  
        47.000        2085.254        1624.873  
  20926917.295    20926913.919   -14301789.191 9 -11136356.017 7        54.000  
        47.000        2148.091        1673.837  
  23782088.570    23782085.090    -1009064.398 5   -772538.929 1        41.000  
        27.000        3573.569        2784.599  
  24512704.781    24512699.450    -2303079.781 5  -1789679.217 1        40.000  
        23.000        -119.146         -92.841  
  21620623.803    21620619.301   -11970001.983 8  -9905613.000 5        48.000  
        40.000       -1853.325       -1444.150  
  22985038.127    22985034.678      311262.553 7    261321.439 2        46.000  
        33.000        3232.139        2518.550  
  21721636.659    21721632.054   -15195619.346 9 -11828482.369 5        52.000  
        41.000       -1383.428       -1077.996  
  21238377.942    21238373.460   -15901776.662 9 -12385923.313 6        52.000  
        44.000       -1163.042        -906.266  
  24749946.254           0.000     -261491.337 1         0.000          31.000  
         0.000         -52.349           0.000  
 04  3  1  0 10 30.0000000  0  9G08G10G17G21G26G27G28G29G31
  20546581.012    20546577.170   -17115897.853 9 -13327914.958 7        50.000  
        47.000        2098.237        1634.990  
  20939232.143    20939228.438   -14237075.668 9 -11085929.906 7        50.000  
        46.000        2166.138        1687.900  
  23802509.277    23802507.415     -901742.744 3   -688911.692 1        37.000  
        24.000        3581.001        2790.390  
  24512078.430    24512072.553    -2306376.278 4  -1792247.931 1        39.000  
        24.000        -100.542         -78.344  
  21610066.636    21610062.399   -12025480.086 7  -9948842.685 5        47.000  
        41.000       -1845.200       -1437.818  
  23003501.257    23003497.518      408288.574 7    336926.123 2        45.000  
        34.000        3236.157        2521.681  
  21713782.917    21713778.043   -15236892.279 9 -11860643.082 5        52.000  
        42.000       -1368.135       -1066.079  
  21231761.664    21231757.128   -15936545.512 9 -12413015.919 6        52.000  
        44.000       -1154.858        -899.890  
  24749698.798           0.000     -262793.951 1         0.000          31.000  
         0.000         -34.375           0.000  
 04  3  1  0 11  0.0000000  0  9G08G10G17G21G26G27G28G29G31
  20558595.396    20558591.526   -17052760.294 9 -13278716.864 7        53.000  
        47.000        2110.986        1644.924  
  20951648.870    20951645.787   -14171824.608 9 -11035084.947 7        53.000  
        47.000        2183.931        1701.764  
  23822973.991    23822971.804     -794204.821 5   -605115.900 1        42.000  
        25.000        3588.145        2795.957  
  24511557.213    24511551.332    -2309113.670 5  -1794380.988 1        41.000  
        24.000         -81.782         -63.726  
  21599555.014    21599550.621   -12080716.965 7  -9991884.400 5        46.000  
        41.000       -1837.207       -1431.590  
  23021987.020    23021983.074      505430.895 6    412621.435 1        44.000  
        32.000        3239.966        2524.649  
  21706016.189    21706011.525   -15277706.739 9 -11892446.545 5        52.000  
        42.000       -1352.793       -1054.124  
  21225191.512    21225187.217   -15971072.724 9 -12439920.250 6        52.000  
        44.000       -1146.890        -893.680  
  24749553.743           0.000     -263558.697 3         0.000          36.000  
         0.000         -16.582           0.000  
 04  3  1  0 11 30.0000000  0  9G08G10G17G21G26G27G28G29G31
  20570684.468    20570679.859   -16989233.030 9 -13229215.115 7        54.000  
        46.000        2124.009        1655.072  
  20964168.824    20964165.503   -14106032.038 9 -10983818.030 7        53.000  
        46.000        2202.114        1715.933  
  23843480.393    23843477.652     -686448.537 6   -521150.013 1        44.000  
        28.000        3595.420        2801.626  
  24511142.726    24511137.786    -2311286.167 5  -1796073.857 1        41.000  
        22.000         -63.008         -49.097  
  21589090.914    21589086.510   -12135705.965 7 -10034732.965 5        46.000  
        41.000       -1828.848       -1425.076  
  23040495.634    23040491.885      602693.534 6    488410.480 2        44.000  
        33.000        3244.116        2527.883  
  21698337.893    21698333.386   -15318055.443 9 -11923887.083 5        52.000  
        42.000       -1337.222       -1041.991  
  21218668.297    21218663.707   -16005351.800 9 -12466631.212 6        53.000  
        44.000       -1138.467        -887.117  
  24749511.588           0.000     -263779.173 2         0.000          33.000  
         0.000           1.597           0.000  
 04  3  1  0 12  0.0000000  0  9G08G10G17G21G26G27G28G29G31
  20582845.981    20582841.969   -16925322.645 9 -13179414.803 7        53.000  
        47.000        2136.978        1665.177  
  20976790.366    20976786.846   -14039704.366 9 -10932134.131 7        53.000  
        46.000        2220.112        1729.958  
  23864022.857    23864023.022     -578482.677 4   -437020.780 1        39.000  
        21.000        3602.490        2807.135  
  24510835.854    24510830.445    -2312898.845 5  -1797330.510 1        41.000  
        21.000         -44.204         -34.445  
  21578673.456    21578669.141   -12190451.147 7 -10077391.533 5        47.000  
        41.000       -1820.522       -1418.589  
  23059025.588    23059022.074      700070.169 6    564288.377 2        43.000  
        33.000        3248.174        2531.044  
  21690747.596    21690743.456   -15357941.923 9 -11954967.427 5        53.000  
        42.000       -1321.514       -1029.751  
  21212191.578    21212187.009   -16039386.734 9 -12493151.929 6        52.000  
        44.000       -1130.098        -880.596  
  24749572.851           0.000     -263459.266 2         0.000          34.000  
         0.000          19.878           0.000  
 04  3  1  0 12 30.0000000  0  9G08G10G17G21G26G27G28G29G31
  20595081.943    20595077.758   -16861023.052 9 -13129311.222 7        53.000  
        46.000        2149.775        1675.150  
  20989515.084    20989511.792   -13972835.178 9 -10880028.296 7        52.000  
        46.000        2237.983        1743.883  
  23884611.116    23884609.193     -470302.613 6   -352724.565 1        44.000  
        28.000        3609.536        2812.625  
  24510636.785    24510631.538    -2313943.312 5  -1798144.383 1        42.000  
        23.000         -25.269         -19.690  
  21568303.968    21568299.230   -12244943.010 7 -10119852.719 5        47.000  
        41.000       -1812.090       -1412.018  
  23077579.120    23077575.071      797567.456 6    640260.282 2        43.000  
        33.000        3251.904        2533.951  
  21683247.711    21683242.719   -15397356.234 9 -11985679.872 5        52.000  
        42.000       -1305.874       -1017.564  
  21205763.093    21205758.698   -16073168.403 9 -12519475.300 7        53.000  
        45.000       -1121.885        -874.196  
  24749738.808           0.000     -262589.789 3         0.000          37.000  
         0.000          38.271           0.000  
 04  3  1  0 13  0.0000000  0  9G08G10G17G21G26G27G28G29G31
  20607391.033    20607386.965   -16796336.647 9 -13078906.229 7        53.000  
        47.000        2162.485        1685.053  
  21002342.555    21002338.971   -13905426.971 9 -10827502.441 7        54.000  
        46.000        2255.723        1757.706  
  23905236.931    23905235.155     -361912.716 5   -268265.063 1        41.000  
        22.000        3616.265        2817.869  
  24510546.835    24510541.673    -2314420.353 5  -1798516.109 1        42.000  
        24.000          -6.616          -5.155  
  21557982.625    21557978.306   -12299181.422 7 -10162116.413 5        47.000  
        41.000       -1803.892       -1405.630  
  23096154.972    23096151.093      895183.404 5    716324.637 2        42.000  
        33.000        3255.722        2536.927  
  21675836.968    21675832.010   -15436297.927 9 -12016024.022 5        52.000  
        42.000       -1290.361       -1005.476  
  21199383.153    21199378.473   -16106696.635 9 -12545601.195 6        52.000  
        44.000       -1113.545        -867.697  
  24750007.247    24750003.263     -261170.718 3   -268092.285 1        35.000  
        15.000          56.328          43.892  
 04  3  1  0 13 30.0000000  0  9G08G10G17G21G26G27G28G29G31
  20619773.495    20619769.275   -16731267.193 9 -13028202.752 7        54.000  
        47.000        2175.205        1694.965  
  21015272.001    21015268.337   -13837483.133 9 -10774559.205 7        54.000  
        47.000        2273.608        1771.643  
  23925899.979    23925899.997     -253318.553 5   -183646.137 1        40.000  
        26.000        3622.954        2823.081  
  24510563.922    24510559.485    -2314331.504 6  -1798446.905 1        43.000  
        26.000          12.300           9.584  
  21547709.876    21547705.327   -12353167.016 8 -10204183.104 5        49.000  
        41.000       -1795.322       -1398.952  
  23114752.075    23114748.694      992914.525 5    792478.742 2        42.000  
        34.000        3259.429        2539.815  
  21668516.798    21668512.068   -15474767.013 9 -12045999.916 5        53.000  
        42.000       -1274.512        -993.126  
  21193051.079    21193046.381   -16139972.260 9 -12571530.243 7        53.000  
        45.000       -1105.122        -861.134  
  24750383.610    24750379.344     -259202.791 3   -266558.770 1        37.000  
        16.000          74.536          58.080  
 04  3  1  0 14  0.0000000  0  9G08G10G17G21G26G27G28G29G31
  20632228.885    20632224.894   -16665813.573 9 -12977199.943 7        53.000  
        46.000        2188.022        1704.953  
  21028303.229    21028299.777   -13769002.199 9 -10721197.448 7        54.000  
        46.000        2291.455        1785.549  
  23946605.223    23946602.892     -144520.517 6    -98868.587 1        43.000  
        24.000        3629.858        2828.461  
  24510689.129    24510683.495    -2313673.716 6  -1797934.334 1        43.000  
        23.000          31.274          24.370  
  21537485.684    21537480.679   -12406895.725 8 -10246049.634 5        48.000  
        41.000       -1786.807       -1392.317  
  23133371.386    23133367.912     1090762.762 5    868724.088 1        41.000  
        32.000        3263.301        2542.832  
  21661286.847    21661282.497   -15512759.017 9 -12075604.056 5        52.000  
        42.000       -1258.574        -980.707  
  21186767.669    21186763.224   -16172991.357 9 -12597259.397 6        53.000  
        44.000       -1096.470        -854.392  
  24750863.307    24750858.745     -256682.091 3   -264594.539 1        37.000  
        18.000          93.125          72.565  
 04  3  1  0 14 30.0000000  0  9G08G10G17G21G26G27G28G29G31
  20644756.147    20644752.342   -16599981.584 9 -12925902.283 7        52.000  
        46.000        2200.464        1714.647  
  21041435.953    21041432.632   -13699989.965 9 -10667421.696 7        54.000  
        46.000        2308.975        1799.201  
  23967345.356    23967343.255      -35526.826 5    -13938.370 1        42.000  
        28.000        3636.152        2833.365  
  24510922.472    24510916.016    -2312451.271 6  -1796981.817 1        43.000  
        26.000          50.005          38.965  
  21527309.007    21527304.900   -12460370.659 8 -10287718.393 5        48.000  
        42.000       -1778.477       -1385.826  
  23152013.390    23152009.490     1188722.391 5    945056.251 1        42.000  
        32.000        3266.948        2545.674  
  21654147.573    21654143.062   -15550276.665 9 -12104838.567 5        53.000  
        42.000       -1242.827        -968.437  
  21180532.487    21180528.035   -16205757.237 9 -12622791.251 7        53.000  
        45.000       -1088.193        -847.943  
  24751446.697    24751442.505     -253612.092 4   -262202.321 1        39.000  
        20.000         111.387          86.795  
 04  3  1  0 15  0.0000000  0  9G08G10G17G21G26G27G28G29G31
  20657355.451    20657351.440   -16533774.809 9 -12874312.598 7        53.000  
        46.000        2213.315        1724.661  
  21054669.079    21054665.312   -13630449.586 9 -10613234.413 7        53.000  
        46.000        2326.929        1813.191  
  23988122.934    23988121.555       73657.643 6     71140.309 1        44.000  
        24.000        3642.876        2838.605  
  24511261.876    24511256.064    -2310665.536 6  -1795590.326 1        43.000  
        23.000          69.048          53.804  
  21517181.749    21517177.351   -12513592.048 8 -10329189.606 5        49.000  
        41.000       -1769.585       -1378.897  
  23170675.418    23170671.870     1286790.854 5   1021473.240 1        41.000  
        32.000        3270.825        2548.695  
  21647098.708    21647093.883   -15587319.674 9 -12133703.236 5        52.000  
        42.000       -1226.689        -955.862  
  21174345.081    21174340.841   -16238270.334 9 -12648126.131 7        53.000  
        45.000       -1079.385        -841.079  
  24752135.804    24752131.232     -249993.100 4   -259382.296 1        38.000  
        20.000         129.980         101.283  
 04  3  1  0 15 30.0000000  0  9G08G10G17G21G26G27G28G29G31
  20670025.672    20670021.742   -16467190.275 9 -12822428.539 7        53.000  
        46.000        2225.796        1734.386  
  21068002.943    21067999.549   -13560378.195 9 -10558633.346 7        54.000  
        46.000        2344.487        1826.873  
  24008935.935    24008934.345      183033.851 6    156368.602 1        43.000  
        26.000        3649.004        2843.380  
  24511709.862    24511703.989    -2308311.898 6  -1793756.370 1        43.000  
        23.000          87.910          68.501  
  21507103.218    21507099.036   -12566554.182 8 -10370458.792 5        48.000  
        42.000       -1761.069       -1372.262  
  23189358.041    23189354.349     1384971.112 6   1097977.315 1        43.000  
        32.000        3274.458        2551.526  
  21640141.136    21640136.167   -15623882.049 9 -12162193.376 5        52.000  
        42.000       -1210.718        -943.416  
  21168207.425    21168203.108   -16270524.944 9 -12673259.572 7        53.000  
        45.000       -1070.898        -834.466  
  24752929.413    24752925.429     -245819.854 3   -256130.397 1        37.000  
        21.000         148.350         115.597  
 04  3  1  0 16  0.0000000  0  9G08G10G17G21G26G27G28G29G31
  20682766.804    20682762.826   -16400234.465 9 -12770255.178 7        54.000  
        46.000        2238.145        1744.009  
  21081437.268    21081433.711   -13489781.934 9 -10503623.284 7        54.000  
        46.000        2361.987        1840.510  
  24029785.351    24029783.286      292593.794 6    241739.897 1        43.000  
        26.000        3655.078        2848.113  
  24512263.776    24512258.722    -2305394.966 5  -1791483.437 1        41.000  
        23.000         106.743          83.176  
  21497073.525    21497068.729   -12619260.477 9 -10411528.621 5        50.000  
        42.000       -1752.544       -1365.619  
  23208061.836    23208057.442     1483257.422 6   1174564.051 1        43.000  
        32.000        3278.013        2554.296  
  21633274.510    21633269.602   -15659966.762 9 -12190311.312 5        52.000  
        42.000       -1194.756        -930.979  
  21162117.777    21162114.109   -16302524.726 9 -12698194.465 7        53.000  
        45.000       -1062.334        -827.793  
  24753828.959    24753824.346     -241096.056 3   -252449.483 1        36.000  
        21.000         166.719         129.911  
 04  3  1  0 16 30.0000000  0  9G08G10G17G21G26G27G28G29G31
  20695579.654    20695575.401   -16332903.475 9 -12717789.472 7        52.000  
        46.000        2250.664        1753.764  
  21094972.001    21094967.941   -13418656.897 9 -10448201.203 7        54.000  
        46.000        2379.692        1854.306  
  24050667.087    24050666.789      402339.346 4    327255.958 1        39.000  
        21.000        3661.353        2853.002  
  24512926.575    24512922.585    -2301909.090 5  -1788767.130 1        41.000  
        23.000         125.771          98.004  
  21487093.916    21487089.775   -12671704.072 9 -10452393.750 5        50.000  
        42.000       -1743.716       -1358.740  
  23226785.733    23226781.518     1581654.176 5   1251236.844 1        42.000  
        32.000        3281.821        2557.263  
  21626499.990    21626495.203   -15695566.691 9 -12218051.498 5        53.000  
        42.000       -1178.506        -918.316  
  21156078.531    21156073.898   -16334262.899 9 -12722925.501 7        52.000  
        45.000       -1053.496        -820.906  
  24754833.806    24754828.639     -235815.126 3   -248334.397 1        37.000  
        22.000         185.366         144.441  
 04  3  1  0 17  0.0000000  0  9G08G10G17G21G26G27G28G29G31
  20708464.320    20708460.294   -16265194.444 9 -12665029.179 7        53.000  
        46.000        2263.281        1763.596  
  21108607.698    21108604.000   -13347000.129 9 -10392364.776 7        54.000  
        46.000        2397.417        1868.117  
  24071588.964    24071586.921      512271.445 6    412917.296 1        44.000  
        24.000        3667.539        2857.823  
  24513699.144    24513695.110    -2297849.622 4  -1785603.959 1        39.000  
        21.000         144.951         112.949  
  21477165.598    21477161.061   -12723879.130 9 -10493049.628 5        50.000  
        42.000       -1734.712       -1351.724  
  23245531.352    23245527.991     1680164.548 5   1327998.147 1        41.000  
        32.000        3285.620        2560.223  
  21619818.632    21619813.676   -15730676.009 9 -12245409.394 6        53.000  
        43.000       -1162.090        -905.525  
  21150089.517    21150085.042   -16365733.828 9 -12747448.299 7        53.000  
        45.000       -1044.546        -813.932  
  24755944.792    24755940.673     -229971.700 3   -243781.084 1        37.000  
        22.000         204.238         159.147  
 04  3  1  0 17 30.0000000  0  9G08G10G17G21G26G27G28G29G31
  20721420.024    20721415.272   -16197113.758 9 -12611979.307 7        54.000  
        46.000        2275.454        1773.081  
  21122343.490    21122340.198   -13274817.965 9 -10336118.945 7        54.000  
        46.000        2414.707        1881.590  
  24092540.401    24092539.755      622382.113 5    498717.766 1        40.000  
        20.000        3673.315        2862.324  
  24514579.437    24514575.913    -2293220.999 5  -1781997.230 1        41.000  
        22.000         163.774         127.616  
  21467287.076    21467283.229   -12775789.054 9 -10533498.908 5        51.000  
        42.000       -1726.001       -1344.936  
  23264297.969    23264294.600     1778782.839 5   1404843.551 1        42.000  
        32.000        3288.965        2562.830  
  21613230.419    21613225.835   -15765297.410 9 -12272387.079 5        52.000  
        42.000       -1145.996        -892.984  
  21144151.413    21144146.796   -16396941.047 9 -12771765.602 7        54.000  
        45.000       -1035.864        -807.167  
  24757164.263    24757159.323     -223569.361 4   -238792.228 1        38.000  
        22.000         222.764         173.582  
 04  3  1  0 18  0.0000000  0  9G08G10G17G21G26G27G28G29G31
  20734444.995    20734440.722   -16128663.909 9 -12558641.746 7        54.000  
        46.000        2287.881        1782.764  
  21136178.417    21136175.539   -13202112.951 9 -10279465.702 7        55.000  
        46.000        2432.266        1895.272  
  24113528.582    24113526.140      732666.921 6    584654.013 1        44.000  
        23.000        3679.014        2866.764  
  24515569.220    24515563.704    -2288024.260 6  -1777947.881 1        43.000  
        22.000         182.720         142.379  
  21457459.613    21457455.575   -12827433.395 9 -10573741.242 5        51.000  
        42.000       -1716.953       -1337.885  
  23283085.212    23283080.466     1877507.055 6   1481771.500 1        43.000  
        32.000        3292.539        2565.615  
  21606735.303    21606730.530   -15799430.289 9 -12298984.112 6        52.000  
        43.000       -1129.580        -880.192  
  21138263.099    21138258.207   -16427884.254 9 -12795877.180 7        54.000  
        45.000       -1026.978        -800.242  
  24758489.337    24758483.631     -216608.352 4   -233368.051 1        38.000  
        22.000         241.313         188.036  
 04  3  1  0 18 30.0000000  0  9G08G10G17G21G26G27G28G29G31
  20747539.906    20747535.312   -16059850.581 9 -12505020.972 7        53.000  
        46.000        2299.771        1792.029  
  21150112.656    21150109.383   -13128890.394 9 -10222409.181 7        54.000  
        46.000        2449.268        1908.520  
  24134547.149    24134545.016      843118.851 6    670720.399 1        44.000  
        27.000        3684.331        2870.907  
  24516665.439    24516660.503    -2282263.029 6  -1773458.606 1        43.000  
        22.000         201.309         156.864  
  21447682.067    21447677.280   -12878814.891 9 -10613778.764 5        50.000  
        42.000       -1708.442       -1331.254  
  23301890.625    23301887.074     1976332.225 5   1558778.119 1        42.000  
        31.000        3295.806        2568.160  
  21600332.490    21600327.718   -15833076.841 9 -12325202.184 5        52.000  
        42.000       -1113.540        -867.694  
  21132424.265    21132420.123   -16458566.104 9 -12819785.115 7        52.000  
        45.000       -1018.442        -793.591  
  24759918.556    24759914.327     -209091.451 3   -227510.725 1        37.000  
        20.000         259.678         202.346  
 04  3  1  0 19  0.0000000  0  9G08G10G17G21G26G27G28G29G31
  20760704.310    20760700.484   -15990671.164 9 -12451114.924 7        53.000  
        46.000        2312.090        1801.628  
  21164145.556    21164142.286   -13055147.602 9 -10164947.289 7        53.000  
        46.000        2466.807        1922.187  
  24155596.923    24155595.353      953738.518 6    756917.498 1        44.000  
        25.000        3690.107        2875.408  
  24517870.414    24517865.328    -2275932.944 5  -1768526.081 1        42.000  
        22.000         220.439         171.771  
  21437955.510    21437951.055   -12929927.766 9 -10653606.961 5        50.000  
        42.000       -1699.219       -1324.067  
  23320716.189    23320712.940     2075261.434 6   1635865.804 1        43.000  
        31.000        3299.360        2570.930  
  21594023.289    21594018.586   -15866231.145 9 -12351036.684 5        53.000  
        42.000       -1096.904        -854.731  
  21126636.662    21126632.014   -16488981.135 9 -12843485.136 7        53.000  
        45.000       -1009.341        -786.499  
  24761456.085    24761451.574     -201013.536 2   -221216.219 1        34.000  
        18.000         278.760         217.215  
 04  3  1  0 19 30.0000000  0  9G08G10G17G21G26G27G28G29G31
  20773938.125    20773934.181   -15921127.435 9 -12396925.009 7        51.000  
        46.000        2324.253        1811.106  
  21178276.867    21178273.560   -12980886.531 9 -10107081.533 7        52.000  
        46.000        2484.072        1935.641  
  24176678.117    24176676.636     1064522.398 6    843242.657 1        44.000  
        27.000        3695.537        2879.639  
  24519183.292    24519178.162    -2269034.761 5  -1763150.900 1        41.000  
        24.000         239.565         186.674  
  21428280.468    21428275.857   -12980770.926 9 -10693225.009 5        50.000  
        42.000       -1690.205       -1317.043  
  23339561.451    23339557.881     2174293.454 5   1713033.598 1        41.000  
        31.000        3302.891        2573.681  
  21587807.964    21587803.169   -15898891.980 8 -12376486.667 5        49.000  
        42.000       -1080.342        -841.825  
  21120899.987    21120895.211   -16519128.403 9 -12866976.512 7        52.000  
        45.000       -1000.347        -779.491  
  24763099.174    24763095.399     -192374.105 1   -214484.156 1        32.000  
        16.000         297.305         231.666  
 04  3  1  0 20  0.0000000  0  9G08G10G17G21G26G27G28G29G31
  20787240.866    20787236.973   -15851220.166 9 -12342451.810 7        52.000  
        46.000        2336.396        1820.569  
  21192506.742    21192503.404   -12906107.963 9 -10048812.530 7        54.000  
        45.000        2501.318        1949.079  
  24197790.717    24197789.433     1175467.723 6    929693.455 1        44.000  
        26.000        3700.938        2883.848  
  24520605.226    24520598.072    -2261567.151 5  -1757331.972 1        42.000  
        23.000         258.433         201.376  
  21418657.146    21418652.751   -13031342.010 9 -10732631.029 5        50.000  
        42.000       -1681.089       -1309.939  
  23358426.020    23358421.553     2273427.856 5   1790281.177 1        42.000  
        30.000        3306.328        2576.360  
  21581687.326    21581682.682   -15931056.876 9 -12401550.201 6        53.000  
        43.000       -1063.770        -828.911  
  21115214.466    21115209.948   -16549005.744 9 -12890257.534 7        54.000  
        45.000        -991.318        -772.456  
  24764850.570    24764846.688     -183171.181 2   -207313.035 1        33.000  
        17.000         316.211         246.398  
 04  3  1  0 20 30.0000000  0  9G08G10G17G21G26G27G28G29G31
  20800612.978    20800608.670   -15780951.445 9 -12287696.955 7        53.000  
        46.000        2348.203        1829.769  
  21206834.447    21206831.432   -12830814.017 9  -9990141.934 7        54.000  
        45.000        2518.262        1962.282  
  24218931.629    24218930.294     1286570.929 5   1016267.439 1        42.000  
        22.000        3705.947        2887.751  
  24522134.033    24522128.674    -2253530.481 5  -1751069.616 1        40.000  
        23.000         277.417         216.169  
  21409085.698    21409081.390   -13081640.071 8 -10771824.305 5        49.000  
        42.000       -1672.105       -1302.939  
  23377310.150    23377305.366     2372663.359 5   1867607.555 1        41.000  
        31.000        3309.590        2578.901  
  21575661.081    21575656.295   -15962724.832 9 -12426226.511 6        53.000  
        43.000       -1047.329        -816.101  
  21109580.567    21109576.103   -16578612.329 9 -12913327.587 7        53.000  
        46.000        -982.422        -765.524  
  24766710.442    24766705.453     -173404.533 3   -199702.617 1        35.000  
        16.000         334.932         260.986  
 04  3  1  0 21  0.0000000  0  9G08G10G17G21G26G27G28G29G31
  20814052.535    20814048.290   -15710325.472 9 -12232663.734 7        53.000  
        46.000        2360.151        1839.079  
  21221260.104    21221256.801   -12755009.027 9  -9931073.130 7        54.000  
        45.000        2535.381        1975.621  
  24240104.594    24240102.555     1397826.035 6   1102959.652 1        43.000  
        27.000        3710.977        2891.670  
  24523772.374    24523765.844    -2244927.595 5  -1744366.128 1        41.000  
        25.000         296.235         230.833  
  21399565.996    21399561.711   -13131666.480 8 -10810805.900 5        48.000  
        42.000       -1663.018       -1295.858  
  23396211.705    23396208.462     2471996.130 5   1945009.680 1        40.000  
        30.000        3312.739        2581.355  
  21569729.561    21569724.768   -15993896.745 9 -12450516.297 6        53.000  
        43.000       -1030.752        -803.183  
  21103997.632    21103992.983   -16607949.622 9 -12936187.822 7        53.000  
        45.000        -973.398        -758.492  
  24768675.025    24768670.865     -163075.952 3   -191654.348 1        35.000  
        17.000         353.525         275.474  
 04  3  1  0 21 30.0000000  0  9G08G10G17G21G26G27G28G29G31
  20827559.386    20827555.158   -15639345.110 9 -12177354.353 7        53.000  
        46.000        2372.085        1848.378  
  21235782.000    21235778.231   -12678695.783 9  -9871608.278 7        54.000  
        45.000        2552.407        1988.889  
  24261302.584    24261301.559     1509228.199 4   1189766.550 1        39.000  
        21.000        3716.118        2895.676  
  24525517.041    24525509.242    -2235759.647 5  -1737222.299 1        41.000  
        22.000         315.259         245.656  
  21390097.606    21390093.414   -13181421.028 8 -10849575.658 5        49.000  
        42.000       -1653.779       -1288.659  
  23415133.101    23415129.366     2571423.965 6   2022485.885 1        44.000  
        31.000        3315.991        2583.889  
  21563892.148    21563887.357   -16024572.285 9 -12474419.297 6        53.000  
        43.000       -1013.970        -790.106  
  21098466.394    21098461.767   -16637017.559 9 -12958838.157 7        54.000  
        45.000        -964.258        -751.370  
  24770747.367    24770742.912     -152185.800 3   -183168.480 1        36.000  
        17.000         372.583         290.324  
 04  3  1  0 22  0.0000000  0  9G08G10G17G21G26G27G28G29G31
  20841133.949    20841129.978   -15568009.455 9 -12121768.127 7        52.000  
        46.000        2383.789        1857.498  
  21250400.923    21250397.598   -12601873.281 9  -9811746.593 7        55.000  
        45.000        2569.248        2002.011  
  24282530.608    24282528.652     1620776.992 6   1276687.645 1        43.000  
        24.000        3720.727        2899.268  
  24527368.018    24527361.203    -2226024.314 5  -1729636.320 1        40.000  
        21.000         333.970         260.236  
  21380682.334    21380677.993   -13230899.509 8 -10888130.313 5        48.000  
        42.000       -1644.678       -1281.567  
  23434071.959    23434067.950     2670948.452 6   2100037.445 1        43.000  
        32.000        3319.063        2586.283  
  21558149.916    21558144.938   -16054747.491 8 -12497932.422 6        48.000  
        43.000        -997.437        -777.223  
  21092986.737    21092982.403   -16665812.131 8 -12981275.478 7        49.000  
        46.000        -955.210        -744.319  
  24772927.472    24772922.296     -140730.676 3   -174242.279 1        37.000  
        20.000         391.338         304.939  
 04  3  1  0 22 30.0000000  0  9G08G10G17G21G26G27G28G29G31
  20854776.354    20854772.228   -15496318.406 9 -12065904.976 7        51.000  
        45.000        2395.396        1866.542  
  21265116.549    21265113.225   -12524541.501 9  -9751488.087 7        54.000  
        45.000        2586.001        2015.066  
  24303783.833    24303783.391     1732470.449 4   1363721.492 1        39.000  
        21.000        3725.352        2902.871  
  24529328.871    24529321.568    -2215719.875 3  -1721606.997 1        37.000  
        20.000         352.720         274.847  
  21371320.292    21371315.872   -13280099.111 8 -10926467.650 5        48.000  
        42.000       -1635.503       -1274.418  
  23453028.864    23453024.972     2770570.200 5   2177664.763 1        42.000  
        30.000        3322.124        2588.668  
  21552503.364    21552498.902   -16084419.011 8 -12521053.062 6        48.000  
        43.000        -980.903        -764.340  
  21087560.259    21087555.516   -16694330.732 9 -13003497.749 7        50.000  
        45.000        -946.245        -737.334  
  24775215.075    24775210.621     -128708.225 3   -164874.206 1        36.000  
        20.000         410.029         319.503  
 04  3  1  0 23  0.0000000  0  9G08G10G17G21G26G27G28G29G31
  20868485.757    20868482.000   -15424275.825 9 -12009767.896 7        51.000  
        45.000        2407.217        1875.753  
  21279928.211    21279924.572   -12446704.706 9  -9690836.045 7        54.000  
        45.000        2602.832        2028.181  
  24325066.587    24325063.918     1844302.988 6   1450863.670 1        44.000  
        23.000        3729.844        2906.372  
  24531397.654    24531391.446    -2204848.954 3  -1713136.073 1        37.000  
        19.000         371.528         289.503  
  21362010.763    21362006.256   -13329020.733 8 -10964588.370 6        48.000  
        43.000       -1626.216       -1267.181  
  23472004.442    23472000.352     2870285.966 6   2255365.335 1        43.000  
        29.000        3325.376        2591.202  
  21546952.797    21546948.190   -16113587.709 9 -12543781.899 6        52.000  
        43.000        -963.936        -751.119  
  21082185.291    21082180.866   -16722574.123 9 -13025505.588 7        54.000  
        45.000        -936.978        -730.112  
  24777609.884    24777606.049     -116120.055 3   -155065.305 1        37.000  
        18.000         428.975         334.266  
 04  3  1  0 23 30.0000000  0  9G08G10G17G21G26G27G28G29G31
  20882261.153    20882257.207   -15351883.923 9 -11953358.621 7        51.000  
        45.000        2419.106        1885.018  
  21294835.926    21294832.297   -12368365.043 9  -9629792.164 7        54.000  
        45.000        2619.946        2041.517  
  24346371.441    24346369.903     1956270.672 5   1538111.278 1        42.000  
        22.000        3734.751        2910.196  
  24533573.816    24533568.427    -2193412.023 3  -1704224.197 1        36.000  
        20.000         390.913         304.608  
  21352754.337    21352750.061   -13377663.338 8 -11002491.697 6        48.000  
        43.000       -1616.519       -1259.625  
  23490997.900    23490994.134     2970094.203 6   2333137.984 1        43.000  
        30.000        3328.760        2593.839  
  21541498.204    21541493.000   -16142252.670 9 -12566118.212 6        50.000  
        43.000        -946.826        -737.787  
  21076863.039    21076858.526   -16750541.751 9 -13047298.537 7        51.000  
        45.000        -927.422        -722.666  
  24780113.529    24780108.433     -102965.922 3   -144815.319 1        37.000  
        19.000         448.057         349.135  
 04  3  1  0 24  0.0000000  0  9G08G10G17G21G26G27G28G29G31
  20896103.560    20896099.804   -15279142.505 9 -11896676.997 7        52.000  
        45.000        2430.649        1894.013  
  21309839.321    21309835.806   -12289522.117 9  -9568356.135 7        53.000  
        45.000        2636.646        2054.529  
  24367704.688    24367702.231     2068372.194 6   1625463.088 1        43.000  
        22.000        3739.155        2913.627  
  24535856.899    24535852.762    -2181407.282 2  -1694869.868 1        34.000  
        21.000         409.863         319.374  
  21343551.892    21343547.258   -13426023.555 8 -11040174.963 6        48.000  
        43.000       -1607.104       -1252.289  
  23510007.091    23510004.267     3069995.867 6   2410983.414 1        43.000  
        29.000        3331.778        2596.190  
  21536140.141    21536135.050   -16170410.360 8 -12588059.255 6        49.000  
        43.000        -929.985        -724.664  
  21071594.271    21071589.584   -16778230.175 9 -13068873.932 7        50.000  
        45.000        -918.184        -715.468  
  24782724.479    24782719.670      -89243.155 3   -134122.246 1        37.000  
        20.000         467.085         363.962  
 04  3  1  0 24 30.0000000  0  9G08G10G17G21G26G27G28G29G31
  20610220.518    20610216.364   -15206048.175 9 -11839720.369 7        52.000  
        45.000        2442.041        1902.889  
  21025146.427    21025143.124   -12210172.763 9  -9506525.478 7        54.000  
        45.000        2653.145        2067.385  
  24089270.911    24089269.245     2180610.183 5   1712921.203 1        42.000  
        25.000        3743.169        2916.755  
  24238457.786    24238453.326    -2168832.019 2  -1685070.919 1        34.000  
        19.000         428.511         333.904  
  21034610.686    21034606.386   -13474099.138 8 -11077636.446 6        49.000  
        43.000       -1597.847       -1245.075  
  23229244.565    23229240.962     3169995.615 6   2488905.245 1        43.000  
        29.000        3334.658        2598.435  
  21231086.095    21231081.465   -16198057.904 9 -12609602.783 6        50.000  
        43.000        -913.262        -711.633  
  20766586.349    20766582.158   -16805636.657 9 -13090229.617 7        52.000  
        46.000        -908.823        -708.174  
  24485652.075    24485647.884      -74948.154 3   -122983.236 1        36.000  
        21.000         485.938         378.653  
 04  3  1  0 25  0.0000000  0  9G08G10G17G21G26G27G28G29G31
  20624195.538    20624191.690   -15132608.678 9 -11782494.787 7        53.000  
        45.000        2453.701        1911.975  
  21040340.909    21040337.925   -12130325.235 9  -9444306.649 7        54.000  
        45.000        2669.819        2080.379  
  24110652.135    24110650.234     2292972.912 5   1800476.576 1        41.000  
        21.000        3747.563        2920.179  
  24240959.348    24240954.716    -2155688.646 3  -1674829.390 1        36.000  
        20.000         447.612         348.789  
  21025516.828    21025513.200   -13521886.790 8 -11114873.569 6        49.000  
        43.000       -1588.242       -1237.591  
  23248292.014    23248287.867     3270084.610 6   2566896.661 1        44.000  
        30.000        3337.764        2600.855  
  21225922.541    21225917.878   -16225193.352 9 -12630747.272 6        52.000  
        43.000        -896.025        -698.202  
  20761425.509    20761420.801   -16832759.405 9 -13111364.231 7        52.000  
        46.000        -899.375        -700.812  
  24488480.146    24488477.578      -60082.574 3   -111399.673 1        36.000  
        19.000         504.941         393.461  
 04  3  1  0 25 30.0000000  0  9G08G10G17G21G26G27G28G29G31
  20638236.523    20638232.653   -15058823.080 9 -11724999.515 7        53.000  
        45.000        2465.181        1920.920  
  21055630.308    21055626.982   -12049978.758 9  -9381699.014 7        54.000  
        45.000        2686.445        2093.334  
  24132058.238    24132056.095     2405460.688 4   1888129.367 1        39.000  
        23.000        3751.519        2923.261  
  24243566.960    24243563.783    -2141976.965 3  -1664144.944 1        36.000  
        19.000         466.479         363.491  
  21016478.228    21016473.548   -13569386.521 8 -11151886.336 6        48.000  
        43.000       -1578.550       -1230.039  
  23267354.270    23267351.699     3370265.199 6   2644959.436 1        44.000  
        29.000        3340.864        2603.271  
  21220856.453    21220851.000   -16251816.211 8 -12651492.341 6        49.000  
        43.000        -879.004        -684.938  
  20756318.017    20756313.633   -16859598.021 9 -13132277.420 7        51.000  
        46.000        -889.912        -693.438  
  24491417.839    24491414.991      -44645.342 2    -99370.624 1        34.000  
        19.000         524.077         408.372  
 04  3  1  0 26  0.0000000  0  9G08G10G17G21G26G27G28G29G31
  20652342.091    20652338.114   -14984697.908 9 -11667239.642 7        52.000  
        45.000        2476.602        1929.819  
  21071013.544    21071010.157   -11969139.699 9  -9318707.559 7        53.000  
        45.000        2702.925        2106.175  
  24153485.395    24153484.673     2518065.365 4   1975873.244 1        38.000  
        22.000        3755.400        2926.286  
  24246284.161    24246279.550    -2127701.729 3  -1653021.419 1        35.000  
        19.000         485.034         377.949  
  21007493.042    21007488.610   -13616601.702 8 -11188677.365 6        49.000  
        43.000       -1568.994       -1222.593  
  23286434.188    23286430.990     3470531.850 5   2723089.296 1        41.000  
        27.000        3343.765        2605.531  
  21215887.111    21215881.982   -16277929.595 9 -12671840.411 6        50.000  
        43.000        -861.792        -671.526  
  20751264.086    20751259.592   -16886155.840 9 -13152971.818 7        51.000  
        46.000        -880.410        -686.034  
  24494464.136    24494459.851      -28640.518 3    -86899.261 1        36.000  
        18.000         543.105         423.199  
 04  3  1  0 26 30.0000000  0  9G08G10G17G21G26G27G28G29G31
  20666512.609    20666508.733   -14910230.539 9 -11609213.120 7        52.000  
        45.000        2487.847        1938.582  
  21086490.882    21086487.966   -11887805.802 9  -9255330.510 7        54.000  
        45.000        2719.287        2118.925  
  24174936.113    24174934.981     2630787.961 2   2063709.021 1        33.000  
        19.000        3759.624        2929.577  
  24249109.101    24249104.752    -2112859.428 2  -1641456.046 1        34.000  
        19.000         504.136         392.833  
  20998563.839    20998559.287   -13663526.747 9 -11225242.327 6        50.000  
        43.000       -1559.370       -1215.094  
  23305532.411    23305527.965     3570887.565 6   2801288.537 1        44.000  
        30.000        3346.519        2607.677  
  21211015.893    21211010.907   -16303528.070 9 -12691787.257 6        53.000  
        43.000        -844.790        -658.278  
  20746265.073    20746260.286   -16912427.514 9 -13173443.253 7        54.000  
        46.000        -871.021        -678.717  
  24497618.684    24497613.966      -12063.340 3    -73981.984 1        35.000  
        18.000         562.178         438.061  
 04  3  1  0 27  0.0000000  0  9G08G10G17G21G26G27G28G29G31
  20680747.574    20680743.361   -14835425.955 9 -11550923.829 7        52.000  
        45.000        2499.136        1947.379  
  21102061.556    21102058.123   -11805982.195 9  -9191571.871 7        54.000  
        45.000        2735.718        2131.728  
  24196408.755    24196406.204     2743621.523 4   2151631.282 1        39.000  
        25.000        3762.944        2932.164  
  24252039.780    24252035.150    -2097453.380 3  -1629451.258 1        36.000  
        17.000         523.076         407.592  
  20989688.988    20989684.523   -13710163.593 9 -11261582.720 6        50.000  
        44.000       -1549.575       -1207.461  
  23324645.063    23324641.727     3671328.078 7   2879553.857 1        45.000  
        31.000        3349.517        2610.013  
  21206242.459    21206237.493   -16328613.540 8 -12711334.361 6        49.000  
        44.000        -827.529        -644.828  
  20741319.719    20741315.261   -16938414.986 9 -13193693.219 7        52.000  
        46.000        -861.362        -671.191  
  24500882.994    24500877.264        5083.400 4    -60620.879 1        38.000  
        18.000         581.143         452.838  
 04  3  1  0 27 30.0000000  0  9G08G10G17G21G26G27G28G29G31
  20695047.079    20695042.777   -14760281.202 9 -11492369.477 7        53.000  
        45.000        2510.552        1956.274  
  21117725.402    21117722.106   -11723666.085 9  -9127429.461 6        54.000  
        44.000        2752.148        2144.531  
  24217900.752    24217899.312     2856567.379 2   2239640.936 1        33.000  
        20.000        3766.616        2935.026  
  24255080.427    24255074.985    -2081479.539 3  -1617004.137 1        35.000  
        17.000         541.953         422.301  
  20980870.354    20980865.575   -13756506.229 8 -11297693.841 6        49.000  
        43.000       -1539.761       -1199.813  
  23343774.475    23343771.936     3771857.013 6   2957888.059 1        43.000  
        28.000        3352.480        2612.323  
  21201567.385    21201562.451   -16353180.327 8 -12730477.297 6        48.000  
        43.000        -810.205        -631.329  
  20736429.640    20736424.974   -16964112.362 8 -13213717.142 7        49.000  
        46.000        -851.685        -663.650  
  24504253.926    24504249.513       22804.629 4    -46812.102 1        38.000  
        18.000         600.313         467.776  
 04  3  1  0 28  0.0000000  0  9G08G10G17G21G26G27G28G29G31
  20709410.655    20709406.642   -14684801.904 9 -11433554.436 7        53.000  
        45.000        2521.357        1964.694  
  21133482.305    21133479.456   -11640863.601 9  -9062908.062 6        54.000  
        44.000        2767.973        2156.862  
  24239413.510    24239412.166     2969618.396 4   2327732.689 1        39.000  
        22.000        3769.883        2937.571  
  24258227.733    24258221.937    -2064942.220 3  -1604117.895 1        36.000  
        16.000         560.547         436.790  
  20972107.012    20972102.538   -13802557.141 8 -11333577.659 6        49.000  
        43.000       -1530.357       -1192.486  
  23362920.805    23362917.643     3872469.301 6   3036287.227 1        44.000  
        28.000        3354.951        2614.248  
  21196990.780    21196985.720   -16377231.066 9 -12749218.118 6        52.000  
        43.000        -793.301        -618.156  
  20731594.160    20731589.585   -16989522.612 9 -13233517.326 7        54.000  
        46.000        -842.407        -656.421  
  24507734.699    24507730.664       41096.949 4    -32558.279 1        39.000  
        19.000         619.009         482.345  
 04  3  1  0 28 30.0000000  0  9G08G10G17G21G26G27G28G29G31
  20723837.829    20723833.882   -14608985.775 9 -11374476.944 6        52.000  
        44.000        2532.661        1973.502  
  21149331.965    21149328.813   -11557572.658 9  -8998006.052 6        53.000  
        44.000        2784.375        2169.643  
  24260947.036    24260945.538     3082774.908 3   2415906.535 1        36.000  
        22.000        3773.398        2940.311  
  24261481.043    24261477.358    -2047838.318 3  -1590790.203 1        35.000  
        16.000         579.219         451.339  
  20963400.314    20963395.566   -13848311.268 9 -11369230.215 6        50.000  
        43.000       -1520.308       -1184.655  
  23382084.106    23382079.123     3973167.872 6   3114753.654 1        44.000  
        28.000        3357.988        2616.614  
  21192513.192    21192508.141   -16400760.536 9 -12767552.756 6        53.000  
        44.000        -775.732        -604.467  
  20726814.190    20726809.634   -17014640.679 9 -13253089.852 7        54.000  
        46.000        -832.480        -648.686  
  24511325.258    24511321.311       59964.573 5    -17856.311 1        41.000  
        20.000         638.296         497.373  
 04  3  1  0 29  0.0000000  0  9G08G10G17G21G26G27G28G29G31
  20738328.370    20738324.409   -14532837.760 9 -11315140.826 7        53.000  
        45.000        2543.799        1982.181  
  21165274.087    21165270.710   -11473798.449 9  -8932727.458 6        54.000  
        44.000        2800.503        2182.210  
  24282498.113    24282496.407     3196030.395 4   2504157.605 1        38.000  
        22.000        3776.870        2943.016  
  24264844.179    24264838.501    -2030170.858 3  -1577023.379 1        37.000  
        18.000         598.306         466.212  
  20954750.076    20954745.607   -13893770.067 9 -11404652.651 6        50.000  
        43.000       -1510.347       -1176.894  
  23401261.268    23401257.859     4073948.527 6   3193284.057 1        44.000  
        29.000        3360.708        2618.733  
  21188134.337    21188129.769   -16423770.800 9 -12785482.809 6        53.000  
        44.000        -758.320        -590.899  
  20722089.811    20722085.404   -17039468.219 9 -13272435.971 7        54.000  
        46.000        -822.705        -641.069  
  24515024.902    24515020.467       79404.782 5     -2708.089 1        42.000  
        20.000         657.529         512.360  
 04  3  1  0 29 30.0000000  0  9G08G10G17G21G26G27G28G29G31
  20752881.117    20752877.392   -14456361.269 9 -11255548.755 7        52.000  
        45.000        2554.829        1990.776  
  21181306.957    21181303.962   -11389544.514 9  -8867075.051 6        54.000  
        44.000        2816.636        2194.781  
  24304068.120    24304066.662     3309379.735 3   2592481.781 1        37.000  
        21.000        3780.029        2945.477  
  24268313.441    24268307.241    -2011942.494 5  -1562819.541 1        40.000  
        19.000         617.139         480.887  
  20946155.356    20946150.543   -13938934.251 9 -11439845.509 6        50.000  
        43.000       -1500.434       -1169.170  
  23420453.878    23420451.472     4174808.576 5   3271876.209 1        42.000  
        29.000        3363.432        2620.856  
  21183854.359    21183849.753   -16446262.204 9 -12803008.558 6        52.000  
        43.000        -740.894        -577.320  
  20717420.426    20717415.907   -17064005.902 9 -13291556.252 7        54.000  
        46.000        -812.910        -633.437  
  24518832.420    24518828.427       99416.082 5     12885.171 1        41.000  
        22.000         676.685         527.287  
 04  3  1  0 30  0.0000000  0  9G08G10G17G21G26G27G28G29G31
  20767497.554    20767493.229   -14379552.353 9 -11195697.654 6        52.000  
        44.000        2566.118        1999.573  
  21197431.785    21197428.188   -11304807.356 9  -8801046.114 6        53.000  
        44.000        2832.915        2207.466  
  24325656.610    24325654.750     3422825.288 3   2680880.819 1        37.000  
        22.000        3783.311        2948.034  
  24271890.008    24271883.696    -1993147.885 5  -1548174.430 1        40.000  
        21.000         636.157         495.707  
  20937618.492    20937613.968   -13983796.588 9 -11474803.171 6        50.000  
        44.000       -1490.112       -1161.126  
  23439663.744    23439660.132     4275752.758 6   3350533.985 1        44.000  
        29.000        3366.440        2623.200  
  21179674.336    21179669.438   -16468227.936 9 -12820124.696 6        50.000  
        43.000        -723.096        -563.451  
  20712807.772    20712803.133   -17088246.795 9 -13310445.260 7        52.000  
        46.000        -802.759        -625.526  
  24522750.050    24522745.747      120004.612 5     28928.197 1        41.000  
        21.000         696.152         542.456  
 04  3  1  0 30 30.0000000  0  9G08G10G17G21G26G27G28G29G31
  20782176.227    20782172.263   -14302415.062 9 -11135590.673 7        53.000  
        45.000        2576.924        2007.993  
  21213647.900    21213644.889   -11219591.504 9  -8734644.165 6        55.000  
        44.000        2848.745        2219.801  
  24347261.263    24347260.530     3536361.139 5   2769350.359 1        41.000  
        22.000        3786.289        2950.355  
  24275573.851    24275567.911    -1973790.345 5  -1533090.620 1        40.000  
        21.000         654.854         510.275  
  20929138.681    20929134.237   -14028358.048 9 -11509526.378 6        50.000  
        43.000       -1480.044       -1153.281  
  23458888.058    23458883.833     4376777.468 6   3429254.571 1        43.000  
        28.000        3368.989        2625.187  
  21175594.223    21175589.516   -16489669.544 9 -12836832.422 6        52.000  
        44.000        -705.728        -549.918  
  20708251.059    20708246.210   -17112192.093 9 -13329103.916 7        53.000  
        46.000        -792.959        -617.890  
  24526777.777    24526773.355      141168.085 5     45419.195 1        42.000  
        21.000         715.244         557.333  
 04  3  1  0 31  0.0000000  0  9G08G10G17G21G26G27G28G29G31
  20796916.294    20796912.225   -14224956.246 9 -11075233.157 6        53.000  
        44.000        2587.432        2016.181  
  21229953.681    21229950.529   -11133904.018 9  -8667874.717 6        54.000  
        44.000        2864.248        2231.882  
  24368882.542    24368880.993     3649979.079 5   2857883.814 1        40.000  
        20.000        3788.662        2952.204  
  24279363.760    24279357.545    -1953875.164 5  -1517572.361 1        40.000  
        20.000         673.354         524.692  
  20920715.418    20920710.806   -14072622.568 9 -11544018.196 6        51.000  
        43.000       -1470.410       -1145.774  
  23478125.781    23478122.293     4477876.703 5   3508033.163 1        41.000  
        28.000        3371.343        2627.021  
  21171612.929    21171607.492   -16510590.703 9 -12853134.606 6        52.000  
        44.000        -688.613        -536.582  
  20703749.967    20703745.826   -17135845.617 9 -13347535.240 7        54.000  
        46.000        -783.482        -610.505  
  24530913.996    24530910.066      162901.736 5     62354.541 1        40.000  
        21.000         734.072         572.004  
 04  3  1  0 31 30.0000000  0  9G08G10G17G21G26G27G28G29G31
  20811719.613    20811715.623   -14147164.544 9 -11014616.242 6        51.000  
        44.000        2598.506        2024.810  
  21246351.408    21246348.397   -11047734.101 9  -8600729.339 6        54.000  
        44.000        2880.288        2244.380  
  24390520.883    24390519.152     3763688.416 5   2946488.479 1        41.000  
        24.000        3791.719        2954.586  
  24283262.127    24283255.611    -1933390.130 5  -1501609.940 1        42.000  
        20.000         692.192         539.371  
  20912351.305    20912346.892   -14116575.597 9 -11578267.297 6        51.000  
        44.000       -1460.005       -1137.666  
  23497381.875    23497378.475     4579062.540 5   3586879.220 1        41.000  
        29.000        3374.111        2629.178  
  21167733.506    21167728.908   -16530977.506 9 -12869020.408 6        52.000  
        44.000        -670.801        -522.702  
  20699307.001    20699302.194   -17159193.040 9 -13365728.036 7        54.000  
        46.000        -773.218        -602.507  
  24535160.150    24535156.813      185218.842 4     79744.502 1        38.000  
        22.000         753.491         587.136  
 04  3  1  0 32  0.0000000  0  9G08G10G17G21G26G27G28G29G31
  20826583.435    20826579.225   -14069053.242 9 -10953750.300 6        52.000  
        44.000        2608.887        2032.899  
  21262838.260    21262835.080   -10961094.844 9  -8533218.243 6        54.000  
        44.000        2895.684        2256.377  
  24412172.309    24412171.586     3877474.569 4   3035152.946 1        38.000  
        21.000        3793.979        2956.348  
  24287265.288    24287259.859    -1912347.687 5  -1485213.377 1        41.000  
        20.000         710.713         553.802  
  20904044.445    20904040.040   -14160227.253 9 -11612281.573 6        51.000  
        43.000       -1450.141       -1129.980  
  23516651.288    23516647.654     4680322.450 6   3665783.016 1        43.000  
        30.000        3376.455        2631.004  
  21163953.784    21163948.827   -16550840.016 9 -12884497.671 6        52.000  
        44.000        -653.457        -509.187  
  20694920.489    20694916.076   -17182244.633 9 -13383690.315 7        55.000  
        47.000        -763.506        -594.940  
  24539516.304    24539511.838      208108.133 5     97580.348 1        41.000  
        23.000         772.388         601.860  
 04  3  1  0 32 30.0000000  0  9G08G10G17G21G26G27G28G29G31
  20841508.320    20841504.099   -13990623.544 9 -10892636.246 6        52.000  
        44.000        2619.683        2041.311  
  21279414.257    21279410.963   -10873988.184 9  -8465342.934 6        53.000  
        44.000        2911.431        2268.647  
  24433840.427    24433838.584     3991334.546 5   3123875.065 1        40.000  
        20.000        3796.680        2958.452  
  24291377.020    24291371.023    -1890747.255 6  -1468381.826 1        43.000  
        22.000         729.390         568.356  
  20895795.729    20895790.932   -14203575.803 9 -11646059.645 6        51.000  
        43.000       -1439.824       -1121.941  
  23535933.091    23535930.049     4781655.824 5   3744744.085 1        40.000  
        25.000        3379.019        2633.001  
  21160274.155    21160269.325   -16570177.215 9 -12899565.594 6        53.000  
        44.000        -635.723        -495.368  
  20690590.544    20690585.805   -17204998.927 9 -13401420.925 7        54.000  
        46.000        -753.438        -587.094  
  24543981.380    24543975.968      231570.273 5    115862.584 1        42.000  
        24.000         791.738         616.939  
 04  3  1  0 33  0.0000000  0  9G08G10G17G21G26G27G28G29G31
  20856494.623    20856490.489   -13911869.008 9 -10831269.080 6        53.000  
        44.000        2630.352        2049.625  
  21296079.865    21296077.174   -10786408.148 9  -8397098.774 6        53.000  
        44.000        2926.938        2280.731  
  24455521.350    24455520.584     4105273.101 4   3212658.305 1        38.000  
        20.000        3798.853        2960.145  
  24295594.372    24295588.766    -1868581.761 6  -1451110.070 1        43.000  
        22.000         748.081         582.920  
  20887606.422    20887601.554   -14246611.724 9 -11679594.123 6        51.000  
        44.000       -1429.565       -1113.947  
  23555231.394    23555228.226     4883069.838 4   3823767.975 1        38.000  
        24.000        3381.592        2635.007  
  21156695.854    21156691.087   -16588979.553 9 -12914216.754 6        53.000  
        44.000        -618.047        -481.595  
  20686319.004    20686314.293   -17227446.406 9 -13418912.470 7        54.000  
        46.000        -743.413        -579.283  
  24548556.149    24548551.378      255613.250 5    134597.381 1        42.000  
        23.000         810.894         631.865  
 04  3  1  0 33 30.0000000  0  9G08G10G17G21G26G27G28G29G31
  20871541.973    20871538.118   -13832794.164 9 -10769652.323 6        52.000  
        44.000        2641.270        2058.132  
  21312835.340    21312831.815   -10698359.373 9  -8328489.352 6        53.000  
        44.000        2942.798        2293.089  
  24477218.476    24477215.980     4219284.123 4   3301498.066 1        39.000  
        21.000        3801.646        2962.321  
  24299920.216    24299913.217    -1845854.849 6  -1433400.917 1        43.000  
        22.000         767.036         597.690  
  20879476.080    20879471.651   -14289336.477 9 -11712886.131 7        51.000  
        45.000       -1418.867       -1105.611  
  23574545.802    23574542.292     4984560.776 5   3902851.771 1        41.000  
        29.000        3384.448        2637.232  
  21153219.549    21153214.617   -16607249.010 9 -12928452.677 6        52.000  
        44.000        -599.917        -467.468  
  20682104.971    20682100.603   -17249588.777 9 -13436166.264 7        54.000  
        46.000        -732.891        -571.084  
  24553240.992    24553236.860      280234.714 5    153782.989 1        40.000  
        22.000         830.425         647.084  
 04  3  1  0 34  0.0000000  0  9G08G10G17G21G26G27G28G29G31
  20886650.078    20886646.246   -13753402.128 9 -10707788.388 6        51.000  
        44.000        2651.665        2066.232  
  21329678.694    21329675.625   -10609845.759 9  -8259517.719 6        53.000  
        43.000        2958.164        2305.063  
  24498925.897    24498923.875     4333362.648 4   3390390.434 1        39.000  
        16.000        3803.687        2963.912  
  24304351.036    24304344.066    -1822568.753 6  -1415255.851 1        43.000  
        21.000         785.493         612.073  
  20871404.805    20871400.490   -14331750.088 9 -11745935.686 6        51.000  
        44.000       -1408.657       -1097.655  
  23593873.099    23593869.801     5086125.909 6   3981993.402 1        43.000  
        31.000        3386.753        2639.028  
  21149844.204    21149839.234   -16624986.142 9 -12942273.801 6        53.000  
        44.000        -582.363        -453.790  
  20677949.843    20677945.089   -17271426.278 9 -13453182.498 7        54.000  
        46.000        -722.817        -563.234  
  24558035.733    24558032.192      305433.075 5    173418.081 1        40.000  
        22.000         849.458         661.915  
 04  3  1  0 34 30.0000000  0  9G08G10G17G21G26G27G28G29G31
  20901817.791    20901813.794   -13673694.324 9 -10645678.418 6        51.000  
        44.000        2662.148        2074.401  
  21346610.719    21346607.005   -10520869.042 9  -8190185.231 6        53.000  
        44.000        2973.628        2317.113  
  24520646.751    24520644.668     4447505.738 4   3479333.131 1        39.000  
        21.000        3805.786        2965.548  
  24308888.711    24308882.371    -1798723.848 6  -1396675.448 1        43.000  
        22.000         804.219         626.664  
  20863393.429    20863389.070   -14373850.948 9 -11778741.536 6        51.000  
        44.000       -1398.120       -1089.444  
  23613213.273    23613210.187     5187764.760 5   4061192.469 1        41.000  
        28.000        3389.101        2640.858  
  21146570.586    21146566.121   -16642189.310 9 -12955678.849 6        52.000  
        44.000        -564.487        -439.860  
  20673852.551    20673847.939   -17292957.254 9 -13469959.879 7        54.000  
        46.000        -712.524        -555.214  
  24562941.106    24562936.721      331208.791 5    193503.082 1        42.000  
        21.000         868.794         676.982  
 04  3  1  0 35  0.0000000  0  9G08G10G17G21G26G27G28G29G31
  20917044.506    20917040.447   -13593677.991 9 -10583328.032 6        52.000  
        44.000        2672.378        2082.372  
  21363628.628    21363625.612   -10431437.057 9  -8120497.973 6        53.000  
        44.000        2988.682        2328.843  
  24542377.119    24542375.890     4561704.690 3   3568319.267 1        36.000  
        19.000        3807.529        2966.906  
  24313532.292    24313526.345    -1774326.171 6  -1377664.236 1        44.000  
        23.000         822.524         640.928  
  20855440.589    20855436.126   -14415643.150 9 -11811306.882 6        51.000  
        44.000       -1387.871       -1081.458  
  23632567.703    23632563.359     5289471.193 5   4140444.234 1        42.000  
        25.000        3391.328        2642.593  
  21143397.427    21143392.410   -16658863.198 9 -12968671.477 6        52.000  
        44.000        -546.943        -426.190  
  20669812.978    20669807.959   -17314186.166 9 -13486501.890 7        54.000  
        46.000        -702.471        -547.380  
  24567955.947    24567950.142      357556.512 5    214033.731 1        42.000  
        21.000         887.847         691.829  
 04  3  1  0 35 30.0000000  0  9G08G10G17G21G26G27G28G29G31
  20932330.138    20932326.123   -13513350.527 9 -10520735.197 6        51.000  
        44.000        2682.661        2090.385  
  21380734.518    21380731.456   -10341547.384 9  -8050454.097 6        53.000  
        43.000        3003.833        2340.649  
  24564120.049    24564118.381     4675960.415 5   3657349.703 1        40.000  
        17.000        3809.272        2968.264  
  24318280.331    24318273.835    -1749372.444 6  -1358219.877 1        43.000  
        23.000         841.001         655.325  
  20847547.691    20847543.514   -14457120.967 9 -11843627.242 6        51.000  
        44.000       -1377.427       -1073.320  
  23651935.645    23651931.704     5391248.020 5   4219750.838 1        42.000  
        28.000        3393.657        2644.408  
  21140326.208    21140321.688   -16675002.690 9 -12981247.681 6        53.000  
        44.000        -529.214        -412.374  
  20665831.865    20665827.118   -17335107.248 9 -13502804.026 7        54.000  
        47.000        -692.344        -539.489  
  24573079.211    24573073.644      384480.419 6    235013.399 1        43.000  
        22.000         907.056         706.797  
 04  3  1  0 36  0.0000000  0  9G08G10G17G21G26G27G28G29G31
  20947674.979    20947671.031   -13432714.044 9 -10457901.584 6        51.000  
        44.000        2692.847        2098.322  
  21397926.254    21397922.900   -10251202.762 9  -7980055.704 6        53.000  
        43.000        3018.838        2352.341  
  24585872.422    24585870.500     4790268.966 4   3746421.416 1        39.000  
        19.000        3811.064        2969.661  
  24323134.591    24323128.448    -1723863.865 6  -1338343.093 1        43.000  
        23.000         859.224         669.525  
  20839714.598    20839710.132   -14498283.690 9 -11875702.090 6        51.000  
        44.000       -1367.051       -1065.234  
  23671315.718    23671312.686     5493094.132 5   4299111.418 1        42.000  
        28.000        3395.908        2646.162  
  21137356.910    21137351.996   -16690607.258 9 -12993407.072 6        53.000  
        44.000        -511.382        -398.479  
  20661909.235    20661904.560   -17355719.828 9 -13518865.770 7        54.000  
        47.000        -682.109        -531.514  
  24578311.754    24578307.970      411980.176 5    256441.769 1        42.000  
        23.000         926.074         721.616  
 04  3  1  0 36 30.0000000  0  9G08G10G17G21G26G27G28G29G31
  20963078.315    20963074.355   -13351767.993 9 -10394826.735 6        50.000  
        44.000        2703.393        2106.540  
  21415204.694    21415201.502   -10160403.443 9  -7909303.005 6        52.000  
        44.000        3034.268        2364.364  
  24607633.901    24607632.177     4904629.458 4   3835533.383 1        38.000  
        17.000        3812.900        2971.091  
  24328094.297    24328087.924    -1697799.366 5  -1318033.071 1        42.000  
        24.000         878.184         684.299  
  20831942.396    20831937.943   -14539127.455 9 -11907528.398 6        51.000  
        44.000       -1356.045       -1056.658  
  23690709.870    23690706.968     5595010.782 5   4378526.934 1        41.000  
        27.000        3398.476        2648.163  
  21134489.903    21134485.130   -16705673.717 9 -13005147.159 6        52.000  
        44.000        -493.154        -384.276  
  20658046.513    20658042.037   -17376020.576 9 -13534684.538 7        54.000  
        47.000        -671.357        -523.136  
  24583655.309    24583651.034      440057.916 5    278320.567 1        41.000  
        23.000         945.688         736.900  
 04  3  1  0 37  0.0000000  0  9G08G10G17G21G26G27G28G29G31
  20978540.598    20978536.277   -13270515.360 9 -10331513.006 6        51.000  
        44.000        2713.599        2114.493  
  21432569.476    21432565.687   -10069152.650 9  -7838198.510 6        53.000  
        43.000        3049.312        2376.087  
  24629405.698    24629403.628     5019037.299 5   3924682.343 1        41.000  
        20.000        3814.375        2972.240  
  24333158.950    24333153.694    -1671180.994 5  -1297291.510 1        42.000  
        23.000         896.567         698.624  
  20824230.807    20824226.238   -14579651.977 9 -11939105.939 7        52.000  
        45.000       -1345.430       -1048.387  
  23710117.855    23710114.158     5696995.758 5   4457995.705 1        42.000  
        26.000        3400.723        2649.914  
  21131724.926    21131720.037   -16720202.394 9 -13016468.190 6        52.000  
        44.000        -475.210        -370.293  
  20654242.276    20654238.180   -17396009.221 9 -13550260.107 7        54.000  
        47.000        -660.981        -515.050  
  24589108.059    24589103.459      468712.514 5    300648.831 1        40.000  
        22.000         964.897         751.868  
 04  3  1  0 37 30.0000000  0  9G08G10G17G21G26G27G28G29G31
  20994060.505    20994056.331   -13188955.853 9 -10267960.137 6        51.000  
        44.000        2723.696        2122.361  
  21450019.668    21450016.094    -9977450.804 9  -7766742.527 6        53.000  
        43.000        3064.209        2387.696  
  24651185.264    24651183.432     5133491.154 3   4013867.233 1        37.000  
        19.000        3815.771        2973.328  
  24338329.979    24338324.396    -1644007.303 5  -1276117.204 1        42.000  
        23.000         915.054         713.029  
  20816580.360    20816575.752   -14619854.288 9 -11970432.408 7        52.000  
        45.000       -1334.731       -1040.051  
  23729538.214    23729534.058     5799049.910 5   4537518.427 1        40.000  
        28.000        3402.915        2651.622  
  21129063.018    21129058.047   -16734190.662 9 -13027368.114 6        53.000  
        44.000        -457.222        -356.277  
  20650498.757    20650494.604   -17415682.905 9 -13565590.235 7        53.000  
        47.000        -650.552        -506.923  
  24594670.322    24594665.864      497945.544 4    323427.810 1        39.000  
        21.000         983.965         766.726  
 04  3  1  0 38  0.0000000  0  8G08G10G21G26G27G28G29G31
  21009639.156    21009634.884   -13107089.646 9 -10204168.289 6        50.000  
        44.000        2733.901        2130.313  
  21467555.490    21467552.301    -9885298.482 9  -7694935.543 6        53.000  
        43.000        3079.131        2399.323  
  24343607.504    24343601.739    -1616277.828 6  -1254509.829 1        43.000  
        26.000         933.457         727.369  
  20808992.334    20808987.785   -14659731.282 9 -12001505.377 7        51.000  
        45.000       -1323.896       -1031.608  
  23748970.785    23748967.613     5901174.152 3   4617095.750 1        37.000  
        26.000        3405.024        2653.266  
  21126504.535    21126499.751   -16747636.155 9 -13037845.114 6        53.000  
        44.000        -439.209        -342.241  
  20646815.536    20646810.709   -17435038.621 9 -13580672.623 7        53.000  
        47.000        -639.990        -498.694  
  24600343.213    24600339.316      527758.761 4    346658.988 1        39.000  
        22.000        1003.413         781.880  
 04  3  1  0 38 30.0000000  0  8G08G10G21G26G27G28G29G31
  21025275.412    21025271.037   -13024919.941 9 -10140139.953 6        51.000  
        44.000        2744.102        2138.261  
  21485176.682    21485173.297    -9792699.490 9  -7622780.503 6        52.000  
        44.000        3094.136        2411.015  
  24348988.143    24348983.545    -1587995.411 5  -1232471.562 1        42.000  
        24.000         952.075         741.877  
  20801465.729    20801461.062   -14699283.293 9 -12032325.129 7        52.000  
        45.000       -1312.905       -1023.043  
  23768417.387    23768414.608     6003365.688 4   4696725.501 1        38.000  
        26.000        3407.554        2655.237  
  21124048.897    21124044.015   -16760539.449 9 -13047899.605 6        53.000  
        44.000        -420.977        -328.034  
  20643192.534    20643188.101   -17454076.968 9 -13595507.687 7        55.000  
        47.000        -629.287        -490.354  
  24606126.238    24606122.293      558150.037 5    370340.542 1        41.000  
        22.000        1022.695         796.905  
 04  3  1  0 39  0.0000000  0  8G08G10G21G26G27G28G29G31
  21040969.041    21040965.276   -12942449.253 9 -10075877.084 6        51.000  
        44.000        2753.965        2145.947  
  21502882.025    21502878.840    -9699656.859 9  -7550279.760 6        53.000  
        43.000        3108.730        2422.387  
  24354476.583    24354470.244    -1559161.665 6  -1210003.785 1        43.000  
        23.000         970.225         756.019  
  20794000.875    20793996.511   -14738509.645 9 -12062891.115 7        53.000  
        45.000       -1302.227       -1014.722  
  23787876.722    23787873.679     6105623.066 5   4776406.480 1        40.000  
        25.000        3409.541        2656.785  
  21121696.947    21121692.050   -16772900.385 9 -13057531.480 6        53.000  
        44.000        -403.047        -314.063  
  20639630.237    20639625.554   -17472797.375 9 -13610095.014 7        54.000  
        47.000        -618.794        -482.177  
  24612019.438    24612014.914      589118.809 5    394472.029 1        40.000  
        22.000        1041.904         811.873  
 04  3  1  0 39 30.0000000  0  9G08G09G10G21G26G27G28G29G31
  21056719.574    21056715.785   -12859679.931 9 -10011381.506 6        51.000  
        44.000        2763.984        2153.754  
  24959274.094           0.000      -27625.907 5         0.000          40.000  
         0.000       -3019.995           0.000  
  21520671.413    21520667.755    -9606173.668 9  -7477435.722 6        53.000  
        43.000        3123.442        2433.851  
  24360066.644    24360062.059    -1529778.401 6  -1187107.731 1        43.000  
        24.000         988.535         770.287  
  20786598.529    20786593.785   -14777409.737 9 -12093202.859 7        52.000  
        45.000       -1291.265       -1006.180  
  23807348.016    23807344.293     6207944.408 4   4856137.412 1        39.000  
        25.000        3411.763        2658.517  
  21119447.990    21119442.759   -16784719.247 9 -13066740.971 6        52.000  
        44.000        -384.927        -299.943  
  20636128.491    20636123.613   -17491199.283 9 -13624434.162 7        54.000  
        47.000        -608.101        -473.845  
  24618023.468    24618018.496      620664.076 5    419052.791 1        40.000  
        22.000        1061.099         826.830  
 04  3  1  0 40  0.0000000  0  9G08G09G10G21G26G27G28G29G31
  21072526.449    21072522.304   -12776614.581 9  -9946655.270 6        50.000  
        44.000        2773.970        2161.535  
  24942041.919    24942039.567     -118184.380 4    -78784.174 1        38.000  
        19.000       -3017.139       -2351.017  
  21538543.842    21538540.606    -9512253.160 9  -7404250.927 6        53.000  
        43.000        3138.125        2445.292  
  24365762.826    24365758.053    -1499847.229 6  -1163784.777 1        43.000  
        23.000        1006.987         784.665  
  20779258.531    20779253.697   -14815983.026 9 -12123259.973 7        52.000  
        45.000       -1280.088        -997.471  
  23826829.052    23826827.290     6310327.989 3   4935916.778 1        37.000  
        23.000        3414.150        2660.377  
  21117302.132    21117296.977   -16795996.141 9 -13075528.145 6        53.000  
        44.000        -366.660        -285.709  
  20632687.302    20632682.552   -17509282.562 9 -13638525.021 7        54.000  
        47.000        -597.271        -465.406  
  24624133.454    24624130.359      652784.628 3    444081.833 1        37.000  
        21.000        1080.576         842.007  
 04  3  1  0 40 30.0000000  0  9G08G09G10G21G26G27G28G29G31
  21088389.119    21088385.028   -12693255.356 8  -9881700.028 6        49.000  
        44.000        2783.433        2168.908  
  24924822.933    24924820.580     -208666.228 3   -149289.461 1        37.000  
        16.000       -3014.780       -2349.179  
  21556498.963    21556495.924    -9417898.101 9  -7330727.529 6        53.000  
        43.000        3152.275        2456.318  
  24371562.126    24371557.049    -1469369.479 5  -1140035.904 1        42.000  
        22.000        1024.966         798.675  
  20771980.829    20771976.341   -14854228.561 9 -12153061.675 7        51.000  
        45.000       -1269.434        -989.169  
  23846325.047    23846322.328     6412772.576 4   5015743.683 1        39.000  
        25.000        3415.728        2661.606  
  21115259.258    21115254.576   -16806730.497 9 -13083892.563 6        52.000  
        44.000        -348.823        -271.810  
  20629306.837    20629302.269   -17527046.198 9 -13652366.814 7        54.000  
        47.000        -586.919        -457.339  
  24630357.160    24630352.003      685479.931 4    469558.680 1        39.000  
        18.000        1099.209         856.526  
 04  3  1  0 41  0.0000000  0  9G08G09G10G21G26G27G28G29G31
  21104307.908    21104304.123   -12609602.863 8  -9816516.280 6        49.000  
        44.000        2793.384        2176.663  
  24907620.363    24907617.647     -299069.180 5   -219733.322 1        41.000  
        24.000       -3012.041       -2347.045  
  21574536.766    21574533.932    -9323109.577 9  -7256866.354 6        53.000  
        43.000        3166.924        2467.733  
  24377466.767    24377460.459    -1438345.592 6  -1115861.452 1        43.000  
        22.000        1043.350         813.000  
  20764765.393    20764760.947   -14892143.772 9 -12182605.993 7        52.000  
        45.000       -1258.223        -980.433  
  23865831.467    23865828.770     6515278.252 3   5095618.229 1        37.000  
        26.000        3417.939        2663.329  
  21113320.090    21113314.942   -16816920.738 9 -13091832.999 6        52.000  
        44.000        -330.459        -257.501  
  20625987.753    20625983.145   -17544487.855 9 -13665957.714 7        54.000  
        47.000        -575.908        -448.760  
  24636688.415    24636683.789      718750.927 4    495484.129 1        39.000  
        18.000        1118.921         871.886  
 04  3  1  0 41 30.0000000  0  9G08G09G10G21G26G27G28G29G31
  21120282.074    21120278.370   -12525656.482 8  -9751103.520 6        48.000  
        43.000        2802.993        2184.151  
  24890433.295    24890430.550     -389390.160 3   -290113.215 1        37.000  
        21.000       -3009.316       -2344.922  
  21592656.891    21592653.224    -9227887.827 9  -7182667.596 6        53.000  
        43.000        3181.240        2478.888  
  24383474.031    24383468.850    -1406774.648 6  -1091260.734 1        43.000  
        23.000        1061.367         827.039  
  20757614.311    20757609.523   -14929725.297 9 -12211890.295 7        50.000  
        45.000       -1247.188        -971.834  
  23885348.812    23885346.318     6617846.149 4   5175541.242 1        38.000  
        24.000        3419.966        2664.908  
  21111485.049    21111480.403   -16826564.032 9 -13099347.229 6        51.000  
        44.000        -312.397        -243.427  
  20622730.861    20622726.672   -17561604.374 9 -13679295.259 7        55.000  
        47.000        -565.166        -440.389  
  24643128.832    24643124.754      752599.265 4    521859.492 1        39.000  
        18.000        1137.847         886.634  
 04  3  1  0 42  0.0000000  0  9G08G09G10G21G26G27G28G29G31
  21136311.961    21136308.068   -12441420.052 9  -9685464.740 6        50.000  
        43.000        2812.632        2191.661  
  24873260.575    24873257.318     -479630.187 5   -360429.985 1        40.000  
        18.000       -3006.719       -2342.898  
  21610858.606    21610855.256    -9132237.195 9  -7108134.656 5        52.000  
        42.000        3195.347        2489.881  
  24389586.100    24389580.645    -1374659.408 6  -1066235.888 1        43.000  
        23.000        1079.541         841.201  
  20750525.656    20750521.344   -14966973.556 9 -12240914.900 7        52.000  
        45.000       -1236.118        -963.209  
  23904878.531    23904875.427     6720473.634 3   5255510.678 1        36.000  
        22.000        3421.821        2666.354  
  21109753.825    21109748.798   -16835661.247 9 -13106435.956 7        53.000  
        45.000        -294.204        -229.250  
  20619535.312    20619530.734   -17578396.409 9 -13692379.951 7        54.000  
        47.000        -554.399        -432.000  
  24649679.718    24649674.802      787022.729 3    548682.961 1        36.000  
        17.000        1156.948         901.518  
 04  3  1  0 42 30.0000000  0  9G08G09G10G21G26G27G28G29G31
  21152396.602    21152392.896   -12356894.183 8  -9619600.431 6        48.000  
        43.000        2822.290        2199.187  
  24856104.743    24856101.077     -569787.088 5   -430682.322 1        42.000  
        19.000       -3003.853       -2340.664  
  21629141.765    21629138.806    -9036158.929 9  -7033268.483 6        52.000  
        43.000        3209.609        2500.994  
  24395799.184    24395794.979    -1342000.089 5  -1040787.107 1        42.000  
        22.000        1097.583         855.259  
  20743501.640    20743496.911   -15003886.290 9 -12269678.064 7        50.000  
        45.000       -1224.951        -954.507  
  23924418.826    23924415.880     6823160.771 4   5335526.621 1        38.000  
        23.000        3423.848        2667.933  
  21108126.926    21108122.422   -16844211.042 9 -13113098.115 6        50.000  
        44.000        -275.908        -214.993  
  20616402.168    20616397.313   -17594861.701 9 -13705210.045 7        54.000  
        47.000        -543.433        -423.454  
  24656339.560    24656335.232      822022.133 3    575955.266 1        36.000  
        17.000        1176.055         916.406  
 04  3  1  0 43  0.0000000  0  9G08G09G10G21G26G27G28G29G31
  21168536.611    21168532.945   -12272078.387 8  -9553510.203 6        48.000  
        43.000        2831.782        2206.583  
  24838964.420    24838961.352     -659858.251 2   -500867.582 1        34.000  
        16.000       -3001.299       -2338.674  
  21647505.964    21647502.949    -8939653.564 9  -6958069.512 6        52.000  
        43.000        3223.735        2512.001  
  24402118.964    24402113.004    -1308795.778 6  -1014913.578 1        43.000  
        23.000        1115.610         869.307  
  20736541.850    20736537.316   -15040460.024 9 -12298177.078 7        51.000  
        45.000       -1213.774        -945.798  
  23943972.067    23943968.958     6925908.665 4   5415589.878 1        39.000  
        23.000        3425.708        2669.383  
  21106604.469    21106599.481   -16852210.752 9 -13119331.644 7        51.000  
        45.000        -257.725        -200.824  
  20613331.470    20613326.985   -17610996.888 9 -13717782.920 7        54.000  
        47.000        -532.612        -415.023  
  24663109.888    24663106.076      857598.953 4    603677.457 1        39.000  
        17.000        1195.273         931.382  
 04  3  1  0 43 30.0000000  0  9G08G09G10G21G26G27G28G29G31
  21184730.670    21184726.946   -12186978.383 8  -9487198.514 6        49.000  
        43.000        2841.436        2214.106  
  24821839.971    24821837.256     -749846.145 5   -570987.885 1        40.000  
        19.000       -2998.174       -2336.239  
  21665950.757    21665947.396    -8842727.148 9  -6882542.445 6        52.000  
        43.000        3237.920        2523.055  
  24408540.495    24408534.512    -1275051.258 6   -988619.171 1        43.000  
        22.000        1133.887         883.548  
  20729646.339    20729641.221   -15076697.126 9 -12326413.778 7        51.000  
        45.000       -1202.217        -936.792  
  23963535.020    23963532.022     7028712.661 4   5495696.857 1        38.000  
        22.000        3427.813        2671.023  
  21105186.517    21105181.520   -16859663.584 9 -13125139.030 7        51.000  
        45.000        -239.268        -186.442  
  20610323.576    20610318.901   -17626804.681 9 -13730100.676 7        55.000  
        47.000        -521.382        -406.272  
  24669989.259    24669983.984      893749.184 3    631846.484 1        36.000  
        17.000        1214.619         946.456  
 04  3  1  0 44  0.0000000  0  9G08G09G10G21G26G27G28G29G31
  21200979.107    21200975.039   -12101591.647 9  -9420663.403 6        50.000  
        44.000        2851.123        2221.654  
  24804733.147    24804729.738     -839745.763 4   -641039.675 1        39.000  
        19.000       -2995.093       -2333.839  
  21684475.399    21684472.264    -8745378.123 9  -6806686.086 6        51.000  
        43.000        3252.119        2534.119  
  24415064.551    24415059.829    -1240763.874 6   -961901.783 1        43.000  
        24.000        1152.139         897.770  
  20722815.515    20722810.995   -15112592.446 8 -12354384.148 7        49.000  
        46.000       -1190.625        -927.760  
  23983109.977    23983105.684     7131575.941 3   5575850.048 1        37.000  
        23.000        3429.961        2672.697  
  21103873.412    21103868.173   -16866565.187 8 -13130516.886 7        49.000  
        45.000        -220.684        -171.961  
  20607379.024    20607374.263   -17642279.821 9 -13742159.222 7        54.000  
        47.000        -510.117        -397.494  
  24676979.154    24676972.749      930476.222 5    660464.969 1        40.000  
        20.000        1233.970         961.535  
 04  3  1  0 44 30.0000000  0  9G08G09G10G21G26G27G28G29G31
  21217281.541    21217277.644   -12015921.464 8  -9353907.418 6        48.000  
        43.000        2860.562        2229.009  
  24787642.653    24787639.287     -929557.881 5   -711022.960 1        40.000  
        19.000       -2992.041       -2331.460  
  21703079.952    21703077.142    -8647610.503 9  -6730503.538 6        53.000  
        43.000        3266.099        2545.012  
  24421692.719    24421687.107    -1205936.703 6   -934763.702 1        44.000  
        25.000        1170.073         911.745  
  20716049.880    20716045.477   -15148146.058 9 -12382088.261 7        52.000  
        45.000       -1179.209        -918.864  
  24002694.577    24002690.805     7234495.905 4   5656047.371 1        39.000  
        22.000        3431.978        2674.268  
  21102664.572    21102659.398   -16872916.258 9 -13135465.749 7        52.000  
        45.000        -202.305        -157.640  
  20604497.270    20604492.683   -17657422.822 9 -13753958.960 7        54.000  
        47.000        -498.950        -388.792  
  24684075.946    24684071.714      967778.209 4    689531.459 1        38.000  
        21.000        1253.257         976.564  
 04  3  1  0 45  0.0000000  0  9G08G09G10G21G26G27G28G29G31
  21233637.871    21233634.343   -11929968.060 8  -9286930.732 6        48.000  
        43.000        2869.731        2236.154  
  24770569.296    24770565.856    -1019279.642 6   -780936.024 1        43.000  
        22.000       -2989.224       -2329.265  
  21721764.061    21721760.885    -8549425.125 9  -6653995.464 5        52.000  
        42.000        3279.702        2555.612  
  24428422.406    24428417.437    -1170568.895 6   -907204.391 1        43.000  
        22.000        1187.886         925.625  
  20709350.026    20709345.067   -15183355.136 9 -12409523.889 7        51.000  
        46.000       -1167.930        -910.075  
  24022290.629    24022286.892     7337473.242 5   5736289.464 1        41.000  
        23.000        3433.472        2675.432  
  21101561.161    21101555.733   -16878714.638 9 -13139983.952 7        51.000  
        45.000        -184.170        -143.509  
  20601679.207    20601674.557   -17672230.588 9 -13765497.476 7        54.000  
        47.000        -488.149        -380.376  
  24691284.443    24691279.272     1005656.190 4    719046.775 1        38.000  
        20.000        1272.153         991.288  
 04  3  1  0 45 30.0000000  0  9G08G09G10G21G26G27G28G29G31
  21250047.502    21250043.170   -11843736.223 8  -9219737.105 6        48.000  
        43.000        2878.989        2243.368  
  24753510.916    24753508.009    -1108913.775 4   -850780.803 1        39.000  
        18.000       -2986.304       -2326.990  
  21740526.627    21740523.507    -8450827.760 9  -6577166.364 5        52.000  
        42.000        3293.423        2566.303  
  24435253.976    24435249.286    -1134665.703 5   -879227.916 1        40.000  
        22.000        1205.688         939.497  
  20702715.368    20702710.572   -15218221.599 9 -12436692.556 7        51.000  
        46.000       -1156.597        -901.244  
  24041895.438    24041893.118     7440503.797 5   5816572.947 1        40.000  
        22.000        3435.117        2676.715  
  21100562.105    21100557.098   -16883963.381 9 -13144073.872 7        50.000  
        45.000        -165.845        -129.230  
  20598924.547    20598920.202   -17686705.645 9 -13776776.744 7        54.000  
        47.000        -476.919        -371.625  
  24698601.601    24698596.430     1044106.275 4    749007.952 1        38.000  
        21.000        1291.133        1006.078  
 04  3  1  0 46  0.0000000  0 10G08G09G10G18G21G26G27G28G29G31
  21266509.425    21266505.721   -11757227.522 8  -9152327.736 6        48.000  
        43.000        2888.110        2250.476  
  24736471.808    24736467.907    -1198459.053 4   -920556.294 1        39.000  
        19.000       -2983.438       -2324.757  
  21759367.089    21759363.671    -8351820.618 9  -6500017.961 5        52.000  
        42.000        3306.929        2576.828  
  25312217.539           0.000      -20620.813 4         0.000          39.000  
         0.000       -2887.856           0.000  
  24442189.102    24442183.616    -1098227.939 6   -850834.850 1        43.000  
        25.000        1223.311         953.229  
  20696145.763    20696141.151   -15252743.658 9 -12463592.861 7        53.000  
        45.000       -1145.132        -892.311  
  24061512.382    24061509.256     7543587.192 5   5896897.649 1        41.000  
        23.000        3436.865        2678.077  
  21099667.898    21099663.098   -16888661.557 9 -13147734.771 7        51.000  
        45.000        -147.554        -114.977  
  20596233.851    20596229.093   -17700846.380 9 -13787795.490 7        54.000  
        47.000        -465.898        -363.038  
  24706027.277    24706022.553     1083128.230 3    779414.707 1        36.000  
        21.000        1310.137        1020.886  
 04  3  1  0 46 30.0000000  0 10G08G09G10G18G21G26G27G28G29G31
  21283024.366    21283020.653   -11670440.159 8  -9084701.222 6        48.000  
        43.000        2897.485        2257.781  
  24719448.943    24719447.385    -1287910.527 5   -990258.696 1        40.000  
        23.000       -2980.224       -2322.253  
  21778285.627    21778282.505    -8252402.524 9  -6422549.326 5        51.000  
        42.000        3320.698        2587.557  
  25295748.519    25295743.398     -107160.356 3    -75253.043 1        37.000  
        16.000       -2881.675       -2245.461  
  24449224.211    24449219.425    -1061253.009 5   -822023.161 1        41.000  
        22.000        1241.509         967.409  
  20689642.843    20689638.233   -15286916.502 9 -12490221.042 7        54.000  
        46.000       -1133.232        -883.038  
  24081139.313    24081135.173     7646725.760 5   5977265.341 1        41.000  
        25.000        3438.794        2679.580  
  21098879.568    21098874.465   -16892805.310 9 -13150963.641 7        51.000  
        45.000        -128.862        -100.412  
  20593607.341    20593602.599   -17714647.945 9 -13798549.949 7        54.000  
        47.000        -454.390        -354.070  
  24713561.560    24713556.439     1122725.147 3    810269.480 1        37.000  
        19.000        1329.438        1035.926  
 04  3  1  0 47  0.0000000  0 10G08G09G10G18G21G26G27G28G29G31
  21299592.161    21299588.575   -11583376.149 8  -9016859.142 5        48.000  
        42.000        2906.611        2264.892  
  24702446.089    24702442.925    -1377267.814 5  -1059887.646 1        41.000  
        24.000       -2977.183       -2319.883  
  21797281.661    21797278.716    -8152576.430 9  -6344762.769 5        51.000  
        42.000        3334.126        2598.020  
  25279315.591    25279310.308     -193521.780 5   -142547.546 1        41.000  
        22.000       -2875.948       -2240.998  
  24456361.101    24456357.303    -1023743.392 5   -792794.904 1        41.000  
        21.000        1259.087         981.107  
  20683206.259    20683201.614   -15320739.205 9 -12516576.387 7        51.000  
        46.000       -1121.782        -874.116  
  24100776.053    24100772.157     7749918.345 6   6057675.169 1        43.000  
        25.000        3440.415        2680.843  
  21098196.831    21098191.518   -16896394.527 9 -13153760.412 7        50.000  
        45.000        -110.591         -86.175  
  20591045.790    20591041.529   -17728109.548 9 -13809039.499 7        53.000  
        47.000        -443.184        -345.338  
  24721206.534    24721200.989     1162895.980 3    841571.443 1        37.000  
        19.000        1348.540        1050.810  
 04  3  1  0 47 30.0000000  0 10G08G09G10G18G21G26G27G28G29G31
  21316210.665    21316206.641   -11496045.164 8  -8948809.034 5        48.000  
        42.000        2915.400        2271.740  
  24685458.793    24685454.526    -1466538.140 4  -1129449.010 1        39.000  
        21.000       -2974.233       -2317.584  
  21816353.971    21816350.503    -8052352.827 9  -6266666.489 5        52.000  
        42.000        3347.334        2608.313  
  25262914.144    25262909.532     -279710.720 5   -209707.750 1        40.000  
        18.000       -2870.049       -2236.402  
  24463600.188    24463594.977     -985708.355 5   -763157.230 1        42.000  
        23.000        1276.675         994.812  
  20676835.405    20676830.791   -15354218.490 9 -12542664.132 7        52.000  
        46.000       -1110.293        -865.163  
  24120420.881    24120418.369     7853156.003 5   6138120.024 1        40.000  
        23.000        3442.060        2682.125  
  21097617.571    21097612.484   -16899436.715 9 -13156130.945 7        51.000  
        45.000         -92.275         -71.903  
  20588547.632    20588542.999   -17741238.226 9 -13819269.638 8        55.000  
        48.000        -432.075        -336.682  
  24728957.858    24728953.918     1203632.314 4    873314.095 1        39.000  
        22.000        1367.324        1065.447  
 04  3  1  0 48  0.0000000  0 10G08G09G10G18G21G26G27G28G29G31
  21332880.656    21332876.699   -11408443.942 8  -8880548.343 5        48.000  
        42.000        2924.434        2278.780  
  24668488.241    24668484.124    -1555715.483 5  -1198937.794 1        41.000  
        21.000       -2971.138       -2315.172  
  21835502.105    21835498.644    -7951729.163 9  -6188258.444 5        51.000  
        42.000        3360.615        2618.661  
  25246545.622    25246541.459     -365719.670 3   -276727.707 1        35.000  
        17.000       -2864.131       -2231.790  
  24470938.688    24470933.742     -947144.112 5   -733107.179 1        41.000  
        23.000        1294.121        1008.406  
  20670531.121    20670526.890   -15387348.025 9 -12568479.349 7        50.000  
        46.000       -1098.564        -856.024  
  24140076.763    24140073.044     7956443.000 5   6218603.368 1        41.000  
        24.000        3443.638        2683.354  
  21097143.821    21097139.048   -16901926.577 9 -13158071.078 7        50.000  
        45.000         -73.926         -57.605  
  20586113.683    20586109.406   -17754027.733 9 -13829235.487 7        54.000  
        47.000        -420.762        -327.866  
  24736817.626    24736813.200     1244937.851 4    905500.221 1        39.000  
        22.000        1386.099        1080.077  
 04  3  1  0 48 30.0000000  0 10G08G09G10G18G21G26G27G28G29G31
  21349601.892    21349598.112   -11320572.396 8  -8812077.022 6        49.000  
        43.000        2933.550        2285.883  
  24651536.533    24651532.808    -1644797.394 4  -1268352.194 1        39.000  
        21.000       -2967.910       -2312.657  
  21854726.121    21854722.691    -7850706.506 9  -6109539.502 5        51.000  
        42.000        3374.004        2629.094  
  25230214.972    25230209.518     -451544.524 5   -343604.281 1        40.000  
        18.000       -2857.871       -2226.913  
  24478378.307    24478373.338     -908050.399 5   -702644.528 1        40.000  
        22.000        1311.865        1022.233  
  20664294.068    20664289.407   -15420124.948 9 -12594019.808 7        52.000  
        46.000       -1086.738        -846.809  
  24159740.616    24159737.715     8059780.000 5   6299125.639 1        41.000  
        23.000        3445.430        2684.750  
  21096775.459    21096770.438   -16903862.296 9 -13159579.405 7        51.000  
        45.000         -55.317         -43.104  
  20583745.168    20583740.458   -17766475.296 9 -13838934.889 7        54.000  
        47.000        -409.209        -318.864  
  24744787.614    24744781.948     1286814.159 4    938131.117 1        38.000  
        22.000        1405.366        1095.091  
 04  3  1  0 49  0.0000000  0 10G08G09G10G18G21G26G27G28G29G31
  21366374.765    21366370.898   -11232431.187 8  -8743395.558 5        48.000  
        42.000        2942.378        2292.762  
  24634604.123    24634601.061    -1733781.593 5  -1337690.557 1        40.000  
        25.000       -2964.649       -2310.116  
  21874025.495    21874022.633    -7749286.082 9  -6030510.612 5        52.000  
        42.000        3387.114        2639.310  
  25213918.948    25213913.182     -537180.820 5   -410333.828 1        40.000  
        17.000       -2851.577       -2222.008  
  24485918.894    24485912.293     -868427.758 5   -671769.804 1        41.000  
        23.000        1329.526        1035.995  
  20658124.639    20658119.637   -15452546.390 9 -12619283.260 7        51.000  
        46.000       -1074.888        -837.575  
  24179414.800    24179411.594     8163167.432 5   6379687.321 1        41.000  
        23.000        3446.963        2685.945  
  21096512.633    21096508.128   -16905242.143 8 -13160654.606 7        49.000  
        45.000         -36.860         -28.722  
  20581441.647    20581437.492   -17778578.397 9 -13848365.877 7        54.000  
        47.000        -397.837        -310.003  
  24752864.046    24752860.017     1329261.582 3    971207.037 1        36.000  
        20.000        1424.214        1109.777  
 04  3  1  0 49 30.0000000  0 10G08G09G10G18G21G26G27G28G29G31
  21383198.788    21383194.477   -11144021.247 8  -8674504.705 5        48.000  
        42.000        2951.479        2299.854  
  24617688.912    24617686.943    -1822666.571 4  -1406951.510 1        38.000  
        23.000       -2961.167       -2307.403  
  21893400.461    21893397.284    -7647469.894 9  -5951173.350 5        52.000  
        42.000        3400.474        2649.720  
  25197659.995    25197653.568     -622625.771 5   -476914.335 1        41.000  
        20.000       -2844.985       -2216.872  
  24493559.220    24493552.960     -828277.040 5   -640483.558 1        41.000  
        20.000        1347.231        1049.791  
  20652022.818    20652018.475   -15484610.785 9 -12644268.501 7        52.000  
        46.000       -1062.847        -828.192  
  24199097.993    24199095.174     8266604.955 3   6460287.932 1        36.000  
        22.000        3448.809        2687.383  
  21096355.900    21096351.340   -16906065.328 9 -13161296.036 7        50.000  
        45.000         -18.184         -14.169  
  20579204.502    20579199.910   -17790335.563 9 -13857527.300 8        55.000  
        48.000        -386.113        -300.867  
  24761049.601    24761045.774     1372279.907 3   1004727.878 1        37.000  
        20.000        1443.423        1124.745  
 04  3  1  0 50  0.0000000  0 10G08G09G10G18G21G26G27G28G29G31
  21400072.657    21400068.553   -11055348.623 8  -8605409.164 5        48.000  
        42.000        2960.088        2306.562  
  24600792.957    24600790.807    -1911455.452 3  -1476137.606 1        37.000  
        21.000       -2958.018       -2304.949  
  21912849.727    21912846.750    -7545264.660 9  -5871532.921 5        51.000  
        42.000        3413.296        2659.711  
  25181436.300    25181430.648     -707881.374 5   -543347.272 1        42.000  
        22.000       -2838.647       -2211.933  
  24501298.260    24501293.341     -787603.785 5   -608790.117 1        40.000  
        20.000        1364.477        1063.229  
  20645988.749    20645984.327   -15516320.720 9 -12668977.537 7        51.000  
        46.000       -1051.060        -819.007  
  24218791.065    24218787.207     8370087.572 4   6540923.728 1        39.000  
        23.000        3450.132        2688.414  
  21096304.879    21096299.873   -16906335.498 8 -13161506.544 7        49.000  
        45.000           0.244           0.190  
  20577032.455    20577028.066   -17801749.454 9 -13866421.242 7        54.000  
        47.000        -374.707        -291.979  
  24769342.870    24769340.115     1415864.396 4   1038689.809 1        39.000  
        21.000        1462.324        1139.473  
 04  3  1  0 50 30.0000000  0 10G08G09G10G18G21G26G27G28G29G31
  21416996.820    21416992.656   -10966411.350 8  -8536107.404 6        48.000  
        43.000        2968.965        2313.479  
  24583915.769    24583912.579    -2000143.852 3  -1545245.453 1        37.000  
        20.000       -2954.644       -2302.320  
  21932372.910    21932369.536    -7442669.573 9  -5791588.721 5        52.000  
        42.000        3426.348        2669.881  
  25165249.165    25165243.813     -792941.636 4   -609628.034 1        39.000  
        18.000       -2832.007       -2206.759  
  24509138.976    24509132.923     -746406.276 5   -576688.134 1        41.000  
        21.000        1381.992        1076.877  
  20640022.670    20640017.973   -15547671.595 9 -12693406.781 7        53.000  
        46.000       -1039.048        -809.648  
  24238491.836    24238488.476     8473617.674 5   6621596.518 1        40.000  
        23.000        3451.709        2689.643  
  21096359.043    21096354.049   -16906049.263 9 -13161283.481 7        52.000  
        45.000          18.770          14.626  
  20574926.591    20574921.812   -17812815.559 9 -13875044.176 7        54.000  
        47.000        -363.062        -282.905  
  24777746.858    24777742.249     1460017.516 5   1073094.802 1        40.000  
        21.000        1481.074        1154.084  
 04  3  1  0 51  0.0000000  0 10G08G09G10G18G21G26G27G28G29G31
  21433971.395    21433967.264   -10877209.670 8  -8466599.601 5        48.000  
        42.000        2977.754        2320.328  
  24567060.106    24567056.247    -2088729.361 4  -1614273.110 1        39.000  
        27.000       -2951.221       -2299.653  
  21951970.159    21951967.053    -7339685.751 9  -5711341.592 5        52.000  
        42.000        3439.146        2679.854  
  25149100.623    25149095.092     -877802.515 4   -675753.367 1        39.000  
        21.000       -2825.444       -2201.645  
  24517077.117    24517071.964     -704684.568 5   -544177.718 1        40.000  
        22.000        1399.297        1090.361  
  20634125.546    20634121.068   -15578660.728 9 -12717554.150 7        52.000  
        46.000       -1027.100        -800.337  
  24258200.854    24258198.793     8577196.025 3   6702306.848 1        36.000  
        22.000        3453.159        2690.773  
  21096520.005    21096514.627   -16905204.623 9 -13160625.310 7        50.000  
        45.000          37.354          29.107  
  20572887.418    20572882.614   -17823531.569 9 -13883394.311 7        54.000  
        47.000        -351.440        -273.850  
  24786257.184    24786252.395     1504740.130 4   1107943.597 1        39.000  
        20.000        1500.107        1168.915  
 04  3  1  0 51 30.0000000  0 10G08G09G10G18G21G26G27G28G29G31
  21450995.971    21450992.387   -10787743.639 9  -8396885.823 5        50.000  
        42.000        2986.255        2326.952  
  24550222.145    24550219.386    -2177209.460 3  -1683218.583 1        35.000  
        21.000       -2947.832       -2297.012  
  21971640.907    21971637.824    -7236313.975 9  -5630792.178 5        51.000  
        41.000        3451.855        2689.758  
  25132991.522    25132984.750     -962459.364 5   -741719.751 1        40.000  
        18.000       -2818.701       -2196.391  
  24525117.140    24525111.303     -662438.213 5   -511258.482 1        40.000  
        23.000        1416.685        1103.910  
  20628298.190    20628293.530   -15609284.709 9 -12741416.985 7        53.000  
        46.000       -1014.951        -790.871  
  24277921.823    24277918.821     8680823.725 3   6783055.632 1        35.000  
        22.000        3454.771        2692.029  
  21096787.124    21096782.162   -16903799.655 9 -13159530.518 7        52.000  
        45.000          55.884          43.546  
  20570915.525    20570911.326   -17833894.285 9 -13891469.149 7        54.000  
        47.000        -339.800        -264.779  
  24794876.237    24794871.374     1550032.979 3   1143236.659 1        36.000  
        18.000        1519.063        1183.685  
 04  3  1  0 52  0.0000000  0 10G08G09G10G18G21G26G27G28G29G31
  21468070.650    21468067.078   -10698016.370 9  -8326968.477 5        51.000  
        42.000        2995.166        2333.896  
  24533404.415    24533402.337    -2265584.870 4  -1752082.528 1        39.000  
        26.000       -2944.258       -2294.227  
  21991385.062    21991382.340    -7132558.577 9  -5549943.821 5        51.000  
        41.000        3464.707        2699.772  
  25116921.410    25116914.008    -1046911.413 5   -807526.543 1        42.000  
        17.000       -2811.787       -2191.003  
  24533254.752    24533250.268     -619670.754 5   -477933.245 1        41.000  
        24.000        1434.141        1117.512  
  20622539.622    20622534.846   -15639544.119 9 -12764995.746 7        53.000  
        46.000       -1002.646        -781.283  
  24297650.759    24297646.397     8784498.186 3   6863840.975 1        36.000  
        20.000        3456.294        2693.216  
  21097161.111    21097156.187   -16901835.785 9 -13158000.214 7        53.000  
        45.000          74.653          58.171  
  20569010.778    20569006.450   -17843904.205 9 -13899269.093 7        54.000  
        47.000        -327.944        -255.541  
  24803601.475    24803597.817     1595893.724 4   1178972.373 1        38.000  
        19.000        1538.081        1198.505  
 04  3  1  0 52 30.0000000  0 10G08G09G10G18G21G26G27G28G29G31
  21485194.241    21485190.480   -10608032.356 9  -8256851.077 5        51.000  
        42.000        3003.862        2340.672  
  24516606.778    24516604.460    -2353857.044 3  -1820866.015 1        36.000  
        25.000       -2940.444       -2291.255  
  22011200.977    22011197.793    -7028424.886 9  -5468800.701 5        51.000  
        41.000        3477.466        2709.714  
  25100888.344    25100882.937    -1131159.055 4   -873174.107 1        39.000  
        19.000       -2804.736       -2185.509  
  24541491.928    24541487.199     -576386.535 4   -444205.268 1        38.000  
        23.000        1451.479        1131.023  
  20616850.950    20616846.547   -15669440.244 9 -12788291.416 7        54.000  
        47.000        -990.366        -771.714  
  24317386.851    24317382.771     8888215.743 4   6944659.827 1        38.000  
        22.000        3458.149        2694.662  
  21097640.571    21097635.774   -16899315.579 9 -13156036.399 7        53.000  
        45.000          93.418          72.793  
  20567172.710    20567168.374   -17853562.985 9 -13906795.409 7        55.000  
        47.000        -316.006        -246.238  
  24812436.627    24812432.671     1642318.841 4   1215147.792 1        39.000  
        20.000        1556.987        1213.237  
 04  3  1  0 53  0.0000000  0 10G08G09G10G18G21G26G27G28G29G31
  21502367.160    21502362.547   -10517788.726 9  -8186531.369 5        51.000  
        42.000        3012.422        2347.342  
  24499829.654    24499827.005    -2442020.789 3  -1889564.985 1        37.000  
        22.000       -2937.017       -2288.584  
  22031089.370    22031086.230    -6923911.045 9  -5387361.361 5        52.000  
        41.000        3490.059        2719.526  
  25084895.762    25084891.612    -1215194.961 3   -938656.652 1        36.000  
        18.000       -2797.588       -2179.939  
  24549827.180    24549822.229     -532582.509 4   -410072.350 1        39.000  
        22.000        1468.828        1144.541  
  20611231.864    20611227.428   -15698967.121 9 -12811299.367 7        54.000  
        46.000        -978.115        -762.168  
  24337131.693    24337129.056     8991980.159 5   7025515.206 1        40.000  
        22.000        3459.556        2695.758  
  21098227.053    21098222.161   -16896234.293 9 -13153635.390 7        53.000  
        45.000         111.987          87.263  
  20565402.703    20565397.941   -17862864.812 9 -13914043.581 8        54.000  
        48.000        -304.170        -237.016  
  24821379.462    24821375.169     1689311.730 5   1251765.658 1        41.000  
        21.000        1575.899        1227.973  
 04  3  1  0 53 30.0000000  0 10G08G09G10G18G21G26G27G28G29G31
  21519588.532    21519584.790   -10427287.985 9  -8116011.319 5        50.000  
        42.000        3020.806        2353.875  
  24483074.078    24483069.394    -2530075.839 5  -1958179.339 1        40.000  
        21.000       -2933.462       -2285.814  
  22051048.949    22051046.257    -6819020.496 9  -5305628.470 5        52.000  
        41.000        3502.422        2729.160  
  25068945.078    25068940.567    -1299017.588 3  -1003972.989 1        35.000  
        19.000       -2790.767       -2174.623  
  24558260.997    24558256.475     -488261.492 3   -375536.399 1        37.000  
        21.000        1485.815        1157.778  
  20605683.717    20605678.803   -15728124.683 9 -12834019.542 7        53.000  
        46.000        -965.928        -752.671  
  24356886.662    24356884.427     9095789.743 4   7106405.742 1        38.000  
        22.000        3460.737        2696.678  
  21098919.996    21098915.101   -16892592.691 9 -13150797.755 7        54.000  
        46.000         130.537         101.717  
  20563700.476    20563695.472   -17871809.610 9 -13921013.557 8        54.000  
        48.000        -292.432        -227.869  
  24830429.512    24830424.532     1736870.865 5   1288824.735 1        40.000  
        21.000        1594.473        1242.446  
 04  3  1  0 54  0.0000000  0 10G08G09G10G18G21G26G27G28G29G31
  21536857.923    21536853.981   -10336536.890 8  -8045296.185 5        49.000  
        41.000        3029.194        2360.411  
  24466337.025    24466333.414    -2618026.386 3  -2026712.159 1        37.000  
        24.000       -2929.790       -2282.953  
  22071079.658    22071076.674    -6713760.832 9  -5223607.979 5        51.000  
        41.000        3514.678        2738.710  
  25053035.543    25053029.874    -1382629.480 5  -1069125.055 1        40.000  
        20.000       -2783.530       -2168.984  
  24566792.862    24566787.730     -443429.955 5   -340602.806 1        40.000  
        22.000        1502.881        1171.076  
  20600204.580    20600200.168   -15756916.408 9 -12856454.653 7        54.000  
        47.000        -953.672        -743.121  
  24376648.840    24376646.377     9199638.663 4   7187326.926 1        38.000  
        22.000        3462.266        2697.869  
  21099718.443    21099713.368   -16888395.726 9 -13147527.381 7        54.000  
        45.000         149.146         116.217  
  20562065.550    20562061.088   -17880401.397 9 -13927708.453 7        54.000  
        47.000        -280.562        -218.619  
  24839586.079    24839581.605     1784989.971 5   1326320.163 1        40.000  
        20.000        1613.340        1257.148  
 04  3  1  0 54 30.0000000  0 10G08G09G10G18G21G26G27G28G29G31
  21554176.322    21554172.137   -10245528.410 8  -7974380.497 5        49.000  
        42.000        3037.710        2367.047  
  24449623.096    24449619.954    -2705862.640 4  -2095155.935 1        39.000  
        26.000       -2926.167       -2280.130  
  22091181.325    22091178.152    -6608126.068 9  -5141295.176 5        51.000  
        41.000        3527.251        2748.507  
  25037166.647    25037161.747    -1466019.465 3  -1134104.274 1        37.000  
        20.000       -2776.113       -2163.205  
  24575421.938    24575417.501     -398080.860 4   -305265.845 1        38.000  
        21.000        1520.088        1184.484  
  20594797.445    20594792.641   -15785332.435 9 -12878597.002 7        53.000  
        46.000        -941.016        -733.259  
  24396419.877    24396416.269     9303534.636 5   7268284.841 1        42.000  
        23.000        3463.867        2699.117  
  21100624.531    21100619.522   -16883634.672 9 -13143817.451 7        54.000  
        45.000         167.925         130.850  
  20560499.853    20560495.178   -17888630.101 9 -13934120.425 7        54.000  
        47.000        -268.462        -209.191  
  24848851.422    24848846.022     1833676.992 5   1364258.156 1        40.000  
        20.000        1632.231        1271.869  
 04  3  1  0 55  0.0000000  0 10G08G09G10G18G21G26G27G28G29G31
  21571542.397    21571538.149   -10154269.039 8  -7903269.309 5        48.000  
        41.000        3046.143        2373.618  
  24432929.175    24432925.526    -2793588.530 5  -2163513.708 1        40.000  
        23.000       -2922.549       -2277.311  
  22111352.650    22111349.547    -6502123.754 9  -5058695.983 5        52.000  
        41.000        3539.527        2758.073  
  25021341.423    25021334.798    -1549189.553 3  -1198912.270 1        37.000  
        22.000       -2768.618       -2157.365  
  24584149.434    24584143.549     -352221.166 4   -269531.041 1        39.000  
        19.000        1537.100        1197.740  
  20589460.655    20589456.035   -15813376.116 9 -12900449.221 7        53.000  
        46.000        -928.579        -723.568  
  24416198.308    24416194.494     9407472.242 5   7349275.183 1        42.000  
        23.000        3465.327        2700.255  
  21101637.215    21101632.139   -16878314.216 9 -13139671.627 7        54.000  
        45.000         186.631         145.427  
  20559002.372    20558997.545   -17896499.322 9 -13940252.295 8        54.000  
        48.000        -256.323        -199.732  
  24858223.073    24858217.905     1882925.986 5   1402634.000 1        42.000  
        16.000        1651.050        1286.532  
 04  3  1  0 55 30.0000000  0 10G08G09G10G18G21G26G27G28G29G31
  21588956.312    21588952.528   -10062756.880 7  -7831961.140 5        47.000  
        41.000        3054.497        2380.128  
  24416257.576    24416253.719    -2881199.771 3  -2231782.219 1        37.000  
        24.000       -2918.501       -2274.156  
  22131594.357    22131591.685    -6395753.102 9  -4975809.788 5        51.000  
        40.000        3551.680        2767.543  
  25005556.641    25005551.138    -1632133.977 3  -1263544.316 1        36.000  
        21.000       -2761.050       -2151.467  
  24592973.943    24592968.232     -305849.113 4   -233397.055 1        39.000  
        19.000        1554.102        1210.988  
  20584196.065    20584191.182   -15841042.819 9 -12922007.684 7        53.000  
        46.000        -916.011        -713.775  
  24435984.281    24435982.703     9511453.942 4   7430299.829 1        39.000  
        21.000        3466.689        2701.316  
  21102756.731    21102751.229   -16872430.882 9 -13135087.201 7        54.000  
        46.000         205.420         160.067  
  20557574.035    20557569.017   -17904004.852 9 -13946100.763 7        54.000  
        47.000        -244.165        -190.258  
  24867702.143    24867696.452     1932739.478 5   1441449.719 1        41.000  
        18.000        1669.688        1301.055  
 04  3  1  0 56  0.0000000  0 10G08G09G10G18G21G26G27G28G29G31
  21606418.077    21606413.668    -9970996.936 7  -7760459.884 5        47.000  
        41.000        3062.671        2386.497  
  24399605.267    24399603.427    -2968698.972 3  -2299963.330 1        35.000  
        22.000       -2914.810       -2271.280  
  22151904.890    22151902.026    -6289020.116 9  -4892641.230 5        51.000  
        41.000        3563.696        2776.906  
  24989814.834    24989809.722    -1714853.712 3  -1328001.117 1        37.000  
        20.000       -2753.628       -2145.684  
  24601894.415    24601889.124     -258969.825 4   -196867.727 1        39.000  
        21.000        1570.972        1224.134  
  20579002.444    20578998.000   -15868334.604 9 -12943273.999 7        52.000  
        46.000        -903.511        -704.034  
  24455779.445    24455778.204     9615475.676 5   7511355.713 1        40.000  
        23.000        3467.969        2702.313  
  21103982.615    21103977.191   -16865987.932 9 -13130066.703 7        54.000  
        46.000         223.994         174.541  
  20556214.403    20556210.209   -17911148.677 9 -13951667.378 7        54.000  
        47.000        -232.114        -180.868  
  24877287.065    24877283.291     1983113.093 4   1480701.902 1        38.000  
        19.000        1688.247        1315.517  
 04  3  1  0 56 30.0000000  0 10G08G09G10G18G21G26G27G28G29G31
  21623926.442    21623922.238    -9878989.088 7  -7688765.469 5        47.000  
        41.000        3070.996        2392.984  
  24382978.553    24382974.546    -3056083.121 5  -2368054.830 1        42.000  
        29.000       -2910.864       -2268.206  
  22172284.290    22172281.426    -6181925.687 9  -4809191.045 5        51.000  
        40.000        3575.816        2786.350  
  24974118.242    24974112.840    -1797343.797 4  -1392279.113 1        38.000  
        21.000       -2745.625       -2139.448  
  24610911.756    24610907.177     -211583.096 4   -159943.085 1        38.000  
        20.000        1588.086        1237.470  
  20573881.094    20573876.529   -15895248.379 9 -12964245.769 7        52.000  
        47.000        -890.806        -694.134  
  24475584.220    24475579.673     9719538.307 6   7592443.374 1        43.000  
        22.000        3469.434        2703.455  
  21105315.551    21105310.222   -16858983.583 9 -13124608.754 7        53.000  
        45.000         242.871         189.250  
  20554924.974    20554920.174   -17917927.897 9 -13956949.888 7        54.000  
        47.000        -219.805        -171.276  
  24886979.938    24886975.770     2034047.557 3   1520391.137 1        37.000  
        17.000        1707.100        1330.208  
 04  3  1  0 57  0.0000000  0 10G08G09G10G18G21G26G27G28G29G31
  21641481.959    21641477.864    -9786734.053 8  -7616878.440 5        48.000  
        41.000        3079.004        2399.224  
  24366371.710    24366368.212    -3143350.522 5  -2436055.404 1        40.000  
        26.000       -2907.197       -2265.349  
  22192732.358    22192729.475    -6074471.503 9  -4725460.523 5        51.000  
        40.000        3587.456        2795.420  
  24958465.123    24958459.994    -1879601.114 3  -1456375.750 1        36.000  
        21.000       -2738.218       -2133.676  
  24620025.059    24620020.291     -163689.821 4   -122623.583 1        39.000  
        21.000        1604.648        1250.375  
  20568832.001    20568827.419   -15921781.850 9 -12984921.201 7        54.000  
        47.000        -878.340        -684.421  
  24495392.536    24495389.853     9823642.181 5   7673563.245 1        41.000  
        22.000        3470.547        2704.322  
  21106755.252    21106750.159   -16851416.983 9 -13118712.694 7        53.000  
        45.000         261.333         203.636  
  20553704.367    20553699.834   -17924340.509 9 -13961946.729 7        54.000  
        47.000        -207.881        -161.985  
  24896778.503    24896774.980     2085542.744 3   1560517.273 1        35.000  
        17.000        1725.630        1344.647  
 04  3  1  0 57 30.0000000  0 11G07G08G09G10G18G21G26G27G28G29G31
  25095809.379           0.000           0.000           0.000          38.000  
         0.000       -2231.777           0.000  
  21659083.412    21659079.795    -9694237.889 8  -7544803.522 5        48.000  
        41.000        3087.319        2405.703  
  24349785.139    24349781.946    -3230505.046 3  -2503967.929 1        37.000  
        21.000       -2903.262       -2262.282  
  22213247.505    22213244.611    -5966664.702 9  -4641455.243 5        51.000  
        41.000        3599.585        2804.872  
  24942853.741    24942850.855    -1961627.527 1  -1520292.473 1        32.000  
        20.000       -2730.044       -2127.307  
  24629233.742    24629228.999     -115296.752 4    -84914.727 1        39.000  
        22.000        1621.431        1263.453  
  20563854.225    20563849.859   -15947938.446 9 -13005302.958 7        53.000  
        47.000        -865.459        -674.384  
  24515209.964    24515207.021     9927781.889 5   7754711.092 1        40.000  
        21.000        3472.124        2705.551  
  21108301.222    21108296.007   -16843292.750 9 -13112382.107 7        53.000  
        45.000         280.186         218.326  
  20552553.051    20552548.400   -17930389.957 9 -13966660.585 7        54.000  
        47.000        -195.444        -152.294  
  24906684.374    24906680.111     2137592.887 3   1601075.812 1        37.000  
        20.000        1744.370        1359.249  
 04  3  1  0 58  0.0000000  0 11G07G08G09G10G18G21G26G27G28G29G31
  25083062.456    25083062.239      -74686.531 3    -48213.584 1        36.000  
        20.000       -2232.656       -1739.732  
  21676731.178    21676726.715    -9601499.791 8  -7472540.070 5        48.000  
        40.000        3095.093        2411.760  
  24333223.312    24333219.615    -3317542.789 4  -2571789.591 1        39.000  
        27.000       -2899.458       -2259.318  
  22233829.349    22233826.452    -5858505.831 9  -4557175.618 5        51.000  
        41.000        3611.055        2813.809  
  24927289.070    24927285.748    -2043418.218 2  -1584025.441 1        33.000  
        16.000       -2722.344       -2121.307  
  24638538.672    24638534.035      -66402.427 3    -46815.255 1        37.000  
        18.000        1637.949        1276.324  
  20558949.515    20558945.047   -15973714.180 9 -13025387.940 7        53.000  
        47.000        -852.896        -664.594  
  24535035.001    24535031.190    10031959.092 5   7835888.046 1        40.000  
        21.000        3473.135        2706.339  
  21109953.858    21109948.667   -16834608.102 9 -13105614.837 7        54.000  
        45.000         298.682         232.739  
  20551472.138    20551466.725   -17936072.520 9 -13971088.555 7        55.000  
        47.000        -183.467        -142.961  
  24916694.810    24916691.041     2190199.495 3   1642067.943 1        35.000  
        19.000        1762.681        1373.517  
 04  3  1  0 58 30.0000000  0 11G07G08G09G10G18G21G26G27G28G29G31
  25070317.931    25070315.095     -141674.366 4   -100411.883 1        38.000  
        19.000       -2233.262       -1740.204  
  21694423.329    21694419.359    -9508524.036 8  -7400091.436 5        49.000  
        41.000        3103.237        2418.107  
  24316683.474    24316679.988    -3404465.770 4  -2639521.726 1        39.000  
        27.000       -2895.527       -2256.255  
  22254477.165    22254474.269    -5750000.010 9  -4472625.644 5        51.000  
        40.000        3622.642        2822.838  
  24911773.261    24911767.047    -2124972.641 4  -1647574.309 1        38.000  
        20.000       -2714.497       -2115.193  
  24647937.221    24647931.904      -17012.293 4     -8329.478 1        39.000  
        20.000        1654.541        1289.253  
  20554116.871    20554112.127   -15999110.424 9 -13045177.223 7        54.000  
        47.000        -840.176        -654.682  
  24554866.435    24554862.094    10136170.449 5   7917091.633 1        42.000  
        22.000        3474.219        2707.183  
  21111712.584    21111707.961   -16825365.815 9 -13098413.032 7        53.000  
        45.000         317.393         247.319  
  20550459.833    20550455.687   -17941389.707 9 -13975231.823 7        54.000  
        47.000        -171.099        -133.324  
  24926811.455    24926806.877     2243358.803 3   1683490.765 1        35.000  
        20.000        1781.035        1387.819  
 04  3  1  0 59  0.0000000  0 11G07G08G09G10G18G21G26G27G28G29G31
  25057566.386    25057564.246     -208675.800 2   -152620.709 1        34.000  
        19.000       -2233.755       -1740.588  
  21712161.786    21712157.861    -9415309.033 8  -7327456.371 5        48.000  
        41.000        3110.962        2424.126  
  24300163.164    24300160.867    -3491269.758 4  -2707161.106 1        38.000  
        24.000       -2891.626       -2253.215  
  22275191.235    22275188.164    -5641146.723 9  -4387804.917 5        51.000  
        40.000        3634.033        2831.714  
  24896300.890    24896292.680    -2206285.374 5  -1710934.998 1        41.000  
        20.000       -2706.626       -2109.059  
  24657430.842    24657425.113       32875.457 5     30544.058 1        41.000  
        19.000        1670.972        1302.056  
  20549356.919    20549352.098   -16024122.755 9 -13064667.345 7        53.000  
        47.000        -827.583        -644.870  
  24574703.799    24574700.531    10240418.400 6   7998323.788 1        43.000  
        23.000        3475.264        2707.998  
  21113577.942    21113573.507   -16815563.076 9 -13090774.528 7        53.000  
        46.000         335.913         261.750  
  20549518.232    20549513.747   -17946337.465 9 -13979087.219 8        54.000  
        48.000        -158.975        -123.876  
  24937032.084    24937028.293     2297072.685 3   1725345.795 1        37.000  
        20.000        1799.292        1402.046  
 04  3  1  0 59 30.0000000  0 11G07G08G09G10G18G21G26G27G28G29G31
  25044815.979    25044811.410     -275692.180 5   -204841.349 1        41.000  
        24.000       -2234.146       -1740.893  
  21729944.763    21729941.001    -9321860.607 8  -7254639.426 5        49.000  
        41.000        3118.853        2430.275  
  24283668.398    24283664.835    -3577957.813 6  -2774710.306 1        43.000  
        28.000       -2887.642       -2250.110  
  22295970.219    22295966.974    -5531953.089 9  -4302718.978 5        51.000  
        40.000        3645.454        2840.614  
  24880872.739    24880865.443    -2287358.195 5  -1774108.636 1        40.000  
        21.000       -2698.286       -2102.561  
  24667018.158    24667011.931       83254.675 4     69800.539 1        39.000  
        18.000        1687.529        1314.958  
  20544669.651    20544664.824   -16048754.025 9 -13083860.545 7        53.000  
        47.000        -814.619        -634.768  
  24594547.500    24594544.764    10344697.969 5   8079580.610 1        41.000  
        22.000        3476.592        2709.032  
  21115549.084    21115544.284   -16805204.035 9 -13082702.537 7        53.000  
        45.000         354.619         276.327  
  20548646.377    20548641.850   -17950918.507 9 -13982656.862 7        54.000  
        47.000        -146.509        -114.163  
  24947359.668    24947353.487     2351335.851 3   1767628.777 1        37.000  
        21.000        1817.876        1416.527  
 04  3  1  1  0  0.0000000  0 11G07G08G09G10G18G21G26G27G28G29G31
  25032058.359    25032056.493     -342721.627 4   -257072.043 1        39.000  
        20.000       -2234.551       -1741.208  
  21747771.051    21747766.966    -9228180.727 8  -7181642.123 5        48.000  
        41.000        3126.592        2436.305  
  24267193.588    24267190.610    -3664529.401 5  -2842168.679 1        40.000  
        26.000       -2883.745       -2247.074  
  22316813.097    22316810.490    -5422422.285 9  -4217370.316 5        51.000  
        41.000        3656.665        2849.349  
  24865489.203    24865485.112    -2368188.815 4  -1837093.413 1        38.000  
        22.000       -2690.146       -2096.218  
  24676697.402    24676692.949      134122.947 4    109438.087 1        38.000  
        20.000        1703.774        1327.616  
  20540055.217    20540050.687   -16073003.450 9 -13102756.201 7        54.000  
        47.000        -801.826        -624.800  
  24614395.374    24614393.220    10449007.961 5   8160861.036 1        41.000  
        19.000        3477.485        2709.729  
  21117626.301    21117621.088   -16794289.306 9 -13074197.542 7        53.000  
        45.000         373.169         290.781  
  20547844.928    20547839.970   -17955132.538 9 -13985940.529 7        54.000  
        47.000        -134.282        -104.635  
  24957788.917    24957784.374     2406146.608 3   1810338.363 1        37.000  
        21.000        1836.206        1430.810  
 04  3  1  1  0 30.0000000  0 11G07G08G09G10G18G21G26G27G28G29G31
  25019304.970    25019301.479     -409755.104 4   -309305.935 1        39.000  
        20.000       -2234.424       -1741.109  
  21765642.872    21765638.558    -9134264.889 8  -7108460.962 5        49.000  
        41.000        3134.526        2442.488  
  24250743.053    24250741.144    -3750977.537 4  -2909530.753 1        39.000  
        26.000       -2879.502       -2243.768  
  22337721.114    22337718.024    -5312550.825 9  -4131756.213 5        51.000  
        41.000        3668.042        2858.215  
  24850156.691    24850150.787    -2448768.032 4  -1899882.503 1        39.000  
        22.000       -2681.816       -2089.727  
  24686470.935    24686465.954      185484.486 4    149460.073 1        39.000  
        19.000        1720.371        1340.549  
  20535514.913    20535510.248   -16096863.353 9 -13121348.334 7        54.000  
        47.000        -788.809        -614.656  
  24634251.446    24634249.000    10553353.881 5   8242169.542 1        41.000  
        20.000        3478.970        2710.885  
  21119810.324    21119804.723   -16782812.673 9 -13065254.701 7        53.000  
        45.000         391.982         305.441  
  20547113.899    20547109.363   -17958971.959 9 -13988932.277 7        54.000  
        47.000        -121.694         -94.827  
  24968323.671    24968319.475     2461510.021 4   1853478.791 1        38.000  
        19.000        1854.570        1445.120  
 04  3  1  1  1  0.0000000  0 11G07G08G09G10G18G21G26G27G28G29G31
  25006547.155    25006544.886     -476786.860 4   -361538.259 1        39.000  
        19.000       -2234.438       -1741.121  
  21783559.665    21783555.696    -9040110.855 8  -7035094.186 5        49.000  
        40.000        3142.329        2448.568  
  24234317.304    24234314.275    -3837297.592 5  -2976793.116 1        42.000  
        27.000       -2875.264       -2240.465  
  22358694.083    22358690.785    -5202337.761 9  -4045875.926 5        51.000  
        40.000        3679.380        2867.049  
  24834869.642    24834866.207    -2529090.059 4  -1962471.085 1        38.000  
        22.000       -2673.198       -2083.012  
  24696338.171    24696333.844      237341.113 4    189867.802 1        39.000  
        19.000        1736.743        1353.306  
  20531049.462    20531045.065   -16120328.998 9 -13139633.240 7        54.000  
        47.000        -775.703        -604.444  
  24654115.339    24654112.966    10657738.554 5   8323508.233 1        40.000  
        22.000        3479.917        2711.624  
  21122101.440    21122096.271   -16770770.734 9 -13055871.360 7        53.000  
        45.000         410.742         320.059  
  20546455.856    20546451.220   -17962432.092 9 -13991628.483 7        54.000  
        47.000        -109.106         -85.018  
  24978964.125    24978960.618     2517428.595 4   1897051.791 1        38.000  
        20.000        1873.247        1459.673  
 04  3  1  1  1 30.0000000  0 11G07G08G09G10G18G21G26G27G28G29G31
  24993792.473    24993788.970     -543819.990 5   -413771.915 1        40.000  
        22.000       -2234.258       -1740.980  
  21801520.397    21801516.287    -8945726.621 9  -6961548.033 5        50.000  
        40.000        3150.117        2454.637  
  24217914.623    24217910.773    -3923495.103 6  -3043960.018 1        43.000  
        27.000       -2871.143       -2237.254  
  22379729.952    22379726.975    -5091791.880 9  -3959736.286 5        50.000  
        40.000        3690.488        2875.705  
  24819634.352    24819628.823    -2609158.423 4  -2024861.976 1        39.000  
        20.000       -2664.595       -2076.308  
  24706299.901    24706295.366      289684.428 5    230654.676 1        40.000  
        21.000        1752.979        1365.957  
  20526658.264    20526653.721   -16143405.381 9 -13157614.837 7        54.000  
        47.000        -762.559        -594.201  
  24673987.276    24673983.207    10762154.967 5   8404871.610 1        40.000  
        23.000        3481.050        2712.506  
  21124499.437    21124494.324   -16758169.979 9 -13046052.577 7        53.000  
        45.000         429.424         334.616  
  20545868.663    20545864.150   -17965518.225 9 -13994033.264 8        54.000  
        48.000         -96.523         -75.213  
  24989709.137    24989705.036     2573894.596 4   1941051.208 1        38.000  
        20.000        1891.172        1473.640  
 04  3  1  1  2  0.0000000  0 11G07G08G09G10G18G21G26G27G28G29G31
  24981036.631    24981033.127     -610850.056 6   -466003.078 1        43.000  
        20.000       -2234.312       -1741.022  
  21819525.060    21819521.530    -8851111.450 9  -6887821.940 5        50.000  
        41.000        3157.666        2460.519  
  24201535.241    24201532.680    -4009566.685 5  -3111028.669 1        40.000  
        26.000       -2866.812       -2233.879  
  22400829.555    22400826.613    -4980913.686 9  -3873337.704 5        50.000  
        40.000        3701.465        2884.258  
  24804448.684    24804442.326    -2688968.214 5  -2087051.441 1        41.000  
        23.000       -2656.060       -2069.657  
  24716352.614    24716348.129      342514.639 5    271821.069 1        40.000  
        21.000        1769.258        1378.642  
  20522341.653    20522337.114   -16166088.761 9 -13175290.200 7        54.000  
        47.000        -749.507        -584.031  
  24693863.017    24693860.283    10866604.845 3   8486261.115 1        37.000  
        20.000        3482.290        2713.473  
  21127004.185    21126999.369   -16745008.133 9 -13035796.587 7        52.000  
        45.000         448.076         349.150  
  20545353.229    20545348.518   -17968226.886 9 -13996143.912 8        54.000  
        48.000         -83.960         -65.423  
  25000558.721    25000554.244     2630908.976 3   1985478.059 1        37.000  
        17.000        1909.473        1487.901  
 04  3  1  1  2 30.0000000  0 11G07G08G09G10G18G21G26G27G28G29G31
  24968280.179    24968279.814     -677872.658 1   -518228.519 1        32.000  
        21.000       -2233.896       -1740.699  
  21837573.719    21837569.738    -8756265.224 9  -6813915.802 5        50.000  
        40.000        3165.298        2466.466  
  24185181.605    24185178.355    -4095509.670 5  -3177997.237 1        42.000  
        26.000       -2862.651       -2230.637  
  22421992.085    22421988.881    -4869704.647 9  -3786681.324 4        50.000  
        39.000        3712.466        2892.831  
  24789310.210    24789305.243    -2768515.158 5  -2149036.071 1        40.000  
        22.000       -2647.197       -2062.751  
  24726498.686    24726494.094      395831.636 4    313366.684 1        39.000  
        20.000        1785.366        1391.194  
  20518100.770    20518096.156   -16188376.432 9 -13192657.215 7        55.000  
        47.000        -736.348        -573.777  
  24713744.376    24713742.118    10971088.840 2   8567677.110 1        33.000  
        19.000        3483.135        2714.131  
  21129615.758    21129610.761   -16731283.915 9 -13025102.379 7        53.000  
        45.000         466.807         363.745  
  20544910.173    20544905.869   -17970555.284 9 -13997958.248 8        54.000  
        48.000         -71.299         -55.558  
  25011512.640    25011508.416     2688472.330 3   2030332.590 1        37.000  
        17.000        1927.739        1502.135  
 04  3  1  1  3  0.0000000  0 11G07G08G09G10G18G21G26G27G28G29G31
  24955530.357    24955527.246     -744887.122 4   -570447.532 1        39.000  
        22.000       -2233.398       -1740.310  
  21855665.545    21855662.058    -8661191.244 9  -6739832.183 5        50.000  
        41.000        3172.969        2472.443  
  24168850.809    24168846.968    -4181325.070 5  -3244866.333 1        42.000  
        27.000       -2858.267       -2227.221  
  22443216.970    22443213.725    -4758168.798 9  -3699770.280 4        50.000  
        39.000        3723.340        2901.304  
  24774224.311    24774217.676    -2847798.183 5  -2210815.023 1        41.000  
        23.000       -2638.203       -2055.743  
  24736737.416    24736732.132      449631.335 5    355288.516 1        41.000  
        22.000        1801.421        1403.705  
  20513934.664    20513930.201   -16210268.719 9 -13209716.139 7        55.000  
        47.000        -723.062        -563.425  
  24733633.740    24733630.740    11075604.593 3   8649117.963 1        36.000  
        19.000        3484.707        2715.356  
  21132333.725    21132329.050   -16716999.306 9 -13013971.499 7        54.000  
        45.000         485.566         378.363  
  20544539.300    20544534.468   -17972504.240 9 -13999476.910 8        54.000  
        48.000         -58.535         -45.612  
  25022571.053    25022566.330     2746581.284 3   2075612.344 1        36.000  
        16.000        1945.943        1516.319  
 04  3  1  1  3 30.0000000  0 11G07G08G09G10G18G21G26G27G28G29G31
  24942779.096    24942775.874     -811891.948 5   -622659.099 1        41.000  
        20.000       -2233.130       -1740.101  
  21873799.982    21873796.253    -8565892.230 8  -6665573.220 5        49.000  
        40.000        3180.532        2478.337  
  24152544.062    24152541.797    -4267012.777 5  -3311635.946 1        40.000  
        25.000       -2853.994       -2223.892  
  22464502.529    22464499.277    -4646310.282 9  -3612607.824 5        51.000  
        40.000        3734.131        2909.712  
  24759187.299    24759180.378    -2926816.213 5  -2272387.520 1        40.000  
        22.000       -2629.282       -2048.791  
  24747066.307    24747060.551      503910.834 5    397584.206 1        40.000  
        20.000        1817.363        1416.127  
  20509843.900    20509838.921   -16231765.677 9 -13226467.015 7        54.000  
        47.000        -709.775        -553.072  
  24753528.717    24753524.986    11180150.207 4   8730582.107 1        38.000  
        22.000        3485.396        2715.893  
  21135158.522    21135153.664   -16702155.832 9 -13002405.148 7        53.000  
        45.000         504.209         392.890  
  20544240.804    20544235.783   -17974073.671 9 -14000699.849 8        54.000  
        48.000         -45.791         -35.681  
  25033730.782    25033727.521     2805233.598 3   2121315.445 1        36.000  
        16.000        1964.536        1530.807  
 04  3  1  1  4  0.0000000  0 11G07G08G09G10G18G21G26G27G28G29G31
  24930030.374    24930028.080     -878879.344 3   -674857.005 1        37.000  
        21.000       -2232.773       -1739.823  
  21891978.829    21891975.037    -8470364.837 9  -6591136.300 5        50.000  
        40.000        3187.988        2484.147  
  24136264.019    24136261.886    -4352567.119 5  -3378301.573 1        41.000  
        27.000       -2849.561       -2220.437  
  22485850.364    22485847.403    -4534126.822 9  -3525192.153 5        50.000  
        40.000        3744.775        2918.007  
  24744201.994    24744195.735    -3005561.425 5  -2333747.443 1        41.000  
        20.000       -2620.308       -2041.798  
  24757486.319    24757482.127      558672.876 5    440256.019 1        40.000  
        20.000        1833.359        1428.592  
  20505829.588    20505824.919   -16252860.887 9 -13242904.834 7        55.000  
        47.000        -696.538        -542.757  
  24773430.124    24773426.375    11284730.096 3   8812072.879 1        37.000  
        22.000        3486.528        2716.775  
  21138090.288    21138085.316   -16686748.508 9 -12990399.431 7        54.000  
        45.000         522.920         407.470  
  20544015.378    20544010.271   -17975257.452 9 -14001622.273 8        54.000  
        48.000         -33.057         -25.758  
  25044997.535    25044992.994     2864432.805 3   2167444.659 1        36.000  
        20.000        1982.705        1544.965  
 04  3  1  1  4 30.0000000  0 11G07G08G09G10G18G21G26G27G28G29G31
  24917288.779    24917284.762     -945848.746 4   -727040.946 1        39.000  
        21.000       -2232.124       -1739.317  
  21910199.786    21910196.034    -8374612.458 9  -6516524.073 5        50.000  
        40.000        3195.371        2489.900  
  24120009.570    24120005.705    -4437988.980 5  -3444864.074 1        41.000  
        26.000       -2845.366       -2217.168  
  22507259.451    22507256.274    -4421622.956 9  -3437526.811 4        51.000  
        39.000        3755.396        2926.282  
  24729268.222    24729263.980    -3084033.402 3  -2394894.469 1        35.000  
        20.000       -2611.318       -2034.794  
  24767999.530    24767993.882      613913.759 5    483300.753 1        41.000  
        21.000        1849.224        1440.954  
  20501891.706    20501886.932   -16273555.025 9 -13259030.129 7        54.000  
        47.000        -683.193        -532.358  
  24793335.995    24793333.536    11389341.692 3   8893588.354 1        37.000  
        21.000        3487.442        2717.487  
  21141129.251    21141124.120   -16670779.747 9 -12977956.235 7        54.000  
        46.000         541.533         421.974  
  20543863.002    20543858.145   -17976056.473 9 -14002244.879 7        54.000  
        47.000         -20.337         -15.847  
  25056366.775    25056362.131     2924175.620 4   2213997.488 1        38.000  
        20.000        2000.493        1558.826  
 04  3  1  1  5  0.0000000  0 11G07G08G09G10G18G21G26G27G28G29G31
  24904545.647    24904544.520    -1012800.006 4   -779210.714 1        38.000  
        21.000       -2231.421       -1738.770  
  21928462.935    21928459.598    -8278638.847 9  -6441739.443 5        50.000  
        40.000        3202.749        2495.649  
  24103778.377    24103774.798    -4523279.696 4  -3511324.281 1        39.000  
        26.000       -2840.908       -2213.695  
  22528728.087    22528724.974    -4308803.843 9  -3349615.824 4        50.000  
        39.000        3765.889        2934.459  
  24714388.402    24714383.561    -3162231.786 4  -2455828.213 1        38.000  
        22.000       -2602.031       -2027.557  
  24778601.091    24778596.613      669628.632 6    526714.978 1        43.000  
        22.000        1865.132        1453.349  
  20498029.565    20498024.564   -16293849.131 9 -13274843.715 8        54.000  
        48.000        -669.810        -521.930  
  24813248.539    24813245.739    11493981.834 4   8975126.060 1        39.000  
        22.000        3488.564        2718.362  
  21144274.292    21144269.324   -16654252.193 9 -12965077.610 7        52.000  
        45.000         560.259         436.565  
  20543783.766    20543778.983   -17976472.097 9 -14002568.737 7        54.000  
        47.000          -7.451          -5.806  
  25067837.420    25067832.469     2984458.188 4   2260970.952 1        38.000  
        20.000        2018.394        1572.774  
 04  3  1  1  5 30.0000000  0 11G07G08G09G10G18G21G26G27G28G29G31
  24891812.210    24891810.039    -1079726.856 4   -831361.445 1        39.000  
        23.000       -2230.371       -1737.952  
  21946768.415    21946764.500    -8182442.135 9  -6366780.972 4        50.000  
        39.000        3210.523        2501.706  
  24087574.073    24087570.994    -4608434.793 5  -3577678.924 1        41.000  
        26.000       -2836.108       -2209.955  
  22550257.083    22550253.265    -4195668.755 9  -3261458.630 4        51.000  
        39.000        3776.660        2942.852  
  24699563.374    24699556.317    -3240149.886 5  -2516543.640 1        41.000  
        25.000       -2592.310       -2019.981  
  24789294.489    24789288.270      725819.174 5    570499.787 1        41.000  
        19.000        1881.162        1465.841  
  20494244.833    20494240.305   -16313738.335 9 -13290341.802 8        55.000  
        48.000        -655.938        -511.120  
  24833166.935    24833164.153    11598653.285 5   9056688.222 1        41.000  
        23.000        3489.790        2719.317  
  21147526.442    21147521.177   -16637162.595 9 -12951761.029 7        53.000  
        45.000         579.189         451.316  
  20543778.528    20543774.096   -17976499.486 9 -14002590.073 8        54.000  
        48.000           5.845           4.554  
  25079411.689    25079407.095     3045282.781 3   2308366.762 1        35.000  
        19.000        2036.772        1587.095  
 04  3  1  1  6  0.0000000  0 10G07G08G09G10G18G21G26G27G28G29
  24879079.855    24879077.864    -1146629.979 5   -883493.718 1        40.000  
        23.000       -2229.629       -1737.373  
  21965115.598    21965111.700    -8086027.119 9  -6291652.395 5        50.000  
        40.000        3217.539        2507.173  
  24071395.621    24071392.782    -4693456.650 6  -3643929.647 1        43.000  
        27.000       -2831.914       -2206.686  
  22571844.780    22571841.841    -4082223.879 8  -3173060.047 4        49.000  
        38.000        3786.665        2950.648  
  24684788.055    24684781.807    -3317788.884 4  -2577041.592 1        38.000  
        24.000       -2583.281       -2012.946  
  24800075.281    24800070.754      782480.036 4    614651.133 1        39.000  
        19.000        1896.548        1477.829  
  20490536.630    20490532.232   -16333224.863 9 -13305526.100 8        54.000  
        48.000        -642.783        -500.870  
  24853090.311    24853087.304    11703352.196 5   9138271.819 1        41.000  
        22.000        3490.327        2719.735  
  21150884.589    21150879.459   -16619514.441 9 -12938009.209 7        53.000  
        46.000         597.622         465.680  
  20543847.125    20543842.567   -17976140.957 9 -14002310.702 8        54.000  
        48.000          18.398          14.336  
 04  3  1  1  6 30.0000000  0 10G07G08G09G10G18G21G26G27G28G29
  24866354.326    24866350.407    -1213508.693 5   -935607.066 1        40.000  
        22.000       -2228.745       -1736.684  
  21983504.000    21983500.535    -7989397.438 8  -6216356.554 5        49.000  
        40.000        3224.717        2512.766  
  24055241.602    24055238.220    -4778346.487 5  -3710077.477 1        42.000  
        26.000       -2827.178       -2202.996  
  22593490.708    22593487.642    -3968473.974 9  -3084423.764 4        50.000  
        39.000        3796.880        2958.608  
  24670065.639    24670060.263    -3395148.047 4  -2637321.398 1        38.000  
        21.000       -2573.706       -2005.485  
  24810947.306    24810941.835      839606.703 5    659165.414 1        40.000  
        19.000        1912.173        1490.005  
  20486905.296    20486900.664   -16352309.377 9 -13320397.148 8        55.000  
        48.000        -629.331        -490.388  
  24873019.737    24873015.746    11808075.898 5   9219874.609 1        40.000  
        21.000        3491.240        2720.447  
  21154348.867    21154343.921   -16601310.497 9 -12923824.313 7        53.000  
        45.000         616.226         480.176  
  20543988.410    20543983.598   -17975397.562 9 -14001731.441 8        54.000  
        48.000          31.382          24.453  
 04  3  1  1  7  0.0000000  0 10G07G08G09G10G18G21G26G27G28G29
  24853632.466    24853630.428    -1280354.385 4   -987694.598 1        38.000  
        20.000       -2227.695       -1735.866  
  22001933.635    22001929.826    -7892548.178 9  -6140889.607 4        50.000  
        39.000        3231.943        2518.397  
  24039113.781    24039109.907    -4863097.095 5  -3776116.863 1        42.000  
        25.000       -2822.695       -2199.503  
  22615195.385    22615191.879    -3854415.597 9  -2995547.119 4        50.000  
        39.000        3807.031        2966.518  
  24655400.643    24655393.555    -3472218.309 4  -2697376.207 1        38.000  
        22.000       -2564.277       -1998.138  
  24821906.775    24821902.028      897203.410 5    704045.904 1        41.000  
        19.000        1927.729        1502.127  
  20483351.355    20483346.761   -16370984.524 9 -13334949.209 8        54.000  
        48.000        -615.703        -479.769  
  24892953.326    24892950.593    11912829.955 4   9301501.129 1        39.000  
        21.000        3492.378        2721.333  
  21157919.875    21157914.544   -16582544.715 9 -12909201.618 7        54.000  
        46.000         634.873         494.706  
  20544204.675    20544199.997   -17974262.056 9 -14000846.633 8        55.000  
        48.000          44.429          34.620  
 04  3  1  1  7 30.0000000  0 10G07G08G09G10G18G21G26G27G28G29
  24840919.898    24840917.125    -1347161.145 5  -1039751.738 1        40.000  
        22.000       -2226.416       -1734.870  
  22020405.253    22020401.700    -7795478.001 9  -6065250.503 4        50.000  
        39.000        3238.994        2523.892  
  24023013.944    24023010.225    -4947704.279 5  -3842044.497 1        42.000  
        27.000       -2818.164       -2195.972  
  22636958.666    22636955.300    -3740048.545 9  -2906429.942 4        50.000  
        39.000        3817.041        2974.318  
  24640790.115    24640784.484    -3548994.236 5  -2757201.578 1        40.000  
        22.000       -2554.502       -1990.521  
  24832956.714    24832951.564      955270.998 5    749293.367 1        40.000  
        18.000        1942.988        1514.017  
  20479876.313    20479871.401   -16389245.865 9 -13349178.816 8        54.000  
        48.000        -602.051        -469.130  
  24912894.251    24912889.952    12017616.642 5   9383153.088 1        41.000  
        23.000        3493.032        2721.843  
  21161598.375    21161592.910   -16563214.508 9 -12894139.105 7        53.000  
        45.000         653.442         509.176  
  20544496.204    20544491.375   -17972730.141 9 -13999652.922 8        54.000  
        48.000          57.349          44.687  
 04  3  1  1  8  0.0000000  0 10G07G08G09G10G18G21G26G27G28G29
  24528421.375    24528418.710    -1413934.278 5  -1091782.728 1        40.000  
        23.000       -2224.658       -1733.500  
  21739126.234    21739122.130    -7698190.834 9  -5989442.330 4        50.000  
        39.000        3246.646        2529.854  
  23707146.835    23707142.716    -5032175.782 5  -3907866.376 1        42.000  
        27.000       -2813.003       -2191.950  
  22358987.066    22358984.225    -3625377.536 9  -2817075.920 4        50.000  
        39.000        3827.534        2982.494  
  24326442.511    24326437.842    -3625481.388 3  -2816801.969 1        36.000  
        23.000       -2544.307       -1982.577  
  24544302.907    24544298.239     1013803.600 5    794903.183 1        40.000  
        20.000        1959.023        1526.512  
  20176686.747    20176682.027   -16407098.551 9 -13363089.999 8        54.000  
        48.000        -587.920        -458.119  
  24633046.590    24633043.739    12122433.114 5   9464828.249 1        40.000  
        23.000        3494.556        2723.030  
  20865590.606    20865585.413   -16543325.331 9 -12878641.041 7        54.000  
        45.000         672.568         524.079  
  20245069.423    20245064.884   -17970806.511 9 -13998154.004 8        54.000  
        48.000          70.952          55.287  
 04  3  1  1  8 30.0000000  0 10G07G08G09G10G18G21G26G27G28G29
  24515722.936    24515720.463    -1480664.883 4  -1143780.575 1        39.000  
        22.000       -2223.682       -1732.739  
  21757679.384    21757675.331    -7600692.793 9  -5913469.835 5        50.000  
        40.000        3253.413        2535.127  
  23691099.412    23691095.575    -5116502.927 6  -3973575.792 1        43.000  
        27.000       -2808.633       -2188.545  
  22380864.766    22380861.826    -3510411.212 8  -2727491.797 4        49.000  
        38.000        3837.104        2989.952  
  24311944.284    24311938.655    -3701670.441 3  -2876170.034 1        37.000  
        21.000       -2534.722       -1975.108  
  24555529.818    24555524.826     1072797.109 5    840872.132 1        41.000  
        19.000        1974.048        1538.219  
  20173367.996    20173363.426   -16424538.294 9 -13376679.402 8        54.000  
        48.000        -574.521        -447.679  
  24652995.826    24652995.067    12227273.452 3   9546521.945 1        36.000  
        21.000        3495.225        2723.552  
  20869481.510    20869476.854   -16522877.080 9 -12862707.332 7        53.000  
        45.000         690.864         538.336  
  20245510.718    20245506.229   -17968488.483 9 -13996347.745 8        55.000  
        48.000          83.774          65.279  
 04  3  1  1  9  0.0000000  0 10G07G08G09G10G18G21G26G27G28G29
  24503031.813    24503029.099    -1547353.579 4  -1195745.832 1        39.000  
        22.000       -2222.490       -1731.811  
  21776273.090    21776269.055    -7502983.426 9  -5837332.688 5        51.000  
        40.000        3260.303        2540.496  
  23675078.638    23675075.303    -5200688.804 5  -4039175.155 1        41.000  
        26.000       -2804.014       -2184.946  
  22402798.367    22402795.099    -3395149.549 8  -2637677.525 4        49.000  
        38.000        3846.860        2997.553  
  24297502.820    24297496.907    -3777561.908 5  -2935306.239 1        40.000  
        21.000       -2524.985       -1967.521  
  24566842.761    24566837.473     1132249.632 5    887198.697 1        40.000  
        19.000        1989.190        1550.018  
  20170127.768    20170123.210   -16441565.455 9 -13389947.319 8        55.000  
        48.000        -560.820        -437.003  
  24672952.396    24672949.004    12332139.509 3   9628235.688 1        36.000  
        18.000        3495.659        2723.890  
  20873479.134    20873473.977   -16501870.780 9 -12846338.771 7        53.000  
        46.000         709.316         552.714  
  20246026.878    20246022.224   -17965775.881 9 -13994234.026 8        54.000  
        48.000          96.836          75.457  
 04  3  1  1  9 30.0000000  0 10G07G08G09G10G18G21G26G27G28G29
  24490350.100    24490346.851    -1613999.610 5  -1247677.743 1        40.000  
        22.000       -2220.776       -1730.475  
  21794905.849    21794902.188    -7405065.611 9  -5761033.092 4        50.000  
        39.000        3267.231        2545.895  
  23659086.528    23659082.198    -5284734.235 5  -4104665.047 1        42.000  
        26.000       -2799.302       -2181.274  
  22424787.153    22424783.930    -3279597.191 8  -2547636.734 4        48.000  
        39.000        3856.514        3005.076  
  24283118.256    24283111.777    -3853155.219 5  -2994210.162 1        41.000  
        22.000       -2514.810       -1959.592  
  24578243.588    24578238.008     1192157.329 5    933880.052 1        40.000  
        21.000        2004.487        1561.938  
  20166965.817    20166961.395   -16458180.598 9 -13402894.176 8        54.000  
        48.000        -547.085        -426.300  
  24692912.520    24692909.058    12437028.983 4   9709967.754 1        38.000  
        14.000        3496.714        2724.712  
  20877582.264    20877576.839   -16480308.612 9 -12829537.080 7        53.000  
        45.000         727.944         567.229  
  20246618.141    20246613.272   -17962669.419 9 -13991813.413 8        54.000  
        48.000         110.000          85.714  
 04  3  1  1 10  0.0000000  0 10G07G08G09G10G18G21G26G27G28G29
  24477676.363    24477674.284    -1680598.311 3  -1299572.786 1        37.000  
        23.000       -2219.302       -1729.326  
  21813578.769    21813574.899    -7306939.137 8  -5684570.918 4        49.000  
        39.000        3274.307        2551.408  
  23643119.995    23643116.631    -5368636.605 5  -4170043.456 1        42.000  
        27.000       -2794.380       -2177.439  
  22446830.932    22446828.335    -3163754.891 8  -2457370.024 4        48.000  
        38.000        3866.148        3012.583  
  24268790.472    24268784.822    -3928445.566 5  -3052878.026 1        40.000  
        22.000       -2504.697       -1951.712  
  24589727.941    24589724.394     1252520.149 4    980915.959 1        38.000  
        20.000        2019.600        1573.714  
  20163883.053    20163878.591   -16474380.735 9 -13415517.667 8        55.000  
        48.000        -533.164        -415.453  
  24712877.301    24712874.461    12541943.067 4   9791718.900 1        38.000  
        20.000        3497.568        2725.378  
  20881791.546    20881786.438   -16458189.295 9 -12812301.236 7        54.000  
        45.000         746.577         581.748  
  20247284.836    20247279.879   -17959166.374 9 -13989083.781 8        54.000  
        48.000         123.354          96.120  
 04  3  1  1 10 30.0000000  0 10G07G08G09G10G18G21G26G27G28G29
  24465011.627    24465009.289    -1747149.950 3  -1351431.199 1        37.000  
        24.000       -2217.661       -1728.048  
  21832290.963    21832286.584    -7208608.487 9  -5607949.642 4        50.000  
        39.000        3280.923        2556.563  
  23627181.761    23627177.343    -5452397.838 5  -4235311.935 1        42.000  
        28.000       -2789.868       -2173.923  
  22468929.722    22468926.334    -3047628.566 8  -2366881.999 4        48.000  
        38.000        3875.366        3019.766  
  24254520.926    24254515.008    -4003433.506 3  -3111310.116 1        36.000  
        22.000       -2494.673       -1943.901  
  24601301.722    24601297.401     1313332.611 4   1028302.266 1        38.000  
        18.000        2034.458        1585.292  
  20160879.387    20160874.889   -16490167.667 9 -13427819.167 8        55.000  
        48.000        -519.448        -404.765  
  24732844.271    24732842.541    12646878.057 3   9873486.453 1        37.000  
        21.000        3498.296        2725.945  
  20886106.103    20886100.699   -16435516.157 9 -12794633.849 7        53.000  
        45.000         764.854         595.990  
  20248026.553    20248021.838   -17955268.587 9 -13986046.545 8        54.000  
        48.000         136.392         106.279  
 04  3  1  1 11  0.0000000  0 10G07G08G09G10G18G21G26G27G28G29
  24452359.051    24452355.038    -1813650.849 4  -1403250.076 1        39.000  
        23.000       -2215.933       -1726.701  
  21851041.169    21851037.437    -7110074.008 8  -5531169.540 4        49.000  
        39.000        3287.832        2561.947  
  23611268.505    23611264.853    -5536015.824 5  -4300468.772 1        42.000  
        27.000       -2784.927       -2170.073  
  22491081.184    22491078.103    -2931219.921 9  -2276173.969 4        50.000  
        38.000        3884.941        3027.227  
  24240309.817    24240303.809    -4078115.495 4  -3169503.916 1        38.000  
        23.000       -2484.395       -1935.892  
  24612959.690    24612954.411     1374593.481 5   1076037.964 1        40.000  
        18.000        2049.468        1596.988  
  20157954.240    20157949.098   -16505538.845 9 -13439796.700 8        54.000  
        48.000        -505.508        -393.902  
  24752817.377    24752815.147    12751834.394 4   9955270.480 1        39.000  
        22.000        3499.048        2726.531  
  20890526.012    20890520.660   -16412288.852 9 -12776534.640 7        53.000  
        45.000         783.418         610.456  
  20248843.575    20248838.934   -17950974.017 9 -13982700.128 8        54.000  
        48.000         149.746         116.685  
 04  3  1  1 11 30.0000000  0 10G07G08G09G10G18G21G26G27G28G29
  24439714.879    24439711.918    -1880092.648 3  -1455022.885 1        37.000  
        23.000       -2213.965       -1725.167  
  21869831.179    21869827.830    -7011331.326 8  -5454227.194 4        49.000  
        39.000        3294.639        2567.251  
  23595385.330    23595381.523    -5619483.652 5  -4365508.644 1        42.000  
        27.000       -2779.951       -2166.196  
  22513287.255    22513284.474    -2814525.939 8  -2185243.592 4        48.000  
        38.000        3894.331        3034.544  
  24226158.184    24226152.195    -4152483.065 5  -3227452.682 1        40.000  
        25.000       -2473.867       -1927.689  
  24624702.420    24624697.763     1436306.273 3   1124125.863 1        36.000  
        17.000        2064.448        1608.661  
  20155109.538    20155104.931   -16520487.321 9 -13451444.861 8        55.000  
        48.000        -491.396        -382.906  
  24772794.641    24772792.916    12856817.301 2  10037075.306 1        33.000  
        20.000        3499.614        2726.972  
  20895052.424    20895047.333   -16388501.985 9 -12757999.412 7        53.000  
        46.000         802.017         624.948  
  20249737.620    20249732.831   -17946275.618 9 -13979039.039 8        54.000  
        48.000         163.125         127.110  
 04  3  1  1 12  0.0000000  0 10G07G08G09G10G18G21G26G27G28G29
  24427082.127    24427077.724    -1946478.161 5  -1506751.896 1        40.000  
        23.000       -2211.558       -1723.292  
  21888659.749    21888656.108    -6912387.673 8  -5377128.273 4        48.000  
        39.000        3301.636        2572.703  
  23579529.932    23579526.402    -5702806.144 5  -4430435.209 1        42.000  
        28.000       -2774.761       -2162.151  
  22535545.992    22535543.517    -2697555.216 8  -2094097.603 4        48.000  
        38.000        3903.823        3041.940  
  24212066.429    24212058.582    -4226539.226 5  -3285158.875 1        40.000  
        22.000       -2463.188       -1919.368  
  24636530.863    24636526.158     1498462.874 4   1172559.555 1        38.000  
        17.000        2079.468        1620.365  
  20152344.521    20152339.572   -16535017.608 9 -13462767.164 8        54.000  
        48.000        -477.188        -371.834  
  24792777.353    24792773.641    12961820.657 3  10118896.006 1        37.000  
        19.000        3500.513        2727.672  
  20899684.015    20899678.976   -16364161.770 9 -12739033.001 7        53.000  
        46.000         820.742         639.539  
  20250707.831    20250703.116   -17941177.984 9 -13975066.860 8        54.000  
        48.000         176.812         137.775  
 04  3  1  1 12 30.0000000  0 10G07G08G09G10G18G21G26G27G28G29
  24414460.612    24414456.478    -2012805.407 5  -1558435.409 1        40.000  
        24.000       -2209.663       -1721.815  
  21907525.626    21907521.756    -6813245.132 8  -5299874.350 4        49.000  
        38.000        3308.345        2577.931  
  23563700.729    23563697.801    -5785983.158 4  -4495248.428 1        39.000  
        28.000       -2769.746       -2158.244  
  22557856.805    22557854.246    -2580311.130 8  -2002738.591 3        48.000  
        37.000        3912.969        3049.067  
  24198031.371    24198026.961    -4300281.857 4  -3342620.599 1        38.000  
        23.000       -2452.588       -1911.107  
  24648442.893    24648437.837     1561060.668 4   1221337.012 1        38.000  
        11.000        2094.111        1631.775  
  20149659.296    20149654.427   -16549129.139 9 -13473763.163 8        55.000  
        48.000        -463.135        -360.884  
  24812761.712    24812759.407    13066842.903 3  10200731.561 1        35.000  
        21.000        3501.323        2728.304  
  20904420.829    20904415.754   -16339269.591 9 -12719636.486 7        53.000  
        46.000         839.287         653.990  
  20251753.635    20251748.895   -17935681.011 9 -13970783.514 8        54.000  
        48.000         190.137         148.158  
 04  3  1  1 13  0.0000000  0  9G07G08G09G10G18G21G26G28G29
  24401849.605    24401846.454    -2079070.230 4  -1610070.312 1        39.000  
        22.000       -2207.510       -1720.137  
  21926429.850    21926425.779    -6713903.508 9  -5222465.291 4        50.000  
        38.000        3314.790        2582.953  
  23547901.372    23547898.865    -5869012.171 5  -4559946.296 1        40.000  
        28.000       -2764.961       -2154.515  
  22580219.304    22580216.380    -2462795.086 7  -1911167.656 3        46.000  
        37.000        3921.831        3055.972  
  24184059.092    24184055.413    -4373706.967 5  -3399834.961 1        41.000  
        26.000       -2442.129       -1902.958  
  24660438.115    24660433.630     1624098.424 4   1270457.289 1        39.000  
        16.000        2108.730        1643.167  
  20147053.964    20147049.182   -16562819.149 9 -13484430.696 8        55.000  
        48.000        -449.150        -349.987  
  20909262.926    20909257.778   -16313824.673 9 -12699809.268 7        53.000  
        46.000         857.451         668.144  
  20252876.537    20252871.872   -17929782.158 9 -13966186.996 8        53.000  
        48.000         203.452         158.534  
 04  3  1  1 13 30.0000000  0  9G07G08G09G10G18G21G26G28G29
  24389251.579    24389249.367    -2145270.433 5  -1661654.899 1        40.000  
        22.000       -2205.503       -1718.574  
  21945371.723    21945367.785    -6614364.747 8  -5144902.632 3        49.000  
        37.000        3321.196        2587.945  
  23532129.629    23532126.884    -5951892.828 5  -4624528.609 1        41.000  
        27.000       -2760.117       -2150.741  
  22602633.539    22602630.163    -2345010.073 8  -1819387.136 3        48.000  
        37.000        3930.630        3062.828  
  24170149.155    24170142.982    -4446812.565 5  -3456800.388 1        40.000  
        24.000       -2431.523       -1894.694  
  24672516.988    24672512.444     1687573.347 3   1319918.234 1        36.000  
        14.000        2123.076        1654.345  
  20144529.491    20144524.689   -16576087.107 9 -13494769.356 8        54.000  
        48.000        -435.215        -339.128  
  20914210.136    20914204.885   -16287828.123 9 -12679552.198 7        54.000  
        46.000         875.693         682.358  
  20254075.389    20254070.920   -17923480.950 9 -13961276.963 8        54.000  
        48.000         216.733         168.883  
 04  3  1  1 14  0.0000000  0  9G07G08G09G10G18G21G26G28G29
  24376668.637    24376664.224    -2211401.531 6  -1713185.603 1        43.000  
        23.000       -2203.320       -1716.873  
  21964350.855    21964346.833    -6514628.864 8  -5067186.378 4        48.000  
        38.000        3327.754        2593.055  
  23516386.110    23516383.390    -6034622.348 5  -4688993.106 1        40.000  
        27.000       -2755.161       -2146.879  
  22625097.947    22625095.296    -2226957.621 7  -1727398.221 3        45.000  
        37.000        3939.370        3069.639  
  24156297.427    24156293.173    -4519593.633 5  -3513512.890 1        41.000  
        22.000       -2420.752       -1886.300  
  24684679.443    24684674.435     1751484.945 3   1369719.395 1        35.000  
        13.000        2137.466        1665.558  
  20142085.354    20142080.847   -16588929.839 9 -13504776.682 8        54.000  
        48.000        -421.152        -328.171  
  20919262.061    20919257.130   -16261278.637 9 -12658864.287 7        53.000  
        45.000         894.097         696.699  
  20255351.426    20255347.140   -17916774.595 9 -13956051.240 8        53.000  
        48.000         230.215         179.388  
 04  3  1  1 14 30.0000000  0  9G07G08G09G10G18G21G26G28G29
  24364098.219    24364093.885    -2277464.086 5  -1764662.939 1        42.000  
        23.000       -2200.688       -1714.822  
  21983366.297    21983362.444    -6414700.312 8  -4989319.980 4        48.000  
        38.000        3334.360        2598.203  
  23500672.073    23500668.928    -6117202.989 4  -4753341.693 1        39.000  
        26.000       -2750.039       -2142.888  
  22647611.973    22647609.525    -2108643.877 7  -1635205.718 3        47.000  
        37.000        3948.325        3076.617  
  24142510.459    24142504.894    -4592051.567 4  -3569973.649 1        38.000  
        23.000       -2409.741       -1877.720  
  24696923.064    24696918.937     1815827.399 4   1419856.426 1        38.000  
        14.000        2151.987        1676.873  
  20139721.891    20139717.393   -16601349.667 9 -13514454.472 8        54.000  
        48.000        -406.772        -316.966  
  20924418.915    20924414.039   -16234180.401 9 -12637748.769 7        53.000  
        45.000         912.573         711.096  
  20256704.569    20256699.870   -17909665.280 9 -13950511.520 8        54.000  
        48.000         243.857         190.019  
 04  3  1  1 15  0.0000000  0  9G07G08G09G10G18G21G26G28G29
  24351540.153    24351536.091    -2343453.099 6  -1816082.978 1        43.000  
        23.000       -2198.359       -1713.007  
  22002418.947    22002415.127    -6314578.068 8  -4911302.649 3        49.000  
        37.000        3340.630        2603.088  
  23484986.246    23484983.563    -6199631.531 4  -4817571.676 1        39.000  
        29.000       -2745.127       -2139.060  
  22670176.579    22670173.345    -1990069.034 6  -1542809.733 4        44.000  
        38.000        3956.797        3083.218  
  24128783.964    24128779.404    -4664181.531 4  -3626178.826 1        39.000  
        25.000       -2398.843       -1869.228  
  24709248.998    24709244.593     1880600.948 3   1470329.270 1        35.000  
        14.000        2166.343        1688.059  
  20137439.717    20137435.030   -16613342.866 9 -13523799.819 8        55.000  
        48.000        -392.695        -305.996  
  20929680.000    20929675.164   -16206531.771 9 -12616204.372 7        53.000  
        45.000         930.811         725.307  
  20258134.569    20258130.085   -17902149.752 9 -13944655.266 8        54.000  
        48.000         257.236         200.444  
 04  3  1  1 15 30.0000000  0  9G07G08G09G10G18G21G26G28G29
  24338996.796    24338993.629    -2409367.148 5  -1867444.534 1        42.000  
        23.000       -2195.728       -1710.957  
  22021507.734    22021504.430    -6214265.006 8  -4833136.635 3        48.000  
        37.000        3347.031        2608.076  
  23469330.000    23469325.540    -6281908.153 5  -4881683.318 1        42.000  
        28.000       -2739.897       -2134.985  
  22692789.192    22692786.349    -1871237.441 7  -1450213.698 3        47.000  
        37.000        3965.410        3089.930  
  24115121.059    24115116.711    -4735981.314 5  -3682126.700 1        40.000  
        27.000       -2387.710       -1860.553  
  24721656.641    24721652.377     1945801.577 3   1521134.914 1        37.000  
        14.000        2180.586        1699.158  
  20135238.606    20135233.698   -16624909.787 9 -13532813.004 8        54.000  
        48.000        -378.320        -294.795  
  20935045.788    20935040.716   -16178334.910 9 -12594232.784 7        54.000  
        45.000         949.116         739.571  
  20259641.957    20259637.520   -17894228.348 9 -13938482.746 8        54.000  
        48.000         270.986         211.158  
 04  3  1  1 16  0.0000000  0  9G07G08G09G10G18G21G26G28G29
  24326469.609    24326465.669    -2475202.370 6  -1918744.760 1        44.000  
        25.000       -2193.140       -1708.940  
  22040633.544    22040629.770    -6113761.377 8  -4754822.134 4        48.000  
        38.000        3353.306        2612.965  
  23453702.201    23453699.495    -6364030.847 5  -4945674.988 1        40.000  
        29.000       -2734.746       -2130.971  
  22715450.417    22715448.090    -1752150.682 7  -1357418.845 3        46.000  
        37.000        3973.814        3096.478  
  24101522.310    24101516.914    -4807447.280 4  -3737814.483 1        38.000  
        25.000       -2376.465       -1851.791  
  24734144.619    24734140.420     2011427.976 4   1572272.387 1        38.000  
        16.000        2194.395        1709.918  
  20133119.000    20133114.367   -16636047.923 9 -13541492.064 8        54.000  
        48.000        -364.058        -283.681  
  20940515.813    20940510.937   -16149588.918 9 -12571833.306 7        53.000  
        45.000         967.407         753.824  
  20261227.329    20261222.450   -17885898.895 9 -13931992.262 8        53.000  
        48.000         284.492         221.682  
 04  3  1  1 16 30.0000000  0  9G07G08G09G10G18G21G26G28G29
  24313956.498    24313953.920    -2540953.494 5  -1969979.351 1        42.000  
        23.000       -2190.225       -1706.669  
  22059794.872    22059790.971    -6013066.023 8  -4676358.240 3        48.000  
        37.000        3359.678        2617.931  
  23438105.483    23438101.709    -6445996.024 6  -5009543.917 1        43.000  
        29.000       -2729.565       -2126.934  
  22738160.321    22738157.408    -1632808.887 7  -1264425.245 3        46.000  
        37.000        3982.217        3103.026  
  24087986.999    24087981.189    -4878574.610 5  -3793238.405 1        40.000  
        25.000       -2365.366       -1843.142  
  24746716.222    24746709.405     2077480.666 4   1623741.887 1        38.000  
        16.000        2208.809        1721.150  
  20131081.757    20131076.983   -16646753.464 9 -13549834.059 8        54.000  
        48.000        -349.648        -272.453  
  20946091.301    20946086.248   -16120292.050 9 -12549004.574 7        54.000  
        45.000         985.713         768.088  
  20262890.357    20262885.965   -17877157.849 9 -13925181.065 8        54.000  
        48.000         298.208         232.370  
 04  3  1  1 17  0.0000000  0  9G07G08G09G10G18G21G26G28G29
  24301458.869    24301456.286    -2606624.664 4  -2021151.685 1        39.000  
        23.000       -2187.661       -1704.671  
  22078991.497    22078987.935    -5912187.051 7  -4597751.252 4        47.000  
        38.000        3365.693        2622.618  
  23422535.932    23422532.458    -6527809.552 5  -5073294.700 1        41.000  
        29.000       -2724.522       -2123.004  
  22760917.416    22760914.135    -1513221.858 7  -1171240.562 3        47.000  
        37.000        3990.283        3109.311  
  24074515.346    24074510.383    -4949367.141 5  -3848401.431 1        41.000  
        24.000       -2354.126       -1834.384  
  24759363.245    24759358.407     2143950.168 3   1675536.352 1        37.000  
        16.000        2222.539        1731.849  
  20129125.825    20129121.247   -16657032.259 9 -13557843.502 8        55.000  
        49.000        -335.493        -261.423  
  20951769.202    20951764.236   -16090452.078 9 -12525752.631 7        53.000  
        45.000        1003.691         782.097  
  20264630.992    20264626.260   -17868011.084 9 -13918053.719 8        53.000  
        48.000         311.606         242.810  
 04  3  1  1 17 30.0000000  0  9G07G08G09G10G18G21G26G28G29
  24288978.491    24288975.119    -2672213.781 5  -2072260.093 1        42.000  
        23.000       -2184.736       -1702.392  
  22098222.603    22098218.855    -5811126.788 7  -4519003.015 3        47.000  
        37.000        3371.841        2627.408  
  23406996.205    23406992.952    -6609471.253 6  -5136927.121 1        43.000  
        28.000       -2719.302       -2118.937  
  22783719.789    22783717.078    -1393393.293 7  -1077867.656 3        45.000  
        36.000        3998.520        3115.730  
  24061109.306    24061102.754    -5019823.243 5  -3903302.262 1        40.000  
        24.000       -2342.759       -1825.526  
  24772090.037    24772086.288     2210833.111 3   1727652.902 1        36.000  
        17.000        2236.538        1742.757  
  20127251.137    20127246.644   -16666883.648 9 -13565519.907 8        54.000  
        48.000        -321.055        -250.172  
  20957550.580    20957545.992   -16060070.425 9 -12502078.615 7        53.000  
        45.000        1021.929         796.308  
  20266448.914    20266444.036   -17858458.318 9 -13910610.017 8        54.000  
        48.000         325.439         253.589  
 04  3  1  1 18  0.0000000  0  9G07G08G09G10G18G21G26G28G29
  24276513.935    24276511.213    -2737713.801 5  -2123299.065 1        42.000  
        25.000       -2181.958       -1700.227  
  22117489.262    22117484.987    -5709881.830 7  -4440110.850 3        45.000  
        37.000        3377.773        2632.031  
  23391487.220    23391482.531    -6690975.663 6  -5200437.058 1        43.000  
        29.000       -2714.336       -2115.067  
  22806568.766    22806565.741    -1273321.603 7   -984305.326 3        47.000  
        36.000        4006.265        3121.765  
  24047766.558    24047760.304    -5089935.162 5  -3957934.924 1        41.000  
        25.000       -2331.514       -1816.764  
  24784895.897    24784892.773     2278131.767 2   1780093.434 1        34.000  
        13.000        2250.039        1753.277  
  20125458.978    20125454.191   -16676302.287 9 -13572859.104 8        54.000  
        48.000        -306.948        -239.180  
  20963436.140    20963430.779   -16029143.169 9 -12477979.445 7        53.000  
        45.000        1039.863         810.283  
  20268344.924    20268339.973   -17848494.219 9 -13902845.787 8        54.000  
        48.000         338.843         264.033  
 04  3  1  1 18 30.0000000  0  9G07G08G09G10G18G21G26G28G29
  24264067.786    24264064.816    -2803121.622 5  -2174266.213 1        42.000  
        25.000       -2178.750       -1697.727  
  22136790.216    22136786.401    -5608453.603 8  -4361075.873 3        48.000  
        37.000        3383.989        2636.875  
  23376007.566    23376003.928    -6772321.734 6  -5263823.539 1        43.000  
        30.000       -2708.789       -2110.745  
  22829463.530    22829460.395    -1153009.230 8   -890555.437 3        48.000  
        36.000        4014.409        3128.111  
  24034491.204    24034484.834    -5159700.791 5  -4012297.784 1        42.000  
        25.000       -2319.766       -1807.610  
  24797782.122    24797777.650     2345843.801 4   1832855.980 1        38.000  
        18.000        2263.940        1764.109  
  20123748.925    20123744.292   -16685286.761 9 -13579859.986 8        54.000  
        48.000        -292.266        -227.739  
  20969425.018    20969419.794   -15997671.112 9 -12453455.743 7        53.000  
        45.000        1058.066         824.467  
  20270319.515    20270314.911   -17838117.671 9 -13894760.163 8        53.000  
        48.000         352.764         274.881  
 04  3  1  1 19  0.0000000  0  9G07G08G09G10G18G21G26G28G29
  24251637.235    24251635.576    -2868435.705 4  -2225160.242 1        39.000  
        23.000       -2175.601       -1695.273  
  22156125.712    22156122.094    -5506844.446 8  -4281899.917 3        48.000  
        37.000        3389.873        2641.459  
  23360557.639    23360554.948    -6853509.409 6  -5327086.584 1        44.000  
        31.000       -2703.682       -2106.765  
  22852403.088    22852400.494    -1032460.009 7   -796620.987 3        46.000  
        36.000        4022.168        3134.157  
  24021281.081    24021274.968    -5229118.570 5  -4066389.512 1        40.000  
        26.000       -2308.237       -1798.626  
  24810744.851    24810740.283     2413965.322 4   1885937.688 1        38.000  
        17.000        2277.422        1774.615  
  20122122.021    20122117.371   -16693837.054 9 -13586522.556 8        54.000  
        48.000        -277.900        -216.546  
  20975516.798    20975512.133   -15965656.439 9 -12428509.246 7        53.000  
        45.000        1076.133         838.545  
  20272372.705    20272367.820   -17827328.745 9 -13886353.208 8        53.000  
        48.000         366.475         285.565  
 04  3  1  1 19 30.0000000  0  9G07G08G09G10G18G21G26G28G29
  24239228.772    24239225.138    -2933652.975 5  -2275978.870 1        41.000  
        23.000       -2172.231       -1692.648  
  22175495.747    22175492.444    -5405055.319 7  -4202583.735 3        47.000  
        37.000        3395.898        2646.155  
  23345138.966    23345134.649    -6934537.427 6  -5390225.270 1        44.000  
        29.000       -2698.315       -2102.583  
  22875387.800    22875384.640     -911676.582 7   -702504.033 3        46.000  
        36.000        4029.966        3140.233  
  24008138.035    24008131.667    -5298185.498 5  -4120207.907 1        40.000  
        24.000       -2296.245       -1789.282  
  24823786.287    24823781.149     2482494.224 4   1939336.785 1        38.000  
        17.000        2291.079        1785.256  
  20120577.948    20120573.157   -16701951.320 9 -13592845.355 8        54.000  
        49.000        -263.252        -205.131  
  20981712.445    20981706.971   -15933099.816 9 -12403140.445 7        53.000  
        45.000        1094.224         852.642  
  20274504.266    20274499.563   -17816126.027 9 -13877623.823 8        53.000  
        48.000         380.303         296.340  
 04  3  1  1 20  0.0000000  0  9G07G08G09G10G18G21G26G28G29
  24226836.388    24226833.920    -2998768.869 5  -2326718.593 1        41.000  
        23.000       -2168.711       -1689.905  
  22194899.424    22194896.163    -5303086.029 7  -4123127.156 3        47.000  
        36.000        3402.046        2650.945  
  23329749.624    23329746.927    -7015403.050 7  -5453237.414 1        45.000  
        29.000       -2692.715       -2098.219  
  22898416.227    22898412.996     -790660.026 7   -608205.432 3        47.000  
        35.000        4037.788        3146.328  
  23995061.958    23995056.109    -5366897.441 5  -4173749.722 1        41.000  
        25.000       -2284.351       -1780.013  
  24836904.343    24836899.573     2551429.737 4   1993052.750 1        38.000  
        16.000        2304.707        1795.876  
  20119117.434    20119112.507   -16709627.042 9 -13598826.435 8        55.000  
        48.000        -248.530        -193.660  
  20988011.290    20988006.198   -15900000.054 9 -12377348.419 7        53.000  
        45.000        1112.427         866.826  
  20276715.590    20276710.709   -17804507.024 9 -13868570.063 8        54.000  
        48.000         394.302         307.248  
 04  3  1  1 20 30.0000000  0  9G07G08G09G10G18G21G26G28G29
  24214464.609    24214462.182    -3063783.081 4  -2377379.017 1        39.000  
        25.000       -2165.269       -1687.222  
  22214337.218    22214333.774    -5200940.210 7  -4043533.011 3        47.000  
        36.000        3407.974        2655.564  
  23314392.626    23314388.432    -7096107.519 7  -5516123.934 1        45.000  
        31.000       -2687.310       -2094.008  
  22921488.257    22921485.101     -669415.807 8   -513729.424 3        48.000  
        35.000        4045.459        3152.306  
  23982054.541    23982049.190    -5435253.775 5  -4227014.406 1        40.000  
        25.000       -2272.427       -1770.722  
  24850098.713    24850094.004     2620766.831 4   2047081.605 1        38.000  
        16.000        2318.110        1806.320  
  20117739.856    20117735.196   -16716865.399 9 -13604466.712 8        55.000  
        49.000        -233.804        -182.185  
  20994412.422    20994407.111   -15866360.278 9 -12351135.603 7        53.000  
        45.000        1130.498         880.908  
  20279005.348    20279000.556   -17792473.116 9 -13859192.993 8        55.000  
        48.000         408.213         318.088  
 04  3  1  1 21  0.0000000  0  9G07G08G09G10G18G21G26G28G29
  24202113.826    24202110.797    -3128690.917 3  -2427956.547 1        37.000  
        23.000       -2161.885       -1684.586  
  22233808.886    22233805.627    -5098617.285 7  -3963800.883 3        47.000  
        36.000        3413.574        2659.928  
  23299065.682    23299061.474    -7176648.051 7  -5578882.757 1        45.000  
        29.000       -2682.036       -2089.898  
  22944603.903    22944600.408     -547944.470 8   -419076.441 3        48.000  
        35.000        4052.651        3157.910  
  23969114.497    23969110.469    -5503250.084 5  -4279998.532 1        40.000  
        25.000       -2260.591       -1761.499  
  24863368.573    24863364.979     2690505.454 3   2101423.305 1        36.000  
        15.000        2331.250        1816.558  
  20116446.274    20116441.215   -16723663.161 9 -13609763.674 8        55.000  
        48.000        -219.385        -170.949  
  21000916.898    21000911.637   -15832179.614 9 -12324501.311 7        53.000  
        45.000        1148.262         894.749  
  20281375.248    20281370.345   -17780021.361 9 -13849490.331 8        54.000  
        48.000         421.938         328.783  
 04  3  1  1 21 30.0000000  0  9G07G08G09G10G18G21G26G28G29
  24189781.876    24189780.091    -3193491.176 4  -2478450.144 1        38.000  
        25.000       -2158.188       -1681.705  
  22253313.673    22253309.960    -4996120.137 7  -3883932.991 3        46.000  
        37.000        3419.351        2664.429  
  23283771.078    23283768.024    -7257025.290 7  -5641514.334 1        45.000  
        31.000       -2676.558       -2085.629  
  22967761.556    22967758.915     -426250.676 8   -324250.122 3        48.000  
        35.000        4060.088        3163.705  
  23956244.256    23956239.364    -5570885.277 4  -4332701.253 1        39.000  
        25.000       -2248.560       -1752.124  
  24876716.179    24876711.697     2760641.154 3   2156074.496 1        36.000  
        15.000        2344.287        1826.717  
  20115236.541    20115231.926   -16730021.012 9 -13614717.842 8        54.000  
        49.000        -204.678        -159.489  
  21007523.614    21007518.363   -15797460.744 9 -12297447.637 7        53.000  
        45.000        1166.245         908.762  
  20283823.751    20283819.173   -17767152.535 9 -13839462.672 8        53.000  
        48.000         435.923         339.680  
 04  3  1  1 22  0.0000000  0  9G07G08G09G10G18G21G26G28G29
  24177473.226    24177470.054    -3258178.495 5  -2528855.916 1        40.000  
        25.000       -2154.268       -1678.650  
  22272851.225    22272847.290    -4893447.540 7  -3803928.373 3        46.000  
        35.000        3425.244        2669.021  
  23268507.189    23268503.958    -7337235.945 6  -5704016.106 1        44.000  
        30.000       -2670.986       -2081.288  
  22990960.857    22990957.983     -304334.683 7   -229250.652 3        47.000  
        35.000        4067.461        3169.450  
  23943443.849    23943438.086    -5638154.342 5  -4385118.735 1        41.000  
        25.000       -2236.309       -1742.578  
  24890137.392    24890133.639     2831173.751 4   2211034.904 1        38.000  
        19.000        2357.603        1837.093  
  20114111.266    20114106.267   -16735935.137 9 -13619326.244 8        54.000  
        48.000        -189.839        -147.926  
  21014233.242    21014228.252   -15762201.815 9 -12269973.144 7        54.000  
        45.000        1184.204         922.756  
  20286352.988    20286348.223   -17753863.121 9 -13829107.286 8        54.000  
        48.000         449.878         350.554  
 04  3  1  1 22 30.0000000  0  9G07G08G09G10G18G21G26G28G29
  24165184.285    24165182.275    -3322754.151 4  -2579174.613 1        39.000  
        25.000       -2150.708       -1675.876  
  22292421.442    22292417.263    -4790604.539 7  -3723790.984 3        46.000  
        36.000        3430.825        2673.370  
  23253274.772    23253270.631    -7417282.849 7  -5766390.272 1        45.000  
        31.000       -2665.591       -2077.084  
  23014201.576    23014198.974     -182203.047 7   -134083.161 3        47.000  
        35.000        4074.541        3174.967  
  23930712.469    23930707.041    -5705058.324 5  -4437251.705 1        41.000  
        27.000       -2224.072       -1733.043  
  24903634.469    24903629.053     2902096.875 4   2266299.633 1        39.000  
        18.000        2370.454        1847.107  
  20113069.637    20113064.980   -16741408.267 9 -13623591.028 8        54.000  
        49.000        -175.103        -136.444  
  21021044.672    21021039.665   -15726407.685 9 -12242081.604 7        54.000  
        45.000        1201.948         936.583  
  20288961.023    20288956.340   -17740156.183 9 -13818426.567 8        54.000  
        48.000         463.809         361.409  
 04  3  1  1 23  0.0000000  0  9G07G08G09G10G18G21G26G28G29
  24152917.574    24152915.722    -3387214.884 3  -2629403.718 1        36.000  
        25.000       -2146.709       -1672.760  
  22312024.037    22312020.252    -4687592.221 7  -3643521.651 3        46.000  
        35.000        3436.533        2677.818  
  23238073.743    23238070.296    -7497164.572 7  -5828635.726 1        45.000  
        32.000       -2659.824       -2072.590  
  23037483.802    23037480.145      -59858.270 8    -38749.570 3        48.000  
        35.000        4081.719        3180.560  
  23918050.265    23918045.002    -5771594.341 5  -4489097.952 1        40.000  
        25.000       -2211.812       -1723.490  
  24917203.970    24917199.314     2973408.488 4   2321867.109 1        38.000  
        18.000        2383.652        1857.391  
  20112112.232    20112107.754   -16746438.999 9 -13627511.070 8        54.000  
        49.000        -160.225        -124.850  
  21027957.561    21027952.936   -15690078.940 9 -12213773.478 7        54.000  
        45.000        1219.902         950.573  
  20291649.225    20291644.235   -17726030.354 9 -13807419.436 8        54.000  
        48.000         477.910         372.397  
 04  3  1  1 23 30.0000000  0  9G07G08G09G10G18G21G26G28G29
  24140675.208    24140672.441    -3451554.443 4  -2679538.387 1        39.000  
        25.000       -2142.559       -1669.526  
  22331659.213    22331656.239    -4584408.324 7  -3563118.638 3        46.000  
        36.000        3442.246        2682.270  
  23222905.301    23222901.967    -7576876.462 7  -5890748.816 1        46.000  
        31.000       -2654.238       -2068.238  
  23060805.032    23060802.263       62700.383 8     56750.674 3        48.000  
        35.000        4088.657        3185.967  
  23905461.100    23905455.422    -5837756.131 5  -4540652.572 1        40.000  
        27.000       -2199.102       -1713.586  
  24930848.210    24930844.377     3045109.431 3   2377737.941 1        37.000  
        17.000        2396.436        1867.352  
  20111240.165    20111235.097   -16751022.690 9 -13631082.791 8        54.000  
        49.000        -145.386        -113.288  
  21034973.011    21034968.067   -15653213.072 9 -12185046.832 7        53.000  
        45.000        1237.744         964.476  
  20294417.891    20294413.304   -17711481.285 9 -13796082.498 8        54.000  
        48.000         491.963         383.348  
 04  3  1  1 24  0.0000000  0  9G07G08G09G10G18G21G26G28G29
  24128454.890    24128451.387    -3515773.758 4  -2729579.449 1        39.000  
        27.000       -2138.623       -1666.459  
  22351326.320    22351322.696    -4481057.925 7  -3482585.870 3        47.000  
        36.000        3447.803        2686.600  
  23207767.634    23207764.216    -7656421.231 7  -5952731.699 1        45.000  
        30.000       -2648.711       -2063.931  
  23084166.997    23084164.119      185466.289 8    152412.399 3        48.000  
        35.000        4095.635        3191.404  
  23892941.817    23892936.173    -5903545.133 5  -4591916.762 1        41.000  
        27.000       -2186.860       -1704.047  
  24944564.484    24944561.378     3117193.251 1   2433907.160 1        31.000  
        16.000        2409.395        1877.450  
  20110452.478    20110447.702   -16755162.168 9 -13634308.350 8        54.000  
        49.000        -130.503        -101.691  
  21042089.608    21042084.582   -15615814.803 9 -12155905.319 7        53.000  
        45.000        1255.513         978.322  
  20297266.276    20297261.627   -17696511.765 9 -13784417.944 8        53.000  
        48.000         506.060         394.332  
 04  3  1  1 24 30.0000000  0  9G07G08G09G10G18G21G26G28G29
  24116257.580    24116254.944    -3579866.915 4  -2779522.186 1        38.000  
        26.000       -2134.111       -1662.944  
  22371025.142    22371021.834    -4377539.042 7  -3401921.810 3        47.000  
        35.000        3453.647        2691.154  
  23192663.488    23192660.347    -7735794.713 7  -6014581.102 1        45.000  
        30.000       -2642.588       -2059.159  
  23107568.012    23107564.775      308439.821 8    248235.934 2        49.000  
        34.000        4102.803        3196.989  
  23880493.845    23880488.089    -5968955.151 4  -4642885.607 1        39.000  
        25.000       -2173.721       -1693.808  
  24958355.658    24958351.804     3189660.353 3   2490375.008 1        35.000  
        14.000        2422.178        1887.411  
  20109750.101    20109745.340   -16758852.910 9 -13637184.246 8        54.000  
        49.000        -115.313         -89.854  
  21049307.937    21049303.594   -15577882.016 9 -12126347.296 7        53.000  
        45.000        1273.545         992.373  
  20300195.570    20300190.875   -17681117.820 9 -13772422.666 8        54.000  
        48.000         520.503         405.587  
 04  3  1  1 25  0.0000000  0  9G07G08G09G10G18G21G26G28G29
  24104084.703    24104081.906    -3643833.929 4  -2829366.665 1        39.000  
        23.000       -2130.391       -1660.045  
  22390755.979    22390752.095    -4273855.923 7  -3321129.778 3        47.000  
        35.000        3458.594        2695.008  
  23177591.232    23177588.328    -7814998.982 7  -6076298.671 1        45.000  
        31.000       -2637.603       -2055.275  
  23131007.383    23131004.518      431615.055 8    344216.623 2        48.000  
        34.000        4108.867        3201.715  
  23868119.769    23868113.268    -6033986.543 5  -4693559.464 1        41.000  
        25.000       -2161.587       -1684.353  
  24972218.090    24972212.977     3262505.453 4   2547137.375 1        38.000  
        17.000        2434.199        1896.779  
  20109132.708    20109127.907   -16762096.683 9 -13639711.865 8        55.000  
        49.000        -100.903         -78.626  
  21056627.241    21056622.073   -15539418.548 9 -12096375.753 7        52.000  
        45.000        1290.747        1005.777  
  20303205.528    20303201.190   -17665301.333 9 -13760098.137 8        53.000  
        48.000         533.975         416.084  
 04  3  1  1 25 30.0000000  0  9G07G08G09G10G18G21G26G28G29
  24091936.804    24091933.603    -3707677.348 5  -2879114.714 1        40.000  
        27.000       -2125.845       -1656.502  
  22410515.551    22410512.199    -4170014.813 7  -3240214.641 3        47.000  
        36.000        3464.180        2699.361  
  23162551.053    23162547.561    -7894038.262 6  -6137887.676 1        44.000  
        32.000       -2631.650       -2050.637  
  23154483.714    23154480.845      554984.177 8    440348.386 2        48.000  
        34.000        4115.723        3207.057  
  23855815.921    23855810.309    -6098641.892 5  -4743940.257 1        42.000  
        27.000       -2148.735       -1674.339  
  24986149.948    24986145.592     3335720.849 4   2604188.301 1        38.000  
        16.000        2446.748        1906.557  
  20108599.703    20108595.309   -16764897.700 9 -13641894.474 8        54.000  
        49.000         -85.762         -66.827  
  21064046.515    21064041.712   -15500430.466 9 -12065995.417 7        53.000  
        45.000        1308.569        1019.664  
  20306294.650    20306290.168   -17649066.552 9 -13747447.664 8        54.000  
        48.000         548.296         427.244  
 04  3  1  1 26  0.0000000  0  8G07G08G09G10G18G26G28G29
  24079812.711    24079810.441    -3771386.186 4  -2928757.915 1        39.000  
        26.000       -2121.362       -1653.010  
  22430307.171    22430304.009    -4066009.211 7  -3159171.345 3        47.000  
        35.000        3469.668        2703.637  
  23147542.999    23147540.156    -7972903.364 6  -6199340.931 1        43.000  
        32.000       -2625.747       -2046.037  
  23177997.754    23177994.728      678552.434 8    536635.340 2        49.000  
        34.000        4122.310        3212.189  
  23843586.583    23843579.335    -6162910.947 6  -4794020.060 1        43.000  
        27.000       -2135.776       -1664.241  
  20108152.552    20108147.769   -16767247.018 9 -13643725.118 8        55.000  
        49.000         -70.713         -55.101  
  21071567.209    21071561.637   -15460910.865 9 -12035200.921 7        52.000  
        45.000        1326.240        1033.434  
  20309465.543    20309460.965   -17632404.633 9 -13734464.350 8        53.000  
        48.000         562.588         438.380  
 04  3  1  1 26 30.0000000  0  8G07G08G09G10G18G26G28G29
  24067716.820    24067713.282    -3834955.254 4  -2978292.258 1        38.000  
        26.000       -2116.812       -1649.464  
  22450130.775    22450126.843    -3961837.766 8  -3077998.794 3        48.000  
        35.000        3474.897        2707.712  
  23132569.915    23132566.833    -8051590.772 6  -6260655.757 2        43.000  
        33.000       -2620.186       -2041.703  
  23201550.144    23201547.373      802319.387 8    633077.113 2        48.000  
        34.000        4128.638        3217.120  
  23831430.488    23831424.365    -6226788.310 6  -4843794.628 1        43.000  
        28.000       -2122.915       -1654.219  
  20107792.429    20107787.182   -16769140.848 9 -13645200.824 8        54.000  
        49.000         -55.742         -43.435  
  21079188.538    21079183.513   -15420858.434 9 -12003991.227 7        53.000  
        45.000        1343.809        1047.124  
  20312718.092    20312713.708   -17615312.326 9 -13721145.669 8        54.000  
        48.000         576.729         449.399  
 04  3  1  1 27  0.0000000  0  8G07G08G09G10G18G26G28G29
  24055645.140    24055642.254    -3898386.215 4  -3027718.991 1        38.000  
        25.000       -2111.992       -1645.708  
  22469984.724    22469980.251    -3857506.064 8  -2996701.385 3        48.000  
        35.000        3480.391        2711.993  
  23117629.838    23117625.630    -8130104.075 6  -6321834.908 2        44.000  
        33.000       -2614.194       -2037.035  
  23225138.680    23225135.937      926277.779 7    729668.066 2        47.000  
        34.000        4135.044        3222.112  
  23819349.103    23819344.207    -6290275.998 5  -4893265.542 1        42.000  
        27.000       -2109.736       -1643.950  
  20107517.804    20107513.069   -16770582.664 9 -13646324.315 8        55.000  
        49.000         -40.610         -31.644  
  21086910.770    21086906.209   -15380278.454 9 -11972370.457 7        53.000  
        45.000        1361.416        1060.844  
  20316051.801    20316047.361   -17597793.053 9 -13707494.294 8        54.000  
        48.000         591.094         460.593  
 04  3  1  1 27 30.0000000  0  8G07G08G09G10G18G26G28G29
  24043602.246    24043599.336    -3961673.763 6  -3077033.959 1        43.000  
        26.000       -2107.432       -1642.155  
  22489868.578    22489865.341    -3753012.884 7  -2915278.133 2        47.000  
        34.000        3485.449        2715.935  
  23102722.407    23102718.859    -8208439.788 5  -6382875.684 2        42.000  
        33.000       -2608.535       -2032.625  
  23248763.634    23248761.111     1050427.069 7    826407.752 2        47.000  
        33.000        4141.187        3226.899  
  23807343.214    23807337.665    -6353368.743 5  -4942428.757 1        42.000  
        27.000       -2096.870       -1633.925  
  20107330.294    20107325.738   -16771568.929 9 -13647092.833 8        54.000  
        49.000         -25.601         -19.949  
  21094733.653    21094728.409   -15339169.795 9 -11940337.725 7        53.000  
        45.000        1378.750        1074.351  
  20319467.786    20319462.838   -17579843.744 9 -13693507.824 8        54.000  
        48.000         605.171         471.562  
 04  3  1  1 28  0.0000000  0  8G07G08G09G10G18G26G28G29
  24031585.827    24031583.136    -4024819.543 6  -3126238.468 1        43.000  
        27.000       -2102.715       -1638.479  
  22509783.093    22509779.283    -3648364.003 7  -2833733.586 2        47.000  
        34.000        3490.611        2719.956  
  23087849.176    23087844.371    -8286601.209 6  -6443780.619 1        44.000  
        31.000       -2602.676       -2028.059  
  23272423.067    23272420.422     1174760.248 7    923290.737 2        46.000  
        33.000        4147.256        3231.628  
  23795410.884    23795406.201    -6416068.486 6  -4991285.675 1        43.000  
        27.000       -2083.643       -1623.618  
  20107228.537    20107224.113   -16772102.961 9 -13647508.960 8        54.000  
        49.000         -10.430          -8.127  
  21102655.647    21102650.480   -15297537.964 9 -11907897.333 7        53.000  
        45.000        1396.260        1087.995  
  20322964.491    20322959.923   -17561467.836 9 -13679188.936 8        54.000  
        48.000         619.399         482.649  
 04  3  1  1 28 30.0000000  0  8G07G08G09G10G18G26G28G29
  24019596.773    24019593.909    -4087821.299 5  -3175330.741 1        42.000  
        26.000       -2097.583       -1634.480  
  22529726.715    22529722.432    -3543561.153 7  -2752069.042 3        47.000  
        35.000        3496.035        2724.183  
  23073008.388    23073004.298    -8364587.913 6  -6504549.457 1        44.000  
        32.000       -2596.646       -2023.360  
  23296117.704    23296114.749     1299274.062 7   1020314.474 1        47.000  
        32.000        4153.462        3236.464  
  23783556.133    23783550.020    -6478373.152 6  -5039834.809 1        43.000  
        27.000       -2070.161       -1613.113  
  20107213.224    20107208.442   -16772184.281 9 -13647572.334 8        54.000  
        49.000           4.893           3.812  
  21110677.042    21110671.996   -15255384.620 9 -11875050.567 6        53.000  
        44.000        1413.833        1101.688  
  20326542.469    20326538.132   -17542665.043 9 -13664537.429 8        53.000  
        48.000         633.906         493.953  
 04  3  1  1 29  0.0000000  0  8G07G08G09G10G18G26G28G29
  24007636.513    24007633.244    -4150673.759 6  -3224306.694 1        43.000  
        26.000       -2092.393       -1630.436  
  22549699.195    22549695.510    -3438602.975 7  -2670283.452 3        45.000  
        35.000        3501.284        2728.273  
  23058201.937    23058198.349    -8442396.505 6  -6565179.502 1        44.000  
        32.000       -2590.610       -2018.657  
  23319846.224    23319843.026     1423968.116 8   1117478.669 2        48.000  
        33.000        4159.629        3241.269  
  23771775.687    23771769.796    -6540277.886 5  -5088072.233 1        42.000  
        26.000       -2056.665       -1602.596  
  20107284.607    20107279.578   -16771809.377 9 -13647280.202 8        55.000  
        49.000          20.254          15.782  
  21118798.015    21118793.047   -15212708.358 9 -11841796.331 6        52.000  
        44.000        1431.362        1115.347  
  20330202.028    20330197.533   -17523432.000 9 -13649550.641 8        54.000  
        48.000         648.384         505.234  
 04  3  1  1 29 30.0000000  0  8G07G08G09G10G18G26G28G29
  23995706.568    23995702.814    -4213371.449 6  -3273162.014 1        43.000  
        27.000       -2087.490       -1626.616  
  22569701.866    22569698.143    -3333488.078 7  -2588375.760 2        45.000  
        34.000        3506.275        2732.162  
  23043429.456    23043426.037    -8520023.374 6  -6625667.941 1        44.000  
        32.000       -2584.629       -2013.997  
  23343608.593    23343605.385     1548842.039 7   1214783.030 2        47.000  
        33.000        4165.298        3245.687  
  23760072.690    23760067.454    -6601777.119 6  -5135993.735 1        44.000  
        28.000       -2043.379       -1592.243  
  20107443.445    20107438.794   -16770974.622 9 -13646629.748 8        54.000  
        49.000          35.386          27.573  
  21127018.781    21127013.734   -15169507.527 9 -11808133.343 7        52.000  
        45.000        1448.608        1128.786  
  20333944.736    20333940.025   -17503765.352 9 -13634225.987 8        54.000  
        48.000         662.598         516.310  
 04  3  1  1 30  0.0000000  0  8G07G08G09G10G18G26G28G29
  23983803.399    23983800.207    -4275920.072 5  -3321901.223 1        41.000  
        27.000       -2082.437       -1622.678  
  22589732.870    22589729.350    -3228226.120 7  -2506353.478 2        45.000  
        34.000        3511.118        2735.936  
  23028691.355    23028687.193    -8597475.881 6  -6686020.507 2        43.000  
        34.000       -2578.833       -2009.480  
  23367403.892    23367401.344     1673884.691 8   1312218.837 2        48.000  
        33.000        4170.879        3250.035  
  23748445.609    23748439.679    -6662876.919 6  -5183603.969 1        43.000  
        27.000       -2030.015       -1581.830  
  20107688.317    20107683.875   -16769687.324 9 -13645626.657 8        55.000  
        49.000          50.459          39.319  
  21135337.916    21135333.005   -15125792.028 9 -11774069.310 7        52.000  
        45.000        1465.757        1142.148  
  20337768.305    20337763.574   -17483672.823 9 -13618569.472 8        54.000  
        48.000         676.895         527.450  
 04  3  1  1 30 30.0000000  0  8G07G08G09G10G18G26G28G29
  23971930.899    23971927.757    -4338311.482 6  -3370517.883 1        44.000  
        27.000       -2077.109       -1618.527  
  22609791.812    22609788.606    -3122812.948 6  -2424213.364 2        44.000  
        34.000        3516.216        2739.909  
  23013986.816    23013982.878    -8674747.441 6  -6746232.062 2        44.000  
        34.000       -2572.715       -2004.713  
  23391231.808    23391227.732     1799098.602 8   1409788.101 2        48.000  
        33.000        4176.528        3254.438  
  23736896.657    23736890.639    -6723569.517 6  -5230896.925 1        44.000  
        27.000       -2016.225       -1571.085  
  20108020.519    20108015.702   -16767941.259 9 -13644266.094 8        55.000  
        49.000          65.889          51.342  
  21143755.836    21143750.388   -15081557.529 9 -11739600.869 7        52.000  
        45.000        1483.145        1155.697  
  20341674.010    20341669.387   -17463147.913 9 -13602576.051 8        54.000  
        48.000         691.353         538.716  
 04  3  1  1 31  0.0000000  0  8G07G08G09G10G18G26G28G29
  23960087.213    23960085.750    -4400544.099 5  -3419010.811 1        42.000  
        27.000       -2071.621       -1614.250  
  22629879.615    22629875.320    -3017251.005 7  -2341957.308 2        46.000  
        33.000        3521.274        2743.850  
  22999317.244    22999313.026    -8751838.464 7  -6806302.948 2        45.000  
        34.000       -2566.528       -1999.892  
  23415090.398    23415087.285     1924479.699 7   1507487.668 1        47.000  
        32.000        4182.192        3258.851  
  23725424.852    23725419.957    -6783853.743 6  -5277871.639 1        43.000  
        28.000       -2002.407       -1560.317  
  20108440.091    20108435.626   -16765736.864 9 -13642548.374 8        54.000  
        49.000          81.274          63.331  
  21152271.179    21152266.293   -15036806.676 9 -11704730.060 7        53.000  
        45.000        1500.439        1169.174  
  20345661.746    20345657.208   -17442191.520 9 -13586246.399 8        53.000  
        48.000         705.918         550.066  
 04  3  1  1 31 30.0000000  0  8G07G08G09G10G18G26G28G29
  23948277.057    23948274.251    -4462613.538 6  -3467376.594 1        44.000  
        28.000       -2066.328       -1610.126  
  22649996.190    22649992.022    -2911539.844 7  -2259584.998 2        46.000  
        34.000        3526.064        2747.583  
  22984681.585    22984678.668    -8828746.341 7  -6866231.149 3        47.000  
        35.000       -2560.615       -1995.285  
  23438981.429    23438978.268     2050026.804 7   1605316.566 1        46.000  
        32.000        4187.544        3263.021  
  23714031.126    23714026.272    -6843724.981 7  -5324524.564 1        45.000  
        29.000       -1988.892       -1549.786  
  20108947.368    20108942.557   -16763071.264 9 -13640471.292 8        55.000  
        49.000          96.431          75.141  
  21160885.406    21160880.517   -14991538.916 9 -11669456.479 7        53.000  
        45.000        1517.441        1182.422  
  20349732.305    20349727.701   -17420800.936 9 -13569578.413 8        54.000  
        48.000         720.146         561.153  
 04  3  1  1 32  0.0000000  0  8G07G08G09G10G18G26G28G29
  23936496.861    23936493.416    -4524519.102 6  -3515614.726 1        44.000  
        27.000       -2060.835       -1605.845  
  22670140.779    22670136.613    -2805682.838 7  -2177099.034 2        47.000  
        34.000        3530.903        2751.353  
  22970081.359    22970077.467    -8905472.261 7  -6926017.524 3        47.000  
        35.000       -2554.556       -1990.563  
  23462902.533    23462899.411     2175735.113 7   1703271.070 1        46.000  
        32.000        4192.847        3267.153  
  23702716.428    23702711.884    -6903183.038 7  -5370855.473 1        45.000  
        29.000       -1975.073       -1539.018  
  20109542.005    20109537.228   -16759945.660 9 -13638035.755 8        55.000  
        49.000         111.821          87.133  
  21169597.097    21169591.973   -14945757.662 9 -11633782.763 7        53.000  
        45.000        1534.536        1195.742  
  20353885.306    20353880.609   -17398977.730 9 -13552573.322 8        54.000  
        48.000         734.644         572.450  
 04  3  1  1 32 30.0000000  0  8G07G08G09G10G18G26G28G29
  23924747.856    23924745.726    -4586255.649 6  -3563721.113 1        43.000  
        27.000       -2054.893       -1601.215  
  22690311.738    22690308.374    -2699678.699 7  -2094498.445 2        47.000  
        34.000        3536.099        2755.402  
  22955516.201    22955512.220    -8982012.884 7  -6985659.523 3        47.000  
        35.000       -2548.057       -1985.499  
  23486854.287    23486851.221     2301604.103 6   1801350.800 1        44.000  
        30.000        4198.477        3271.540  
  23691482.343    23691476.989    -6962223.128 7  -5416860.763 1        46.000  
        28.000       -1960.874       -1527.954  
  20110224.639    20110219.786   -16756356.714 9 -13635239.168 9        54.000  
        50.000         127.534          99.377  
  21178407.135    21178401.841   -14899461.964 9 -11597708.194 6        53.000  
        44.000        1551.909        1209.280  
  20358121.121    20358116.134   -17376718.540 9 -13535228.510 8        55.000  
        48.000         749.370         583.925  
 04  3  1  1 33  0.0000000  0  8G07G08G09G10G18G26G28G29
  23913032.193    23913030.342    -4647820.819 6  -3611693.927 1        43.000  
        28.000       -2049.209       -1596.786  
  22710511.848    22710507.655    -2593529.168 7  -2011784.539 2        45.000  
        34.000        3540.801        2759.065  
  22940986.442    22940983.198    -9058367.350 8  -7045156.460 3        48.000  
        35.000       -2541.938       -1980.731  
  23510836.461    23510833.519     2427630.544 5   1899553.208 1        42.000  
        31.000        4203.438        3275.406  
  23680326.647    23680321.455    -7020843.040 6  -5462538.596 1        44.000  
        28.000       -1946.924       -1517.083  
  20110996.276    20110991.343   -16752303.845 9 -13632081.090 9        54.000  
        50.000         142.915         111.362  
  21187314.146    21187309.131   -14852653.220 9 -11561233.839 7        52.000  
        45.000        1568.901        1222.521  
  20362439.536    20362434.911   -17354023.267 9 -13517543.884 8        54.000  
        48.000         763.926         595.267  
 04  3  1  1 33 30.0000000  0  8G07G08G09G10G18G26G28G29
  23901349.909    23901347.887    -4709214.077 7  -3659532.805 1        45.000  
        29.000       -2043.540       -1592.369  
  22730738.042    22730734.082    -2487237.552 7  -1928959.914 2        46.000  
        33.000        3545.347        2762.608  
  22926491.261    22926488.395    -9134537.119 7  -7104509.503 3        47.000  
        35.000       -2535.830       -1975.971  
  23534848.253    23534845.506     2553809.165 7   1997874.202 1        45.000  
        32.000        4208.462        3279.321  
  23669252.488    23669246.916    -7079042.766 7  -5507889.030 1        46.000  
        28.000       -1932.998       -1506.232  
  20111855.684    20111850.764   -16747788.590 9 -13628562.710 9        54.000  
        50.000         158.223         123.290  
  21196318.585    21196313.940   -14805335.236 9 -11524362.672 6        52.000  
        44.000        1585.796        1235.685  
  20366841.224    20366836.586   -17330893.397 9 -13499520.616 8        54.000  
        48.000         778.237         606.419  
 04  3  1  1 34  0.0000000  0  8G07G08G09G10G18G26G28G29
  23889701.088    23889697.839    -4770431.382 6  -3707234.596 1        44.000  
        28.000       -2037.598       -1587.738  
  22750992.071    22750987.716    -2380803.783 7  -1846024.532 2        45.000  
        34.000        3550.171        2766.367  
  22912031.904    22912028.910    -9210519.916 7  -7163716.836 2        46.000  
        34.000       -2529.634       -1971.143  
  23558887.969    23558884.538     2680138.462 6   2096312.602 1        43.000  
        32.000        4213.398        3283.168  
  23658257.548    23658251.491    -7136818.636 7  -5552909.201 1        45.000  
        28.000       -1918.726       -1495.111  
  20112803.225    20112798.680   -16742808.615 9 -13624682.216 9        54.000  
        50.000         173.760         135.397  
  21205419.907    21205414.809   -14757507.638 9 -11487094.418 7        52.000  
        45.000        1602.813        1248.945  
  20371325.576    20371321.072   -17307327.087 9 -13481157.259 8        54.000  
        48.000         792.886         617.833  
 04  3  1  1 34 30.0000000  0  8G07G08G09G10G18G26G28G29
  23878085.259    23878082.535    -4831472.674 6  -3754799.230 1        44.000  
        28.000       -2031.836       -1583.249  
  22771271.508    22771268.343    -2274231.724 6  -1762981.386 2        44.000  
        33.000        3554.663        2769.867  
  22897608.105    22897604.541    -9286317.520 7  -7222779.853 2        46.000  
        33.000       -2523.604       -1966.444  
  23582955.058    23582951.330     2806613.268 6   2194864.373 1        43.000  
        31.000        4218.101        3286.832  
  23647343.568    23647338.071    -7194170.430 7  -5597598.896 1        45.000  
        28.000       -1904.722       -1484.199  
  20113838.918    20113834.363   -16737365.621 9 -13620440.919 9        54.000  
        50.000         189.121         147.367  
  21214617.704    21214612.492   -14709174.778 9 -11449432.441 7        51.000  
        45.000        1619.380        1261.854  
  20375893.231    20375888.770   -17283325.915 9 -13462455.057 8        53.000  
        48.000         807.256         629.031  
 04  3  1  1 35  0.0000000  0  8G07G08G09G10G18G26G28G29
  23866504.008    23866500.955    -4892332.560 6  -3802222.502 1        44.000  
        28.000       -2025.464       -1578.284  
  22791578.388    22791574.616    -2167520.059 7  -1679829.456 2        46.000  
        33.000        3559.468        2773.611  
  22883220.835    22883216.278    -9361926.539 7  -7281695.944 2        47.000  
        33.000       -2517.026       -1961.319  
  23607049.430    23607046.817     2933232.770 5   2293528.927 1        41.000  
        31.000        4223.169        3290.781  
  23636511.758    23636506.803    -7251093.102 7  -5641954.231 1        45.000  
        28.000       -1890.034       -1472.754  
  20114963.319    20114958.361   -16731456.251 9 -13615836.215 9        54.000  
        50.000         204.912         159.672  
  21223911.163    21223906.266   -14660335.598 9 -11411375.936 7        53.000  
        45.000        1636.528        1275.217  
  20380543.644    20380539.248   -17258887.028 9 -13443411.777 8        54.000  
        48.000         822.007         640.525  
 04  3  1  1 35 30.0000000  0  8G07G08G09G10G18G26G28G29
  23854958.398    23854954.970    -4953006.615 7  -3849500.990 1        45.000  
        29.000       -2019.297       -1573.478  
  22811912.211    22811908.062    -2060668.012 7  -1596568.144 2        47.000  
        33.000        3564.092        2777.214  
  22868869.129    22868865.388    -9437343.989 8  -7340462.739 2        48.000  
        34.000       -2510.679       -1956.373  
  23631171.687    23631169.445     3059996.138 5   2392305.536 1        42.000  
        31.000        4227.852        3294.430  
  23625762.913    23625756.356    -7307582.616 7  -5685972.057 1        46.000  
        29.000       -1875.698       -1461.583  
  20116177.303    20116172.627   -16725077.843 9 -13610866.027 9        54.000  
        50.000         220.488         171.809  
  21233301.630    21233296.543   -14610989.508 9 -11372924.427 7        53.000  
        45.000        1653.354        1288.328  
  20385278.224    20385273.624   -17234007.763 9 -13424025.339 8        53.000  
        48.000         836.641         651.928  
 04  3  1  1 36  0.0000000  0  8G07G08G09G10G18G26G28G29
  23843447.896    23843445.570    -5013492.051 7  -3896632.498 1        45.000  
        29.000       -2012.803       -1568.418  
  22832271.707    22832266.828    -1953677.058 7  -1513198.599 1        47.000  
        32.000        3568.857        2780.928  
  22854554.101    22854550.339    -9512568.979 7  -7399079.600 2        47.000  
        34.000       -2504.067       -1951.221  
  23655320.218    23655317.931     3186900.543 5   2491192.080 1        40.000  
        30.000        4232.661        3298.177  
  23615095.715    23615090.680    -7363636.635 7  -5729650.518 1        46.000  
        29.000       -1861.055       -1450.172  
  20117480.296    20117475.789   -16718229.502 9 -13605529.660 9        55.000  
        50.000         236.313         184.140  
  21242787.962    21242782.766   -14561137.740 9 -11334078.890 7        53.000  
        45.000        1670.273        1301.512  
  20390096.127    20390091.329   -17208687.652 9 -13404295.398 8        54.000  
        48.000         851.528         663.529  
 04  3  1  1 36 30.0000000  0  8G07G08G09G10G18G26G28G29
  23831973.928    23831970.597    -5073789.631 7  -3943617.607 1        45.000  
        28.000       -2006.753       -1563.704  
  22852656.603    22852652.660    -1846551.427 7  -1429724.082 1        46.000  
        32.000        3573.081        2784.219  
  22840275.779    22840271.866    -9587604.059 7  -7457548.471 2        47.000  
        34.000       -2498.013       -1946.503  
  23679496.524    23679492.731     3313939.760 5   2590183.669 1        42.000  
        29.000        4236.763        3301.374  
  23604511.379    23604506.553    -7419256.475 7  -5772990.646 1        46.000  
        30.000       -1846.704       -1438.990  
  20118872.434    20118867.532   -16710913.912 9 -13599829.204 8        54.000  
        49.000         251.670         196.106  
  21252369.844    21252364.352   -14510785.332 9 -11294843.242 6        53.000  
        44.000        1686.709        1314.319  
  20394998.115    20394993.474   -17182929.464 9 -13384224.090 8        54.000  
        48.000         865.938         674.756  
 04  3  1  1 37  0.0000000  0  8G07G08G09G10G18G26G28G29
  23820536.103    23820532.822    -5133895.323 6  -3990453.219 1        44.000  
        29.000       -2000.366       -1558.727  
  22873067.543    22873064.675    -1739291.522 7  -1346144.977 2        47.000  
        33.000        3577.490        2787.655  
  22826033.141    22826029.343    -9662446.903 7  -7515867.534 2        46.000  
        34.000       -2491.626       -1941.527  
  23703695.348    23703693.511     3441111.990 5   2689278.878 1        42.000  
        30.000        4241.157        3304.798  
  23594011.176    23594005.058    -7474438.081 7  -5815989.289 1        46.000  
        30.000       -1832.148       -1427.648  
  20120353.876    20120349.227   -16703128.987 9 -13593763.035 9        55.000  
        50.000         267.266         208.259  
  21262046.659    21262041.576   -14459932.688 9 -11255217.798 7        52.000  
        45.000        1703.350        1327.285  
  20399982.973    20399978.698   -17156731.363 9 -13363809.995 8        54.000  
        48.000         880.542         686.137  
 04  3  1  1 37 30.0000000  0  8G07G08G09G10G18G26G28G29
  23809134.895    23809132.271    -5193806.876 7  -4037137.529 1        45.000  
        30.000       -1993.584       -1553.442  
  22893503.654    22893500.911    -1631898.345 7  -1262462.009 1        46.000  
        32.000        3582.163        2791.296  
  22811827.293    22811823.692    -9737096.872 7  -7574036.307 2        47.000  
        34.000       -2484.971       -1936.341  
  23727920.108    23727917.301     3568413.960 5   2788475.196 1        41.000  
        29.000        4245.796        3308.412  
  23583593.636    23583588.470    -7529179.534 7  -5858644.982 1        46.000  
        30.000       -1817.202       -1416.002  
  20121924.966    20121920.266   -16694874.245 9 -13587330.765 9        54.000  
        50.000         283.135         220.624  
  21271818.307    21271813.125   -14408581.326 9 -11215203.746 6        53.000  
        44.000        1720.200        1340.416  
  20405052.341    20405047.956   -17130093.059 9 -13343052.879 8        54.000  
        48.000         895.420         697.730  
 04  3  1  1 38  0.0000000  0  8G07G08G09G10G18G26G28G29
  23797772.458    23797770.402    -5253516.347 7  -4083664.365 1        46.000  
        30.000       -1986.953       -1548.275  
  22913966.084    22913961.996    -1524368.482 7  -1178672.502 1        46.000  
        31.000        3586.602        2794.754  
  22797660.806    22797656.882    -9811547.967 7  -7632050.129 3        47.000  
        35.000       -2478.418       -1931.235  
  23752170.411    23752167.783     3695847.908 5   2887774.386 1        42.000  
        29.000        4250.034        3311.715  
  23573262.099    23573256.715    -7583473.585 7  -5900952.045 1        46.000  
        29.000       -1802.417       -1404.481  
  20123586.063    20123581.492   -16686143.927 9 -13580527.920 9        54.000  
        50.000         298.833         232.857  
  21281685.949    21281681.136   -14356727.869 9 -11174798.445 6        53.000  
        44.000        1736.733        1353.299  
  20410206.352    20410201.509   -17103008.831 9 -13321948.284 8        54.000  
        48.000         910.229         709.270  
 04  3  1  1 38 30.0000000  0  8G07G08G09G10G18G26G28G29
  23786448.259    23786445.494    -5313026.402 7  -4130035.839 1        45.000  
        29.000       -1979.971       -1542.834  
  22934453.020    22934449.447    -1416708.289 7  -1094781.468 1        46.000  
        32.000        3591.084        2798.247  
  22783529.618    22783526.502    -9885804.801 7  -7689912.563 3        47.000  
        35.000       -2471.694       -1925.996  
  23776443.975    23776441.284     3823405.853 5   2987170.202 1        42.000  
        29.000        4254.302        3315.040  
  23563014.717    23563009.767    -7637323.226 7  -5942912.802 1        46.000  
        30.000       -1787.295       -1392.697  
  20125336.950    20125332.192   -16676942.364 9 -13573357.884 9        54.000  
        50.000         314.873         245.356  
  21291647.430    21291642.336   -14304378.942 9 -11134007.082 6        52.000  
        44.000        1753.569        1366.418  
  20415444.136    20415439.171   -17075483.689 9 -13300500.131 8        54.000  
        48.000         925.127         720.878  
 04  3  1  1 39  0.0000000  0  8G07G08G09G10G18G26G28G29
  23775162.169    23775159.533    -5372334.944 7  -4176250.252 1        45.000  
        29.000       -1973.540       -1537.823  
  22954964.724    22954961.816    -1308919.418 7  -1010790.160 2        46.000  
        33.000        3595.078        2801.360  
  22769435.887    22769432.980    -9959866.910 7  -7747623.264 3        47.000  
        36.000       -2465.537       -1921.198  
  23800740.703    23800737.654     3951084.304 6   3086659.856 1        43.000  
        29.000        4257.861        3317.814  
  23552852.577    23552846.865    -7690726.389 7  -5984525.677 1        46.000  
        30.000       -1772.578       -1381.230  
  20127177.563    20127173.031   -16667269.518 9 -13565820.595 9        54.000  
        50.000         330.308         257.383  
  21301703.246    21301697.648   -14251536.459 9 -11092831.117 6        53.000  
        44.000        1769.673        1378.966  
  20420766.024    20420761.532   -17047517.388 9 -13278708.216 8        53.000  
        48.000         939.609         732.163  
 04  3  1  1 39 30.0000000  0  8G07G08G09G10G18G26G28G29
  23763915.934    23763913.114    -5431433.954 6  -4222301.437 1        44.000  
        30.000       -1966.660       -1532.462  
  22975501.736    22975498.213    -1200997.836 7   -926695.468 1        46.000  
        31.000        3599.448        2804.765  
  22755380.107    22755377.284   -10033728.168 7  -7805177.457 3        47.000  
        35.000       -2458.838       -1915.978  
  23825060.546    23825057.589     4078885.547 6   3186245.248 1        44.000  
        31.000        4261.782        3320.869  
  23542777.152    23542771.323    -7743675.672 7  -6025784.841 1        47.000  
        30.000       -1757.607       -1369.564  
  20129109.023    20129104.535   -16657119.423 9 -13557911.438 9        55.000  
        50.000         346.118         269.702  
  21311853.428    21311848.441   -14198196.997 9 -11051267.893 6        52.000  
        44.000        1786.030        1391.712  
  20426172.775    20426168.479   -17019104.302 9 -13256568.156 8        53.000  
        48.000         954.394         743.684  
 04  3  1  1 40  0.0000000  0  8G07G08G09G10G18G26G28G29
  23752710.253    23752707.006    -5490322.949 6  -4268188.944 1        44.000  
        30.000       -1959.419       -1526.820  
  22996062.805    22996059.140    -1092946.930 7   -842499.982 1        45.000  
        32.000        3603.984        2808.300  
  22741363.632    22741359.687   -10107389.703 7  -7862576.009 3        46.000  
        35.000       -2452.002       -1910.651  
  23849402.404    23849399.664     4206804.701 7   3285922.474 1        45.000  
        28.000        4266.001        3324.156  
  23532787.107    23532781.049    -7796170.743 7  -6066690.109 1        47.000  
        29.000       -1742.188       -1357.549  
  20131131.434    20131127.293   -16646493.379 9 -13549631.407 9        54.000  
        50.000         362.236         282.262  
  21322097.326    21322092.201   -14144364.111 9 -11009320.180 6        52.000  
        44.000        1802.729        1404.724  
  20431664.565    20431660.012   -16990245.858 9 -13234081.066 8        54.000  
        48.000         969.434         755.403  
 04  3  1  1 40 30.0000000  0  8G07G08G09G10G18G26G28G29
  23741543.893    23741541.156    -5548999.082 6  -4313910.576 1        43.000  
        30.000       -1952.471       -1521.406  
  23016648.619    23016645.137     -984767.485 7   -758204.334 1        45.000  
        31.000        3607.969        2811.404  
  22727384.606    22727380.580   -10180850.409 7  -7919818.090 3        47.000  
        35.000       -2445.469       -1905.560  
  23873766.170    23873763.618     4334839.112 6   3385689.544 1        44.000  
        29.000        4269.526        3326.904  
  23522884.496    23522879.287    -7848209.581 7  -6107239.874 1        47.000  
        31.000       -1727.016       -1345.727  
  20133244.220    20133239.181   -16635390.584 9 -13540979.879 9        54.000  
        51.000         377.871         294.445  
  21332435.074    21332429.514   -14090039.335 9 -10966989.184 6        53.000  
        44.000        1818.823        1417.265  
  20437240.924    20437236.481   -16960941.461 9 -13211246.467 8        54.000  
        48.000         984.102         766.832  
 04  3  1  1 41  0.0000000  0  8G07G08G09G10G18G26G28G29
  23730418.857    23730416.095    -5607462.782 6  -4359466.709 1        44.000  
        30.000       -1945.083       -1515.649  
  23037258.686    23037254.470     -876464.105 7   -673812.134 1        45.000  
        31.000        3612.246        2814.737  
  22713442.992    22713438.706   -10254112.611 7  -7976905.493 3        46.000  
        35.000       -2438.677       -1900.268  
  23898151.502    23898148.356     4462982.620 6   3485541.581 1        44.000  
        28.000        4273.325        3329.864  
  23513068.452    23513063.615    -7899792.704 7  -6147434.524 1        46.000  
        30.000       -1711.709       -1333.799  
  20135447.125    20135442.530   -16623813.397 9 -13531958.691 9        55.000  
        50.000         393.896         306.932  
  21342865.051    21342860.024   -14035227.541 9 -10924278.699 6        52.000  
        44.000        1835.288        1430.095  
  20442901.797    20442896.852   -16931194.114 9 -13188066.726 8        53.000  
        48.000         999.062         778.490  
 04  3  1  1 41 30.0000000  0  8G07G08G09G10G18G26G28G29
  23719334.051    23719332.391    -5665709.700 6  -4404853.882 1        43.000  
        30.000       -1937.979       -1510.113  
  23057891.354    23057888.001     -768036.103 7   -589322.792 1        46.000  
        31.000        3616.294        2817.891  
  22699540.606    22699535.198   -10327173.420 7  -8033835.973 3        47.000  
        36.000       -2432.012       -1895.074  
  23922556.766    23922553.754     4591234.006 6   3585477.732 1        44.000  
        28.000        4276.763        3332.542  
  23503339.602    23503334.688    -7950916.388 7  -6187271.152 1        46.000  
        30.000       -1696.431       -1321.894  
  20137741.053    20137736.501   -16611759.489 9 -13522566.039 9        55.000  
        51.000         409.746         319.283  
  21353388.380    21353383.289   -13979928.443 9 -10881188.489 6        52.000  
        44.000        1851.387        1442.639  
  20448647.219    20448642.437   -16901001.185 9 -13164539.778 8        54.000  
        48.000        1013.823         789.992  
 04  3  1  1 42  0.0000000  0  8G07G08G09G10G18G26G28G29
  23708292.465    23708289.368    -5723739.079 5  -4450071.572 1        42.000  
        30.000       -1930.791       -1504.513  
  23078547.617    23078543.449     -659486.758 7   -504738.947 1        45.000  
        30.000        3620.225        2820.954  
  22685675.132    22685670.874   -10400033.918 7  -8090610.346 3        46.000  
        35.000       -2425.347       -1889.880  
  23946983.027    23946980.106     4719588.472 6   3685494.204 1        43.000  
        29.000        4280.151        3335.183  
  23493699.037    23493693.702    -8001580.125 7  -6226749.403 1        46.000  
        31.000       -1681.221       -1310.042  
  20140125.230    20140120.621   -16599230.052 9 -13512802.847 9        54.000  
        51.000         425.527         331.580  
  21364003.324    21363998.520   -13924145.455 9 -10837721.224 6        52.000  
        44.000        1867.475        1455.176  
  20454476.910    20454472.533   -16870364.402 9 -13140666.957 8        54.000  
        49.000        1028.623         801.524  
 04  3  1  1 42 30.0000000  0  8G07G08G09G10G18G26G28G29
  23697291.598    23697288.527    -5781545.792 6  -4495115.740 1        43.000  
        29.000       -1923.027       -1498.463  
  23099227.603    23099223.299     -550814.476 7   -420059.268 1        45.000  
        31.000        3624.541        2824.318  
  22671848.942    22671844.888   -10472691.021 7  -8147226.249 3        47.000  
        36.000       -2418.379       -1884.451  
  23971427.406    23971423.574     4848045.769 6   3785590.784 1        44.000  
        27.000        4283.599        3337.869  
  23484146.585    23484141.021    -8051779.061 7  -6265865.485 1        46.000  
        30.000       -1665.439       -1297.745  
  20142600.742    20142595.703   -16586221.873 9 -13502666.617 9        54.000  
        50.000         441.641         344.136  
  21374710.892    21374706.080   -13867877.883 9 -10793876.360 6        53.000  
        44.000        1883.760        1467.865  
  20460391.924    20460387.468   -16839280.632 9 -13116445.852 8        55.000  
        48.000        1043.687         813.262  
 04  3  1  1 43  0.0000000  0  8G07G08G09G10G18G26G28G29
  23686333.930    23686331.033    -5839127.927 5  -4539984.897 1        41.000  
        29.000       -1915.503       -1492.600  
  23119929.835    23119926.345     -442021.124 7   -335285.231 1        45.000  
        31.000        3628.525        2827.422  
  22658061.471    22658057.860   -10545144.319 7  -8203683.318 3        47.000  
        35.000       -2411.655       -1879.212  
  23995889.081    23995886.407     4976602.235 6   3885764.630 1        43.000  
        26.000        4286.895        3340.437  
  23474682.966    23474678.043    -8101511.696 7  -6304618.173 1        47.000  
        31.000       -1649.888       -1285.627  
  20145166.961    20145162.528   -16572735.130 9 -13492157.464 9        54.000  
        50.000         457.715         356.661  
  21385510.276    21385504.933   -13811128.020 9 -10749655.677 6        52.000  
        44.000        1899.751        1480.325  
  20466392.248    20466387.850   -16807750.267 9 -13091876.738 8        53.000  
        48.000        1058.564         824.855  
 04  3  1  1 43 30.0000000  0  8G07G08G09G10G18G26G28G29
  23675421.061    23675418.507    -5896477.047 5  -4584672.526 1        41.000  
        31.000       -1907.783       -1486.584  
  23140656.084    23140653.890     -333102.295 7   -250413.466 1        45.000  
        31.000        3632.671        2830.653  
  22644313.744    22644310.158   -10617387.221 7  -8259976.454 3        47.000  
        35.000       -2404.590       -1873.706  
  24020373.211    24020370.348     5105260.794 7   3986018.049 1        45.000  
        28.000        4290.229        3343.036  
  23465309.357    23465303.684    -8150770.541 8  -6343001.706 1        48.000  
        31.000       -1634.004       -1273.250  
  20147825.759    20147821.065   -16558763.457 9 -13481270.455 9        54.000  
        51.000         473.823         369.213  
  21396401.852    21396396.669   -13753891.717 9 -10705055.970 6        53.000  
        44.000        1915.981        1492.973  
  20472478.217    20472473.977   -16775767.118 9 -13066954.818 8        53.000  
        48.000        1073.657         836.616  
 04  3  1  1 44  0.0000000  0  8G07G08G09G10G18G26G28G29
  23664551.808    23664548.901    -5953597.194 5  -4629181.685 1        41.000  
        30.000       -1900.220       -1480.691  
  23161405.362    23161402.562     -224065.715 7   -165449.935 1        45.000  
        31.000        3636.460        2833.605  
  22630605.233    22630602.005   -10689425.345 7  -8316110.030 3        47.000  
        36.000       -2397.832       -1868.441  
  24044872.825    24044871.182     5234011.818 7   4086343.501 1        45.000  
        27.000        4293.218        3345.365  
  23456024.884    23456018.748    -8199559.908 7  -6381019.415 1        47.000  
        30.000       -1618.501       -1261.170  
  20150575.623    20150571.215   -16544312.772 9 -13470010.179 9        54.000  
        50.000         489.668         381.559  
  21407384.370    21407379.234   -13696177.427 9 -10660083.795 6        52.000  
        44.000        1931.743        1505.254  
  20478649.734    20478645.163   -16743337.548 9 -13041685.025 8        53.000  
        48.000        1088.428         848.125  
 04  3  1  1 44 30.0000000  0  8G07G08G09G10G18G26G28G29
  23653726.493    23653723.030    -6010483.719 5  -4673508.830 1        41.000  
        29.000       -1892.295       -1474.515  
  23182178.075    23182174.598     -114910.587 7    -80394.011 1        45.000  
        30.000        3640.400        2836.676  
  22616936.697    22616932.399   -10761255.809 7  -8372081.788 3        47.000  
        37.000       -2390.874       -1863.019  
  24069390.981    24069388.645     5362854.327 6   4186740.258 1        44.000  
        26.000        4296.260        3347.735  
  23446830.422    23446824.329    -8247875.532 7  -6418667.954 1        47.000  
        30.000       -1602.632       -1248.804  
  20153417.108    20153412.602   -16529380.695 9 -13458374.804 9        55.000  
        51.000         505.732         394.077  
  21418457.797    21418452.965   -13637984.828 9 -10614738.903 6        52.000  
        44.000        1947.617        1517.624  
  20484905.947    20484901.386   -16710459.031 9 -13016065.403 8        54.000  
        48.000        1103.442         859.825  
 04  3  1  1 45  0.0000000  0  8G07G08G09G10G18G26G28G29
  23642946.011    23642942.696    -6067137.176 5  -4717654.376 1        41.000  
        29.000       -1884.541       -1468.474  
  23202970.812    23202967.522       -5641.265 7      4750.892 1        45.000  
        30.000        3644.087        2839.548  
  22603306.569    22603303.630   -10832881.045 8  -8427893.613 3        48.000  
        36.000       -2384.165       -1857.791  
  24093924.826    24093922.992     5491782.374 6   4287203.708 1        44.000  
        28.000        4298.979        3349.854  
  23437726.352    23437720.612    -8295718.224 7  -6455947.984 1        47.000  
        30.000       -1586.914       -1236.556  
  20156349.568    20156345.193   -16513969.665 9 -13446366.210 9        55.000  
        50.000         521.582         406.428  
  21429621.962    21429617.059   -13579318.794 9 -10569025.117 6        52.000  
        44.000        1963.286        1529.833  
  20491247.451    20491242.578   -16677134.598 9 -12990098.320 8        53.000  
        48.000        1118.154         871.289  
 04  3  1  1 45 30.0000000  0  8G07G08G09G10G18G26G28G29
  23632209.595    23632206.694    -6123555.543 6  -4761616.707 1        43.000  
        30.000       -1876.680       -1462.348  
  23223785.404    23223782.468      103740.696 6     89983.523 1        44.000  
        30.000        3648.023        2842.615  
  22589715.936    22589711.863   -10904300.765 7  -8483545.308 3        47.000  
        36.000       -2377.173       -1852.343  
  24118475.853    24118473.370     5620792.588 6   4387731.047 1        44.000  
        27.000        4301.616        3351.909  
  23428712.710    23428706.885    -8343086.657 8  -6492858.447 1        48.000  
        31.000       -1570.967       -1224.130  
  20159373.725    20159368.833   -16498079.669 9 -13433984.400 9        55.000  
        50.000         537.725         419.006  
  21440875.410    21440870.372   -13520181.563 9 -10522944.151 6        52.000  
        44.000        1979.141        1542.188  
  20497673.560    20497669.261   -16643364.169 9 -12963783.703 8        53.000  
        48.000        1133.223         883.031  
 04  3  1  1 46  0.0000000  0  8G07G08G09G10G18G26G28G29
  23621519.473    23621516.677    -6179732.061 5  -4805390.609 1        41.000  
        30.000       -1868.301       -1455.819  
  23244622.411    23244619.070      213238.169 7    175306.207 1        45.000  
        31.000        3652.153        2845.834  
  22576165.091    22576161.128   -10975509.878 7  -8539032.887 3        46.000  
        36.000       -2369.897       -1846.673  
  24143042.103    24143038.527     5749886.155 6   4488323.439 1        44.000  
        29.000        4304.697        3354.310  
  23419789.299    23419785.075    -8389974.429 7  -6529394.368 1        47.000  
        32.000       -1554.619       -1211.392  
  20162489.332    20162484.372   -16481706.018 9 -13421225.706 9        54.000  
        50.000         554.111         431.775  
  21452218.790    21452213.831   -13460570.872 9 -10476494.253 6        52.000  
        44.000        1995.117        1554.637  
  20504186.003    20504181.465   -16609143.367 9 -12937118.148 8        53.000  
        48.000        1148.418         894.871  
 04  3  1  1 46 30.0000000  0  8G07G08G09G10G18G26G28G29
  23610876.629    23610874.548    -6235658.575 5  -4848969.691 1        40.000  
        30.000       -1860.166       -1449.480  
  23265481.927    23265478.709      322855.430 7    260722.205 1        46.000  
        31.000        3655.859        2848.722  
  22562656.407    22562651.891   -11046501.735 7  -8594351.173 3        47.000  
        36.000       -2362.656       -1841.031  
  24167623.666    24167620.193     5879065.758 6   4588982.906 1        43.000  
        25.000        4307.441        3356.448  
  23410960.821    23410955.121    -8436373.827 8  -6565549.749 1        48.000  
        31.000       -1538.486       -1198.821  
  20165698.431    20165693.754   -16464842.597 9 -13408085.389 9        54.000  
        51.000         570.303         444.392  
  21463653.204    21463648.061   -13400482.605 9 -10429672.233 6        51.000  
        43.000        2010.923        1566.953  
  20510784.663    20510780.063   -16574466.241 9 -12910097.015 8        53.000  
        48.000        1163.564         906.674  
 04  3  1  1 47  0.0000000  0  8G07G08G09G10G18G26G28G29
  23600281.101    23600278.536    -6291338.387 5  -4892356.526 1        42.000  
        30.000       -1851.821       -1442.978  
  23286362.301    23286358.697      432585.591 6    346226.201 1        44.000  
        30.000        3659.463        2851.530  
  22549186.814    22549182.900   -11117281.719 7  -8649504.359 3        46.000  
        37.000       -2355.830       -1835.712  
  24192219.888    24192216.958     6008322.472 6   4689702.381 1        43.000  
        27.000        4309.756        3358.251  
  23402223.289    23402217.823    -8482289.253 8  -6601328.027 1        48.000  
        32.000       -1522.446       -1186.322  
  20168999.597    20168995.226   -16447495.014 9 -13394567.787 9        54.000  
        51.000         586.299         456.856  
  21475176.856    21475171.684   -13339924.721 9 -10382484.267 6        52.000  
        43.000        2026.377        1578.995  
  20517469.181    20517464.698   -16539338.723 9 -12882724.932 8        54.000  
        48.000        1178.369         918.210  
 04  3  1  1 47 30.0000000  0  8G07G08G09G10G18G26G28G29
  23589733.029    23589730.474    -6346768.613 6  -4935548.897 1        43.000  
        31.000       -1843.369       -1436.391  
  23307264.693    23307261.426      542427.914 6    431817.610 1        44.000  
        29.000        3663.276        2854.501  
  22535758.503    22535754.398   -11187848.574 7  -8704491.485 3        46.000  
        35.000       -2348.638       -1830.107  
  24216831.430    24216829.255     6137653.720 7   4790479.976 1        46.000  
        28.000        4312.358        3360.279  
  23393578.490    23393573.424    -8527717.454 8  -6636726.625 1        48.000  
        32.000       -1506.084       -1173.572  
  20172393.002    20172388.361   -16429662.175 9 -13380672.076 9        54.000  
        50.000         602.612         469.568  
  21486789.537    21486784.773   -13278898.711 9 -10334931.535 6        53.000  
        43.000        2042.051        1591.208  
  20524239.512    20524234.808   -16503759.850 9 -12855001.136 8        53.000  
        48.000        1193.535         930.027  
 04  3  1  1 48  0.0000000  0  8G07G08G09G10G18G26G28G29
  23579232.834    23579230.756    -6401946.106 6  -4978544.330 1        44.000  
        30.000       -1835.024       -1429.889  
  23328188.779    23328184.879      652381.678 5    517495.858 1        42.000  
        30.000        3666.992        2857.396  
  22522370.755    22522366.346   -11258200.902 7  -8759311.438 3        45.000  
        35.000       -2341.572       -1824.602  
  24241455.072    24241452.787     6267057.537 6   4891314.111 1        43.000  
        25.000        4314.497        3361.946  
  23385026.894    23385021.450    -8572656.459 8  -6671744.034 1        48.000  
        32.000       -1489.878       -1160.944  
  20175878.634    20175874.184   -16411343.232 9 -13366397.578 9        54.000  
        50.000         618.589         482.017  
  21498491.511    21498486.316   -13217405.617 9 -10287014.838 6        52.000  
        44.000        2057.515        1603.258  
  20531096.059    20531091.435   -16467728.847 9 -12826925.033 8        53.000  
        48.000        1208.516         941.701  
 04  3  1  1 48 30.0000000  0  8G07G08G09G10G18G26G28G29
  23568782.022    23568779.583    -6456867.460 6  -5021340.154 1        43.000  
        30.000       -1826.235       -1423.041  
  23349132.846    23349129.777      762446.571 6    603260.666 1        43.000  
        30.000        3670.708        2860.292  
  22509024.390    22509020.216   -11328337.080 7  -8813962.973 3        46.000  
        36.000       -2334.155       -1818.822  
  24266092.913    24266090.782     6396531.749 6   4992203.043 1        43.000  
        27.000        4317.100        3363.974  
  23376568.614    23376563.283    -8617103.296 7  -6706377.944 1        47.000  
        31.000       -1473.242       -1147.981  
  20179457.615    20179452.832   -16392536.607 9 -13351743.067 9        54.000  
        50.000         635.146         494.919  
  21510282.263    21510276.903   -13155446.520 9 -10238735.021 6        53.000  
        44.000        2073.091        1615.395  
  20538038.847    20538033.984   -16431244.834 9 -12798495.944 8        53.000  
        48.000        1223.755         953.575  
 04  3  1  1 49  0.0000000  0  8G07G08G09G10G18G26G28G29
  23558379.791    23558377.050    -6511529.582 7  -5063933.995 1        45.000  
        30.000       -1817.666       -1416.363  
  23370098.554    23370095.574      872622.001 5    689111.616 1        40.000  
        28.000        3674.380        2863.153  
  22495718.806    22495715.688   -11398255.532 6  -8868444.860 3        44.000  
        36.000       -2326.885       -1813.157  
  24290744.547    24290742.334     6526073.779 6   5093144.914 1        43.000  
        28.000        4319.199        3365.610  
  23368205.402    23368199.859    -8661055.327 7  -6740626.284 1        47.000  
        32.000       -1456.689       -1135.083  
  20183129.470    20183124.779   -16373241.445 9 -13336707.879 9        53.000  
        51.000         651.401         507.585  
  21522160.976    21522156.147   -13093022.846 9 -10190093.188 6        52.000  
        43.000        2088.613        1627.491  
  20545068.061    20545063.691   -16394306.714 9 -12769712.996 8        54.000  
        48.000        1238.921         965.393  
 04  3  1  1 49 30.0000000  0  8G07G08G09G10G18G26G28G29
  23548028.455    23548025.695    -6565927.900 6  -5106322.281 1        44.000  
        31.000       -1808.891       -1409.526  
  23391085.239    23391081.899      982908.691 5    775049.271 1        40.000  
        29.000        3678.106        2866.056  
  22482456.196    22482452.539   -11467953.279 7  -8922754.760 3        46.000  
        37.000       -2319.585       -1807.469  
  24315407.461    24315406.301     6655682.958 5   5194139.022 1        40.000  
        25.000        4321.455        3367.368  
  23359935.809    23359930.898    -8704508.638 7  -6774486.015 1        47.000  
        31.000       -1440.107       -1122.162  
  20186894.362    20186889.936   -16353455.305 9 -13321290.111 9        54.000  
        51.000         667.720         520.301  
  21534128.301    21534123.064   -13030134.306 9 -10141089.124 6        52.000  
        44.000        2104.043        1639.514  
  20552183.861    20552179.341   -16356912.368 9 -12740574.550 8        54.000  
        48.000        1254.067         977.195  
 04  3  1  1 50  0.0000000  0  8G07G08G09G10G18G26G28G29
  23537727.655    23537724.313    -6620060.771 6  -5148503.716 1        44.000  
        31.000       -1799.990       -1402.590  
  23412093.617    23412090.245     1093304.969 5    861072.331 1        41.000  
        29.000        3681.729        2868.879  
  22469235.411    22469231.248   -11537430.531 7  -8976892.861 3        47.000  
        37.000       -2312.188       -1801.705  
  24340085.580    24340081.800     6785355.529 5   5295182.532 1        41.000  
        24.000        4323.506        3368.966  
  23351761.886    23351756.737    -8747461.767 8  -6807955.998 1        48.000  
        31.000       -1423.442       -1109.176  
  20190752.880    20190748.248   -16333178.675 9 -13305490.142 9        54.000  
        51.000         684.087         533.055  
  21546183.494    21546178.345   -12966783.589 9 -10091724.937 6        52.000  
        43.000        2119.385        1651.469  
  20559386.399    20559381.975   -16319062.430 9 -12711081.101 8        54.000  
        48.000        1269.253         989.028  
 04  3  1  1 50 30.0000000  0  8G07G08G09G10G18G26G28G29
  23527476.366    23527473.261    -6673930.135 6  -5190479.830 1        43.000  
        30.000       -1791.021       -1395.600  
  23433120.694    23433117.935     1203805.011 5    947176.232 1        41.000  
        29.000        3685.239        2871.615  
  22456055.278    22456051.916   -11606690.746 7  -9030861.867 4        45.000  
        38.000       -2304.917       -1796.039  
  24364769.780    24364767.822     6915083.809 5   5396269.579 1        41.000  
        26.000        4325.342        3370.396  
  23343683.300    23343678.533    -8789917.605 8  -6841038.501 1        48.000  
        32.000       -1406.631       -1096.076  
  20194704.427    20194699.822   -16312415.485 9 -13289311.043 9        53.000  
        52.000         700.425         545.786  
  21558325.596    21558319.897   -12902977.136 9 -10042005.622 6        52.000  
        43.000        2134.614        1663.336  
  20566675.050    20566670.442   -16280761.342 9 -12681236.108 8        53.000  
        48.000        1284.404        1000.835  
 04  3  1  1 51  0.0000000  0  8G07G08G09G10G18G26G28G29
  23517276.840    23517273.723    -6727530.312 6  -5232246.200 1        44.000  
        30.000       -1782.456       -1388.927  
  23454168.442    23454165.596     1314410.963 5   1033362.619 1        40.000  
        28.000        3688.311        2874.008  
  22442917.765    22442913.824   -11675729.974 7  -9084658.650 4        45.000  
        38.000       -2297.832       -1790.518  
  24389468.020    24389466.108     7044868.595 5   5497400.498 1        40.000  
        25.000        4326.792        3371.526  
  23335700.171    23335695.246    -8831870.844 7  -6873729.326 1        47.000  
        32.000       -1390.356       -1083.395  
  20198748.442    20198744.253   -16291162.329 9 -13272750.148 9        53.000  
        51.000         716.367         558.208  
  21570554.124    21570548.965   -12838713.456 9  -9991930.015 6        52.000  
        43.000        2149.448        1674.895  
  20574049.825    20574045.062   -16242005.578 9 -12651036.817 8        54.000  
        48.000        1299.204        1012.367  
 04  3  1  1 51 30.0000000  0  8G07G08G09G10G18G26G28G29
  23207335.298    23207333.456    -6780861.838 6  -5273803.202 1        44.000  
        31.000       -1773.052       -1381.599  
  23175444.308    23175439.997     1425123.966 5   1119632.454 1        41.000  
        27.000        3692.139        2876.991  
  22130029.380    22130025.049   -11744551.041 7  -9138285.457 4        46.000  
        38.000       -2290.205       -1784.575  
  24114385.646    24114381.309     7174709.660 5   5598575.344 1        41.000  
        25.000        4328.828        3373.113  
  23028019.598    23028013.630    -8873322.276 7  -6906029.168 1        46.000  
        31.000       -1373.159       -1069.994  
  19903093.848    19903089.345   -16269419.381 9 -13255807.595 9        53.000  
        51.000         733.018         571.183  
  21283077.578    21283072.508   -12773993.888 9  -9941499.191 6        52.000  
        43.000        2164.888        1686.926  
  20281718.827    20281714.933   -16202795.104 9 -12620483.207 8        54.000  
        48.000        1314.692        1024.436  
 04  3  1  1 52  0.0000000  0  8G07G08G09G10G18G26G28G29
  23197239.737    23197237.012    -6833914.720 6  -5315143.108 1        44.000  
        31.000       -1763.857       -1374.434  
  23196531.899    23196527.650     1535939.361 5   1205982.126 1        42.000  
        29.000        3695.606        2879.693  
  22116975.797    22116972.111   -11813144.678 7  -9191735.014 3        45.000  
        37.000       -2282.671       -1778.705  
  24139100.386    24139098.272     7304599.275 5   5699788.077 1        41.000  
        26.000        4330.459        3374.384  
  23020228.586    23020223.370    -8914263.290 7  -6937931.254 1        45.000  
        32.000       -1356.152       -1056.742  
  19907325.196    19907320.722   -16247183.738 9 -13238481.118 9        54.000  
        51.000         749.385         583.936  
  21295479.834    21295474.462   -12708820.480 9  -9890714.709 6        52.000  
        44.000        2180.059        1698.747  
  20289267.247    20289262.529   -16163128.425 9 -12589574.116 8        54.000  
        49.000        1329.849        1036.246  
 04  3  1  1 52 30.0000000  0  8G07G08G09G10G18G26G28G29
  23187197.683    23187193.767    -6886688.827 6  -5356265.762 1        44.000  
        31.000       -1754.556       -1367.186  
  23217638.592    23217635.532     1646859.157 5   1292413.089 1        42.000  
        28.000        3698.989        2882.329  
  22103965.599    22103961.423   -11881512.921 7  -9245008.959 3        45.000  
        37.000       -2275.308       -1772.967  
  24163828.622    24163824.253     7434538.465 4   5801039.361 1        39.000  
        21.000        4331.924        3375.525  
  23012535.355    23012529.408    -8954694.001 7  -6969435.714 1        47.000  
        32.000       -1339.307       -1043.616  
  19911649.900    19911645.298   -16224454.998 9 -13220770.421 9        53.000  
        51.000         765.728         596.671  
  21307968.313    21307963.399   -12643193.749 9  -9839576.994 6        52.000  
        43.000        2194.946        1710.348  
  20296902.139    20296898.162   -16123004.860 9 -12558309.005 8        55.000  
        48.000        1344.834        1047.923  
 04  3  1  1 53  0.0000000  0  8G07G08G09G10G18G26G28G29
  23177207.856    23177204.959    -6939182.239 7  -5397169.698 1        45.000  
        31.000       -1745.195       -1359.893  
  23238766.372    23238762.972     1757881.897 6   1378924.257 1        43.000  
        27.000        3702.441        2885.019  
  22090998.946    22090994.825   -11949655.354 7  -9298106.926 3        45.000  
        37.000       -2267.842       -1767.149  
  24188563.692    24188560.783     7564523.866 4   5902326.691 1        39.000  
        28.000        4333.359        3376.644  
  23004938.988    23004933.801    -8994613.048 7  -7000541.467 1        47.000  
        32.000       -1322.261       -1030.333  
  19916069.217    19916064.451   -16201233.318 9 -13202675.613 9        54.000  
        50.000         782.153         609.470  
  21320541.956    21320537.076   -12577116.330 9  -9788088.095 6        52.000  
        43.000        2209.878        1721.983  
  20304624.492    20304620.382   -16082424.638 9 -12526688.066 8        54.000  
        48.000        1360.098        1059.816  
 04  3  1  1 53 30.0000000  0  8G07G08G09G10G18G26G28G29
  23167271.520    23167268.826    -6991397.968 6  -5437857.280 1        44.000  
        30.000       -1735.957       -1352.694  
  23259911.653    23259907.414     1869000.916 6   1465510.478 1        44.000  
        28.000        3705.537        2887.431  
  22078073.817    22078069.244   -12017576.686 7  -9351032.607 3        45.000  
        37.000       -2260.464       -1761.400  
  24213305.327    24213303.452     7694547.147 5   6003643.508 1        40.000  
        24.000        4334.707        3377.694  
  22997438.740    22997433.341    -9034024.056 7  -7031251.368 1        46.000  
        32.000       -1305.239       -1017.070  
  19920581.022    19920576.133   -16177523.762 9 -13184200.641 9        54.000  
        50.000         798.374         622.110  
  21333200.914    21333195.553   -12510595.138 9  -9736253.399 6        52.000  
        44.000        2224.658        1733.500  
  20312432.690    20312428.204   -16041392.967 9 -12494715.343 8        54.000  
        48.000        1375.210        1071.592  
 04  3  1  1 54  0.0000000  0  8G07G08G09G10G18G26G28G29
  23157389.915    23157386.880    -7043328.276 6  -5478322.424 1        43.000  
        31.000       -1726.396       -1345.244  
  23281075.377    23281071.505     1980220.064 6   1552174.716 1        43.000  
        28.000        3708.804        2889.977  
  22065192.138    22065187.762   -12085270.850 7  -9403781.267 4        46.000  
        38.000       -2252.837       -1755.457  
  24238055.853    24238053.441     7824610.620 4   6104991.639 1        39.000  
        23.000        4335.962        3378.672  
  22990037.047    22990031.893    -9072920.012 7  -7061559.913 1        47.000  
        32.000       -1288.086       -1003.703  
  19925186.435    19925181.955   -16153320.945 9 -13165341.296 9        55.000  
        51.000         814.893         634.981  
  21345944.146    21345939.243   -12443627.339 9  -9684070.689 6        52.000  
        43.000        2239.546        1745.101  
  20320327.676    20320323.033   -15999904.760 9 -12462386.868 8        54.000  
        48.000        1390.405        1083.433  
 04  3  1  1 54 30.0000000  0  8G07G08G09G10G18G26G28G29
  23147562.193    23147559.617    -7094971.609 6  -5518563.958 1        44.000  
        32.000       -1716.416       -1337.467  
  23302257.645    23302254.584     2091537.435 5   1638915.543 1        41.000  
        26.000        3712.480        2892.842  
  22052353.143    22052349.311   -12152737.873 7  -9456352.940 4        46.000  
        38.000       -2244.863       -1749.244  
  24262813.764    24262810.616     7954710.708 5   6206368.364 1        42.000  
        26.000        4337.617        3379.961  
  22982733.955    22982728.314    -9111300.170 7  -7091466.543 1        45.000  
        32.000       -1270.386        -989.911  
  19929885.732    19929881.333   -16128625.456 9 -13146098.072 9        55.000  
        51.000         831.582         647.986  
  21358772.205    21358767.174   -12376215.850 9  -9631542.250 6        52.000  
        43.000        2254.722        1756.926  
  20328309.520    20328304.882   -15957960.789 9 -12429703.278 8        54.000  
        48.000        1406.006        1095.589  
 04  3  1  1 55  0.0000000  0  8G07G08G09G10G18G26G28G29
  23137790.968    23137787.520    -7146319.711 6  -5558575.436 1        43.000  
        32.000       -1706.743       -1329.930  
  23323460.882    23323458.004     2202957.791 5   1725736.558 1        42.000  
        27.000        3715.674        2895.330  
  22039559.700    22039555.357   -12219971.213 8  -9508742.520 4        48.000  
        38.000       -2237.251       -1743.313  
  24287576.887    24287575.527     8084849.997 4   6307775.591 1        39.000  
        25.000        4338.467        3380.624  
  22975530.404    22975524.994    -9149156.641 7  -7120965.106 2        47.000  
        33.000       -1253.228        -976.541  
  19934679.984    19934675.469   -16103431.208 9 -13126466.195 9        55.000  
        51.000         848.032         660.804  
  21371685.300    21371680.628   -12308356.776 9  -9578665.054 6        52.000  
        43.000        2269.336        1768.314  
  20336378.986    20336374.316   -15915555.212 9 -12396659.970 8        54.000  
        48.000        1421.118        1107.365  
 04  3  1  1 55 30.0000000  0  8G07G08G09G10G18G26G28G29
  23128075.396    23128072.060    -7197374.902 7  -5598358.687 1        45.000  
        31.000       -1696.865       -1322.233  
  23344682.306    23344679.158     2314475.231 6   1812633.224 1        43.000  
        28.000        3718.941        2897.876  
  22026809.227    22026804.967   -12286974.789 8  -9560953.065 4        48.000  
        38.000       -2229.468       -1737.248  
  24312349.420    24312345.816     8215020.953 5   6409207.443 1        42.000  
        22.000        4339.497        3381.426  
  22968425.818    22968420.528    -9186492.603 7  -7150058.067 1        47.000  
        32.000       -1235.781        -962.946  
  19939568.592    19939564.276   -16077742.940 9 -13106449.370 9        54.000  
        51.000         864.604         673.718  
  21384682.644    21384677.236   -12240056.927 9  -9525444.388 6        52.000  
        43.000        2284.072        1779.797  
  20344535.348    20344530.782   -15872692.765 9 -12363260.676 8        54.000  
        48.000        1436.382        1119.259  
 04  3  1  1 56  0.0000000  0  8G07G08G09G10G18G26G28G29
  23118415.544    23118412.752    -7248138.091 7  -5637914.403 1        45.000  
        32.000       -1687.173       -1314.680  
  23365920.503    23365917.798     2426085.220 5   1899602.006 1        42.000  
        27.000        3721.748        2900.063  
  22014102.247    22014097.815   -12353751.089 8  -9612986.505 4        49.000  
        38.000       -2222.095       -1731.502  
  24337124.273    24337121.422     8345217.154 5   6510659.042 1        41.000  
        25.000        4340.303        3382.054  
  22961419.316    22961413.957    -9223309.604 7  -7178746.659 1        46.000  
        32.000       -1218.569        -949.535  
  19944550.358    19944545.912   -16051563.415 9 -13086049.741 9        54.000  
        52.000         880.820         686.354  
  21397762.218    21397757.042   -12171321.543 9  -9471884.349 6        51.000  
        43.000        2298.354        1790.926  
  20352778.050    20352773.626   -15829376.808 9 -12329507.990 8        54.000  
        48.000        1451.382        1130.947  
 04  3  1  1 56 30.0000000  0  8G07G08G09G10G18G26G28G29
  23108812.600    23108809.730    -7298602.197 6  -5677237.060 1        44.000  
        32.000       -1677.065       -1306.804  
  23387177.540    23387173.818     2537791.231 6   1986645.632 1        43.000  
        27.000        3725.127        2902.696  
  22001438.944    22001435.244   -12420294.716 8  -9664838.663 4        49.000  
        38.000       -2214.111       -1725.281  
  24361902.584    24361902.801     8475440.688 3   6612131.863 1        37.000  
        23.000        4341.401        3382.910  
  22954513.065    22954507.362    -9259601.407 7  -7207025.977 1        46.000  
        32.000       -1200.869        -935.742  
  19949626.595    19949621.900   -16024887.933 9 -13065263.656 9        55.000  
        51.000         897.568         699.404  
  21410925.548    21410920.718   -12102147.889 9  -9417982.806 6        52.000  
        43.000        2313.169        1802.469  
  20361108.031    20361104.157   -15785602.628 9 -12295398.250 8        54.000  
        48.000        1466.899        1143.038  
 04  3  1  1 57  0.0000000  0  8G07G08G09G10G18G26G28G29
  23099266.802    23099263.815    -7348767.679 7  -5716327.036 2        45.000  
        33.000       -1667.383       -1299.259  
  23408452.280    23408448.334     2649589.571 6   2073761.217 1        43.000  
        28.000        3728.062        2904.983  
  21988820.137    21988815.885   -12486607.699 7  -9716511.093 4        47.000  
        38.000       -2206.704       -1719.510  
  24386689.693    24386687.181     8605685.874 5   6713621.626 1        40.000  
        23.000        4341.626        3383.085  
  22947706.788    22947701.667    -9295368.675 7  -7234896.575 1        47.000  
        32.000       -1183.672        -922.342  
  19954796.820    19954792.352   -15997719.086 9 -13044093.139 9        54.000  
        51.000         913.696         711.971  
  21424171.409    21424165.721   -12032541.087 9  -9363743.728 6        51.000  
        43.000        2327.295        1813.477  
  20369524.672    20369520.191   -15741373.085 9 -12260933.685 8        54.000  
        48.000        1481.753        1154.613  
 04  3  1  1 57 30.0000000  0  8G07G08G09G10G18G26G28G29
  23089778.655    23089775.418    -7398627.704 7  -5755178.978 1        45.000  
        32.000       -1656.963       -1291.140  
  23429745.425    23429741.930     2761483.368 6   2160951.129 1        44.000  
        29.000        3731.309        2907.513  
  21976245.744    21976241.968   -12552684.949 7  -9767999.828 4        47.000  
        38.000       -2198.750       -1713.312  
  24411478.533    24411475.986     8735953.858 5   6815129.194 1        40.000  
        24.000        4342.456        3383.732  
  22941001.553    22940996.367    -9330605.686 7  -7262354.000 2        46.000  
        33.000       -1165.732        -908.363  
  19960061.379    19960057.047   -15970052.365 9 -13022534.656 9        55.000  
        51.000         930.425         725.006  
  21437499.992    21437494.919   -11962498.524 9  -9309165.109 6        51.000  
        43.000        2341.953        1824.899  
  20378028.667    20378024.475   -15696683.977 9 -12226111.010 8        54.000  
        48.000        1497.173        1166.628  
 04  3  1  1 58  0.0000000  0  8G07G08G09G10G18G26G28G29
  23080349.073    23080345.147    -7448180.512 7  -5793791.533 1        46.000  
        32.000       -1646.606       -1283.070  
  23451055.623    23451052.958     2873470.771 6   2248213.999 1        44.000  
        28.000        3734.443        2909.956  
  21963716.819    21963712.295   -12618526.001 7  -9819304.507 4        47.000  
        38.000       -2190.747       -1707.076  
  24436272.674    24436269.579     8866241.496 4   6916651.928 1        38.000  
        22.000        4343.159        3384.280  
  22934397.299    22934391.863    -9365310.904 7  -7289397.030 2        46.000  
        34.000       -1147.974        -894.525  
  19965420.983    19965416.132   -15941888.085 9 -13000588.473 9        55.000  
        51.000         947.134         738.026  
  21450911.273    21450905.830   -11892023.115 9  -9254249.199 5        52.000  
        42.000        2356.377        1836.138  
  20386620.287    20386615.778   -15651535.648 9 -12190930.505 8        55.000  
        48.000        1512.549        1178.609  
 04  3  1  1 58 30.0000000  0  8G07G08G09G10G18G26G28G29
  23070978.684    23070975.141    -7497423.375 7  -5832162.591 2        45.000  
        33.000       -1636.372       -1275.095  
  23472383.813    23472380.684     2985551.269 6   2335549.392 1        44.000  
        26.000        3737.510        2912.345  
  21951232.855    21951228.576   -12684129.706 8  -9870424.251 4        49.000  
        39.000       -2182.905       -1700.965  
  24461067.986    24461065.848     8996546.211 5   7018188.067 1        41.000  
        26.000        4343.755        3384.744  
  22927894.375    22927889.677    -9399482.615 7  -7316024.353 1        46.000  
        32.000       -1130.259        -880.721  
  19970875.224    19970870.707   -15913225.855 9 -12978254.271 9        54.000  
        51.000         963.687         750.925  
  21464404.134    21464399.087   -11821116.409 9  -9198997.221 6        52.000  
        43.000        2370.669        1847.275  
  20395299.166    20395294.346   -15605928.149 9 -12155392.213 8        54.000  
        48.000        1527.832        1190.518  
 04  3  1  1 59  0.0000000  0  8G07G08G09G10G18G26G28G29
  23061666.825    23061663.266    -7546356.638 7  -5870292.384 2        45.000  
        33.000       -1625.825       -1266.877  
  23493729.506    23493725.399     3097720.884 6   2422954.282 1        44.000  
        27.000        3740.557        2914.719  
  21938793.538    21938789.505   -12749498.205 8  -9921360.703 5        49.000  
        40.000       -2174.897       -1694.725  
  24485866.089    24485863.641     9126862.106 4   7119732.979 1        38.000  
        22.000        4344.146        3385.048  
  22921493.126    22921487.622    -9433122.196 7  -7342237.011 2        47.000  
        33.000       -1112.290        -866.719  
  19976423.569    19976419.300   -15884068.246 9 -12955534.059 9        55.000  
        51.000         980.288         763.861  
  21477978.377    21477973.550   -11749783.434 9  -9143413.076 5        51.000  
        42.000        2384.951        1858.404  
  20404064.485    20404060.299   -15559864.141 9 -12119498.184 8        54.000  
        48.000        1543.208        1202.500  
 04  3  1  1 59 30.0000000  0  8G07G08G09G10G18G26G28G29
  23052414.455    23052411.474    -7594975.818 7  -5908177.431 1        46.000  
        32.000       -1615.376       -1258.734  
  23515091.866    23515087.861     3209980.643 6   2510429.381 1        44.000  
        27.000        3743.491        2917.006  
  21926400.326    21926395.498   -12814628.468 8  -9972111.558 4        48.000  
        38.000       -2167.031       -1688.596  
  24510667.043    24510663.571     9257188.737 5   7221286.138 1        41.000  
        20.000        4344.326        3385.189  
  22915193.967    22915189.127    -9466225.854 7  -7368032.072 1        47.000  
        32.000       -1094.473        -852.836  
  19982066.856    19982062.359   -15854413.030 9 -12932426.111 9        54.000  
        50.000         996.821         776.744  
  21491633.537    21491628.638   -11678024.082 9  -9087496.705 5        52.000  
        42.000        2399.102        1869.430  
  20412917.688    20412913.654   -15513341.375 9 -12083246.694 8        54.000  
        48.000        1558.433        1214.363  
 04  3  1  2  0  0.0000000  0  8G07G08G09G10G18G26G28G29
  23043223.545    23043220.270    -7643275.358 6  -5945813.428 2        44.000  
        33.000       -1604.424       -1250.200  
  23536471.370    23536467.952     3322332.774 6   2597976.418 1        43.000  
        26.000        3746.714        2919.517  
  21914051.887    21914047.389   -12879516.172 9 -10022673.379 4        50.000  
        38.000       -2158.701       -1682.105  
  24535469.377    24535466.499     9387526.115 6   7322847.755 1        43.000  
        26.000        4344.814        3385.570  
  22908996.980    22908992.089    -9498788.496 7  -7393405.564 1        47.000  
        32.000       -1076.187        -838.587  
  19987805.493    19987800.519   -15824256.892 9 -12908927.834 9        55.000  
        50.000        1013.691         789.889  
  21505370.198    21505365.217   -11605837.031 9  -9031247.052 5        52.000  
        42.000        2413.491        1880.642  
  20421858.552    20421854.083   -15466356.929 9 -12046635.448 8        53.000  
        48.000        1574.014        1226.504  
 04  3  1  2  0 30.0000000  0  8G07G08G09G10G18G26G28G29
  23034093.628    23034090.687    -7691252.364 7  -5983198.079 2        45.000  
        34.000       -1593.867       -1241.974  
  23557868.594    23557865.545     3434776.501 6   2685594.843 1        44.000  
        27.000        3749.604        2921.770  
  21901750.674    21901746.492   -12944160.365 9 -10073045.452 4        50.000  
        39.000       -2150.728       -1675.892  
  24560270.446    24560270.874     9517872.351 3   7424416.222 1        37.000  
        23.000        4345.122        3385.809  
  22902904.102    22902899.509    -9530808.097 8  -7418355.908 2        48.000  
        33.000       -1058.276        -824.631  
  19993639.535    19993634.906   -15793599.251 9 -12885038.769 9        54.000  
        51.000        1030.210         802.761  
  21519188.179    21519182.382   -11533224.033 9  -8974665.494 6        51.000  
        43.000        2427.510        1891.566  
  20430887.440    20430882.815   -15418910.517 9 -12009664.230 8        53.000  
        48.000        1589.238        1238.367  
