     2.10           OBSERVATION DATA    G (GPS)             RINEX VERSION / TYPE
teqc  2002Mar14     agnes               20040302 00:28:11UTCPGM / RUN BY / DATE
ZIMM                                                        MARKER NAME
14001M004                                                   MARKER NUMBER
GPSBASE             SWISSTOPO                               OBSERVER / AGENCY
20224769            TRIMBLE 4700        Nav  1.30 / Boot  1 REC # / TYPE / VERS
     0                                                      RCV CLOCK OFFS APPL
99390               TRM29659.00     NONE                    ANT # / TYPE
  4331297.3380   567555.6400  4633133.7180                  APPROX POSITION XYZ
        0.0000        0.0000        0.0000                  ANTENNA: DELTA H/E/N
     1     1                                                WAVELENGTH FACT L1/2
     8    C1    P2    L1    L2    S1    S2    D1    D2      # / TYPES OF OBSERV
    30.0000                                                 INTERVAL
  2004     3     1     0     0    0.0000000     GPS         TIME OF FIRST OBS
Linux 2.0.36|Pentium II|gcc -static|Linux|486/DX+           COMMENT
GPSBASE 2.10 2270                       01-Mar-04 00:01:52  COMMENT
                                                            END OF HEADER
 04  3  1  0  0  0.0000000  0 10G13G29G 8G28G21G31G26G27G17G10
  25229440.518    25229436.958    15323306.977 3  11466154.281 1        35.000
        17.000        3815.610        2973.203
  21380238.168    21380233.990   -15156294.477 9 -11805028.205 6        51.000
        44.000       -1319.141       -1027.902
  20311924.696    20311920.174   -18349025.365 9 -14288793.548 8        51.000
        48.000        1812.891        1412.642
  21896688.183    21896683.740   -14275719.736 9 -11111677.795 5        52.000
        41.000       -1678.105       -1307.615
  24547643.582    24547637.891    -2119473.199 5  -1646608.849 1        42.000
        23.000        -491.011        -382.606
  24776207.979                     -123497.571 4                        38.000
                      -404.023
  21841240.512    21841237.039   -10810650.557 9  -9002222.506 4        51.000
        39.000       -2008.071       -1564.731
  22620982.175    22620978.029    -1601862.808 8  -1229425.317 3        48.000
        35.000        3142.403        2448.625
  23383494.396    23383494.209    -3103676.256 4  -2404703.461 1        38.000
        24.000        3401.016        2650.142
  20702671.849    20702667.896   -15480207.629 9 -12054603.833 7        50.000
        47.000        1777.881        1385.362
 04  3  1  0  0 30.0000000  0 10G13G29G 8G28G21G31G26G27G17G10
  25251228.250    25251224.358    15437802.511 3  11555371.582 1        36.000
        17.000        3817.358        2974.565
  21372728.182    21372724.089   -15195760.401 9 -11835780.858 6        52.000
        43.000       -1311.948       -1022.297
  20322313.458    20322309.183   -18294431.379 9 -14246252.777 8        53.000
        48.000        1826.782        1423.467
  21887147.268    21887142.812   -14325857.121 9 -11150745.862 5        52.000
        41.000       -1664.326       -1296.878
  24544893.643    24544887.188    -2133931.736 6  -1657875.251 1        43.000
        22.000        -472.715        -368.349
  24773950.091    24773946.408     -135363.497 4   -170060.500 1        38.000
        11.000        -386.987        -301.549
  21829797.086    21829793.543   -10870786.575 9  -9049081.727 4        51.000
        39.000       -2000.986       -1559.210
  22638934.892    22638930.889    -1507521.073 8  -1155912.279 3        49.000
        35.000        3147.144        2452.320
  23402938.873    23402936.298    -3001501.960 6  -2325087.118 1        43.000
        28.000        3410.562        2657.580
  20712874.227    20712870.251   -15426594.027 9 -12012827.004 7        53.000
        47.000        1796.504        1399.873
 04  3  1  0  1  0.0000000  0 10G13G29G 8G28G21G31G26G27G17G10
  25273026.972    25273023.520    15552356.646 3  11644634.510 1        35.000
        19.000        3819.668        2976.365
  21365260.056    21365255.891   -15235005.775 9 -11866361.665 6        52.000
        43.000       -1304.561       -1016.541
  20332782.074    20332777.991   -18239418.528 8 -14203385.614 8        49.000
        48.000        1840.659        1434.280
  21877686.291    21877681.665   -14375574.358 9 -11189486.550 5        51.000
        41.000       -1650.278       -1285.931
  24542244.835    24542240.792    -2147842.705 5  -1668714.965 1        41.000
        22.000        -454.536        -354.184
  24771787.604    24771785.231     -146719.836 3   -178909.523 1        36.000
        11.000        -370.068        -288.365
  21818395.162    21818390.534   -10930705.452 9  -9095771.746 4        50.000
        39.000       -1993.691       -1553.526
  22656914.495    22656910.845    -1413036.882 8  -1082288.249 3        49.000
        37.000        3151.812        2455.957
  23422438.117    23422435.011    -2899041.823 7  -2245248.141 1        45.000
        30.000        3419.937        2664.885
  20723183.337    20723179.834   -15372419.229 8 -11970612.902 7        49.000
        47.000        1815.137        1414.392
 04  3  1  0  1 30.0000000  0  9G29G 8G28G21G31G26G27G17G10
  21357834.360    21357830.093   -15274028.320 9 -11896768.832 6        52.000
        44.000       -1297.158       -1010.773
  20343330.412    20343325.969   -18183987.184 8 -14160192.363 8        49.000
        48.000        1854.517        1445.078
  21868306.150    21868301.491   -14424868.159 9 -11227897.297 5        52.000
        41.000       -1636.162       -1274.932
  24539702.188    24539695.988    -2161204.129 5  -1679126.428 1        42.000
        20.000        -436.348        -340.011
  24769724.927    24769721.492     -157563.615 1   -187359.230 1        32.000
         9.000        -353.306        -275.303
  21807034.672    21807030.284   -10990404.678 9  -9142290.617 4        50.000
        39.000       -1986.426       -1547.864
  22674921.372    22674917.804    -1318410.460 8  -1008553.381 3        48.000
        36.000        3156.392        2459.526
  23441988.634    23441985.303    -2796297.910 6  -2165187.944 1        43.000
        27.000        3429.321        2672.198
  20733599.331    20733595.466   -15317683.059 8 -11927961.355 7        49.000
        47.000        1833.770        1428.911
 04  3  1  0  2  0.0000000  0  9G29G 8G28G21G31G26G27G17G10
  21350451.747    21350447.557   -15312824.619 9 -11926999.710 6        52.000
        43.000       -1289.316       -1004.662
  20353958.179    20353953.979   -18128136.488 9 -14116672.337 8        52.000
        48.000        1868.828        1456.230
  21859007.129    21859002.585   -14473734.035 9 -11265974.581 5        52.000
        41.000       -1621.533       -1263.532
  24537266.010    24537256.998    -2174012.881 6  -1689107.443 1        44.000
        22.000        -417.500        -325.325
  24767760.028                     -167890.732 2                        34.000
                      -335.625
  21795716.892    21795712.603   -11049880.568 9  -9188635.456 4        50.000
        39.000       -1978.608       -1541.773
  22692955.054    22692951.108    -1223640.351 8   -934706.559 2        48.000
        34.000        3161.543        2463.540
  23461592.258    23461591.573    -2693271.351 4  -2084907.565 1        39.000
        25.000        3439.141        2679.850
  20744122.594    20744118.530   -15262383.923 9 -11884871.136 7        53.000
        47.000        1852.842        1443.773
 04  3  1  0  2 30.0000000  0  9G29G 8G28G21G31G26G27G17G10
  21343113.091    21343108.821   -15351389.430 9 -11957050.195 6        52.000
        43.000       -1281.724        -998.746
  20364666.743    20364662.217   -18071863.716 9 -14072823.419 7        54.000
        47.000        1882.661        1467.009
  21849791.001    21849786.297   -14522165.780 9 -11303713.594 5        52.000
        42.000       -1607.285       -1252.430
  24534934.441    24534926.615    -2186264.384 6  -1698654.040 1        43.000
        23.000        -399.180        -311.049
  24765893.841                     -177695.503 1                        31.000
                      -318.145
  21784442.239    21784438.191   -11109127.961 9  -9234802.239 5        50.000
        40.000       -1971.250       -1536.039
  22711017.390    22711013.330    -1128724.035 8   -860745.797 3        48.000
        35.000        3166.201        2467.170
  23481252.407    23481250.441    -2589961.411 5  -2004406.277 1        40.000
        27.000        3448.232        2686.934
  20754753.124    20754748.973   -15206518.737 9 -11841339.829 7        53.000
        47.000        1871.450        1458.273
 04  3  1  0  3  0.0000000  0  9G29G 8G28G21G31G26G27G17G10
  21335817.924    21335813.641   -15389725.587 9 -11986922.530 6        52.000
        44.000       -1273.906        -992.654
  20375454.322    20375450.126   -18015174.843 9 -14028650.280 8        54.000
        48.000        1896.665        1477.921
  21840657.034    21840652.132   -14570165.266 9 -11341115.781 5        52.000
        42.000       -1592.573       -1240.966
  24532706.549    24532702.211    -2197961.219 5  -1707768.403 1        40.000
        23.000        -380.503        -296.496
  24764127.414                     -186980.331 2                        34.000
                      -300.825
  21773210.821    21773206.493   -11168149.421 9  -9280792.984 4        50.000
        39.000       -1963.467       -1529.974
  22729106.503    22729102.410    -1033666.852 8   -786675.285 3        49.000
        35.000        3171.025        2470.929
  23500965.078    23500962.048    -2486375.369 5  -1923689.983 1        41.000
        26.000        3457.607        2694.240
  20765490.873    20765486.487   -15150092.763 9 -11797371.562 7        54.000
        47.000        1890.347        1472.997
 04  3  1  0  3 30.0000000  0  9G29G 8G28G21G31G26G27G17G10
  21328567.301    21328562.655   -15427828.663 9 -12016613.232 6        51.000
        44.000       -1266.147        -986.608
  20386321.389    20386317.183   -17958067.586 9 -13984151.114 7        53.000
        47.000        1910.605        1488.783
  21831606.228    21831601.141   -14617727.229 9 -11378177.034 5        52.000
        42.000       -1577.979       -1229.594
  24530587.668    24530582.082    -2209099.552 5  -1716447.718 1        41.000
        22.000        -361.924        -282.019
  24762459.931                     -195740.327 1                        30.000
                      -283.184
  21762023.202    21762019.194   -11226940.446 9  -9326604.159 4        50.000
        39.000       -1955.840       -1524.031
  22747222.165    22747218.957     -938466.577 7   -712493.276 3        47.000
        35.000        3175.781        2474.635
  23520728.672    23520726.524    -2382513.208 5  -1842758.471 1        40.000
        24.000        3466.665        2701.298
  20776335.727    20776331.105   -15093103.285 9 -11752964.195 7        54.000
        47.000        1909.131        1487.634
 04  3  1  0  4  0.0000000  0  9G29G 8G28G21G31G26G27G17G10
  21321360.358    21321356.022   -15465699.915 9 -12046123.289 6        52.000
        44.000       -1258.525        -980.669
  20397267.406    20397263.129   -17900545.975 9 -13939329.081 8        54.000
        48.000        1924.214        1499.387
  21822638.669    21822634.036   -14664851.713 9 -11414897.392 5        52.000
        41.000       -1563.520       -1218.328
  24528574.518    24528568.044    -2219680.663 5  -1724692.750 1        42.000
        20.000        -343.462        -267.633
  24760891.501                                                          28.000
                      -265.635
  21750879.087    21750875.057   -11285502.062 8  -9372236.566 4        49.000
        39.000       -1948.232       -1518.103
  22765364.877    22765361.210     -843126.812 7   -638202.559 3        47.000
        35.000        3180.337        2478.185
  23540543.573    23540542.051    -2278380.999 5  -1761616.431 1        41.000
        26.000        3475.513        2708.192
  20787286.930    20787282.423   -15035553.604 9 -11708120.299 7        55.000
        47.000        1927.607        1502.032
 04  3  1  0  4 30.0000000  0  9G29G 8G28G21G31G26G27G17G10
  21314197.796    21314193.732   -15503340.306 9 -12075453.458 6        52.000
        44.000       -1250.825        -974.669
  20408291.510    20408287.496   -17842613.599 9 -13894186.973 7        54.000
        47.000        1937.900        1510.052
  21813754.427    21813749.564   -14711538.915 9 -11451277.018 5        52.000
        42.000       -1549.004       -1207.016
  24526666.346    24526660.683    -2229705.985 5  -1732504.732 1        40.000
        21.000        -324.951        -253.209
  24759425.318                     -211687.989 3                        36.000
                      -248.291
  21739778.822    21739774.712   -11343835.076 8  -9417690.853 5        49.000
        40.000       -1940.693       -1512.229
  22783533.601    22783528.928     -747650.793 7   -563805.679 2        47.000
        34.000        3184.751        2481.624
  23560411.813    23560409.730    -2173983.635 5  -1680267.886 1        42.000
        28.000        3484.204        2714.964
  20798344.015    20798339.933   -14977447.116 9 -11662842.538 7        54.000
        47.000        1946.167        1516.494
 04  3  1  0  5  0.0000000  0  9G29G 8G28G21G31G26G27G17G10
  21307078.827    21307074.513   -15540750.081 9 -12104603.935 6        52.000
        44.000       -1243.125        -968.669
  20419393.239    20419389.228   -17784273.407 9 -13848727.077 7        54.000
        47.000        1951.455        1520.614
  21804953.302    21804949.199   -14757788.134 9 -11487315.355 5        52.000
        42.000       -1534.316       -1195.571
  24524865.440    24524859.203    -2239176.497 5  -1739884.365 1        42.000
        23.000        -306.470        -238.808
  24758056.443                     -218876.417 2                        33.000
                      -230.903
  21728721.643    21728718.179   -11401939.739 9  -9462967.203 5        50.000
        40.000       -1933.022       -1506.251
  22801727.688    22801723.718     -652041.359 8   -489304.832 3        48.000
        35.000        3189.175        2485.071
  23580326.019    23580323.897    -2069326.471 5  -1598716.850 1        40.000
        26.000        3492.808        2721.668
  20809506.844    20809503.057   -14918786.211 9 -11617132.751 7        54.000
        47.000        1964.585        1530.845
 04  3  1  0  5 30.0000000  0  9G29G 8G28G21G31G26G27G17G10
  21300004.652    21300000.435   -15577925.783 9 -12133572.014 6        53.000
        44.000       -1235.293        -962.566
  20430572.582    20430568.417   -17725524.655 9 -13802948.832 7        51.000
        47.000        1965.029        1531.192
  21796236.661    21796232.065   -14803595.099 9 -11523009.084 5        52.000
        42.000       -1519.492       -1184.020
  24523169.304    24523163.229    -2248089.074 3  -1746829.249 1        37.000
        22.000        -287.764        -224.231
  24756789.888                     -225537.154 1                        32.000
                      -213.086
  21717709.050    21717705.180   -11459812.334 9  -9508062.722 5        50.000
        40.000       -1925.195       -1500.152
  22819946.532    22819943.487     -556297.393 7   -414699.147 3        47.000
        35.000        3193.672        2488.575
  23600291.362    23600289.548    -1964410.427 5  -1516964.123 1        41.000
        27.000        3501.470        2728.418
  20820775.587    20820771.783   -14859569.402 9 -11570989.806 7        53.000
        47.000        1983.130        1545.296
 04  3  1  0  6  0.0000000  0  9G29G 8G28G21G31G26G27G17G10
  21292975.110    21292970.803   -15614865.153 9 -12162355.937 6        52.000
        44.000       -1227.378        -956.398
  20441830.192    20441825.931   -17666367.769 8 -13756852.560 7        48.000
        47.000        1978.701        1541.845
  21787604.777    21787599.406   -14848956.656 9 -11558355.731 5        52.000
        42.000       -1504.624       -1172.434
  24521576.541    24521573.908    -2256441.936 1  -1753337.941 1        32.000
        19.000        -269.209        -209.773
  24755622.882                     -231667.635 2                        33.000
                      -195.571
  21706741.165    21706737.179   -11517450.400 8  -9552975.480 5        49.000
        40.000       -1917.397       -1494.076
  22838191.890    22838188.204     -460418.846 7   -339988.631 2        47.000
        34.000        3198.223        2492.122
  23620304.552    23620302.057    -1859237.624 5  -1435011.325 1        40.000
        26.000        3509.927        2735.008
  20832149.863    20832145.873   -14799796.993 8 -11524413.916 7        48.000
        47.000        2001.685        1559.754
 04  3  1  0  6 30.0000000  0  9G29G 8G28G21G31G26G27G17G10
  21285990.801    21285986.546   -15651568.111 9 -12190955.632 6        52.000
        44.000       -1219.546        -950.296
  20453164.452    20453160.410   -17606805.323 8 -13710440.263 7        49.000
        47.000        1992.036        1552.236
  21779057.610    21779052.438   -14893871.947 9 -11593354.645 5        52.000
        42.000       -1489.893       -1160.955
  24520094.001    24520091.066    -2264235.261 3  -1759410.612 1        36.000
        19.000        -250.571        -195.250
  24754556.718                     -237267.412 1                        32.000
                      -178.237
  21695817.384    21695813.199   -11574853.790 8  -9597705.385 5        49.000
        40.000       -1909.663       -1488.049
  22856462.469    22856458.140     -364408.135 8   -265175.088 2        48.000
        34.000        3202.500        2495.455
  23640366.673    23640364.812    -1753812.526 5  -1352861.987 1        41.000
        24.000        3518.374        2741.590
  20843629.691    20843625.829   -14739470.984 8 -11477406.651 7        49.000
        47.000        2019.956        1573.992
 04  3  1  0  7  0.0000000  0  9G29G 8G28G21G31G26G27G17G10
  21279051.782    21279047.649   -15688034.622 9 -12219371.101 6        52.000
        44.000       -1211.650        -944.143
  20464575.690    20464571.497   -17546839.783 9 -13663713.869 7        54.000
        47.000        2005.527        1562.749
  21770595.682    21770591.217   -14938339.896 9 -11628004.981 5        52.000
        42.000       -1474.814       -1149.206
  24518719.632    24518715.126    -2271469.655 5  -1765047.813 1        40.000
        26.000        -231.904        -180.705
  24753592.737                     -242336.060 1                        32.000
                      -160.552
  21684938.857    21684934.752   -11632022.272 8  -9642252.247 5        48.000
        40.000       -1901.768       -1481.897
  22874757.493    22874753.080     -268267.378 7   -190260.208 2        47.000
        34.000        3206.860        2498.852
  23660475.870    23660473.020    -1648139.787 4  -1270519.575 1        39.000
        25.000        3526.431        2747.868
  20855214.569    20855210.483   -14678593.491 9 -11429969.661 7        54.000
        47.000        2038.364        1588.336
 04  3  1  0  7 30.0000000  0  9G29G 8G28G21G31G26G27G17G10
  21272157.494    21272153.484   -15724262.695 9 -12247600.772 6        52.000
        44.000       -1203.726        -937.968
  20476062.982    20476058.906   -17486472.302 9 -13616674.273 7        50.000
        47.000        2018.867        1573.143
  21762219.160    21762214.390   -14982357.749 9 -11662304.578 5        52.000
        42.000       -1459.863       -1137.556
  24517449.913    24517445.099    -2278143.810 4  -1770248.513 1        39.000
        23.000        -213.311        -166.216
  24752730.374                     -246871.502 1                        30.000
                      -142.559
  21674104.594    21674100.917   -11688953.768 7  -9686614.429 5        46.000
        40.000       -1893.799       -1475.687
  22893076.430    22893073.271     -171997.270 7   -115244.570 2        47.000
        34.000        3211.055        2502.121
  23680631.738    23680628.689    -1542221.648 5  -1187985.987 1        42.000
        25.000        3534.604        2754.237
  20866903.405    20866899.499   -14617164.860 8 -11382103.213 7        48.000
        47.000        2056.758        1602.668
 04  3  1  0  8  0.0000000  0  9G29G 8G28G21G31G26G27G17G10
  21265309.055    21265304.950   -15760252.243 9 -12275644.562 6        52.000
        44.000       -1195.698        -931.713
  20487626.469    20487622.323   -17425705.395 9 -13569323.432 7        50.000
        47.000        2032.183        1583.519
  21753928.602    21753924.044   -15025924.660 9 -11696252.816 5        52.000
        42.000       -1444.731       -1125.765
  24516285.543    24516281.059    -2284257.818 4  -1775012.702 1        38.000
        23.000        -194.565        -151.609
  24751965.328                                                          25.000
                      -124.604
  21663316.228    21663312.569   -11745648.135 8  -9730791.854 5        48.000
        40.000       -1885.918       -1469.547
  22911420.659    22911416.961      -75599.964 7    -40129.813 2        47.000
        34.000        3215.381        2505.492
  23700832.072    23700829.813    -1436063.127 5  -1105265.049 1        40.000
        25.000        3542.627        2760.488
  20878697.691    20878693.737   -14555187.418 9 -11333809.114 7        50.000
        47.000        2075.034        1616.910
 04  3  1  0  8 30.0000000  0  9G29G 8G28G21G31G26G27G17G10
  21258506.060    21258501.384   -15796003.443 9 -12303502.638 6        52.000
        44.000       -1187.842        -925.591
  20499265.316    20499261.627   -17364541.899 9 -13521663.572 7        53.000
        47.000        2045.283        1593.727
  21745724.020    21745719.278   -15069039.952 9 -11729849.134 5        51.000
        42.000       -1429.751       -1114.092
  24515228.299    24515223.626    -2289812.829 4  -1779341.301 1        38.000
        23.000        -175.688        -136.900
  24751308.813                     -254341.370 1                        29.000
                      -106.851
  21652572.858    21652569.203   -11802105.285 7  -9774784.427 5        46.000
        40.000       -1878.076       -1463.436
  22929788.398    22929784.112       20922.038 7     35082.153 2        46.000
        34.000        3219.341        2508.577
  23721079.112    23721076.132    -1329668.640 5  -1022360.271 1        42.000
        27.000        3550.215        2766.401
  20890595.350    20890591.582   -14492663.684 9 -11285089.341 7        52.000
        47.000        2093.115        1630.999
 04  3  1  0  9  0.0000000  0  9G29G 8G28G21G31G26G27G17G10
  21251749.456    21251745.152   -15831507.211 9 -12331167.913 6        52.000
        44.000       -1179.355        -918.978
  20510981.236    20510977.208   -17302975.419 9 -13473689.691 7        50.000
        47.000        2058.833        1604.285
  21737607.399    21737602.497   -15111694.043 9 -11763086.068 5        52.000
        42.000       -1414.136       -1101.924
  24514280.264    24514274.480    -2294800.408 4  -1783227.704 1        39.000
        23.000        -156.802        -122.183
  24750751.114                     -257266.555 1                        30.000
                       -88.545
  21641876.408    21641872.368   -11858316.032 7  -9818585.013 5        47.000
        40.000       -1869.604       -1456.835
  22948180.909    22948176.561      117575.355 7    110396.388 2        45.000
        33.000        3223.926        2512.150
  23741369.995    23741368.677    -1223033.546 4   -939268.042 1        39.000
        22.000        3558.457        2772.824
  20902598.913    20902594.800   -14429587.108 8 -11235938.779 7        49.000
        47.000        2111.743        1645.514
 04  3  1  0  9 30.0000000  0  9G29G 8G28G21G31G26G27G17G10
  21245040.039    21245035.813   -15866765.121 9 -12358641.601 7        52.000
        45.000       -1171.040        -912.499
  20522772.866    20522768.536   -17241010.434 9 -13425405.286 7        53.000
        47.000        2072.192        1614.695
  21729578.043    21729573.374   -15153887.606 9 -11795964.158 5        52.000
        42.000       -1398.677       -1089.878
  24513438.756    24513433.187    -2299222.652 5  -1786673.672 1        40.000
        23.000        -137.935        -107.481
  24750298.578                     -259650.054 1                        32.000
                       -70.254
  21631226.450    21631222.434   -11914281.884 8  -9862194.764 5        48.000
        40.000       -1861.309       -1450.370
  22966597.482    22966593.703      214356.165 7    185809.993 2        47.000
        33.000        3228.145        2515.437
  23761706.384    23761705.099    -1116164.205 4   -855993.214 1        39.000
        24.000        3566.299        2778.934
  20914706.147    20914702.112   -14365961.706 9 -11186360.558 7        53.000
        46.000        2130.020        1659.755
 04  3  1  0 10  0.0000000  0  9G29G 8G28G21G31G26G27G17G10
  21238377.660    21238373.460   -15901776.662 9 -12385923.313 6        52.000
        44.000       -1163.042        -906.266
  20534639.917    20534635.603   -17178649.069 9 -13376812.015 7        54.000
        47.000        2085.254        1624.873
  21721636.696    21721632.054   -15195619.346 9 -11828482.369 5        52.000
        41.000       -1383.428       -1077.996
  24512704.832    24512699.450    -2303079.781 5  -1789679.217 1        40.000
        23.000        -119.146         -92.841
  24749946.312                     -261491.337 1                        31.000
                       -52.349
  21620623.391    21620619.301   -11970001.983 8  -9905613.000 5        48.000
        40.000       -1853.325       -1444.150
  22985038.102    22985034.678      311262.553 7    261321.439 2        46.000
        33.000        3232.139        2518.550
  23782088.812    23782085.090    -1009064.398 5   -772538.929 1        41.000
        27.000        3573.569        2784.599
  20926917.754    20926913.919   -14301789.191 9 -11136356.017 7        54.000
        47.000        2148.091        1673.837
 04  3  1  0 10 30.0000000  0  9G29G 8G28G21G31G26G27G17G10
  21231761.382    21231757.128   -15936545.512 9 -12413015.919 6        52.000
        44.000       -1154.858        -899.890
  20546581.146    20546577.170   -17115897.853 9 -13327914.958 7        50.000
        47.000        2098.237        1634.990
  21713782.954    21713778.043   -15236892.279 9 -11860643.082 5        52.000
        42.000       -1368.135       -1066.079
  24512078.481    24512072.553    -2306376.278 4  -1792247.931 1        39.000
        24.000        -100.542         -78.344
  24749698.856                     -262793.951 1                        31.000
                       -34.375
  21610066.224    21610062.399   -12025480.086 7  -9948842.685 5        47.000
        41.000       -1845.200       -1437.818
  23003501.232    23003497.518      408288.574 7    336926.123 2        45.000
        34.000        3236.157        2521.681
  23802509.519    23802507.415     -901742.744 3   -688911.692 1        37.000
        24.000        3581.001        2790.390
  20939232.602    20939228.438   -14237075.668 9 -11085929.906 7        50.000
        46.000        2166.138        1687.900
 04  3  1  0 11  0.0000000  0  9G29G 8G28G21G31G26G27G17G10
  21225191.230    21225187.217   -15971072.724 9 -12439920.250 6        52.000
        44.000       -1146.890        -893.680
  20558595.530    20558591.526   -17052760.294 9 -13278716.864 7        53.000
        47.000        2110.986        1644.924
  21706016.226    21706011.525   -15277706.739 9 -11892446.545 5        52.000
        42.000       -1352.793       -1054.124
  24511557.264    24511551.332    -2309113.670 5  -1794380.988 1        41.000
        24.000         -81.782         -63.726
  24749553.801                     -263558.697 3                        36.000
                       -16.582
  21599554.602    21599550.621   -12080716.965 7  -9991884.400 5        46.000
        41.000       -1837.207       -1431.590
  23021986.995    23021983.074      505430.895 6    412621.435 1        44.000
        32.000        3239.966        2524.649
  23822974.233    23822971.804     -794204.821 5   -605115.900 1        42.000
        25.000        3588.145        2795.957
  20951649.329    20951645.787   -14171824.608 9 -11035084.947 7        53.000
        47.000        2183.931        1701.764
 04  3  1  0 11 30.0000000  0  9G29G 8G28G21G31G26G27G17G10
  21218668.015    21218663.707   -16005351.800 9 -12466631.212 6        53.000
        44.000       -1138.467        -887.117
  20570684.602    20570679.859   -16989233.030 9 -13229215.115 7        54.000
        46.000        2124.009        1655.072
  21698337.930    21698333.386   -15318055.443 9 -11923887.083 5        52.000
        42.000       -1337.222       -1041.991
  24511142.777    24511137.786    -2311286.167 5  -1796073.857 1        41.000
        22.000         -63.008         -49.097
  24749511.646                     -263779.173 2                        33.000
                         1.597
  21589090.502    21589086.510   -12135705.965 7 -10034732.965 5        46.000
        41.000       -1828.848       -1425.076
  23040495.609    23040491.885      602693.534 6    488410.480 2        44.000
        33.000        3244.116        2527.883
  23843480.635    23843477.652     -686448.537 6   -521150.013 1        44.000
        28.000        3595.420        2801.626
  20964169.283    20964165.503   -14106032.038 9 -10983818.030 7        53.000
        46.000        2202.114        1715.933
 04  3  1  0 12  0.0000000  0  9G29G 8G28G21G31G26G27G17G10
  21212191.296    21212187.009   -16039386.734 9 -12493151.929 6        52.000
        44.000       -1130.098        -880.596
  20582846.115    20582841.969   -16925322.645 9 -13179414.803 7        53.000
        47.000        2136.978        1665.177
  21690747.633    21690743.456   -15357941.923 9 -11954967.427 5        53.000
        42.000       -1321.514       -1029.751
  24510835.905    24510830.445    -2312898.845 5  -1797330.510 1        41.000
        21.000         -44.204         -34.445
  24749572.909                     -263459.266 2                        34.000
                        19.878
  21578673.044    21578669.141   -12190451.147 7 -10077391.533 5        47.000
        41.000       -1820.522       -1418.589
  23059025.563    23059022.074      700070.169 6    564288.377 2        43.000
        33.000        3248.174        2531.044
  23864023.099    23864023.022     -578482.677 4   -437020.780 1        39.000
        21.000        3602.490        2807.135
  20976790.825    20976786.846   -14039704.366 9 -10932134.131 7        53.000
        46.000        2220.112        1729.958
 04  3  1  0 12 30.0000000  0  9G29G 8G28G21G31G26G27G17G10
  21205762.811    21205758.698   -16073168.403 9 -12519475.300 7        53.000
        45.000       -1121.885        -874.196
  20595082.077    20595077.758   -16861023.052 9 -13129311.222 7        53.000
        46.000        2149.775        1675.150
  21683247.748    21683242.719   -15397356.234 9 -11985679.872 5        52.000
        42.000       -1305.874       -1017.564
  24510636.836    24510631.538    -2313943.312 5  -1798144.383 1        42.000
        23.000         -25.269         -19.690
  24749738.866                     -262589.789 3                        37.000
                        38.271
  21568303.556    21568299.230   -12244943.010 7 -10119852.719 5        47.000
        41.000       -1812.090       -1412.018
  23077579.095    23077575.071      797567.456 6    640260.282 2        43.000
        33.000        3251.904        2533.951
  23884611.358    23884609.193     -470302.613 6   -352724.565 1        44.000
        28.000        3609.536        2812.625
  20989515.543    20989511.792   -13972835.178 9 -10880028.296 7        52.000
        46.000        2237.983        1743.883
 04  3  1  0 13  0.0000000  0  9G29G 8G28G21G31G26G27G17G10
  21199382.871    21199378.473   -16106696.635 9 -12545601.195 6        52.000
        44.000       -1113.545        -867.697
  20607391.167    20607386.965   -16796336.647 9 -13078906.229 7        53.000
        47.000        2162.485        1685.053
  21675837.005    21675832.010   -15436297.927 9 -12016024.022 5        52.000
        42.000       -1290.361       -1005.476
  24510546.886    24510541.673    -2314420.353 5  -1798516.109 1        42.000
        24.000          -6.616          -5.155
  24750007.305    24750003.263     -261170.718 3   -268092.285 1        35.000
        15.000          56.328          43.892
  21557982.213    21557978.306   -12299181.422 7 -10162116.413 5        47.000
        41.000       -1803.892       -1405.630
  23096154.947    23096151.093      895183.404 5    716324.637 2        42.000
        33.000        3255.722        2536.927
  23905237.173    23905235.155     -361912.716 5   -268265.063 1        41.000
        22.000        3616.265        2817.869
  21002343.014    21002338.971   -13905426.971 9 -10827502.441 7        54.000
        46.000        2255.723        1757.706
 04  3  1  0 13 30.0000000  0  9G29G 8G28G21G31G26G27G17G10
  21193050.797    21193046.381   -16139972.260 9 -12571530.243 7        53.000
        45.000       -1105.122        -861.134
  20619773.629    20619769.275   -16731267.193 9 -13028202.752 7        54.000
        47.000        2175.205        1694.965
  21668516.835    21668512.068   -15474767.013 9 -12045999.916 5        53.000
        42.000       -1274.512        -993.126
  24510563.973    24510559.485    -2314331.504 6  -1798446.905 1        43.000
        26.000          12.300           9.584
  24750383.668    24750379.344     -259202.791 3   -266558.770 1        37.000
        16.000          74.536          58.080
  21547709.464    21547705.327   -12353167.016 8 -10204183.104 5        49.000
        41.000       -1795.322       -1398.952
  23114752.050    23114748.694      992914.525 5    792478.742 2        42.000
        34.000        3259.429        2539.815
  23925900.221    23925899.997     -253318.553 5   -183646.137 1        40.000
        26.000        3622.954        2823.081
  21015272.460    21015268.337   -13837483.133 9 -10774559.205 7        54.000
        47.000        2273.608        1771.643
 04  3  1  0 14  0.0000000  0  9G29G 8G28G21G31G26G27G17G10
  21186767.387    21186763.224   -16172991.357 9 -12597259.397 6        53.000
        44.000       -1096.470        -854.392
  20632229.019    20632224.894   -16665813.573 9 -12977199.943 7        53.000
        46.000        2188.022        1704.953
  21661286.884    21661282.497   -15512759.017 9 -12075604.056 5        52.000
        42.000       -1258.574        -980.707
  24510689.180    24510683.495    -2313673.716 6  -1797934.334 1        43.000
        23.000          31.274          24.370
  24750863.365    24750858.745     -256682.091 3   -264594.539 1        37.000
        18.000          93.125          72.565
  21537485.272    21537480.679   -12406895.725 8 -10246049.634 5        48.000
        41.000       -1786.807       -1392.317
  23133371.361    23133367.912     1090762.762 5    868724.088 1        41.000
        32.000        3263.301        2542.832
  23946605.465    23946602.892     -144520.517 6    -98868.587 1        43.000
        24.000        3629.858        2828.461
  21028303.688    21028299.777   -13769002.199 9 -10721197.448 7        54.000
        46.000        2291.455        1785.549
 04  3  1  0 14 30.0000000  0  9G29G 8G28G21G31G26G27G17G10
  21180532.205    21180528.035   -16205757.237 9 -12622791.251 7        53.000
        45.000       -1088.193        -847.943
  20644756.281    20644752.342   -16599981.584 9 -12925902.283 7        52.000
        46.000        2200.464        1714.647
  21654147.610    21654143.062   -15550276.665 9 -12104838.567 5        53.000
        42.000       -1242.827        -968.437
  24510922.523    24510916.016    -2312451.271 6  -1796981.817 1        43.000
        26.000          50.005          38.965
  24751446.755    24751442.505     -253612.092 4   -262202.321 1        39.000
        20.000         111.387          86.795
  21527308.595    21527304.900   -12460370.659 8 -10287718.393 5        48.000
        42.000       -1778.477       -1385.826
  23152013.365    23152009.490     1188722.391 5    945056.251 1        42.000
        32.000        3266.948        2545.674
  23967345.598    23967343.255      -35526.826 5    -13938.370 1        42.000
        28.000        3636.152        2833.365
  21041436.412    21041432.632   -13699989.965 9 -10667421.696 7        54.000
        46.000        2308.975        1799.201
 04  3  1  0 15  0.0000000  0  9G29G 8G28G21G31G26G27G17G10
  21174344.799    21174340.841   -16238270.334 9 -12648126.131 7        53.000
        45.000       -1079.385        -841.079
  20657355.585    20657351.440   -16533774.809 9 -12874312.598 7        53.000
        46.000        2213.315        1724.661
  21647098.745    21647093.883   -15587319.674 9 -12133703.236 5        52.000
        42.000       -1226.689        -955.862
  24511261.927    24511256.064    -2310665.536 6  -1795590.326 1        43.000
        23.000          69.048          53.804
  24752135.862    24752131.232     -249993.100 4   -259382.296 1        38.000
        20.000         129.980         101.283
  21517181.337    21517177.351   -12513592.048 8 -10329189.606 5        49.000
        41.000       -1769.585       -1378.897
  23170675.393    23170671.870     1286790.854 5   1021473.240 1        41.000
        32.000        3270.825        2548.695
  23988123.176    23988121.555       73657.643 6     71140.309 1        44.000
        24.000        3642.876        2838.605
  21054669.538    21054665.312   -13630449.586 9 -10613234.413 7        53.000
        46.000        2326.929        1813.191
 04  3  1  0 15 30.0000000  0  9G29G 8G28G21G31G26G27G17G10
  21168207.143    21168203.108   -16270524.944 9 -12673259.572 7        53.000
        45.000       -1070.898        -834.466
  20670025.806    20670021.742   -16467190.275 9 -12822428.539 7        53.000
        46.000        2225.796        1734.386
  21640141.173    21640136.167   -15623882.049 9 -12162193.376 5        52.000
        42.000       -1210.718        -943.416
  24511709.913    24511703.989    -2308311.898 6  -1793756.370 1        43.000
        23.000          87.910          68.501
  24752929.471    24752925.429     -245819.854 3   -256130.397 1        37.000
        21.000         148.350         115.597
  21507102.806    21507099.036   -12566554.182 8 -10370458.792 5        48.000
        42.000       -1761.069       -1372.262
  23189358.016    23189354.349     1384971.112 6   1097977.315 1        43.000
        32.000        3274.458        2551.526
  24008936.177    24008934.345      183033.851 6    156368.602 1        43.000
        26.000        3649.004        2843.380
  21068003.402    21067999.549   -13560378.195 9 -10558633.346 7        54.000
        46.000        2344.487        1826.873
 04  3  1  0 16  0.0000000  0  9G29G 8G28G21G31G26G27G17G10
  21162117.495    21162114.109   -16302524.726 9 -12698194.465 7        53.000
        45.000       -1062.334        -827.793
  20682766.938    20682762.826   -16400234.465 9 -12770255.178 7        54.000
        46.000        2238.145        1744.009
  21633274.547    21633269.602   -15659966.762 9 -12190311.312 5        52.000
        42.000       -1194.756        -930.979
  24512263.827    24512258.722    -2305394.966 5  -1791483.437 1        41.000
        23.000         106.743          83.176
  24753829.017    24753824.346     -241096.056 3   -252449.483 1        36.000
        21.000         166.719         129.911
  21497073.113    21497068.729   -12619260.477 9 -10411528.621 5        50.000
        42.000       -1752.544       -1365.619
  23208061.811    23208057.442     1483257.422 6   1174564.051 1        43.000
        32.000        3278.013        2554.296
  24029785.593    24029783.286      292593.794 6    241739.897 1        43.000
        26.000        3655.078        2848.113
  21081437.727    21081433.711   -13489781.934 9 -10503623.284 7        54.000
        46.000        2361.987        1840.510
 04  3  1  0 16 30.0000000  0  9G29G 8G28G21G31G26G27G17G10
  21156078.249    21156073.898   -16334262.899 9 -12722925.501 7        52.000
        45.000       -1053.496        -820.906
  20695579.788    20695575.401   -16332903.475 9 -12717789.472 7        52.000
        46.000        2250.664        1753.764
  21626500.027    21626495.203   -15695566.691 9 -12218051.498 5        53.000
        42.000       -1178.506        -918.316
  24512926.626    24512922.585    -2301909.090 5  -1788767.130 1        41.000
        23.000         125.771          98.004
  24754833.864    24754828.639     -235815.126 3   -248334.397 1        37.000
        22.000         185.366         144.441
  21487093.504    21487089.775   -12671704.072 9 -10452393.750 5        50.000
        42.000       -1743.716       -1358.740
  23226785.708    23226781.518     1581654.176 5   1251236.844 1        42.000
        32.000        3281.821        2557.263
  24050667.329    24050666.789      402339.346 4    327255.958 1        39.000
        21.000        3661.353        2853.002
  21094972.460    21094967.941   -13418656.897 9 -10448201.203 7        54.000
        46.000        2379.692        1854.306
 04  3  1  0 17  0.0000000  0  9G29G 8G28G21G31G26G27G17G10
  21150089.235    21150085.042   -16365733.828 9 -12747448.299 7        53.000
        45.000       -1044.546        -813.932
  20708464.454    20708460.294   -16265194.444 9 -12665029.179 7        53.000
        46.000        2263.281        1763.596
  21619818.669    21619813.676   -15730676.009 9 -12245409.394 6        53.000
        43.000       -1162.090        -905.525
  24513699.195    24513695.110    -2297849.622 4  -1785603.959 1        39.000
        21.000         144.951         112.949
  24755944.850    24755940.673     -229971.700 3   -243781.084 1        37.000
        22.000         204.238         159.147
  21477165.186    21477161.061   -12723879.130 9 -10493049.628 5        50.000
        42.000       -1734.712       -1351.724
  23245531.327    23245527.991     1680164.548 5   1327998.147 1        41.000
        32.000        3285.620        2560.223
  24071589.206    24071586.921      512271.445 6    412917.296 1        44.000
        24.000        3667.539        2857.823
  21108608.157    21108604.000   -13347000.129 9 -10392364.776 7        54.000
        46.000        2397.417        1868.117
 04  3  1  0 17 30.0000000  0  9G29G 8G28G21G31G26G27G17G10
  21144151.131    21144146.796   -16396941.047 9 -12771765.602 7        54.000
        45.000       -1035.864        -807.167
  20721420.158    20721415.272   -16197113.758 9 -12611979.307 7        54.000
        46.000        2275.454        1773.081
  21613230.456    21613225.835   -15765297.410 9 -12272387.079 5        52.000
        42.000       -1145.996        -892.984
  24514579.488    24514575.913    -2293220.999 5  -1781997.230 1        41.000
        22.000         163.774         127.616
  24757164.321    24757159.323     -223569.361 4   -238792.228 1        38.000
        22.000         222.764         173.582
  21467286.664    21467283.229   -12775789.054 9 -10533498.908 5        51.000
        42.000       -1726.001       -1344.936
  23264297.944    23264294.600     1778782.839 5   1404843.551 1        42.000
        32.000        3288.965        2562.830
  24092540.643    24092539.755      622382.113 5    498717.766 1        40.000
        20.000        3673.315        2862.324
  21122343.949    21122340.198   -13274817.965 9 -10336118.945 7        54.000
        46.000        2414.707        1881.590
 04  3  1  0 18  0.0000000  0  9G29G 8G28G21G31G26G27G17G10
  21138262.817    21138258.207   -16427884.254 9 -12795877.180 7        54.000
        45.000       -1026.978        -800.242
  20734445.129    20734440.722   -16128663.909 9 -12558641.746 7        54.000
        46.000        2287.881        1782.764
  21606735.340    21606730.530   -15799430.289 9 -12298984.112 6        52.000
        43.000       -1129.580        -880.192
  24515569.271    24515563.704    -2288024.260 6  -1777947.881 1        43.000
        22.000         182.720         142.379
  24758489.395    24758483.631     -216608.352 4   -233368.051 1        38.000
        22.000         241.313         188.036
  21457459.201    21457455.575   -12827433.395 9 -10573741.242 5        51.000
        42.000       -1716.953       -1337.885
  23283085.187    23283080.466     1877507.055 6   1481771.500 1        43.000
        32.000        3292.539        2565.615
  24113528.824    24113526.140      732666.921 6    584654.013 1        44.000
        23.000        3679.014        2866.764
  21136178.876    21136175.539   -13202112.951 9 -10279465.702 7        55.000
        46.000        2432.266        1895.272
 04  3  1  0 18 30.0000000  0  9G29G 8G28G21G31G26G27G17G10
  21132423.983    21132420.123   -16458566.104 9 -12819785.115 7        52.000
        45.000       -1018.442        -793.591
  20747540.040    20747535.312   -16059850.581 9 -12505020.972 7        53.000
        46.000        2299.771        1792.029
  21600332.527    21600327.718   -15833076.841 9 -12325202.184 5        52.000
        42.000       -1113.540        -867.694
  24516665.490    24516660.503    -2282263.029 6  -1773458.606 1        43.000
        22.000         201.309         156.864
  24759918.614    24759914.327     -209091.451 3   -227510.725 1        37.000
        20.000         259.678         202.346
  21447681.655    21447677.280   -12878814.891 9 -10613778.764 5        50.000
        42.000       -1708.442       -1331.254
  23301890.600    23301887.074     1976332.225 5   1558778.119 1        42.000
        31.000        3295.806        2568.160
  24134547.391    24134545.016      843118.851 6    670720.399 1        44.000
        27.000        3684.331        2870.907
  21150113.115    21150109.383   -13128890.394 9 -10222409.181 7        54.000
        46.000        2449.268        1908.520
 04  3  1  0 19  0.0000000  0  9G29G 8G28G21G31G26G27G17G10
  21126636.380    21126632.014   -16488981.135 9 -12843485.136 7        53.000
        45.000       -1009.341        -786.499
  20760704.444    20760700.484   -15990671.164 9 -12451114.924 7        53.000
        46.000        2312.090        1801.628
  21594023.326    21594018.586   -15866231.145 9 -12351036.684 5        53.000
        42.000       -1096.904        -854.731
  24517870.465    24517865.328    -2275932.944 5  -1768526.081 1        42.000
        22.000         220.439         171.771
  24761456.143    24761451.574     -201013.536 2   -221216.219 1        34.000
        18.000         278.760         217.215
  21437955.098    21437951.055   -12929927.766 9 -10653606.961 5        50.000
        42.000       -1699.219       -1324.067
  23320716.164    23320712.940     2075261.434 6   1635865.804 1        43.000
        31.000        3299.360        2570.930
  24155597.165    24155595.353      953738.518 6    756917.498 1        44.000
        25.000        3690.107        2875.408
  21164146.015    21164142.286   -13055147.602 9 -10164947.289 7        53.000
        46.000        2466.807        1922.187
 04  3  1  0 19 30.0000000  0  9G29G 8G28G21G31G26G27G17G10
  21120899.705    21120895.211   -16519128.403 9 -12866976.512 7        52.000
        45.000       -1000.347        -779.491
  20773938.259    20773934.181   -15921127.435 9 -12396925.009 7        51.000
        46.000        2324.253        1811.106
  21587808.001    21587803.169   -15898891.980 8 -12376486.667 5        49.000
        42.000       -1080.342        -841.825
  24519183.343    24519178.162    -2269034.761 5  -1763150.900 1        41.000
        24.000         239.565         186.674
  24763099.232    24763095.399     -192374.105 1   -214484.156 1        32.000
        16.000         297.305         231.666
  21428280.056    21428275.857   -12980770.926 9 -10693225.009 5        50.000
        42.000       -1690.205       -1317.043
  23339561.426    23339557.881     2174293.454 5   1713033.598 1        41.000
        31.000        3302.891        2573.681
  24176678.359    24176676.636     1064522.398 6    843242.657 1        44.000
        27.000        3695.537        2879.639
  21178277.326    21178273.560   -12980886.531 9 -10107081.533 7        52.000
        46.000        2484.072        1935.641
 04  3  1  0 20  0.0000000  0  9G29G 8G28G21G31G26G27G17G10
  21115214.184    21115209.948   -16549005.744 9 -12890257.534 7        54.000
        45.000        -991.318        -772.456
  20787241.000    20787236.973   -15851220.166 9 -12342451.810 7        52.000
        46.000        2336.396        1820.569
  21581687.363    21581682.682   -15931056.876 9 -12401550.201 6        53.000
        43.000       -1063.770        -828.911
  24520605.277    24520598.072    -2261567.151 5  -1757331.972 1        42.000
        23.000         258.433         201.376
  24764850.628    24764846.688     -183171.181 2   -207313.035 1        33.000
        17.000         316.211         246.398
  21418656.734    21418652.751   -13031342.010 9 -10732631.029 5        50.000
        42.000       -1681.089       -1309.939
  23358425.995    23358421.553     2273427.856 5   1790281.177 1        42.000
        30.000        3306.328        2576.360
  24197790.959    24197789.433     1175467.723 6    929693.455 1        44.000
        26.000        3700.938        2883.848
  21192507.201    21192503.404   -12906107.963 9 -10048812.530 7        54.000
        45.000        2501.318        1949.079
 04  3  1  0 20 30.0000000  0  9G29G 8G28G21G31G26G27G17G10
  21109580.285    21109576.103   -16578612.329 9 -12913327.587 7        53.000
        46.000        -982.422        -765.524
  20800613.112    20800608.670   -15780951.445 9 -12287696.955 7        53.000
        46.000        2348.203        1829.769
  21575661.118    21575656.295   -15962724.832 9 -12426226.511 6        53.000
        43.000       -1047.329        -816.101
  24522134.084    24522128.674    -2253530.481 5  -1751069.616 1        40.000
        23.000         277.417         216.169
  24766710.500    24766705.453     -173404.533 3   -199702.617 1        35.000
        16.000         334.932         260.986
  21409085.286    21409081.390   -13081640.071 8 -10771824.305 5        49.000
        42.000       -1672.105       -1302.939
  23377310.125    23377305.366     2372663.359 5   1867607.555 1        41.000
        31.000        3309.590        2578.901
  24218931.871    24218930.294     1286570.929 5   1016267.439 1        42.000
        22.000        3705.947        2887.751
  21206834.906    21206831.432   -12830814.017 9  -9990141.934 7        54.000
        45.000        2518.262        1962.282
 04  3  1  0 21  0.0000000  0  9G29G 8G28G21G31G26G27G17G10
  21103997.350    21103992.983   -16607949.622 9 -12936187.822 7        53.000
        45.000        -973.398        -758.492
  20814052.669    20814048.290   -15710325.472 9 -12232663.734 7        53.000
        46.000        2360.151        1839.079
  21569729.598    21569724.768   -15993896.745 9 -12450516.297 6        53.000
        43.000       -1030.752        -803.183
  24523772.425    24523765.844    -2244927.595 5  -1744366.128 1        41.000
        25.000         296.235         230.833
  24768675.083    24768670.865     -163075.952 3   -191654.348 1        35.000
        17.000         353.525         275.474
  21399565.584    21399561.711   -13131666.480 8 -10810805.900 5        48.000
        42.000       -1663.018       -1295.858
  23396211.680    23396208.462     2471996.130 5   1945009.680 1        40.000
        30.000        3312.739        2581.355
  24240104.836    24240102.555     1397826.035 6   1102959.652 1        43.000
        27.000        3710.977        2891.670
  21221260.563    21221256.801   -12755009.027 9  -9931073.130 7        54.000
        45.000        2535.381        1975.621
 04  3  1  0 21 30.0000000  0  9G29G 8G28G21G31G26G27G17G10
  21098466.112    21098461.767   -16637017.559 9 -12958838.157 7        54.000
        45.000        -964.258        -751.370
  20827559.520    20827555.158   -15639345.110 9 -12177354.353 7        53.000
        46.000        2372.085        1848.378
  21563892.185    21563887.357   -16024572.285 9 -12474419.297 6        53.000
        43.000       -1013.970        -790.106
  24525517.092    24525509.242    -2235759.647 5  -1737222.299 1        41.000
        22.000         315.259         245.656
  24770747.425    24770742.912     -152185.800 3   -183168.480 1        36.000
        17.000         372.583         290.324
  21390097.194    21390093.414   -13181421.028 8 -10849575.658 5        49.000
        42.000       -1653.779       -1288.659
  23415133.076    23415129.366     2571423.965 6   2022485.885 1        44.000
        31.000        3315.991        2583.889
  24261302.826    24261301.559     1509228.199 4   1189766.550 1        39.000
        21.000        3716.118        2895.676
  21235782.459    21235778.231   -12678695.783 9  -9871608.278 7        54.000
        45.000        2552.407        1988.889
 04  3  1  0 22  0.0000000  0  9G29G 8G28G21G31G26G27G17G10
  21092986.455    21092982.403   -16665812.131 8 -12981275.478 7        49.000
        46.000        -955.210        -744.319
  20841134.083    20841129.978   -15568009.455 9 -12121768.127 7        52.000
        46.000        2383.789        1857.498
  21558149.953    21558144.938   -16054747.491 8 -12497932.422 6        48.000
        43.000        -997.437        -777.223
  24527368.069    24527361.203    -2226024.314 5  -1729636.320 1        40.000
        21.000         333.970         260.236
  24772927.530    24772922.296     -140730.676 3   -174242.279 1        37.000
        20.000         391.338         304.939
  21380681.922    21380677.993   -13230899.509 8 -10888130.313 5        48.000
        42.000       -1644.678       -1281.567
  23434071.934    23434067.950     2670948.452 6   2100037.445 1        43.000
        32.000        3319.063        2586.283
  24282530.850    24282528.652     1620776.992 6   1276687.645 1        43.000
        24.000        3720.727        2899.268
  21250401.382    21250397.598   -12601873.281 9  -9811746.593 7        55.000
        45.000        2569.248        2002.011
 04  3  1  0 22 30.0000000  0  9G29G 8G28G21G31G26G27G17G10
  21087559.977    21087555.516   -16694330.732 9 -13003497.749 7        50.000
        45.000        -946.245        -737.334
  20854776.488    20854772.228   -15496318.406 9 -12065904.976 7        51.000
        45.000        2395.396        1866.542
  21552503.401    21552498.902   -16084419.011 8 -12521053.062 6        48.000
        43.000        -980.903        -764.340
  24529328.922    24529321.568    -2215719.875 3  -1721606.997 1        37.000
        20.000         352.720         274.847
  24775215.133    24775210.621     -128708.225 3   -164874.206 1        36.000
        20.000         410.029         319.503
  21371319.880    21371315.872   -13280099.111 8 -10926467.650 5        48.000
        42.000       -1635.503       -1274.418
  23453028.839    23453024.972     2770570.200 5   2177664.763 1        42.000
        30.000        3322.124        2588.668
  24303784.075    24303783.391     1732470.449 4   1363721.492 1        39.000
        21.000        3725.352        2902.871
  21265117.008    21265113.225   -12524541.501 9  -9751488.087 7        54.000
        45.000        2586.001        2015.066
 04  3  1  0 23  0.0000000  0  9G29G 8G28G21G31G26G27G17G10
  21082185.009    21082180.866   -16722574.123 9 -13025505.588 7        54.000
        45.000        -936.978        -730.112
  20868485.891    20868482.000   -15424275.825 9 -12009767.896 7        51.000
        45.000        2407.217        1875.753
  21546952.834    21546948.190   -16113587.709 9 -12543781.899 6        52.000
        43.000        -963.936        -751.119
  24531397.705    24531391.446    -2204848.954 3  -1713136.073 1        37.000
        19.000         371.528         289.503
  24777609.942    24777606.049     -116120.055 3   -155065.305 1        37.000
        18.000         428.975         334.266
  21362010.351    21362006.256   -13329020.733 8 -10964588.370 6        48.000
        43.000       -1626.216       -1267.181
  23472004.417    23472000.352     2870285.966 6   2255365.335 1        43.000
        29.000        3325.376        2591.202
  24325066.829    24325063.918     1844302.988 6   1450863.670 1        44.000
        23.000        3729.844        2906.372
  21279928.670    21279924.572   -12446704.706 9  -9690836.045 7        54.000
        45.000        2602.832        2028.181
 04  3  1  0 23 30.0000000  0  9G29G 8G28G21G31G26G27G17G10
  21076862.757    21076858.526   -16750541.751 9 -13047298.537 7        51.000
        45.000        -927.422        -722.666
  20882261.287    20882257.207   -15351883.923 9 -11953358.621 7        51.000
        45.000        2419.106        1885.018
  21541498.241    21541493.000   -16142252.670 9 -12566118.212 6        50.000
        43.000        -946.826        -737.787
  24533573.867    24533568.427    -2193412.023 3  -1704224.197 1        36.000
        20.000         390.913         304.608
  24780113.587    24780108.433     -102965.922 3   -144815.319 1        37.000
        19.000         448.057         349.135
  21352753.925    21352750.061   -13377663.338 8 -11002491.697 6        48.000
        43.000       -1616.519       -1259.625
  23490997.875    23490994.134     2970094.203 6   2333137.984 1        43.000
        30.000        3328.760        2593.839
  24346371.683    24346369.903     1956270.672 5   1538111.278 1        42.000
        22.000        3734.751        2910.196
  21294836.385    21294832.297   -12368365.043 9  -9629792.164 7        54.000
        45.000        2619.946        2041.517
 04  3  1  0 24  0.0000000  0  9G29G 8G28G21G31G26G27G17G10
  21071593.989    21071589.584   -16778230.175 9 -13068873.932 7        50.000
        45.000        -918.184        -715.468
  20896103.694    20896099.804   -15279142.505 9 -11896676.997 7        52.000
        45.000        2430.649        1894.013
  21536140.178    21536135.050   -16170410.360 8 -12588059.255 6        49.000
        43.000        -929.985        -724.664
  24535856.950    24535852.762    -2181407.282 2  -1694869.868 1        34.000
        21.000         409.863         319.374
  24782724.537    24782719.670      -89243.155 3   -134122.246 1        37.000
        20.000         467.085         363.962
  21343551.480    21343547.258   -13426023.555 8 -11040174.963 6        48.000
        43.000       -1607.104       -1252.289
  23510007.066    23510004.267     3069995.867 6   2410983.414 1        43.000
        29.000        3331.778        2596.190
  24367704.930    24367702.231     2068372.194 6   1625463.088 1        43.000
        22.000        3739.155        2913.627
  21309839.780    21309835.806   -12289522.117 9  -9568356.135 7        53.000
        45.000        2636.646        2054.529
 04  3  1  0 24 30.0000000  0  9G29G 8G28G21G31G26G27G17G10
  20766586.067    20766582.158   -16805636.657 9 -13090229.617 7        52.000
        46.000        -908.823        -708.174
  20610220.652    20610216.364   -15206048.175 9 -11839720.369 7        52.000
        45.000        2442.041        1902.889
  21231086.132    21231081.465   -16198057.904 9 -12609602.783 6        50.000
        43.000        -913.262        -711.633
  24238457.837    24238453.326    -2168832.019 2  -1685070.919 1        34.000
        19.000         428.511         333.904
  24485652.133    24485647.884      -74948.154 3   -122983.236 1        36.000
        21.000         485.938         378.653
  21034610.274    21034606.386   -13474099.138 8 -11077636.446 6        49.000
        43.000       -1597.847       -1245.075
  23229244.540    23229240.962     3169995.615 6   2488905.245 1        43.000
        29.000        3334.658        2598.435
  24089271.153    24089269.245     2180610.183 5   1712921.203 1        42.000
        25.000        3743.169        2916.755
  21025146.886    21025143.124   -12210172.763 9  -9506525.478 7        54.000
        45.000        2653.145        2067.385
 04  3  1  0 25  0.0000000  0  9G29G 8G28G21G31G26G27G17G10
  20761425.227    20761420.801   -16832759.405 9 -13111364.231 7        52.000
        46.000        -899.375        -700.812
  20624195.672    20624191.690   -15132608.678 9 -11782494.787 7        53.000
        45.000        2453.701        1911.975
  21225922.578    21225917.878   -16225193.352 9 -12630747.272 6        52.000
        43.000        -896.025        -698.202
  24240959.399    24240954.716    -2155688.646 3  -1674829.390 1        36.000
        20.000         447.612         348.789
  24488480.204    24488477.578      -60082.574 3   -111399.673 1        36.000
        19.000         504.941         393.461
  21025516.416    21025513.200   -13521886.790 8 -11114873.569 6        49.000
        43.000       -1588.242       -1237.591
  23248291.989    23248287.867     3270084.610 6   2566896.661 1        44.000
        30.000        3337.764        2600.855
  24110652.377    24110650.234     2292972.912 5   1800476.576 1        41.000
        21.000        3747.563        2920.179
  21040341.368    21040337.925   -12130325.235 9  -9444306.649 7        54.000
        45.000        2669.819        2080.379
 04  3  1  0 25 30.0000000  0  9G29G 8G28G21G31G26G27G17G10
  20756317.735    20756313.633   -16859598.021 9 -13132277.420 7        51.000
        46.000        -889.912        -693.438
  20638236.657    20638232.653   -15058823.080 9 -11724999.515 7        53.000
        45.000        2465.181        1920.920
  21220856.490    21220851.000   -16251816.211 8 -12651492.341 6        49.000
        43.000        -879.004        -684.938
  24243567.011    24243563.783    -2141976.965 3  -1664144.944 1        36.000
        19.000         466.479         363.491
  24491417.897    24491414.991      -44645.342 2    -99370.624 1        34.000
        19.000         524.077         408.372
  21016477.816    21016473.548   -13569386.521 8 -11151886.336 6        48.000
        43.000       -1578.550       -1230.039
  23267354.245    23267351.699     3370265.199 6   2644959.436 1        44.000
        29.000        3340.864        2603.271
  24132058.480    24132056.095     2405460.688 4   1888129.367 1        39.000
        23.000        3751.519        2923.261
  21055630.767    21055626.982   -12049978.758 9  -9381699.014 7        54.000
        45.000        2686.445        2093.334
 04  3  1  0 26  0.0000000  0  9G29G 8G28G21G31G26G27G17G10
  20751263.804    20751259.592   -16886155.840 9 -13152971.818 7        51.000
        46.000        -880.410        -686.034
  20652342.225    20652338.114   -14984697.908 9 -11667239.642 7        52.000
        45.000        2476.602        1929.819
  21215887.148    21215881.982   -16277929.595 9 -12671840.411 6        50.000
        43.000        -861.792        -671.526
  24246284.212    24246279.550    -2127701.729 3  -1653021.419 1        35.000
        19.000         485.034         377.949
  24494464.194    24494459.851      -28640.518 3    -86899.261 1        36.000
        18.000         543.105         423.199
  21007492.630    21007488.610   -13616601.702 8 -11188677.365 6        49.000
        43.000       -1568.994       -1222.593
  23286434.163    23286430.990     3470531.850 5   2723089.296 1        41.000
        27.000        3343.765        2605.531
  24153485.637    24153484.673     2518065.365 4   1975873.244 1        38.000
        22.000        3755.400        2926.286
  21071014.003    21071010.157   -11969139.699 9  -9318707.559 7        53.000
        45.000        2702.925        2106.175
 04  3  1  0 26 30.0000000  0  9G29G 8G28G21G31G26G27G17G10
  20746264.791    20746260.286   -16912427.514 9 -13173443.253 7        54.000
        46.000        -871.021        -678.717
  20666512.743    20666508.733   -14910230.539 9 -11609213.120 7        52.000
        45.000        2487.847        1938.582
  21211015.930    21211010.907   -16303528.070 9 -12691787.257 6        53.000
        43.000        -844.790        -658.278
  24249109.152    24249104.752    -2112859.428 2  -1641456.046 1        34.000
        19.000         504.136         392.833
  24497618.742    24497613.966      -12063.340 3    -73981.984 1        35.000
        18.000         562.178         438.061
  20998563.427    20998559.287   -13663526.747 9 -11225242.327 6        50.000
        43.000       -1559.370       -1215.094
  23305532.386    23305527.965     3570887.565 6   2801288.537 1        44.000
        30.000        3346.519        2607.677
  24174936.355    24174934.981     2630787.961 2   2063709.021 1        33.000
        19.000        3759.624        2929.577
  21086491.341    21086487.966   -11887805.802 9  -9255330.510 7        54.000
        45.000        2719.287        2118.925
 04  3  1  0 27  0.0000000  0  9G29G 8G28G21G31G26G27G17G10
  20741319.437    20741315.261   -16938414.986 9 -13193693.219 7        52.000
        46.000        -861.362        -671.191
  20680747.708    20680743.361   -14835425.955 9 -11550923.829 7        52.000
        45.000        2499.136        1947.379
  21206242.496    21206237.493   -16328613.540 8 -12711334.361 6        49.000
        44.000        -827.529        -644.828
  24252039.831    24252035.150    -2097453.380 3  -1629451.258 1        36.000
        17.000         523.076         407.592
  24500883.052    24500877.264        5083.400 4    -60620.879 1        38.000
        18.000         581.143         452.838
  20989688.576    20989684.523   -13710163.593 9 -11261582.720 6        50.000
        44.000       -1549.575       -1207.461
  23324645.038    23324641.727     3671328.078 7   2879553.857 1        45.000
        31.000        3349.517        2610.013
  24196408.997    24196406.204     2743621.523 4   2151631.282 1        39.000
        25.000        3762.944        2932.164
  21102062.015    21102058.123   -11805982.195 9  -9191571.871 7        54.000
        45.000        2735.718        2131.728
 04  3  1  0 27 30.0000000  0  9G29G 8G28G21G31G26G27G17G10
  20736429.358    20736424.974   -16964112.362 8 -13213717.142 7        49.000
        46.000        -851.685        -663.650
  20695047.213    20695042.777   -14760281.202 9 -11492369.477 7        53.000
        45.000        2510.552        1956.274
  21201567.422    21201562.451   -16353180.327 8 -12730477.297 6        48.000
        43.000        -810.205        -631.329
  24255080.478    24255074.985    -2081479.539 3  -1617004.137 1        35.000
        17.000         541.953         422.301
  24504253.984    24504249.513       22804.629 4    -46812.102 1        38.000
        18.000         600.313         467.776
  20980869.942    20980865.575   -13756506.229 8 -11297693.841 6        49.000
        43.000       -1539.761       -1199.813
  23343774.450    23343771.936     3771857.013 6   2957888.059 1        43.000
        28.000        3352.480        2612.323
  24217900.994    24217899.312     2856567.379 2   2239640.936 1        33.000
        20.000        3766.616        2935.026
  21117725.861    21117722.106   -11723666.085 9  -9127429.461 6        54.000
        44.000        2752.148        2144.531
 04  3  1  0 28  0.0000000  0  9G29G 8G28G21G31G26G27G17G10
  20731593.878    20731589.585   -16989522.612 9 -13233517.326 7        54.000
        46.000        -842.407        -656.421
  20709410.789    20709406.642   -14684801.904 9 -11433554.436 7        53.000
        45.000        2521.357        1964.694
  21196990.817    21196985.720   -16377231.066 9 -12749218.118 6        52.000
        43.000        -793.301        -618.156
  24258227.784    24258221.937    -2064942.220 3  -1604117.895 1        36.000
        16.000         560.547         436.790
  24507734.757    24507730.664       41096.949 4    -32558.279 1        39.000
        19.000         619.009         482.345
  20972106.600    20972102.538   -13802557.141 8 -11333577.659 6        49.000
        43.000       -1530.357       -1192.486
  23362920.780    23362917.643     3872469.301 6   3036287.227 1        44.000
        28.000        3354.951        2614.248
  24239413.752    24239412.166     2969618.396 4   2327732.689 1        39.000
        22.000        3769.883        2937.571
  21133482.764    21133479.456   -11640863.601 9  -9062908.062 6        54.000
        44.000        2767.973        2156.862
 04  3  1  0 28 30.0000000  0  9G29G 8G28G21G31G26G27G17G10
  20726813.908    20726809.634   -17014640.679 9 -13253089.852 7        54.000
        46.000        -832.480        -648.686
  20723837.963    20723833.882   -14608985.775 9 -11374476.944 6        52.000
        44.000        2532.661        1973.502
  21192513.229    21192508.141   -16400760.536 9 -12767552.756 6        53.000
        44.000        -775.732        -604.467
  24261481.094    24261477.358    -2047838.318 3  -1590790.203 1        35.000
        16.000         579.219         451.339
  24511325.316    24511321.311       59964.573 5    -17856.311 1        41.000
        20.000         638.296         497.373
  20963399.902    20963395.566   -13848311.268 9 -11369230.215 6        50.000
        43.000       -1520.308       -1184.655
  23382084.081    23382079.123     3973167.872 6   3114753.654 1        44.000
        28.000        3357.988        2616.614
  24260947.278    24260945.538     3082774.908 3   2415906.535 1        36.000
        22.000        3773.398        2940.311
  21149332.424    21149328.813   -11557572.658 9  -8998006.052 6        53.000
        44.000        2784.375        2169.643
 04  3  1  0 29  0.0000000  0  9G29G 8G28G21G31G26G27G17G10
  20722089.529    20722085.404   -17039468.219 9 -13272435.971 7        54.000
        46.000        -822.705        -641.069
  20738328.504    20738324.409   -14532837.760 9 -11315140.826 7        53.000
        45.000        2543.799        1982.181
  21188134.374    21188129.769   -16423770.800 9 -12785482.809 6        53.000
        44.000        -758.320        -590.899
  24264844.230    24264838.501    -2030170.858 3  -1577023.379 1        37.000
        18.000         598.306         466.212
  24515024.960    24515020.467       79404.782 5     -2708.089 1        42.000
        20.000         657.529         512.360
  20954749.664    20954745.607   -13893770.067 9 -11404652.651 6        50.000
        43.000       -1510.347       -1176.894
  23401261.243    23401257.859     4073948.527 6   3193284.057 1        44.000
        29.000        3360.708        2618.733
  24282498.355    24282496.407     3196030.395 4   2504157.605 1        38.000
        22.000        3776.870        2943.016
  21165274.546    21165270.710   -11473798.449 9  -8932727.458 6        54.000
        44.000        2800.503        2182.210
 04  3  1  0 29 30.0000000  0  9G29G 8G28G21G31G26G27G17G10
  20717420.144    20717415.907   -17064005.902 9 -13291556.252 7        54.000
        46.000        -812.910        -633.437
  20752881.251    20752877.392   -14456361.269 9 -11255548.755 7        52.000
        45.000        2554.829        1990.776
  21183854.396    21183849.753   -16446262.204 9 -12803008.558 6        52.000
        43.000        -740.894        -577.320
  24268313.492    24268307.241    -2011942.494 5  -1562819.541 1        40.000
        19.000         617.139         480.887
  24518832.478    24518828.427       99416.082 5     12885.171 1        41.000
        22.000         676.685         527.287
  20946154.944    20946150.543   -13938934.251 9 -11439845.509 6        50.000
        43.000       -1500.434       -1169.170
  23420453.853    23420451.472     4174808.576 5   3271876.209 1        42.000
        29.000        3363.432        2620.856
  24304068.362    24304066.662     3309379.735 3   2592481.781 1        37.000
        21.000        3780.029        2945.477
  21181307.416    21181303.962   -11389544.514 9  -8867075.051 6        54.000
        44.000        2816.636        2194.781
 04  3  1  0 30  0.0000000  0  9G29G 8G28G21G31G26G27G17G10
  20712807.490    20712803.133   -17088246.795 9 -13310445.260 7        52.000
        46.000        -802.759        -625.526
  20767497.688    20767493.229   -14379552.353 9 -11195697.654 6        52.000
        44.000        2566.118        1999.573
  21179674.373    21179669.438   -16468227.936 9 -12820124.696 6        50.000
        43.000        -723.096        -563.451
  24271890.059    24271883.696    -1993147.885 5  -1548174.430 1        40.000
        21.000         636.157         495.707
  24522750.108    24522745.747      120004.612 5     28928.197 1        41.000
        21.000         696.152         542.456
  20937618.080    20937613.968   -13983796.588 9 -11474803.171 6        50.000
        44.000       -1490.112       -1161.126
  23439663.719    23439660.132     4275752.758 6   3350533.985 1        44.000
        29.000        3366.440        2623.200
  24325656.852    24325654.750     3422825.288 3   2680880.819 1        37.000
        22.000        3783.311        2948.034
  21197432.244    21197428.188   -11304807.356 9  -8801046.114 6        53.000
        44.000        2832.915        2207.466
 04  3  1  0 30 30.0000000  0  9G29G 8G28G21G31G26G27G17G10
  20708250.777    20708246.210   -17112192.093 9 -13329103.916 7        53.000
        46.000        -792.959        -617.890
  20782176.361    20782172.263   -14302415.062 9 -11135590.673 7        53.000
        45.000        2576.924        2007.993
  21175594.260    21175589.516   -16489669.544 9 -12836832.422 6        52.000
        44.000        -705.728        -549.918
  24275573.902    24275567.911    -1973790.345 5  -1533090.620 1        40.000
        21.000         654.854         510.275
  24526777.835    24526773.355      141168.085 5     45419.195 1        42.000
        21.000         715.244         557.333
  20929138.269    20929134.237   -14028358.048 9 -11509526.378 6        50.000
        43.000       -1480.044       -1153.281
  23458888.033    23458883.833     4376777.468 6   3429254.571 1        43.000
        28.000        3368.989        2625.187
  24347261.505    24347260.530     3536361.139 5   2769350.359 1        41.000
        22.000        3786.289        2950.355
  21213648.359    21213644.889   -11219591.504 9  -8734644.165 6        55.000
        44.000        2848.745        2219.801
 04  3  1  0 31  0.0000000  0  9G29G 8G28G21G31G26G27G17G10
  20703749.685    20703745.826   -17135845.617 9 -13347535.240 7        54.000
        46.000        -783.482        -610.505
  20796916.428    20796912.225   -14224956.246 9 -11075233.157 6        53.000
        44.000        2587.432        2016.181
  21171612.966    21171607.492   -16510590.703 9 -12853134.606 6        52.000
        44.000        -688.613        -536.582
  24279363.811    24279357.545    -1953875.164 5  -1517572.361 1        40.000
        20.000         673.354         524.692
  24530914.054    24530910.066      162901.736 5     62354.541 1        40.000
        21.000         734.072         572.004
  20920715.006    20920710.806   -14072622.568 9 -11544018.196 6        51.000
        43.000       -1470.410       -1145.774
  23478125.756    23478122.293     4477876.703 5   3508033.163 1        41.000
        28.000        3371.343        2627.021
  24368882.784    24368880.993     3649979.079 5   2857883.814 1        40.000
        20.000        3788.662        2952.204
  21229954.140    21229950.529   -11133904.018 9  -8667874.717 6        54.000
        44.000        2864.248        2231.882
 04  3  1  0 31 30.0000000  0  9G29G 8G28G21G31G26G27G17G10
  20699306.719    20699302.194   -17159193.040 9 -13365728.036 7        54.000
        46.000        -773.218        -602.507
  20811719.747    20811715.623   -14147164.544 9 -11014616.242 6        51.000
        44.000        2598.506        2024.810
  21167733.543    21167728.908   -16530977.506 9 -12869020.408 6        52.000
        44.000        -670.801        -522.702
  24283262.178    24283255.611    -1933390.130 5  -1501609.940 1        42.000
        20.000         692.192         539.371
  24535160.208    24535156.813      185218.842 4     79744.502 1        38.000
        22.000         753.491         587.136
  20912350.893    20912346.892   -14116575.597 9 -11578267.297 6        51.000
        44.000       -1460.005       -1137.666
  23497381.850    23497378.475     4579062.540 5   3586879.220 1        41.000
        29.000        3374.111        2629.178
  24390521.125    24390519.152     3763688.416 5   2946488.479 1        41.000
        24.000        3791.719        2954.586
  21246351.867    21246348.397   -11047734.101 9  -8600729.339 6        54.000
        44.000        2880.288        2244.380
 04  3  1  0 32  0.0000000  0  9G29G 8G28G21G31G26G27G17G10
  20694920.207    20694916.076   -17182244.633 9 -13383690.315 7        55.000
        47.000        -763.506        -594.940
  20826583.569    20826579.225   -14069053.242 9 -10953750.300 6        52.000
        44.000        2608.887        2032.899
  21163953.821    21163948.827   -16550840.016 9 -12884497.671 6        52.000
        44.000        -653.457        -509.187
  24287265.339    24287259.859    -1912347.687 5  -1485213.377 1        41.000
        20.000         710.713         553.802
  24539516.362    24539511.838      208108.133 5     97580.348 1        41.000
        23.000         772.388         601.860
  20904044.033    20904040.040   -14160227.253 9 -11612281.573 6        51.000
        43.000       -1450.141       -1129.980
  23516651.263    23516647.654     4680322.450 6   3665783.016 1        43.000
        30.000        3376.455        2631.004
  24412172.551    24412171.586     3877474.569 4   3035152.946 1        38.000
        21.000        3793.979        2956.348
  21262838.719    21262835.080   -10961094.844 9  -8533218.243 6        54.000
        44.000        2895.684        2256.377
 04  3  1  0 32 30.0000000  0  9G29G 8G28G21G31G26G27G17G10
  20690590.262    20690585.805   -17204998.927 9 -13401420.925 7        54.000
        46.000        -753.438        -587.094
  20841508.454    20841504.099   -13990623.544 9 -10892636.246 6        52.000
        44.000        2619.683        2041.311
  21160274.192    21160269.325   -16570177.215 9 -12899565.594 6        53.000
        44.000        -635.723        -495.368
  24291377.071    24291371.023    -1890747.255 6  -1468381.826 1        43.000
        22.000         729.390         568.356
  24543981.438    24543975.968      231570.273 5    115862.584 1        42.000
        24.000         791.738         616.939
  20895795.317    20895790.932   -14203575.803 9 -11646059.645 6        51.000
        43.000       -1439.824       -1121.941
  23535933.066    23535930.049     4781655.824 5   3744744.085 1        40.000
        25.000        3379.019        2633.001
  24433840.669    24433838.584     3991334.546 5   3123875.065 1        40.000
        20.000        3796.680        2958.452
  21279414.716    21279410.963   -10873988.184 9  -8465342.934 6        53.000
        44.000        2911.431        2268.647
 04  3  1  0 33  0.0000000  0  9G29G 8G28G21G31G26G27G17G10
  20686318.722    20686314.293   -17227446.406 9 -13418912.470 7        54.000
        46.000        -743.413        -579.283
  20856494.757    20856490.489   -13911869.008 9 -10831269.080 6        53.000
        44.000        2630.352        2049.625
  21156695.891    21156691.087   -16588979.553 9 -12914216.754 6        53.000
        44.000        -618.047        -481.595
  24295594.423    24295588.766    -1868581.761 6  -1451110.070 1        43.000
        22.000         748.081         582.920
  24548556.207    24548551.378      255613.250 5    134597.381 1        42.000
        23.000         810.894         631.865
  20887606.010    20887601.554   -14246611.724 9 -11679594.123 6        51.000
        44.000       -1429.565       -1113.947
  23555231.369    23555228.226     4883069.838 4   3823767.975 1        38.000
        24.000        3381.592        2635.007
  24455521.592    24455520.584     4105273.101 4   3212658.305 1        38.000
        20.000        3798.853        2960.145
  21296080.324    21296077.174   -10786408.148 9  -8397098.774 6        53.000
        44.000        2926.938        2280.731
 04  3  1  0 33 30.0000000  0  9G29G 8G28G21G31G26G27G17G10
  20682104.689    20682100.603   -17249588.777 9 -13436166.264 7        54.000
        46.000        -732.891        -571.084
  20871542.107    20871538.118   -13832794.164 9 -10769652.323 6        52.000
        44.000        2641.270        2058.132
  21153219.586    21153214.617   -16607249.010 9 -12928452.677 6        52.000
        44.000        -599.917        -467.468
  24299920.267    24299913.217    -1845854.849 6  -1433400.917 1        43.000
        22.000         767.036         597.690
  24553241.050    24553236.860      280234.714 5    153782.989 1        40.000
        22.000         830.425         647.084
  20879475.668    20879471.651   -14289336.477 9 -11712886.131 7        51.000
        45.000       -1418.867       -1105.611
  23574545.777    23574542.292     4984560.776 5   3902851.771 1        41.000
        29.000        3384.448        2637.232
  24477218.718    24477215.980     4219284.123 4   3301498.066 1        39.000
        21.000        3801.646        2962.321
  21312835.799    21312831.815   -10698359.373 9  -8328489.352 6        53.000
        44.000        2942.798        2293.089
 04  3  1  0 34  0.0000000  0  9G29G 8G28G21G31G26G27G17G10
  20677949.561    20677945.089   -17271426.278 9 -13453182.498 7        54.000
        46.000        -722.817        -563.234
  20886650.212    20886646.246   -13753402.128 9 -10707788.388 6        51.000
        44.000        2651.665        2066.232
  21149844.241    21149839.234   -16624986.142 9 -12942273.801 6        53.000
        44.000        -582.363        -453.790
  24304351.087    24304344.066    -1822568.753 6  -1415255.851 1        43.000
        21.000         785.493         612.073
  24558035.791    24558032.192      305433.075 5    173418.081 1        40.000
        22.000         849.458         661.915
  20871404.393    20871400.490   -14331750.088 9 -11745935.686 6        51.000
        44.000       -1408.657       -1097.655
  23593873.074    23593869.801     5086125.909 6   3981993.402 1        43.000
        31.000        3386.753        2639.028
  24498926.139    24498923.875     4333362.648 4   3390390.434 1        39.000
        16.000        3803.687        2963.912
  21329679.153    21329675.625   -10609845.759 9  -8259517.719 6        53.000
        43.000        2958.164        2305.063
 04  3  1  0 34 30.0000000  0  9G29G 8G28G21G31G26G27G17G10
  20673852.269    20673847.939   -17292957.254 9 -13469959.879 7        54.000
        46.000        -712.524        -555.214
  20901817.925    20901813.794   -13673694.324 9 -10645678.418 6        51.000
        44.000        2662.148        2074.401
  21146570.623    21146566.121   -16642189.310 9 -12955678.849 6        52.000
        44.000        -564.487        -439.860
  24308888.762    24308882.371    -1798723.848 6  -1396675.448 1        43.000
        22.000         804.219         626.664
  24562941.164    24562936.721      331208.791 5    193503.082 1        42.000
        21.000         868.794         676.982
  20863393.017    20863389.070   -14373850.948 9 -11778741.536 6        51.000
        44.000       -1398.120       -1089.444
  23613213.248    23613210.187     5187764.760 5   4061192.469 1        41.000
        28.000        3389.101        2640.858
  24520646.993    24520644.668     4447505.738 4   3479333.131 1        39.000
        21.000        3805.786        2965.548
  21346611.178    21346607.005   -10520869.042 9  -8190185.231 6        53.000
        44.000        2973.628        2317.113
 04  3  1  0 35  0.0000000  0  9G29G 8G28G21G31G26G27G17G10
  20669812.696    20669807.959   -17314186.166 9 -13486501.890 7        54.000
        46.000        -702.471        -547.380
  20917044.640    20917040.447   -13593677.991 9 -10583328.032 6        52.000
        44.000        2672.378        2082.372
  21143397.464    21143392.410   -16658863.198 9 -12968671.477 6        52.000
        44.000        -546.943        -426.190
  24313532.343    24313526.345    -1774326.171 6  -1377664.236 1        44.000
        23.000         822.524         640.928
  24567956.005    24567950.142      357556.512 5    214033.731 1        42.000
        21.000         887.847         691.829
  20855440.177    20855436.126   -14415643.150 9 -11811306.882 6        51.000
        44.000       -1387.871       -1081.458
  23632567.678    23632563.359     5289471.193 5   4140444.234 1        42.000
        25.000        3391.328        2642.593
  24542377.361    24542375.890     4561704.690 3   3568319.267 1        36.000
        19.000        3807.529        2966.906
  21363629.087    21363625.612   -10431437.057 9  -8120497.973 6        53.000
        44.000        2988.682        2328.843
 04  3  1  0 35 30.0000000  0  9G29G 8G28G21G31G26G27G17G10
  20665831.583    20665827.118   -17335107.248 9 -13502804.026 7        54.000
        47.000        -692.344        -539.489
  20932330.272    20932326.123   -13513350.527 9 -10520735.197 6        51.000
        44.000        2682.661        2090.385
  21140326.245    21140321.688   -16675002.690 9 -12981247.681 6        53.000
        44.000        -529.214        -412.374
  24318280.382    24318273.835    -1749372.444 6  -1358219.877 1        43.000
        23.000         841.001         655.325
  24573079.269    24573073.644      384480.419 6    235013.399 1        43.000
        22.000         907.056         706.797
  20847547.279    20847543.514   -14457120.967 9 -11843627.242 6        51.000
        44.000       -1377.427       -1073.320
  23651935.620    23651931.704     5391248.020 5   4219750.838 1        42.000
        28.000        3393.657        2644.408
  24564120.291    24564118.381     4675960.415 5   3657349.703 1        40.000
        17.000        3809.272        2968.264
  21380734.977    21380731.456   -10341547.384 9  -8050454.097 6        53.000
        43.000        3003.833        2340.649
 04  3  1  0 36  0.0000000  0  9G29G 8G28G21G31G26G27G17G10
  20661908.953    20661904.560   -17355719.828 9 -13518865.770 7        54.000
        47.000        -682.109        -531.514
  20947675.113    20947671.031   -13432714.044 9 -10457901.584 6        51.000
        44.000        2692.847        2098.322
  21137356.947    21137351.996   -16690607.258 9 -12993407.072 6        53.000
        44.000        -511.382        -398.479
  24323134.642    24323128.448    -1723863.865 6  -1338343.093 1        43.000
        23.000         859.224         669.525
  24578311.812    24578307.970      411980.176 5    256441.769 1        42.000
        23.000         926.074         721.616
  20839714.186    20839710.132   -14498283.690 9 -11875702.090 6        51.000
        44.000       -1367.051       -1065.234
  23671315.693    23671312.686     5493094.132 5   4299111.418 1        42.000
        28.000        3395.908        2646.162
  24585872.664    24585870.500     4790268.966 4   3746421.416 1        39.000
        19.000        3811.064        2969.661
  21397926.713    21397922.900   -10251202.762 9  -7980055.704 6        53.000
        43.000        3018.838        2352.341
 04  3  1  0 36 30.0000000  0  9G29G 8G28G21G31G26G27G17G10
  20658046.231    20658042.037   -17376020.576 9 -13534684.538 7        54.000
        47.000        -671.357        -523.136
  20963078.449    20963074.355   -13351767.993 9 -10394826.735 6        50.000
        44.000        2703.393        2106.540
  21134489.940    21134485.130   -16705673.717 9 -13005147.159 6        52.000
        44.000        -493.154        -384.276
  24328094.348    24328087.924    -1697799.366 5  -1318033.071 1        42.000
        24.000         878.184         684.299
  24583655.367    24583651.034      440057.916 5    278320.567 1        41.000
        23.000         945.688         736.900
  20831941.984    20831937.943   -14539127.455 9 -11907528.398 6        51.000
        44.000       -1356.045       -1056.658
  23690709.845    23690706.968     5595010.782 5   4378526.934 1        41.000
        27.000        3398.476        2648.163
  24607634.143    24607632.177     4904629.458 4   3835533.383 1        38.000
        17.000        3812.900        2971.091
  21415205.153    21415201.502   -10160403.443 9  -7909303.005 6        52.000
        44.000        3034.268        2364.364
 04  3  1  0 37  0.0000000  0  9G29G 8G28G21G31G26G27G17G10
  20654241.994    20654238.180   -17396009.221 9 -13550260.107 7        54.000
        47.000        -660.981        -515.050
  20978540.732    20978536.277   -13270515.360 9 -10331513.006 6        51.000
        44.000        2713.599        2114.493
  21131724.963    21131720.037   -16720202.394 9 -13016468.190 6        52.000
        44.000        -475.210        -370.293
  24333159.001    24333153.694    -1671180.994 5  -1297291.510 1        42.000
        23.000         896.567         698.624
  24589108.117    24589103.459      468712.514 5    300648.831 1        40.000
        22.000         964.897         751.868
  20824230.395    20824226.238   -14579651.977 9 -11939105.939 7        52.000
        45.000       -1345.430       -1048.387
  23710117.830    23710114.158     5696995.758 5   4457995.705 1        42.000
        26.000        3400.723        2649.914
  24629405.940    24629403.628     5019037.299 5   3924682.343 1        41.000
        20.000        3814.375        2972.240
  21432569.935    21432565.687   -10069152.650 9  -7838198.510 6        53.000
        43.000        3049.312        2376.087
 04  3  1  0 37 30.0000000  0  9G29G 8G28G21G31G26G27G17G10
  20650498.475    20650494.604   -17415682.905 9 -13565590.235 7        53.000
        47.000        -650.552        -506.923
  20994060.639    20994056.331   -13188955.853 9 -10267960.137 6        51.000
        44.000        2723.696        2122.361
  21129063.055    21129058.047   -16734190.662 9 -13027368.114 6        53.000
        44.000        -457.222        -356.277
  24338330.030    24338324.396    -1644007.303 5  -1276117.204 1        42.000
        23.000         915.054         713.029
  24594670.380    24594665.864      497945.544 4    323427.810 1        39.000
        21.000         983.965         766.726
  20816579.948    20816575.752   -14619854.288 9 -11970432.408 7        52.000
        45.000       -1334.731       -1040.051
  23729538.189    23729534.058     5799049.910 5   4537518.427 1        40.000
        28.000        3402.915        2651.622
  24651185.506    24651183.432     5133491.154 3   4013867.233 1        37.000
        19.000        3815.771        2973.328
  21450020.127    21450016.094    -9977450.804 9  -7766742.527 6        53.000
        43.000        3064.209        2387.696
 04  3  1  0 38  0.0000000  0  8G29G 8G28G21G31G26G27G10
  20646815.254    20646810.709   -17435038.621 9 -13580672.623 7        53.000
        47.000        -639.990        -498.694
  21009639.290    21009634.884   -13107089.646 9 -10204168.289 6        50.000
        44.000        2733.901        2130.313
  21126504.572    21126499.751   -16747636.155 9 -13037845.114 6        53.000
        44.000        -439.209        -342.241
  24343607.555    24343601.739    -1616277.828 6  -1254509.829 1        43.000
        26.000         933.457         727.369
  24600343.271    24600339.316      527758.761 4    346658.988 1        39.000
        22.000        1003.413         781.880
  20808991.922    20808987.785   -14659731.282 9 -12001505.377 7        51.000
        45.000       -1323.896       -1031.608
  23748970.760    23748967.613     5901174.152 3   4617095.750 1        37.000
        26.000        3405.024        2653.266
  21467555.949    21467552.301    -9885298.482 9  -7694935.543 6        53.000
        43.000        3079.131        2399.323
 04  3  1  0 38 30.0000000  0  8G29G 8G28G21G31G26G27G10
  20643192.252    20643188.101   -17454076.968 9 -13595507.687 7        55.000
        47.000        -629.287        -490.354
  21025275.546    21025271.037   -13024919.941 9 -10140139.953 6        51.000
        44.000        2744.102        2138.261
  21124048.934    21124044.015   -16760539.449 9 -13047899.605 6        53.000
        44.000        -420.977        -328.034
  24348988.194    24348983.545    -1587995.411 5  -1232471.562 1        42.000
        24.000         952.075         741.877
  24606126.296    24606122.293      558150.037 5    370340.542 1        41.000
        22.000        1022.695         796.905
  20801465.317    20801461.062   -14699283.293 9 -12032325.129 7        52.000
        45.000       -1312.905       -1023.043
  23768417.362    23768414.608     6003365.688 4   4696725.501 1        38.000
        26.000        3407.554        2655.237
  21485177.141    21485173.297    -9792699.490 9  -7622780.503 6        52.000
        44.000        3094.136        2411.015
 04  3  1  0 39  0.0000000  0  8G29G 8G28G21G31G26G27G10
  20639629.955    20639625.554   -17472797.375 9 -13610095.014 7        54.000
        47.000        -618.794        -482.177
  21040969.175    21040965.276   -12942449.253 9 -10075877.084 6        51.000
        44.000        2753.965        2145.947
  21121696.984    21121692.050   -16772900.385 9 -13057531.480 6        53.000
        44.000        -403.047        -314.063
  24354476.634    24354470.244    -1559161.665 6  -1210003.785 1        43.000
        23.000         970.225         756.019
  24612019.496    24612014.914      589118.809 5    394472.029 1        40.000
        22.000        1041.904         811.873
  20794000.463    20793996.511   -14738509.645 9 -12062891.115 7        53.000
        45.000       -1302.227       -1014.722
  23787876.697    23787873.679     6105623.066 5   4776406.480 1        40.000
        25.000        3409.541        2656.785
  21502882.484    21502878.840    -9699656.859 9  -7550279.760 6        53.000
        43.000        3108.730        2422.387
 04  3  1  0 39 30.0000000  0  9G 9G29G 8G28G21G31G26G27G10
  24959273.939                      -27625.907 5                        40.000
                     -3019.995
  20636128.209    20636123.613   -17491199.283 9 -13624434.162 7        54.000
        47.000        -608.101        -473.845
  21056719.708    21056715.785   -12859679.931 9 -10011381.506 6        51.000
        44.000        2763.984        2153.754
  21119448.027    21119442.759   -16784719.247 9 -13066740.971 6        52.000
        44.000        -384.927        -299.943
  24360066.695    24360062.059    -1529778.401 6  -1187107.731 1        43.000
        24.000         988.535         770.287
  24618023.526    24618018.496      620664.076 5    419052.791 1        40.000
        22.000        1061.099         826.830
  20786598.117    20786593.785   -14777409.737 9 -12093202.859 7        52.000
        45.000       -1291.265       -1006.180
  23807347.991    23807344.293     6207944.408 4   4856137.412 1        39.000
        25.000        3411.763        2658.517
  21520671.872    21520667.755    -9606173.668 9  -7477435.722 6        53.000
        43.000        3123.442        2433.851
 04  3  1  0 40  0.0000000  0  9G 9G29G 8G28G21G31G26G27G10
  24942041.764    24942039.567     -118184.380 4    -78784.174 1        38.000
        19.000       -3017.139       -2351.017
  20632687.020    20632682.552   -17509282.562 9 -13638525.021 7        54.000
        47.000        -597.271        -465.406
  21072526.583    21072522.304   -12776614.581 9  -9946655.270 6        50.000
        44.000        2773.970        2161.535
  21117302.169    21117296.977   -16795996.141 9 -13075528.145 6        53.000
        44.000        -366.660        -285.709
  24365762.877    24365758.053    -1499847.229 6  -1163784.777 1        43.000
        23.000        1006.987         784.665
  24624133.512    24624130.359      652784.628 3    444081.833 1        37.000
        21.000        1080.576         842.007
  20779258.119    20779253.697   -14815983.026 9 -12123259.973 7        52.000
        45.000       -1280.088        -997.471
  23826829.027    23826827.290     6310327.989 3   4935916.778 1        37.000
        23.000        3414.150        2660.377
  21538544.301    21538540.606    -9512253.160 9  -7404250.927 6        53.000
        43.000        3138.125        2445.292
 04  3  1  0 40 30.0000000  0  9G 9G29G 8G28G21G31G26G27G10
  24924822.778    24924820.580     -208666.228 3   -149289.461 1        37.000
        16.000       -3014.780       -2349.179
  20629306.555    20629302.269   -17527046.198 9 -13652366.814 7        54.000
        47.000        -586.919        -457.339
  21088389.253    21088385.028   -12693255.356 8  -9881700.028 6        49.000
        44.000        2783.433        2168.908
  21115259.295    21115254.576   -16806730.497 9 -13083892.563 6        52.000
        44.000        -348.823        -271.810
  24371562.177    24371557.049    -1469369.479 5  -1140035.904 1        42.000
        22.000        1024.966         798.675
  24630357.218    24630352.003      685479.931 4    469558.680 1        39.000
        18.000        1099.209         856.526
  20771980.417    20771976.341   -14854228.561 9 -12153061.675 7        51.000
        45.000       -1269.434        -989.169
  23846325.022    23846322.328     6412772.576 4   5015743.683 1        39.000
        25.000        3415.728        2661.606
  21556499.422    21556495.924    -9417898.101 9  -7330727.529 6        53.000
        43.000        3152.275        2456.318
 04  3  1  0 41  0.0000000  0  9G 9G29G 8G28G21G31G26G27G10
  24907620.208    24907617.647     -299069.180 5   -219733.322 1        41.000
        24.000       -3012.041       -2347.045
  20625987.471    20625983.145   -17544487.855 9 -13665957.714 7        54.000
        47.000        -575.908        -448.760
  21104308.042    21104304.123   -12609602.863 8  -9816516.280 6        49.000
        44.000        2793.384        2176.663
  21113320.127    21113314.942   -16816920.738 9 -13091832.999 6        52.000
        44.000        -330.459        -257.501
  24377466.818    24377460.459    -1438345.592 6  -1115861.452 1        43.000
        22.000        1043.350         813.000
  24636688.473    24636683.789      718750.927 4    495484.129 1        39.000
        18.000        1118.921         871.886
  20764764.981    20764760.947   -14892143.772 9 -12182605.993 7        52.000
        45.000       -1258.223        -980.433
  23865831.442    23865828.770     6515278.252 3   5095618.229 1        37.000
        26.000        3417.939        2663.329
  21574537.225    21574533.932    -9323109.577 9  -7256866.354 6        53.000
        43.000        3166.924        2467.733
 04  3  1  0 41 30.0000000  0  9G 9G29G 8G28G21G31G26G27G10
  24890433.140    24890430.550     -389390.160 3   -290113.215 1        37.000
        21.000       -3009.316       -2344.922
  20622730.579    20622726.672   -17561604.374 9 -13679295.259 7        55.000
        47.000        -565.166        -440.389
  21120282.208    21120278.370   -12525656.482 8  -9751103.520 6        48.000
        43.000        2802.993        2184.151
  21111485.086    21111480.403   -16826564.032 9 -13099347.229 6        51.000
        44.000        -312.397        -243.427
  24383474.082    24383468.850    -1406774.648 6  -1091260.734 1        43.000
        23.000        1061.367         827.039
  24643128.890    24643124.754      752599.265 4    521859.492 1        39.000
        18.000        1137.847         886.634
  20757613.899    20757609.523   -14929725.297 9 -12211890.295 7        50.000
        45.000       -1247.188        -971.834
  23885348.787    23885346.318     6617846.149 4   5175541.242 1        38.000
        24.000        3419.966        2664.908
  21592657.350    21592653.224    -9227887.827 9  -7182667.596 6        53.000
        43.000        3181.240        2478.888
 04  3  1  0 42  0.0000000  0  9G 9G29G 8G28G21G31G26G27G10
  24873260.420    24873257.318     -479630.187 5   -360429.985 1        40.000
        18.000       -3006.719       -2342.898
  20619535.030    20619530.734   -17578396.409 9 -13692379.951 7        54.000
        47.000        -554.399        -432.000
  21136312.095    21136308.068   -12441420.052 9  -9685464.740 6        50.000
        43.000        2812.632        2191.661
  21109753.862    21109748.798   -16835661.247 9 -13106435.956 7        53.000
        45.000        -294.204        -229.250
  24389586.151    24389580.645    -1374659.408 6  -1066235.888 1        43.000
        23.000        1079.541         841.201
  24649679.776    24649674.802      787022.729 3    548682.961 1        36.000
        17.000        1156.948         901.518
  20750525.244    20750521.344   -14966973.556 9 -12240914.900 7        52.000
        45.000       -1236.118        -963.209
  23904878.506    23904875.427     6720473.634 3   5255510.678 1        36.000
        22.000        3421.821        2666.354
  21610859.065    21610855.256    -9132237.195 9  -7108134.656 5        52.000
        42.000        3195.347        2489.881
 04  3  1  0 42 30.0000000  0  9G 9G29G 8G28G21G31G26G27G10
  24856104.588    24856101.077     -569787.088 5   -430682.322 1        42.000
        19.000       -3003.853       -2340.664
  20616401.886    20616397.313   -17594861.701 9 -13705210.045 7        54.000
        47.000        -543.433        -423.454
  21152396.736    21152392.896   -12356894.183 8  -9619600.431 6        48.000
        43.000        2822.290        2199.187
  21108126.963    21108122.422   -16844211.042 9 -13113098.115 6        50.000
        44.000        -275.908        -214.993
  24395799.235    24395794.979    -1342000.089 5  -1040787.107 1        42.000
        22.000        1097.583         855.259
  24656339.618    24656335.232      822022.133 3    575955.266 1        36.000
        17.000        1176.055         916.406
  20743501.228    20743496.911   -15003886.290 9 -12269678.064 7        50.000
        45.000       -1224.951        -954.507
  23924418.801    23924415.880     6823160.771 4   5335526.621 1        38.000
        23.000        3423.848        2667.933
  21629142.224    21629138.806    -9036158.929 9  -7033268.483 6        52.000
        43.000        3209.609        2500.994
 04  3  1  0 43  0.0000000  0  9G 9G29G 8G28G21G31G26G27G10
  24838964.265    24838961.352     -659858.251 2   -500867.582 1        34.000
        16.000       -3001.299       -2338.674
  20613331.188    20613326.985   -17610996.888 9 -13717782.920 7        54.000
        47.000        -532.612        -415.023
  21168536.745    21168532.945   -12272078.387 8  -9553510.203 6        48.000
        43.000        2831.782        2206.583
  21106604.506    21106599.481   -16852210.752 9 -13119331.644 7        51.000
        45.000        -257.725        -200.824
  24402119.015    24402113.004    -1308795.778 6  -1014913.578 1        43.000
        23.000        1115.610         869.307
  24663109.946    24663106.076      857598.953 4    603677.457 1        39.000
        17.000        1195.273         931.382
  20736541.438    20736537.316   -15040460.024 9 -12298177.078 7        51.000
        45.000       -1213.774        -945.798
  23943972.042    23943968.958     6925908.665 4   5415589.878 1        39.000
        23.000        3425.708        2669.383
  21647506.423    21647502.949    -8939653.564 9  -6958069.512 6        52.000
        43.000        3223.735        2512.001
 04  3  1  0 43 30.0000000  0  9G 9G29G 8G28G21G31G26G27G10
  24821839.816    24821837.256     -749846.145 5   -570987.885 1        40.000
        19.000       -2998.174       -2336.239
  20610323.294    20610318.901   -17626804.681 9 -13730100.676 7        55.000
        47.000        -521.382        -406.272
  21184730.804    21184726.946   -12186978.383 8  -9487198.514 6        49.000
        43.000        2841.436        2214.106
  21105186.554    21105181.520   -16859663.584 9 -13125139.030 7        51.000
        45.000        -239.268        -186.442
  24408540.546    24408534.512    -1275051.258 6   -988619.171 1        43.000
        22.000        1133.887         883.548
  24669989.317    24669983.984      893749.184 3    631846.484 1        36.000
        17.000        1214.619         946.456
  20729645.927    20729641.221   -15076697.126 9 -12326413.778 7        51.000
        45.000       -1202.217        -936.792
  23963534.995    23963532.022     7028712.661 4   5495696.857 1        38.000
        22.000        3427.813        2671.023
  21665951.216    21665947.396    -8842727.148 9  -6882542.445 6        52.000
        43.000        3237.920        2523.055
 04  3  1  0 44  0.0000000  0  9G 9G29G 8G28G21G31G26G27G10
  24804732.992    24804729.738     -839745.763 4   -641039.675 1        39.000
        19.000       -2995.093       -2333.839
  20607378.742    20607374.263   -17642279.821 9 -13742159.222 7        54.000
        47.000        -510.117        -397.494
  21200979.241    21200975.039   -12101591.647 9  -9420663.403 6        50.000
        44.000        2851.123        2221.654
  21103873.449    21103868.173   -16866565.187 8 -13130516.886 7        49.000
        45.000        -220.684        -171.961
  24415064.602    24415059.829    -1240763.874 6   -961901.783 1        43.000
        24.000        1152.139         897.770
  24676979.212    24676972.749      930476.222 5    660464.969 1        40.000
        20.000        1233.970         961.535
  20722815.103    20722810.995   -15112592.446 8 -12354384.148 7        49.000
        46.000       -1190.625        -927.760
  23983109.952    23983105.684     7131575.941 3   5575850.048 1        37.000
        23.000        3429.961        2672.697
  21684475.858    21684472.264    -8745378.123 9  -6806686.086 6        51.000
        43.000        3252.119        2534.119
 04  3  1  0 44 30.0000000  0  9G 9G29G 8G28G21G31G26G27G10
  24787642.498    24787639.287     -929557.881 5   -711022.960 1        40.000
        19.000       -2992.041       -2331.460
  20604496.988    20604492.683   -17657422.822 9 -13753958.960 7        54.000
        47.000        -498.950        -388.792
  21217281.675    21217277.644   -12015921.464 8  -9353907.418 6        48.000
        43.000        2860.562        2229.009
  21102664.609    21102659.398   -16872916.258 9 -13135465.749 7        52.000
        45.000        -202.305        -157.640
  24421692.770    24421687.107    -1205936.703 6   -934763.702 1        44.000
        25.000        1170.073         911.745
  24684076.004    24684071.714      967778.209 4    689531.459 1        38.000
        21.000        1253.257         976.564
  20716049.468    20716045.477   -15148146.058 9 -12382088.261 7        52.000
        45.000       -1179.209        -918.864
  24002694.552    24002690.805     7234495.905 4   5656047.371 1        39.000
        22.000        3431.978        2674.268
  21703080.411    21703077.142    -8647610.503 9  -6730503.538 6        53.000
        43.000        3266.099        2545.012
 04  3  1  0 45  0.0000000  0  9G 9G29G 8G28G21G31G26G27G10
  24770569.141    24770565.856    -1019279.642 6   -780936.024 1        43.000
        22.000       -2989.224       -2329.265
  20601678.925    20601674.557   -17672230.588 9 -13765497.476 7        54.000
        47.000        -488.149        -380.376
  21233638.005    21233634.343   -11929968.060 8  -9286930.732 6        48.000
        43.000        2869.731        2236.154
  21101561.198    21101555.733   -16878714.638 9 -13139983.952 7        51.000
        45.000        -184.170        -143.509
  24428422.457    24428417.437    -1170568.895 6   -907204.391 1        43.000
        22.000        1187.886         925.625
  24691284.501    24691279.272     1005656.190 4    719046.775 1        38.000
        20.000        1272.153         991.288
  20709349.614    20709345.067   -15183355.136 9 -12409523.889 7        51.000
        46.000       -1167.930        -910.075
  24022290.604    24022286.892     7337473.242 5   5736289.464 1        41.000
        23.000        3433.472        2675.432
  21721764.520    21721760.885    -8549425.125 9  -6653995.464 5        52.000
        42.000        3279.702        2555.612
 04  3  1  0 45 30.0000000  0  9G 9G29G 8G28G21G31G26G27G10
  24753510.761    24753508.009    -1108913.775 4   -850780.803 1        39.000
        18.000       -2986.304       -2326.990
  20598924.265    20598920.202   -17686705.645 9 -13776776.744 7        54.000
        47.000        -476.919        -371.625
  21250047.636    21250043.170   -11843736.223 8  -9219737.105 6        48.000
        43.000        2878.989        2243.368
  21100562.142    21100557.098   -16883963.381 9 -13144073.872 7        50.000
        45.000        -165.845        -129.230
  24435254.027    24435249.286    -1134665.703 5   -879227.916 1        40.000
        22.000        1205.688         939.497
  24698601.659    24698596.430     1044106.275 4    749007.952 1        38.000
        21.000        1291.133        1006.078
  20702714.956    20702710.572   -15218221.599 9 -12436692.556 7        51.000
        46.000       -1156.597        -901.244
  24041895.413    24041893.118     7440503.797 5   5816572.947 1        40.000
        22.000        3435.117        2676.715
  21740527.086    21740523.507    -8450827.760 9  -6577166.364 5        52.000
        42.000        3293.423        2566.303
 04  3  1  0 46  0.0000000  0 10G 9G29G 8G28G21G31G26G18G27G10
  24736471.653    24736467.907    -1198459.053 4   -920556.294 1        39.000
        19.000       -2983.438       -2324.757
  20596233.569    20596229.093   -17700846.380 9 -13787795.490 7        54.000
        47.000        -465.898        -363.038
  21266509.559    21266505.721   -11757227.522 8  -9152327.736 6        48.000
        43.000        2888.110        2250.476
  21099667.935    21099663.098   -16888661.557 9 -13147734.771 7        51.000
        45.000        -147.554        -114.977
  24442189.153    24442183.616    -1098227.939 6   -850834.850 1        43.000
        25.000        1223.311         953.229
  24706027.335    24706022.553     1083128.230 3    779414.707 1        36.000
        21.000        1310.137        1020.886
  20696145.351    20696141.151   -15252743.658 9 -12463592.861 7        53.000
        45.000       -1145.132        -892.311
  25312217.497                      -20620.813 4                        39.000
                     -2887.856
  24061512.357    24061509.256     7543587.192 5   5896897.649 1        41.000
        23.000        3436.865        2678.077
  21759367.548    21759363.671    -8351820.618 9  -6500017.961 5        52.000
        42.000        3306.929        2576.828
 04  3  1  0 46 30.0000000  0 10G 9G29G 8G28G21G31G26G18G27G10
  24719448.788    24719447.385    -1287910.527 5   -990258.696 1        40.000
        23.000       -2980.224       -2322.253
  20593607.059    20593602.599   -17714647.945 9 -13798549.949 7        54.000
        47.000        -454.390        -354.070
  21283024.500    21283020.653   -11670440.159 8  -9084701.222 6        48.000
        43.000        2897.485        2257.781
  21098879.605    21098874.465   -16892805.310 9 -13150963.641 7        51.000
        45.000        -128.862        -100.412
  24449224.262    24449219.425    -1061253.009 5   -822023.161 1        41.000
        22.000        1241.509         967.409
  24713561.618    24713556.439     1122725.147 3    810269.480 1        37.000
        19.000        1329.438        1035.926
  20689642.431    20689638.233   -15286916.502 9 -12490221.042 7        54.000
        46.000       -1133.232        -883.038
  25295748.477    25295743.398     -107160.356 3    -75253.043 1        37.000
        16.000       -2881.675       -2245.461
  24081139.288    24081135.173     7646725.760 5   5977265.341 1        41.000
        25.000        3438.794        2679.580
  21778286.086    21778282.505    -8252402.524 9  -6422549.326 5        51.000
        42.000        3320.698        2587.557
 04  3  1  0 47  0.0000000  0 10G 9G29G 8G28G21G31G26G18G27G10
  24702445.934    24702442.925    -1377267.814 5  -1059887.646 1        41.000
        24.000       -2977.183       -2319.883
  20591045.508    20591041.529   -17728109.548 9 -13809039.499 7        53.000
        47.000        -443.184        -345.338
  21299592.295    21299588.575   -11583376.149 8  -9016859.142 5        48.000
        42.000        2906.611        2264.892
  21098196.868    21098191.518   -16896394.527 9 -13153760.412 7        50.000
        45.000        -110.591         -86.175
  24456361.152    24456357.303    -1023743.392 5   -792794.904 1        41.000
        21.000        1259.087         981.107
  24721206.592    24721200.989     1162895.980 3    841571.443 1        37.000
        19.000        1348.540        1050.810
  20683205.847    20683201.614   -15320739.205 9 -12516576.387 7        51.000
        46.000       -1121.782        -874.116
  25279315.549    25279310.308     -193521.780 5   -142547.546 1        41.000
        22.000       -2875.948       -2240.998
  24100776.028    24100772.157     7749918.345 6   6057675.169 1        43.000
        25.000        3440.415        2680.843
  21797282.120    21797278.716    -8152576.430 9  -6344762.769 5        51.000
        42.000        3334.126        2598.020
 04  3  1  0 47 30.0000000  0 10G 9G29G 8G28G21G31G26G18G27G10
  24685458.638    24685454.526    -1466538.140 4  -1129449.010 1        39.000
        21.000       -2974.233       -2317.584
  20588547.350    20588542.999   -17741238.226 9 -13819269.638 8        55.000
        48.000        -432.075        -336.682
  21316210.799    21316206.641   -11496045.164 8  -8948809.034 5        48.000
        42.000        2915.400        2271.740
  21097617.608    21097612.484   -16899436.715 9 -13156130.945 7        51.000
        45.000         -92.275         -71.903
  24463600.239    24463594.977     -985708.355 5   -763157.230 1        42.000
        23.000        1276.675         994.812
  24728957.916    24728953.918     1203632.314 4    873314.095 1        39.000
        22.000        1367.324        1065.447
  20676834.993    20676830.791   -15354218.490 9 -12542664.132 7        52.000
        46.000       -1110.293        -865.163
  25262914.102    25262909.532     -279710.720 5   -209707.750 1        40.000
        18.000       -2870.049       -2236.402
  24120420.856    24120418.369     7853156.003 5   6138120.024 1        40.000
        23.000        3442.060        2682.125
  21816354.430    21816350.503    -8052352.827 9  -6266666.489 5        52.000
        42.000        3347.334        2608.313
 04  3  1  0 48  0.0000000  0 10G 9G29G 8G28G21G31G26G18G27G10
  24668488.086    24668484.124    -1555715.483 5  -1198937.794 1        41.000
        21.000       -2971.138       -2315.172
  20586113.401    20586109.406   -17754027.733 9 -13829235.487 7        54.000
        47.000        -420.762        -327.866
  21332880.790    21332876.699   -11408443.942 8  -8880548.343 5        48.000
        42.000        2924.434        2278.780
  21097143.858    21097139.048   -16901926.577 9 -13158071.078 7        50.000
        45.000         -73.926         -57.605
  24470938.739    24470933.742     -947144.112 5   -733107.179 1        41.000
        23.000        1294.121        1008.406
  24736817.684    24736813.200     1244937.851 4    905500.221 1        39.000
        22.000        1386.099        1080.077
  20670530.709    20670526.890   -15387348.025 9 -12568479.349 7        50.000
        46.000       -1098.564        -856.024
  25246545.580    25246541.459     -365719.670 3   -276727.707 1        35.000
        17.000       -2864.131       -2231.790
  24140076.738    24140073.044     7956443.000 5   6218603.368 1        41.000
        24.000        3443.638        2683.354
  21835502.564    21835498.644    -7951729.163 9  -6188258.444 5        51.000
        42.000        3360.615        2618.661
 04  3  1  0 48 30.0000000  0 10G 9G29G 8G28G21G31G26G18G27G10
  24651536.378    24651532.808    -1644797.394 4  -1268352.194 1        39.000
        21.000       -2967.910       -2312.657
  20583744.886    20583740.458   -17766475.296 9 -13838934.889 7        54.000
        47.000        -409.209        -318.864
  21349602.026    21349598.112   -11320572.396 8  -8812077.022 6        49.000
        43.000        2933.550        2285.883
  21096775.496    21096770.438   -16903862.296 9 -13159579.405 7        51.000
        45.000         -55.317         -43.104
  24478378.358    24478373.338     -908050.399 5   -702644.528 1        40.000
        22.000        1311.865        1022.233
  24744787.672    24744781.948     1286814.159 4    938131.117 1        38.000
        22.000        1405.366        1095.091
  20664293.656    20664289.407   -15420124.948 9 -12594019.808 7        52.000
        46.000       -1086.738        -846.809
  25230214.930    25230209.518     -451544.524 5   -343604.281 1        40.000
        18.000       -2857.871       -2226.913
  24159740.591    24159737.715     8059780.000 5   6299125.639 1        41.000
        23.000        3445.430        2684.750
  21854726.580    21854722.691    -7850706.506 9  -6109539.502 5        51.000
        42.000        3374.004        2629.094
 04  3  1  0 49  0.0000000  0 10G 9G29G 8G28G21G31G26G18G27G10
  24634603.968    24634601.061    -1733781.593 5  -1337690.557 1        40.000
        25.000       -2964.649       -2310.116
  20581441.365    20581437.492   -17778578.397 9 -13848365.877 7        54.000
        47.000        -397.837        -310.003
  21366374.899    21366370.898   -11232431.187 8  -8743395.558 5        48.000
        42.000        2942.378        2292.762
  21096512.670    21096508.128   -16905242.143 8 -13160654.606 7        49.000
        45.000         -36.860         -28.722
  24485918.945    24485912.293     -868427.758 5   -671769.804 1        41.000
        23.000        1329.526        1035.995
  24752864.104    24752860.017     1329261.582 3    971207.037 1        36.000
        20.000        1424.214        1109.777
  20658124.227    20658119.637   -15452546.390 9 -12619283.260 7        51.000
        46.000       -1074.888        -837.575
  25213918.906    25213913.182     -537180.820 5   -410333.828 1        40.000
        17.000       -2851.577       -2222.008
  24179414.775    24179411.594     8163167.432 5   6379687.321 1        41.000
        23.000        3446.963        2685.945
  21874025.954    21874022.633    -7749286.082 9  -6030510.612 5        52.000
        42.000        3387.114        2639.310
 04  3  1  0 49 30.0000000  0 10G 9G29G 8G28G21G31G26G18G27G10
  24617688.757    24617686.943    -1822666.571 4  -1406951.510 1        38.000
        23.000       -2961.167       -2307.403
  20579204.220    20579199.910   -17790335.563 9 -13857527.300 8        55.000
        48.000        -386.113        -300.867
  21383198.922    21383194.477   -11144021.247 8  -8674504.705 5        48.000
        42.000        2951.479        2299.854
  21096355.937    21096351.340   -16906065.328 9 -13161296.036 7        50.000
        45.000         -18.184         -14.169
  24493559.271    24493552.960     -828277.040 5   -640483.558 1        41.000
        20.000        1347.231        1049.791
  24761049.659    24761045.774     1372279.907 3   1004727.878 1        37.000
        20.000        1443.423        1124.745
  20652022.406    20652018.475   -15484610.785 9 -12644268.501 7        52.000
        46.000       -1062.847        -828.192
  25197659.953    25197653.568     -622625.771 5   -476914.335 1        41.000
        20.000       -2844.985       -2216.872
  24199097.968    24199095.174     8266604.955 3   6460287.932 1        36.000
        22.000        3448.809        2687.383
  21893400.920    21893397.284    -7647469.894 9  -5951173.350 5        52.000
        42.000        3400.474        2649.720
 04  3  1  0 50  0.0000000  0 10G 9G29G 8G28G21G31G26G18G27G10
  24600792.802    24600790.807    -1911455.452 3  -1476137.606 1        37.000
        21.000       -2958.018       -2304.949
  20577032.173    20577028.066   -17801749.454 9 -13866421.242 7        54.000
        47.000        -374.707        -291.979
  21400072.791    21400068.553   -11055348.623 8  -8605409.164 5        48.000
        42.000        2960.088        2306.562
  21096304.916    21096299.873   -16906335.498 8 -13161506.544 7        49.000
        45.000            .244            .190
  24501298.311    24501293.341     -787603.785 5   -608790.117 1        40.000
        20.000        1364.477        1063.229
  24769342.928    24769340.115     1415864.396 4   1038689.809 1        39.000
        21.000        1462.324        1139.473
  20645988.337    20645984.327   -15516320.720 9 -12668977.537 7        51.000
        46.000       -1051.060        -819.007
  25181436.258    25181430.648     -707881.374 5   -543347.272 1        42.000
        22.000       -2838.647       -2211.933
  24218791.040    24218787.207     8370087.572 4   6540923.728 1        39.000
        23.000        3450.132        2688.414
  21912850.186    21912846.750    -7545264.660 9  -5871532.921 5        51.000
        42.000        3413.296        2659.711
 04  3  1  0 50 30.0000000  0 10G 9G29G 8G28G21G31G26G18G27G10
  24583915.614    24583912.579    -2000143.852 3  -1545245.453 1        37.000
        20.000       -2954.644       -2302.320
  20574926.309    20574921.812   -17812815.559 9 -13875044.176 7        54.000
        47.000        -363.062        -282.905
  21416996.954    21416992.656   -10966411.350 8  -8536107.404 6        48.000
        43.000        2968.965        2313.479
  21096359.080    21096354.049   -16906049.263 9 -13161283.481 7        52.000
        45.000          18.770          14.626
  24509139.027    24509132.923     -746406.276 5   -576688.134 1        41.000
        21.000        1381.992        1076.877
  24777746.916    24777742.249     1460017.516 5   1073094.802 1        40.000
        21.000        1481.074        1154.084
  20640022.258    20640017.973   -15547671.595 9 -12693406.781 7        53.000
        46.000       -1039.048        -809.648
  25165249.123    25165243.813     -792941.636 4   -609628.034 1        39.000
        18.000       -2832.007       -2206.759
  24238491.811    24238488.476     8473617.674 5   6621596.518 1        40.000
        23.000        3451.709        2689.643
  21932373.369    21932369.536    -7442669.573 9  -5791588.721 5        52.000
        42.000        3426.348        2669.881
 04  3  1  0 51  0.0000000  0 10G 9G29G 8G28G21G31G26G18G27G10
  24567059.951    24567056.247    -2088729.361 4  -1614273.110 1        39.000
        27.000       -2951.221       -2299.653
  20572887.136    20572882.614   -17823531.569 9 -13883394.311 7        54.000
        47.000        -351.440        -273.850
  21433971.529    21433967.264   -10877209.670 8  -8466599.601 5        48.000
        42.000        2977.754        2320.328
  21096520.042    21096514.627   -16905204.623 9 -13160625.310 7        50.000
        45.000          37.354          29.107
  24517077.168    24517071.964     -704684.568 5   -544177.718 1        40.000
        22.000        1399.297        1090.361
  24786257.242    24786252.395     1504740.130 4   1107943.597 1        39.000
        20.000        1500.107        1168.915
  20634125.134    20634121.068   -15578660.728 9 -12717554.150 7        52.000
        46.000       -1027.100        -800.337
  25149100.581    25149095.092     -877802.515 4   -675753.367 1        39.000
        21.000       -2825.444       -2201.645
  24258200.829    24258198.793     8577196.025 3   6702306.848 1        36.000
        22.000        3453.159        2690.773
  21951970.618    21951967.053    -7339685.751 9  -5711341.592 5        52.000
        42.000        3439.146        2679.854
 04  3  1  0 51 30.0000000  0 10G 9G29G 8G28G21G31G26G18G27G10
  24550221.990    24550219.386    -2177209.460 3  -1683218.583 1        35.000
        21.000       -2947.832       -2297.012
  20570915.243    20570911.326   -17833894.285 9 -13891469.149 7        54.000
        47.000        -339.800        -264.779
  21450996.105    21450992.387   -10787743.639 9  -8396885.823 5        50.000
        42.000        2986.255        2326.952
  21096787.161    21096782.162   -16903799.655 9 -13159530.518 7        52.000
        45.000          55.884          43.546
  24525117.191    24525111.303     -662438.213 5   -511258.482 1        40.000
        23.000        1416.685        1103.910
  24794876.295    24794871.374     1550032.979 3   1143236.659 1        36.000
        18.000        1519.063        1183.685
  20628297.778    20628293.530   -15609284.709 9 -12741416.985 7        53.000
        46.000       -1014.951        -790.871
  25132991.480    25132984.750     -962459.364 5   -741719.751 1        40.000
        18.000       -2818.701       -2196.391
  24277921.798    24277918.821     8680823.725 3   6783055.632 1        35.000
        22.000        3454.771        2692.029
  21971641.366    21971637.824    -7236313.975 9  -5630792.178 5        51.000
        41.000        3451.855        2689.758
 04  3  1  0 52  0.0000000  0 10G 9G29G 8G28G21G31G26G18G27G10
  24533404.260    24533402.337    -2265584.870 4  -1752082.528 1        39.000
        26.000       -2944.258       -2294.227
  20569010.496    20569006.450   -17843904.205 9 -13899269.093 7        54.000
        47.000        -327.944        -255.541
  21468070.784    21468067.078   -10698016.370 9  -8326968.477 5        51.000
        42.000        2995.166        2333.896
  21097161.148    21097156.187   -16901835.785 9 -13158000.214 7        53.000
        45.000          74.653          58.171
  24533254.803    24533250.268     -619670.754 5   -477933.245 1        41.000
        24.000        1434.141        1117.512
  24803601.533    24803597.817     1595893.724 4   1178972.373 1        38.000
        19.000        1538.081        1198.505
  20622539.210    20622534.846   -15639544.119 9 -12764995.746 7        53.000
        46.000       -1002.646        -781.283
  25116921.368    25116914.008    -1046911.413 5   -807526.543 1        42.000
        17.000       -2811.787       -2191.003
  24297650.734    24297646.397     8784498.186 3   6863840.975 1        36.000
        20.000        3456.294        2693.216
  21991385.521    21991382.340    -7132558.577 9  -5549943.821 5        51.000
        41.000        3464.707        2699.772
 04  3  1  0 52 30.0000000  0 10G 9G29G 8G28G21G31G26G18G27G10
  24516606.623    24516604.460    -2353857.044 3  -1820866.015 1        36.000
        25.000       -2940.444       -2291.255
  20567172.428    20567168.374   -17853562.985 9 -13906795.409 7        55.000
        47.000        -316.006        -246.238
  21485194.375    21485190.480   -10608032.356 9  -8256851.077 5        51.000
        42.000        3003.862        2340.672
  21097640.608    21097635.774   -16899315.579 9 -13156036.399 7        53.000
        45.000          93.418          72.793
  24541491.979    24541487.199     -576386.535 4   -444205.268 1        38.000
        23.000        1451.479        1131.023
  24812436.685    24812432.671     1642318.841 4   1215147.792 1        39.000
        20.000        1556.987        1213.237
  20616850.538    20616846.547   -15669440.244 9 -12788291.416 7        54.000
        47.000        -990.366        -771.714
  25100888.302    25100882.937    -1131159.055 4   -873174.107 1        39.000
        19.000       -2804.736       -2185.509
  24317386.826    24317382.771     8888215.743 4   6944659.827 1        38.000
        22.000        3458.149        2694.662
  22011201.436    22011197.793    -7028424.886 9  -5468800.701 5        51.000
        41.000        3477.466        2709.714
 04  3  1  0 53  0.0000000  0 10G 9G29G 8G28G21G31G26G18G27G10
  24499829.499    24499827.005    -2442020.789 3  -1889564.985 1        37.000
        22.000       -2937.017       -2288.584
  20565402.421    20565397.941   -17862864.812 9 -13914043.581 8        54.000
        48.000        -304.170        -237.016
  21502367.294    21502362.547   -10517788.726 9  -8186531.369 5        51.000
        42.000        3012.422        2347.342
  21098227.090    21098222.161   -16896234.293 9 -13153635.390 7        53.000
        45.000         111.987          87.263
  24549827.231    24549822.229     -532582.509 4   -410072.350 1        39.000
        22.000        1468.828        1144.541
  24821379.520    24821375.169     1689311.730 5   1251765.658 1        41.000
        21.000        1575.899        1227.973
  20611231.452    20611227.428   -15698967.121 9 -12811299.367 7        54.000
        46.000        -978.115        -762.168
  25084895.720    25084891.612    -1215194.961 3   -938656.652 1        36.000
        18.000       -2797.588       -2179.939
  24337131.668    24337129.056     8991980.159 5   7025515.206 1        40.000
        22.000        3459.556        2695.758
  22031089.829    22031086.230    -6923911.045 9  -5387361.361 5        52.000
        41.000        3490.059        2719.526
 04  3  1  0 53 30.0000000  0 10G 9G29G 8G28G21G31G26G18G27G10
  24483073.923    24483069.394    -2530075.839 5  -1958179.339 1        40.000
        21.000       -2933.462       -2285.814
  20563700.194    20563695.472   -17871809.610 9 -13921013.557 8        54.000
        48.000        -292.432        -227.869
  21519588.666    21519584.790   -10427287.985 9  -8116011.319 5        50.000
        42.000        3020.806        2353.875
  21098920.033    21098915.101   -16892592.691 9 -13150797.755 7        54.000
        46.000         130.537         101.717
  24558261.048    24558256.475     -488261.492 3   -375536.399 1        37.000
        21.000        1485.815        1157.778
  24830429.570    24830424.532     1736870.865 5   1288824.735 1        40.000
        21.000        1594.473        1242.446
  20605683.305    20605678.803   -15728124.683 9 -12834019.542 7        53.000
        46.000        -965.928        -752.671
  25068945.036    25068940.567    -1299017.588 3  -1003972.989 1        35.000
        19.000       -2790.767       -2174.623
  24356886.637    24356884.427     9095789.743 4   7106405.742 1        38.000
        22.000        3460.737        2696.678
  22051049.408    22051046.257    -6819020.496 9  -5305628.470 5        52.000
        41.000        3502.422        2729.160
 04  3  1  0 54  0.0000000  0 10G 9G29G 8G28G21G31G26G18G27G10
  24466336.870    24466333.414    -2618026.386 3  -2026712.159 1        37.000
        24.000       -2929.790       -2282.953
  20562065.268    20562061.088   -17880401.397 9 -13927708.453 7        54.000
        47.000        -280.562        -218.619
  21536858.057    21536853.981   -10336536.890 8  -8045296.185 5        49.000
        41.000        3029.194        2360.411
  21099718.480    21099713.368   -16888395.726 9 -13147527.381 7        54.000
        45.000         149.146         116.217
  24566792.913    24566787.730     -443429.955 5   -340602.806 1        40.000
        22.000        1502.881        1171.076
  24839586.137    24839581.605     1784989.971 5   1326320.163 1        40.000
        20.000        1613.340        1257.148
  20600204.168    20600200.168   -15756916.408 9 -12856454.653 7        54.000
        47.000        -953.672        -743.121
  25053035.501    25053029.874    -1382629.480 5  -1069125.055 1        40.000
        20.000       -2783.530       -2168.984
  24376648.815    24376646.377     9199638.663 4   7187326.926 1        38.000
        22.000        3462.266        2697.869
  22071080.117    22071076.674    -6713760.832 9  -5223607.979 5        51.000
        41.000        3514.678        2738.710
 04  3  1  0 54 30.0000000  0 10G 9G29G 8G28G21G31G26G18G27G10
  24449622.941    24449619.954    -2705862.640 4  -2095155.935 1        39.000
        26.000       -2926.167       -2280.130
  20560499.571    20560495.178   -17888630.101 9 -13934120.425 7        54.000
        47.000        -268.462        -209.191
  21554176.456    21554172.137   -10245528.410 8  -7974380.497 5        49.000
        42.000        3037.710        2367.047
  21100624.568    21100619.522   -16883634.672 9 -13143817.451 7        54.000
        45.000         167.925         130.850
  24575421.989    24575417.501     -398080.860 4   -305265.845 1        38.000
        21.000        1520.088        1184.484
  24848851.480    24848846.022     1833676.992 5   1364258.156 1        40.000
        20.000        1632.231        1271.869
  20594797.033    20594792.641   -15785332.435 9 -12878597.002 7        53.000
        46.000        -941.016        -733.259
  25037166.605    25037161.747    -1466019.465 3  -1134104.274 1        37.000
        20.000       -2776.113       -2163.205
  24396419.852    24396416.269     9303534.636 5   7268284.841 1        42.000
        23.000        3463.867        2699.117
  22091181.784    22091178.152    -6608126.068 9  -5141295.176 5        51.000
        41.000        3527.251        2748.507
 04  3  1  0 55  0.0000000  0 10G 9G29G 8G28G21G31G26G18G27G10
  24432929.020    24432925.526    -2793588.530 5  -2163513.708 1        40.000
        23.000       -2922.549       -2277.311
  20559002.090    20558997.545   -17896499.322 9 -13940252.295 8        54.000
        48.000        -256.323        -199.732
  21571542.531    21571538.149   -10154269.039 8  -7903269.309 5        48.000
        41.000        3046.143        2373.618
  21101637.252    21101632.139   -16878314.216 9 -13139671.627 7        54.000
        45.000         186.631         145.427
  24584149.485    24584143.549     -352221.166 4   -269531.041 1        39.000
        19.000        1537.100        1197.740
  24858223.131    24858217.905     1882925.986 5   1402634.000 1        42.000
        16.000        1651.050        1286.532
  20589460.243    20589456.035   -15813376.116 9 -12900449.221 7        53.000
        46.000        -928.579        -723.568
  25021341.381    25021334.798    -1549189.553 3  -1198912.270 1        37.000
        22.000       -2768.618       -2157.365
  24416198.283    24416194.494     9407472.242 5   7349275.183 1        42.000
        23.000        3465.327        2700.255
  22111353.109    22111349.547    -6502123.754 9  -5058695.983 5        52.000
        41.000        3539.527        2758.073
 04  3  1  0 55 30.0000000  0 10G 9G29G 8G28G21G31G26G18G27G10
  24416257.421    24416253.719    -2881199.771 3  -2231782.219 1        37.000
        24.000       -2918.501       -2274.156
  20557573.753    20557569.017   -17904004.852 9 -13946100.763 7        54.000
        47.000        -244.165        -190.258
  21588956.446    21588952.528   -10062756.880 7  -7831961.140 5        47.000
        41.000        3054.497        2380.128
  21102756.768    21102751.229   -16872430.882 9 -13135087.201 7        54.000
        46.000         205.420         160.067
  24592973.994    24592968.232     -305849.113 4   -233397.055 1        39.000
        19.000        1554.102        1210.988
  24867702.201    24867696.452     1932739.478 5   1441449.719 1        41.000
        18.000        1669.688        1301.055
  20584195.653    20584191.182   -15841042.819 9 -12922007.684 7        53.000
        46.000        -916.011        -713.775
  25005556.599    25005551.138    -1632133.977 3  -1263544.316 1        36.000
        21.000       -2761.050       -2151.467
  24435984.256    24435982.703     9511453.942 4   7430299.829 1        39.000
        21.000        3466.689        2701.316
  22131594.816    22131591.685    -6395753.102 9  -4975809.788 5        51.000
        40.000        3551.680        2767.543
 04  3  1  0 56  0.0000000  0 10G 9G29G 8G28G21G31G26G18G27G10
  24399605.112    24399603.427    -2968698.972 3  -2299963.330 1        35.000
        22.000       -2914.810       -2271.280
  20556214.121    20556210.209   -17911148.677 9 -13951667.378 7        54.000
        47.000        -232.114        -180.868
  21606418.211    21606413.668    -9970996.936 7  -7760459.884 5        47.000
        41.000        3062.671        2386.497
  21103982.652    21103977.191   -16865987.932 9 -13130066.703 7        54.000
        46.000         223.994         174.541
  24601894.466    24601889.124     -258969.825 4   -196867.727 1        39.000
        21.000        1570.972        1224.134
  24877287.123    24877283.291     1983113.093 4   1480701.902 1        38.000
        19.000        1688.247        1315.517
  20579002.032    20578998.000   -15868334.604 9 -12943273.999 7        52.000
        46.000        -903.511        -704.034
  24989814.792    24989809.722    -1714853.712 3  -1328001.117 1        37.000
        20.000       -2753.628       -2145.684
  24455779.420    24455778.204     9615475.676 5   7511355.713 1        40.000
        23.000        3467.969        2702.313
  22151905.349    22151902.026    -6289020.116 9  -4892641.230 5        51.000
        41.000        3563.696        2776.906
 04  3  1  0 56 30.0000000  0 10G 9G29G 8G28G21G31G26G18G27G10
  24382978.398    24382974.546    -3056083.121 5  -2368054.830 1        42.000
        29.000       -2910.864       -2268.206
  20554924.692    20554920.174   -17917927.897 9 -13956949.888 7        54.000
        47.000        -219.805        -171.276
  21623926.576    21623922.238    -9878989.088 7  -7688765.469 5        47.000
        41.000        3070.996        2392.984
  21105315.588    21105310.222   -16858983.583 9 -13124608.754 7        53.000
        45.000         242.871         189.250
  24610911.807    24610907.177     -211583.096 4   -159943.085 1        38.000
        20.000        1588.086        1237.470
  24886979.996    24886975.770     2034047.557 3   1520391.137 1        37.000
        17.000        1707.100        1330.208
  20573880.682    20573876.529   -15895248.379 9 -12964245.769 7        52.000
        47.000        -890.806        -694.134
  24974118.200    24974112.840    -1797343.797 4  -1392279.113 1        38.000
        21.000       -2745.625       -2139.448
  24475584.195    24475579.673     9719538.307 6   7592443.374 1        43.000
        22.000        3469.434        2703.455
  22172284.749    22172281.426    -6181925.687 9  -4809191.045 5        51.000
        40.000        3575.816        2786.350
 04  3  1  0 57  0.0000000  0 10G 9G29G 8G28G21G31G26G18G27G10
  24366371.555    24366368.212    -3143350.522 5  -2436055.404 1        40.000
        26.000       -2907.197       -2265.349
  20553704.085    20553699.834   -17924340.509 9 -13961946.729 7        54.000
        47.000        -207.881        -161.985
  21641482.093    21641477.864    -9786734.053 8  -7616878.440 5        48.000
        41.000        3079.004        2399.224
  21106755.289    21106750.159   -16851416.983 9 -13118712.694 7        53.000
        45.000         261.333         203.636
  24620025.110    24620020.291     -163689.821 4   -122623.583 1        39.000
        21.000        1604.648        1250.375
  24896778.561    24896774.980     2085542.744 3   1560517.273 1        35.000
        17.000        1725.630        1344.647
  20568831.589    20568827.419   -15921781.850 9 -12984921.201 7        54.000
        47.000        -878.340        -684.421
  24958465.081    24958459.994    -1879601.114 3  -1456375.750 1        36.000
        21.000       -2738.218       -2133.676
  24495392.511    24495389.853     9823642.181 5   7673563.245 1        41.000
        22.000        3470.547        2704.322
  22192732.817    22192729.475    -6074471.503 9  -4725460.523 5        51.000
        40.000        3587.456        2795.420
 04  3  1  0 57 30.0000000  0 11G 9G29G 8G28G21G31G26G18G27G 7G10
  24349784.984    24349781.946    -3230505.046 3  -2503967.929 1        37.000
        21.000       -2903.262       -2262.282
  20552552.769    20552548.400   -17930389.957 9 -13966660.585 7        54.000
        47.000        -195.444        -152.294
  21659083.546    21659079.795    -9694237.889 8  -7544803.522 5        48.000
        41.000        3087.319        2405.703
  21108301.259    21108296.007   -16843292.750 9 -13112382.107 7        53.000
        45.000         280.186         218.326
  24629233.793    24629228.999     -115296.752 4    -84914.727 1        39.000
        22.000        1621.431        1263.453
  24906684.432    24906680.111     2137592.887 3   1601075.812 1        37.000
        20.000        1744.370        1359.249
  20563853.813    20563849.859   -15947938.446 9 -13005302.958 7        53.000
        47.000        -865.459        -674.384
  24942853.699    24942850.855    -1961627.527 1  -1520292.473 1        32.000
        20.000       -2730.044       -2127.307
  24515209.939    24515207.021     9927781.889 5   7754711.092 1        40.000
        21.000        3472.124        2705.551
  25095809.544                                                          38.000
                     -2231.777
  22213247.964    22213244.611    -5966664.702 9  -4641455.243 5        51.000
        41.000        3599.585        2804.872
 04  3  1  0 58  0.0000000  0 11G 9G29G 8G28G21G31G26G18G27G 7G10
  24333223.157    24333219.615    -3317542.789 4  -2571789.591 1        39.000
        27.000       -2899.458       -2259.318
  20551471.856    20551466.725   -17936072.520 9 -13971088.555 7        55.000
        47.000        -183.467        -142.961
  21676731.312    21676726.715    -9601499.791 8  -7472540.070 5        48.000
        40.000        3095.093        2411.760
  21109953.895    21109948.667   -16834608.102 9 -13105614.837 7        54.000
        45.000         298.682         232.739
  24638538.723    24638534.035      -66402.427 3    -46815.255 1        37.000
        18.000        1637.949        1276.324
  24916694.868    24916691.041     2190199.495 3   1642067.943 1        35.000
        19.000        1762.681        1373.517
  20558949.103    20558945.047   -15973714.180 9 -13025387.940 7        53.000
        47.000        -852.896        -664.594
  24927289.028    24927285.748    -2043418.218 2  -1584025.441 1        33.000
        16.000       -2722.344       -2121.307
  24535034.976    24535031.190    10031959.092 5   7835888.046 1        40.000
        21.000        3473.135        2706.339
  25083062.621    25083062.239      -74686.531 3    -48213.584 1        36.000
        20.000       -2232.656       -1739.732
  22233829.808    22233826.452    -5858505.831 9  -4557175.618 5        51.000
        41.000        3611.055        2813.809
 04  3  1  0 58 30.0000000  0 11G 9G29G 8G28G21G31G26G18G27G 7G10
  24316683.319    24316679.988    -3404465.770 4  -2639521.726 1        39.000
        27.000       -2895.527       -2256.255
  20550459.551    20550455.687   -17941389.707 9 -13975231.823 7        54.000
        47.000        -171.099        -133.324
  21694423.463    21694419.359    -9508524.036 8  -7400091.436 5        49.000
        41.000        3103.237        2418.107
  21111712.621    21111707.961   -16825365.815 9 -13098413.032 7        53.000
        45.000         317.393         247.319
  24647937.272    24647931.904      -17012.293 4     -8329.478 1        39.000
        20.000        1654.541        1289.253
  24926811.513    24926806.877     2243358.803 3   1683490.765 1        35.000
        20.000        1781.035        1387.819
  20554116.459    20554112.127   -15999110.424 9 -13045177.223 7        54.000
        47.000        -840.176        -654.682
  24911773.219    24911767.047    -2124972.641 4  -1647574.309 1        38.000
        20.000       -2714.497       -2115.193
  24554866.410    24554862.094    10136170.449 5   7917091.633 1        42.000
        22.000        3474.219        2707.183
  25070318.096    25070315.095     -141674.366 4   -100411.883 1        38.000
        19.000       -2233.262       -1740.204
  22254477.624    22254474.269    -5750000.010 9  -4472625.644 5        51.000
        40.000        3622.642        2822.838
 04  3  1  0 59  0.0000000  0 11G 9G29G 8G28G21G31G26G18G27G 7G10
  24300163.009    24300160.867    -3491269.758 4  -2707161.106 1        38.000
        24.000       -2891.626       -2253.215
  20549517.950    20549513.747   -17946337.465 9 -13979087.219 8        54.000
        48.000        -158.975        -123.876
  21712161.920    21712157.861    -9415309.033 8  -7327456.371 5        48.000
        41.000        3110.962        2424.126
  21113577.979    21113573.507   -16815563.076 9 -13090774.528 7        53.000
        46.000         335.913         261.750
  24657430.893    24657425.113       32875.457 5     30544.058 1        41.000
        19.000        1670.972        1302.056
  24937032.142    24937028.293     2297072.685 3   1725345.795 1        37.000
        20.000        1799.292        1402.046
  20549356.507    20549352.098   -16024122.755 9 -13064667.345 7        53.000
        47.000        -827.583        -644.870
  24896300.848    24896292.680    -2206285.374 5  -1710934.998 1        41.000
        20.000       -2706.626       -2109.059
  24574703.774    24574700.531    10240418.400 6   7998323.788 1        43.000
        23.000        3475.264        2707.998
  25057566.551    25057564.246     -208675.800 2   -152620.709 1        34.000
        19.000       -2233.755       -1740.588
  22275191.694    22275188.164    -5641146.723 9  -4387804.917 5        51.000
        40.000        3634.033        2831.714
 04  3  1  0 59 30.0000000  0 11G 9G29G 8G28G21G31G26G18G27G 7G10
  24283668.243    24283664.835    -3577957.813 6  -2774710.306 1        43.000
        28.000       -2887.642       -2250.110
  20548646.095    20548641.850   -17950918.507 9 -13982656.862 7        54.000
        47.000        -146.509        -114.163
  21729944.897    21729941.001    -9321860.607 8  -7254639.426 5        49.000
        41.000        3118.853        2430.275
  21115549.121    21115544.284   -16805204.035 9 -13082702.537 7        53.000
        45.000         354.619         276.327
  24667018.209    24667011.931       83254.675 4     69800.539 1        39.000
        18.000        1687.529        1314.958
  24947359.726    24947353.487     2351335.851 3   1767628.777 1        37.000
        21.000        1817.876        1416.527
  20544669.239    20544664.824   -16048754.025 9 -13083860.545 7        53.000
        47.000        -814.619        -634.768
  24880872.697    24880865.443    -2287358.195 5  -1774108.636 1        40.000
        21.000       -2698.286       -2102.561
  24594547.475    24594544.764    10344697.969 5   8079580.610 1        41.000
        22.000        3476.592        2709.032
  25044816.144    25044811.410     -275692.180 5   -204841.349 1        41.000
        24.000       -2234.146       -1740.893
  22295970.678    22295966.974    -5531953.089 9  -4302718.978 5        51.000
        40.000        3645.454        2840.614
 04  3  1  1  0  0.0000000  0 11G 9G29G 8G28G21G31G26G18G27G 7G10
  24267193.433    24267190.610    -3664529.401 5  -2842168.679 1        40.000
        26.000       -2883.745       -2247.074
  20547844.646    20547839.970   -17955132.538 9 -13985940.529 7        54.000
        47.000        -134.282        -104.635
  21747771.185    21747766.966    -9228180.727 8  -7181642.123 5        48.000
        41.000        3126.592        2436.305
  21117626.338    21117621.088   -16794289.306 9 -13074197.542 7        53.000
        45.000         373.169         290.781
  24676697.453    24676692.949      134122.947 4    109438.087 1        38.000
        20.000        1703.774        1327.616
  24957788.975    24957784.374     2406146.608 3   1810338.363 1        37.000
        21.000        1836.206        1430.810
  20540054.805    20540050.687   -16073003.450 9 -13102756.201 7        54.000
        47.000        -801.826        -624.800
  24865489.161    24865485.112    -2368188.815 4  -1837093.413 1        38.000
        22.000       -2690.146       -2096.218
  24614395.349    24614393.220    10449007.961 5   8160861.036 1        41.000
        19.000        3477.485        2709.729
  25032058.524    25032056.493     -342721.627 4   -257072.043 1        39.000
        20.000       -2234.551       -1741.208
  22316813.556    22316810.490    -5422422.285 9  -4217370.316 5        51.000
        41.000        3656.665        2849.349
 04  3  1  1  0 30.0000000  0 11G 9G29G 8G28G21G31G26G18G27G 7G10
  24250742.898    24250741.144    -3750977.537 4  -2909530.753 1        39.000
        26.000       -2879.502       -2243.768
  20547113.617    20547109.363   -17958971.959 9 -13988932.277 7        54.000
        47.000        -121.694         -94.827
  21765643.006    21765638.558    -9134264.889 8  -7108460.962 5        49.000
        41.000        3134.526        2442.488
  21119810.361    21119804.723   -16782812.673 9 -13065254.701 7        53.000
        45.000         391.982         305.441
  24686470.986    24686465.954      185484.486 4    149460.073 1        39.000
        19.000        1720.371        1340.549
  24968323.729    24968319.475     2461510.021 4   1853478.791 1        38.000
        19.000        1854.570        1445.120
  20535514.501    20535510.248   -16096863.353 9 -13121348.334 7        54.000
        47.000        -788.809        -614.656
  24850156.649    24850150.787    -2448768.032 4  -1899882.503 1        39.000
        22.000       -2681.816       -2089.727
  24634251.421    24634249.000    10553353.881 5   8242169.542 1        41.000
        20.000        3478.970        2710.885
  25019305.135    25019301.479     -409755.104 4   -309305.935 1        39.000
        20.000       -2234.424       -1741.109
  22337721.573    22337718.024    -5312550.825 9  -4131756.213 5        51.000
        41.000        3668.042        2858.215
 04  3  1  1  1  0.0000000  0 11G 9G29G 8G28G21G31G26G18G27G 7G10
  24234317.149    24234314.275    -3837297.592 5  -2976793.116 1        42.000
        27.000       -2875.264       -2240.465
  20546455.574    20546451.220   -17962432.092 9 -13991628.483 7        54.000
        47.000        -109.106         -85.018
  21783559.799    21783555.696    -9040110.855 8  -7035094.186 5        49.000
        40.000        3142.329        2448.568
  21122101.477    21122096.271   -16770770.734 9 -13055871.360 7        53.000
        45.000         410.742         320.059
  24696338.222    24696333.844      237341.113 4    189867.802 1        39.000
        19.000        1736.743        1353.306
  24978964.183    24978960.618     2517428.595 4   1897051.791 1        38.000
        20.000        1873.247        1459.673
  20531049.050    20531045.065   -16120328.998 9 -13139633.240 7        54.000
        47.000        -775.703        -604.444
  24834869.600    24834866.207    -2529090.059 4  -1962471.085 1        38.000
        22.000       -2673.198       -2083.012
  24654115.314    24654112.966    10657738.554 5   8323508.233 1        40.000
        22.000        3479.917        2711.624
  25006547.320    25006544.886     -476786.860 4   -361538.259 1        39.000
        19.000       -2234.438       -1741.121
  22358694.542    22358690.785    -5202337.761 9  -4045875.926 5        51.000
        40.000        3679.380        2867.049
 04  3  1  1  1 30.0000000  0 11G 9G29G 8G28G21G31G26G18G27G 7G10
  24217914.468    24217910.773    -3923495.103 6  -3043960.018 1        43.000
        27.000       -2871.143       -2237.254
  20545868.381    20545864.150   -17965518.225 9 -13994033.264 8        54.000
        48.000         -96.523         -75.213
  21801520.531    21801516.287    -8945726.621 9  -6961548.033 5        50.000
        40.000        3150.117        2454.637
  21124499.474    21124494.324   -16758169.979 9 -13046052.577 7        53.000
        45.000         429.424         334.616
  24706299.952    24706295.366      289684.428 5    230654.676 1        40.000
        21.000        1752.979        1365.957
  24989709.195    24989705.036     2573894.596 4   1941051.208 1        38.000
        20.000        1891.172        1473.640
  20526657.852    20526653.721   -16143405.381 9 -13157614.837 7        54.000
        47.000        -762.559        -594.201
  24819634.310    24819628.823    -2609158.423 4  -2024861.976 1        39.000
        20.000       -2664.595       -2076.308
  24673987.251    24673983.207    10762154.967 5   8404871.610 1        40.000
        23.000        3481.050        2712.506
  24993792.638    24993788.970     -543819.990 5   -413771.915 1        40.000
        22.000       -2234.258       -1740.980
  22379730.411    22379726.975    -5091791.880 9  -3959736.286 5        50.000
        40.000        3690.488        2875.705
 04  3  1  1  2  0.0000000  0 11G 9G29G 8G28G21G31G26G18G27G 7G10
  24201535.086    24201532.680    -4009566.685 5  -3111028.669 1        40.000
        26.000       -2866.812       -2233.879
  20545352.947    20545348.518   -17968226.886 9 -13996143.912 8        54.000
        48.000         -83.960         -65.423
  21819525.194    21819521.530    -8851111.450 9  -6887821.940 5        50.000
        41.000        3157.666        2460.519
  21127004.222    21126999.369   -16745008.133 9 -13035796.587 7        52.000
        45.000         448.076         349.150
  24716352.665    24716348.129      342514.639 5    271821.069 1        40.000
        21.000        1769.258        1378.642
  25000558.779    25000554.244     2630908.976 3   1985478.059 1        37.000
        17.000        1909.473        1487.901
  20522341.241    20522337.114   -16166088.761 9 -13175290.200 7        54.000
        47.000        -749.507        -584.031
  24804448.642    24804442.326    -2688968.214 5  -2087051.441 1        41.000
        23.000       -2656.060       -2069.657
  24693862.992    24693860.283    10866604.845 3   8486261.115 1        37.000
        20.000        3482.290        2713.473
  24981036.796    24981033.127     -610850.056 6   -466003.078 1        43.000
        20.000       -2234.312       -1741.022
  22400830.014    22400826.613    -4980913.686 9  -3873337.704 5        50.000
        40.000        3701.465        2884.258
 04  3  1  1  2 30.0000000  0 11G 9G29G 8G28G21G31G26G18G27G 7G10
  24185181.450    24185178.355    -4095509.670 5  -3177997.237 1        42.000
        26.000       -2862.651       -2230.637
  20544909.891    20544905.869   -17970555.284 9 -13997958.248 8        54.000
        48.000         -71.299         -55.558
  21837573.853    21837569.738    -8756265.224 9  -6813915.802 5        50.000
        40.000        3165.298        2466.466
  21129615.795    21129610.761   -16731283.915 9 -13025102.379 7        53.000
        45.000         466.807         363.745
  24726498.737    24726494.094      395831.636 4    313366.684 1        39.000
        20.000        1785.366        1391.194
  25011512.698    25011508.416     2688472.330 3   2030332.590 1        37.000
        17.000        1927.739        1502.135
  20518100.358    20518096.156   -16188376.432 9 -13192657.215 7        55.000
        47.000        -736.348        -573.777
  24789310.168    24789305.243    -2768515.158 5  -2149036.071 1        40.000
        22.000       -2647.197       -2062.751
  24713744.351    24713742.118    10971088.840 2   8567677.110 1        33.000
        19.000        3483.135        2714.131
  24968280.344    24968279.814     -677872.658 1   -518228.519 1        32.000
        21.000       -2233.896       -1740.699
  22421992.544    22421988.881    -4869704.647 9  -3786681.324 4        50.000
        39.000        3712.466        2892.831
 04  3  1  1  3  0.0000000  0 11G 9G29G 8G28G21G31G26G18G27G 7G10
  24168850.654    24168846.968    -4181325.070 5  -3244866.333 1        42.000
        27.000       -2858.267       -2227.221
  20544539.018    20544534.468   -17972504.240 9 -13999476.910 8        54.000
        48.000         -58.535         -45.612
  21855665.679    21855662.058    -8661191.244 9  -6739832.183 5        50.000
        41.000        3172.969        2472.443
  21132333.762    21132329.050   -16716999.306 9 -13013971.499 7        54.000
        45.000         485.566         378.363
  24736737.467    24736732.132      449631.335 5    355288.516 1        41.000
        22.000        1801.421        1403.705
  25022571.111    25022566.330     2746581.284 3   2075612.344 1        36.000
        16.000        1945.943        1516.319
  20513934.252    20513930.201   -16210268.719 9 -13209716.139 7        55.000
        47.000        -723.062        -563.425
  24774224.269    24774217.676    -2847798.183 5  -2210815.023 1        41.000
        23.000       -2638.203       -2055.743
  24733633.715    24733630.740    11075604.593 3   8649117.963 1        36.000
        19.000        3484.707        2715.356
  24955530.522    24955527.246     -744887.122 4   -570447.532 1        39.000
        22.000       -2233.398       -1740.310
  22443217.429    22443213.725    -4758168.798 9  -3699770.280 4        50.000
        39.000        3723.340        2901.304
 04  3  1  1  3 30.0000000  0 11G 9G29G 8G28G21G31G26G18G27G 7G10
  24152543.907    24152541.797    -4267012.777 5  -3311635.946 1        40.000
        25.000       -2853.994       -2223.892
  20544240.522    20544235.783   -17974073.671 9 -14000699.849 8        54.000
        48.000         -45.791         -35.681
  21873800.116    21873796.253    -8565892.230 8  -6665573.220 5        49.000
        40.000        3180.532        2478.337
  21135158.559    21135153.664   -16702155.832 9 -13002405.148 7        53.000
        45.000         504.209         392.890
  24747066.358    24747060.551      503910.834 5    397584.206 1        40.000
        20.000        1817.363        1416.127
  25033730.840    25033727.521     2805233.598 3   2121315.445 1        36.000
        16.000        1964.536        1530.807
  20509843.488    20509838.921   -16231765.677 9 -13226467.015 7        54.000
        47.000        -709.775        -553.072
  24759187.257    24759180.378    -2926816.213 5  -2272387.520 1        40.000
        22.000       -2629.282       -2048.791
  24753528.692    24753524.986    11180150.207 4   8730582.107 1        38.000
        22.000        3485.396        2715.893
  24942779.261    24942775.874     -811891.948 5   -622659.099 1        41.000
        20.000       -2233.130       -1740.101
  22464502.988    22464499.277    -4646310.282 9  -3612607.824 5        51.000
        40.000        3734.131        2909.712
 04  3  1  1  4  0.0000000  0 11G 9G29G 8G28G21G31G26G18G27G 7G10
  24136263.864    24136261.886    -4352567.119 5  -3378301.573 1        41.000
        27.000       -2849.561       -2220.437
  20544015.096    20544010.271   -17975257.452 9 -14001622.273 8        54.000
        48.000         -33.057         -25.758
  21891978.963    21891975.037    -8470364.837 9  -6591136.300 5        50.000
        40.000        3187.988        2484.147
  21138090.325    21138085.316   -16686748.508 9 -12990399.431 7        54.000
        45.000         522.920         407.470
  24757486.370    24757482.127      558672.876 5    440256.019 1        40.000
        20.000        1833.359        1428.592
  25044997.593    25044992.994     2864432.805 3   2167444.659 1        36.000
        20.000        1982.705        1544.965
  20505829.176    20505824.919   -16252860.887 9 -13242904.834 7        55.000
        47.000        -696.538        -542.757
  24744201.952    24744195.735    -3005561.425 5  -2333747.443 1        41.000
        20.000       -2620.308       -2041.798
  24773430.099    24773426.375    11284730.096 3   8812072.879 1        37.000
        22.000        3486.528        2716.775
  24930030.539    24930028.080     -878879.344 3   -674857.005 1        37.000
        21.000       -2232.773       -1739.823
  22485850.823    22485847.403    -4534126.822 9  -3525192.153 5        50.000
        40.000        3744.775        2918.007
 04  3  1  1  4 30.0000000  0 11G 9G29G 8G28G21G31G26G18G27G 7G10
  24120009.415    24120005.705    -4437988.980 5  -3444864.074 1        41.000
        26.000       -2845.366       -2217.168
  20543862.720    20543858.145   -17976056.473 9 -14002244.879 7        54.000
        47.000         -20.337         -15.847
  21910199.920    21910196.034    -8374612.458 9  -6516524.073 5        50.000
        40.000        3195.371        2489.900
  21141129.288    21141124.120   -16670779.747 9 -12977956.235 7        54.000
        46.000         541.533         421.974
  24767999.581    24767993.882      613913.759 5    483300.753 1        41.000
        21.000        1849.224        1440.954
  25056366.833    25056362.131     2924175.620 4   2213997.488 1        38.000
        20.000        2000.493        1558.826
  20501891.294    20501886.932   -16273555.025 9 -13259030.129 7        54.000
        47.000        -683.193        -532.358
  24729268.180    24729263.980    -3084033.402 3  -2394894.469 1        35.000
        20.000       -2611.318       -2034.794
  24793335.970    24793333.536    11389341.692 3   8893588.354 1        37.000
        21.000        3487.442        2717.487
  24917288.944    24917284.762     -945848.746 4   -727040.946 1        39.000
        21.000       -2232.124       -1739.317
  22507259.910    22507256.274    -4421622.956 9  -3437526.811 4        51.000
        39.000        3755.396        2926.282
 04  3  1  1  5  0.0000000  0 11G 9G29G 8G28G21G31G26G18G27G 7G10
  24103778.222    24103774.798    -4523279.696 4  -3511324.281 1        39.000
        26.000       -2840.908       -2213.695
  20543783.484    20543778.983   -17976472.097 9 -14002568.737 7        54.000
        47.000          -7.451          -5.806
  21928463.069    21928459.598    -8278638.847 9  -6441739.443 5        50.000
        40.000        3202.749        2495.649
  21144274.329    21144269.324   -16654252.193 9 -12965077.610 7        52.000
        45.000         560.259         436.565
  24778601.142    24778596.613      669628.632 6    526714.978 1        43.000
        22.000        1865.132        1453.349
  25067837.478    25067832.469     2984458.188 4   2260970.952 1        38.000
        20.000        2018.394        1572.774
  20498029.153    20498024.564   -16293849.131 9 -13274843.715 8        54.000
        48.000        -669.810        -521.930
  24714388.360    24714383.561    -3162231.786 4  -2455828.213 1        38.000
        22.000       -2602.031       -2027.557
  24813248.514    24813245.739    11493981.834 4   8975126.060 1        39.000
        22.000        3488.564        2718.362
  24904545.812    24904544.520    -1012800.006 4   -779210.714 1        38.000
        21.000       -2231.421       -1738.770
  22528728.546    22528724.974    -4308803.843 9  -3349615.824 4        50.000
        39.000        3765.889        2934.459
 04  3  1  1  5 30.0000000  0 11G 9G29G 8G28G21G31G26G18G27G 7G10
  24087573.918    24087570.994    -4608434.793 5  -3577678.924 1        41.000
        26.000       -2836.108       -2209.955
  20543778.246    20543774.096   -17976499.486 9 -14002590.073 8        54.000
        48.000           5.845           4.554
  21946768.549    21946764.500    -8182442.135 9  -6366780.972 4        50.000
        39.000        3210.523        2501.706
  21147526.479    21147521.177   -16637162.595 9 -12951761.029 7        53.000
        45.000         579.189         451.316
  24789294.540    24789288.270      725819.174 5    570499.787 1        41.000
        19.000        1881.162        1465.841
  25079411.747    25079407.095     3045282.781 3   2308366.762 1        35.000
        19.000        2036.772        1587.095
  20494244.421    20494240.305   -16313738.335 9 -13290341.802 8        55.000
        48.000        -655.938        -511.120
  24699563.332    24699556.317    -3240149.886 5  -2516543.640 1        41.000
        25.000       -2592.310       -2019.981
  24833166.910    24833164.153    11598653.285 5   9056688.222 1        41.000
        23.000        3489.790        2719.317
  24891812.375    24891810.039    -1079726.856 4   -831361.445 1        39.000
        23.000       -2230.371       -1737.952
  22550257.542    22550253.265    -4195668.755 9  -3261458.630 4        51.000
        39.000        3776.660        2942.852
 04  3  1  1  6  0.0000000  0 10G 9G29G 8G28G21G26G18G27G 7G10
  24071395.466    24071392.782    -4693456.650 6  -3643929.647 1        43.000
        27.000       -2831.914       -2206.686
  20543846.843    20543842.567   -17976140.957 9 -14002310.702 8        54.000
        48.000          18.398          14.336
  21965115.732    21965111.700    -8086027.119 9  -6291652.395 5        50.000
        40.000        3217.539        2507.173
  21150884.626    21150879.459   -16619514.441 9 -12938009.209 7        53.000
        46.000         597.622         465.680
  24800075.332    24800070.754      782480.036 4    614651.133 1        39.000
        19.000        1896.548        1477.829
  20490536.218    20490532.232   -16333224.863 9 -13305526.100 8        54.000
        48.000        -642.783        -500.870
  24684788.013    24684781.807    -3317788.884 4  -2577041.592 1        38.000
        24.000       -2583.281       -2012.946
  24853090.286    24853087.304    11703352.196 5   9138271.819 1        41.000
        22.000        3490.327        2719.735
  24879080.020    24879077.864    -1146629.979 5   -883493.718 1        40.000
        23.000       -2229.629       -1737.373
  22571845.239    22571841.841    -4082223.879 8  -3173060.047 4        49.000
        38.000        3786.665        2950.648
 04  3  1  1  6 30.0000000  0 10G 9G29G 8G28G21G26G18G27G 7G10
  24055241.447    24055238.220    -4778346.487 5  -3710077.477 1        42.000
        26.000       -2827.178       -2202.996
  20543988.128    20543983.598   -17975397.562 9 -14001731.441 8        54.000
        48.000          31.382          24.453
  21983504.134    21983500.535    -7989397.438 8  -6216356.554 5        49.000
        40.000        3224.717        2512.766
  21154348.904    21154343.921   -16601310.497 9 -12923824.313 7        53.000
        45.000         616.226         480.176
  24810947.357    24810941.835      839606.703 5    659165.414 1        40.000
        19.000        1912.173        1490.005
  20486904.884    20486900.664   -16352309.377 9 -13320397.148 8        55.000
        48.000        -629.331        -490.388
  24670065.597    24670060.263    -3395148.047 4  -2637321.398 1        38.000
        21.000       -2573.706       -2005.485
  24873019.712    24873015.746    11808075.898 5   9219874.609 1        40.000
        21.000        3491.240        2720.447
  24866354.491    24866350.407    -1213508.693 5   -935607.066 1        40.000
        22.000       -2228.745       -1736.684
  22593491.167    22593487.642    -3968473.974 9  -3084423.764 4        50.000
        39.000        3796.880        2958.608
 04  3  1  1  7  0.0000000  0 10G 9G29G 8G28G21G26G18G27G 7G10
  24039113.626    24039109.907    -4863097.095 5  -3776116.863 1        42.000
        25.000       -2822.695       -2199.503
  20544204.393    20544199.997   -17974262.056 9 -14000846.633 8        55.000
        48.000          44.429          34.620
  22001933.769    22001929.826    -7892548.178 9  -6140889.607 4        50.000
        39.000        3231.943        2518.397
  21157919.912    21157914.544   -16582544.715 9 -12909201.618 7        54.000
        46.000         634.873         494.706
  24821906.826    24821902.028      897203.410 5    704045.904 1        41.000
        19.000        1927.729        1502.127
  20483350.943    20483346.761   -16370984.524 9 -13334949.209 8        54.000
        48.000        -615.703        -479.769
  24655400.601    24655393.555    -3472218.309 4  -2697376.207 1        38.000
        22.000       -2564.277       -1998.138
  24892953.301    24892950.593    11912829.955 4   9301501.129 1        39.000
        21.000        3492.378        2721.333
  24853632.631    24853630.428    -1280354.385 4   -987694.598 1        38.000
        20.000       -2227.695       -1735.866
  22615195.844    22615191.879    -3854415.597 9  -2995547.119 4        50.000
        39.000        3807.031        2966.518
 04  3  1  1  7 30.0000000  0 10G 9G29G 8G28G21G26G18G27G 7G10
  24023013.789    24023010.225    -4947704.279 5  -3842044.497 1        42.000
        27.000       -2818.164       -2195.972
  20544495.922    20544491.375   -17972730.141 9 -13999652.922 8        54.000
        48.000          57.349          44.687
  22020405.387    22020401.700    -7795478.001 9  -6065250.503 4        50.000
        39.000        3238.994        2523.892
  21161598.412    21161592.910   -16563214.508 9 -12894139.105 7        53.000
        45.000         653.442         509.176
  24832956.765    24832951.564      955270.998 5    749293.367 1        40.000
        18.000        1942.988        1514.017
  20479875.901    20479871.401   -16389245.865 9 -13349178.816 8        54.000
        48.000        -602.051        -469.130
  24640790.073    24640784.484    -3548994.236 5  -2757201.578 1        40.000
        22.000       -2554.502       -1990.521
  24912894.226    24912889.952    12017616.642 5   9383153.088 1        41.000
        23.000        3493.032        2721.843
  24840920.063    24840917.125    -1347161.145 5  -1039751.738 1        40.000
        22.000       -2226.416       -1734.870
  22636959.125    22636955.300    -3740048.545 9  -2906429.942 4        50.000
        39.000        3817.041        2974.318
 04  3  1  1  8  0.0000000  0 10G 9G29G 8G28G21G26G18G27G 7G10
  23707146.680    23707142.716    -5032175.782 5  -3907866.376 1        42.000
        27.000       -2813.003       -2191.950
  20245069.141    20245064.884   -17970806.511 9 -13998154.004 8        54.000
        48.000          70.952          55.287
  21739126.368    21739122.130    -7698190.834 9  -5989442.330 4        50.000
        39.000        3246.646        2529.854
  20865590.643    20865585.413   -16543325.331 9 -12878641.041 7        54.000
        45.000         672.568         524.079
  24544302.958    24544298.239     1013803.600 5    794903.183 1        40.000
        20.000        1959.023        1526.512
  20176686.335    20176682.027   -16407098.551 9 -13363089.999 8        54.000
        48.000        -587.920        -458.119
  24326442.469    24326437.842    -3625481.388 3  -2816801.969 1        36.000
        23.000       -2544.307       -1982.577
  24633046.565    24633043.739    12122433.114 5   9464828.249 1        40.000
        23.000        3494.556        2723.030
  24528421.540    24528418.710    -1413934.278 5  -1091782.728 1        40.000
        23.000       -2224.658       -1733.500
  22358987.525    22358984.225    -3625377.536 9  -2817075.920 4        50.000
        39.000        3827.534        2982.494
 04  3  1  1  8 30.0000000  0 10G 9G29G 8G28G21G26G18G27G 7G10
  23691099.257    23691095.575    -5116502.927 6  -3973575.792 1        43.000
        27.000       -2808.633       -2188.545
  20245510.436    20245506.229   -17968488.483 9 -13996347.745 8        55.000
        48.000          83.774          65.279
  21757679.518    21757675.331    -7600692.793 9  -5913469.835 5        50.000
        40.000        3253.413        2535.127
  20869481.547    20869476.854   -16522877.080 9 -12862707.332 7        53.000
        45.000         690.864         538.336
  24555529.869    24555524.826     1072797.109 5    840872.132 1        41.000
        19.000        1974.048        1538.219
  20173367.584    20173363.426   -16424538.294 9 -13376679.402 8        54.000
        48.000        -574.521        -447.679
  24311944.242    24311938.655    -3701670.441 3  -2876170.034 1        37.000
        21.000       -2534.722       -1975.108
  24652995.801    24652995.067    12227273.452 3   9546521.945 1        36.000
        21.000        3495.225        2723.552
  24515723.101    24515720.463    -1480664.883 4  -1143780.575 1        39.000
        22.000       -2223.682       -1732.739
  22380865.225    22380861.826    -3510411.212 8  -2727491.797 4        49.000
        38.000        3837.104        2989.952
 04  3  1  1  9  0.0000000  0 10G 9G29G 8G28G21G26G18G27G 7G10
  23675078.483    23675075.303    -5200688.804 5  -4039175.155 1        41.000
        26.000       -2804.014       -2184.946
  20246026.596    20246022.224   -17965775.881 9 -13994234.026 8        54.000
        48.000          96.836          75.457
  21776273.224    21776269.055    -7502983.426 9  -5837332.688 5        51.000
        40.000        3260.303        2540.496
  20873479.171    20873473.977   -16501870.780 9 -12846338.771 7        53.000
        46.000         709.316         552.714
  24566842.812    24566837.473     1132249.632 5    887198.697 1        40.000
        19.000        1989.190        1550.018
  20170127.356    20170123.210   -16441565.455 9 -13389947.319 8        55.000
        48.000        -560.820        -437.003
  24297502.778    24297496.907    -3777561.908 5  -2935306.239 1        40.000
        21.000       -2524.985       -1967.521
  24672952.371    24672949.004    12332139.509 3   9628235.688 1        36.000
        18.000        3495.659        2723.890
  24503031.978    24503029.099    -1547353.579 4  -1195745.832 1        39.000
        22.000       -2222.490       -1731.811
  22402798.826    22402795.099    -3395149.549 8  -2637677.525 4        49.000
        38.000        3846.860        2997.553
 04  3  1  1  9 30.0000000  0 10G 9G29G 8G28G21G26G18G27G 7G10
  23659086.373    23659082.198    -5284734.235 5  -4104665.047 1        42.000
        26.000       -2799.302       -2181.274
  20246617.859    20246613.272   -17962669.419 9 -13991813.413 8        54.000
        48.000         110.000          85.714
  21794905.983    21794902.188    -7405065.611 9  -5761033.092 4        50.000
        39.000        3267.231        2545.895
  20877582.301    20877576.839   -16480308.612 9 -12829537.080 7        53.000
        45.000         727.944         567.229
  24578243.639    24578238.008     1192157.329 5    933880.052 1        40.000
        21.000        2004.487        1561.938
  20166965.405    20166961.395   -16458180.598 9 -13402894.176 8        54.000
        48.000        -547.085        -426.300
  24283118.214    24283111.777    -3853155.219 5  -2994210.162 1        41.000
        22.000       -2514.810       -1959.592
  24692912.495    24692909.058    12437028.983 4   9709967.754 1        38.000
        14.000        3496.714        2724.712
  24490350.265    24490346.851    -1613999.610 5  -1247677.743 1        40.000
        22.000       -2220.776       -1730.475
  22424787.612    22424783.930    -3279597.191 8  -2547636.734 4        48.000
        39.000        3856.514        3005.076
 04  3  1  1 10  0.0000000  0 10G 9G29G 8G28G21G26G18G27G 7G10
  23643119.840    23643116.631    -5368636.605 5  -4170043.456 1        42.000
        27.000       -2794.380       -2177.439
  20247284.554    20247279.879   -17959166.374 9 -13989083.781 8        54.000
        48.000         123.354          96.120
  21813578.903    21813574.899    -7306939.137 8  -5684570.918 4        49.000
        39.000        3274.307        2551.408
  20881791.583    20881786.438   -16458189.295 9 -12812301.236 7        54.000
        45.000         746.577         581.748
  24589727.992    24589724.394     1252520.149 4    980915.959 1        38.000
        20.000        2019.600        1573.714
  20163882.641    20163878.591   -16474380.735 9 -13415517.667 8        55.000
        48.000        -533.164        -415.453
  24268790.430    24268784.822    -3928445.566 5  -3052878.026 1        40.000
        22.000       -2504.697       -1951.712
  24712877.276    24712874.461    12541943.067 4   9791718.900 1        38.000
        20.000        3497.568        2725.378
  24477676.528    24477674.284    -1680598.311 3  -1299572.786 1        37.000
        23.000       -2219.302       -1729.326
  22446831.391    22446828.335    -3163754.891 8  -2457370.024 4        48.000
        38.000        3866.148        3012.583
 04  3  1  1 10 30.0000000  0 10G 9G29G 8G28G21G26G18G27G 7G10
  23627181.606    23627177.343    -5452397.838 5  -4235311.935 1        42.000
        28.000       -2789.868       -2173.923
  20248026.271    20248021.838   -17955268.587 9 -13986046.545 8        54.000
        48.000         136.392         106.279
  21832291.097    21832286.584    -7208608.487 9  -5607949.642 4        50.000
        39.000        3280.923        2556.563
  20886106.140    20886100.699   -16435516.157 9 -12794633.849 7        53.000
        45.000         764.854         595.990
  24601301.773    24601297.401     1313332.611 4   1028302.266 1        38.000
        18.000        2034.458        1585.292
  20160878.975    20160874.889   -16490167.667 9 -13427819.167 8        55.000
        48.000        -519.448        -404.765
  24254520.884    24254515.008    -4003433.506 3  -3111310.116 1        36.000
        22.000       -2494.673       -1943.901
  24732844.246    24732842.541    12646878.057 3   9873486.453 1        37.000
        21.000        3498.296        2725.945
  24465011.792    24465009.289    -1747149.950 3  -1351431.199 1        37.000
        24.000       -2217.661       -1728.048
  22468930.181    22468926.334    -3047628.566 8  -2366881.999 4        48.000
        38.000        3875.366        3019.766
 04  3  1  1 11  0.0000000  0 10G 9G29G 8G28G21G26G18G27G 7G10
  23611268.350    23611264.853    -5536015.824 5  -4300468.772 1        42.000
        27.000       -2784.927       -2170.073
  20248843.293    20248838.934   -17950974.017 9 -13982700.128 8        54.000
        48.000         149.746         116.685
  21851041.303    21851037.437    -7110074.008 8  -5531169.540 4        49.000
        39.000        3287.832        2561.947
  20890526.049    20890520.660   -16412288.852 9 -12776534.640 7        53.000
        45.000         783.418         610.456
  24612959.741    24612954.411     1374593.481 5   1076037.964 1        40.000
        18.000        2049.468        1596.988
  20157953.828    20157949.098   -16505538.845 9 -13439796.700 8        54.000
        48.000        -505.508        -393.902
  24240309.775    24240303.809    -4078115.495 4  -3169503.916 1        38.000
        23.000       -2484.395       -1935.892
  24752817.352    24752815.147    12751834.394 4   9955270.480 1        39.000
        22.000        3499.048        2726.531
  24452359.216    24452355.038    -1813650.849 4  -1403250.076 1        39.000
        23.000       -2215.933       -1726.701
  22491081.643    22491078.103    -2931219.921 9  -2276173.969 4        50.000
        38.000        3884.941        3027.227
 04  3  1  1 11 30.0000000  0 10G 9G29G 8G28G21G26G18G27G 7G10
  23595385.175    23595381.523    -5619483.652 5  -4365508.644 1        42.000
        27.000       -2779.951       -2166.196
  20249737.338    20249732.831   -17946275.618 9 -13979039.039 8        54.000
        48.000         163.125         127.110
  21869831.313    21869827.830    -7011331.326 8  -5454227.194 4        49.000
        39.000        3294.639        2567.251
  20895052.461    20895047.333   -16388501.985 9 -12757999.412 7        53.000
        46.000         802.017         624.948
  24624702.471    24624697.763     1436306.273 3   1124125.863 1        36.000
        17.000        2064.448        1608.661
  20155109.126    20155104.931   -16520487.321 9 -13451444.861 8        55.000
        48.000        -491.396        -382.906
  24226158.142    24226152.195    -4152483.065 5  -3227452.682 1        40.000
        25.000       -2473.867       -1927.689
  24772794.616    24772792.916    12856817.301 2  10037075.306 1        33.000
        20.000        3499.614        2726.972
  24439715.044    24439711.918    -1880092.648 3  -1455022.885 1        37.000
        23.000       -2213.965       -1725.167
  22513287.714    22513284.474    -2814525.939 8  -2185243.592 4        48.000
        38.000        3894.331        3034.544
 04  3  1  1 12  0.0000000  0 10G 9G29G 8G28G21G26G18G27G 7G10
  23579529.777    23579526.402    -5702806.144 5  -4430435.209 1        42.000
        28.000       -2774.761       -2162.151
  20250707.549    20250703.116   -17941177.984 9 -13975066.860 8        54.000
        48.000         176.812         137.775
  21888659.883    21888656.108    -6912387.673 8  -5377128.273 4        48.000
        39.000        3301.636        2572.703
  20899684.052    20899678.976   -16364161.770 9 -12739033.001 7        53.000
        46.000         820.742         639.539
  24636530.914    24636526.158     1498462.874 4   1172559.555 1        38.000
        17.000        2079.468        1620.365
  20152344.109    20152339.572   -16535017.608 9 -13462767.164 8        54.000
        48.000        -477.188        -371.834
  24212066.387    24212058.582    -4226539.226 5  -3285158.875 1        40.000
        22.000       -2463.188       -1919.368
  24792777.328    24792773.641    12961820.657 3  10118896.006 1        37.000
        19.000        3500.513        2727.672
  24427082.292    24427077.724    -1946478.161 5  -1506751.896 1        40.000
        23.000       -2211.558       -1723.292
  22535546.451    22535543.517    -2697555.216 8  -2094097.603 4        48.000
        38.000        3903.823        3041.940
 04  3  1  1 12 30.0000000  0 10G 9G29G 8G28G21G26G18G27G 7G10
  23563700.574    23563697.801    -5785983.158 4  -4495248.428 1        39.000
        28.000       -2769.746       -2158.244
  20251753.353    20251748.895   -17935681.011 9 -13970783.514 8        54.000
        48.000         190.137         148.158
  21907525.760    21907521.756    -6813245.132 8  -5299874.350 4        49.000
        38.000        3308.345        2577.931
  20904420.866    20904415.754   -16339269.591 9 -12719636.486 7        53.000
        46.000         839.287         653.990
  24648442.944    24648437.837     1561060.668 4   1221337.012 1        38.000
        11.000        2094.111        1631.775
  20149658.884    20149654.427   -16549129.139 9 -13473763.163 8        55.000
        48.000        -463.135        -360.884
  24198031.329    24198026.961    -4300281.857 4  -3342620.599 1        38.000
        23.000       -2452.588       -1911.107
  24812761.687    24812759.407    13066842.903 3  10200731.561 1        35.000
        21.000        3501.323        2728.304
  24414460.777    24414456.478    -2012805.407 5  -1558435.409 1        40.000
        24.000       -2209.663       -1721.815
  22557857.264    22557854.246    -2580311.130 8  -2002738.591 3        48.000
        37.000        3912.969        3049.067
 04  3  1  1 13  0.0000000  0  9G 9G29G 8G28G21G26G18G 7G10
  23547901.217    23547898.865    -5869012.171 5  -4559946.296 1        40.000
        28.000       -2764.961       -2154.515
  20252876.255    20252871.872   -17929782.158 9 -13966186.996 8        53.000
        48.000         203.452         158.534
  21926429.984    21926425.779    -6713903.508 9  -5222465.291 4        50.000
        38.000        3314.790        2582.953
  20909262.963    20909257.778   -16313824.673 9 -12699809.268 7        53.000
        46.000         857.451         668.144
  24660438.166    24660433.630     1624098.424 4   1270457.289 1        39.000
        16.000        2108.730        1643.167
  20147053.552    20147049.182   -16562819.149 9 -13484430.696 8        55.000
        48.000        -449.150        -349.987
  24184059.050    24184055.413    -4373706.967 5  -3399834.961 1        41.000
        26.000       -2442.129       -1902.958
  24401849.770    24401846.454    -2079070.230 4  -1610070.312 1        39.000
        22.000       -2207.510       -1720.137
  22580219.763    22580216.380    -2462795.086 7  -1911167.656 3        46.000
        37.000        3921.831        3055.972
 04  3  1  1 13 30.0000000  0  9G 9G29G 8G28G21G26G18G 7G10
  23532129.474    23532126.884    -5951892.828 5  -4624528.609 1        41.000
        27.000       -2760.117       -2150.741
  20254075.107    20254070.920   -17923480.950 9 -13961276.963 8        54.000
        48.000         216.733         168.883
  21945371.857    21945367.785    -6614364.747 8  -5144902.632 3        49.000
        37.000        3321.196        2587.945
  20914210.173    20914204.885   -16287828.123 9 -12679552.198 7        54.000
        46.000         875.693         682.358
  24672517.039    24672512.444     1687573.347 3   1319918.234 1        36.000
        14.000        2123.076        1654.345
  20144529.079    20144524.689   -16576087.107 9 -13494769.356 8        54.000
        48.000        -435.215        -339.128
  24170149.113    24170142.982    -4446812.565 5  -3456800.388 1        40.000
        24.000       -2431.523       -1894.694
  24389251.744    24389249.367    -2145270.433 5  -1661654.899 1        40.000
        22.000       -2205.503       -1718.574
  22602633.998    22602630.163    -2345010.073 8  -1819387.136 3        48.000
        37.000        3930.630        3062.828
 04  3  1  1 14  0.0000000  0  9G 9G29G 8G28G21G26G18G 7G10
  23516385.955    23516383.390    -6034622.348 5  -4688993.106 1        40.000
        27.000       -2755.161       -2146.879
  20255351.144    20255347.140   -17916774.595 9 -13956051.240 8        53.000
        48.000         230.215         179.388
  21964350.989    21964346.833    -6514628.864 8  -5067186.378 4        48.000
        38.000        3327.754        2593.055
  20919262.098    20919257.130   -16261278.637 9 -12658864.287 7        53.000
        45.000         894.097         696.699
  24684679.494    24684674.435     1751484.945 3   1369719.395 1        35.000
        13.000        2137.466        1665.558
  20142084.942    20142080.847   -16588929.839 9 -13504776.682 8        54.000
        48.000        -421.152        -328.171
  24156297.385    24156293.173    -4519593.633 5  -3513512.890 1        41.000
        22.000       -2420.752       -1886.300
  24376668.802    24376664.224    -2211401.531 6  -1713185.603 1        43.000
        23.000       -2203.320       -1716.873
  22625098.406    22625095.296    -2226957.621 7  -1727398.221 3        45.000
        37.000        3939.370        3069.639
 04  3  1  1 14 30.0000000  0  9G 9G29G 8G28G21G26G18G 7G10
  23500671.918    23500668.928    -6117202.989 4  -4753341.693 1        39.000
        26.000       -2750.039       -2142.888
  20256704.287    20256699.870   -17909665.280 9 -13950511.520 8        54.000
        48.000         243.857         190.019
  21983366.431    21983362.444    -6414700.312 8  -4989319.980 4        48.000
        38.000        3334.360        2598.203
  20924418.952    20924414.039   -16234180.401 9 -12637748.769 7        53.000
        45.000         912.573         711.096
  24696923.115    24696918.937     1815827.399 4   1419856.426 1        38.000
        14.000        2151.987        1676.873
  20139721.479    20139717.393   -16601349.667 9 -13514454.472 8        54.000
        48.000        -406.772        -316.966
  24142510.417    24142504.894    -4592051.567 4  -3569973.649 1        38.000
        23.000       -2409.741       -1877.720
  24364098.384    24364093.885    -2277464.086 5  -1764662.939 1        42.000
        23.000       -2200.688       -1714.822
  22647612.432    22647609.525    -2108643.877 7  -1635205.718 3        47.000
        37.000        3948.325        3076.617
 04  3  1  1 15  0.0000000  0  9G 9G29G 8G28G21G26G18G 7G10
  23484986.091    23484983.563    -6199631.531 4  -4817571.676 1        39.000
        29.000       -2745.127       -2139.060
  20258134.287    20258130.085   -17902149.752 9 -13944655.266 8        54.000
        48.000         257.236         200.444
  22002419.081    22002415.127    -6314578.068 8  -4911302.649 3        49.000
        37.000        3340.630        2603.088
  20929680.037    20929675.164   -16206531.771 9 -12616204.372 7        53.000
        45.000         930.811         725.307
  24709249.049    24709244.593     1880600.948 3   1470329.270 1        35.000
        14.000        2166.343        1688.059
  20137439.305    20137435.030   -16613342.866 9 -13523799.819 8        55.000
        48.000        -392.695        -305.996
  24128783.922    24128779.404    -4664181.531 4  -3626178.826 1        39.000
        25.000       -2398.843       -1869.228
  24351540.318    24351536.091    -2343453.099 6  -1816082.978 1        43.000
        23.000       -2198.359       -1713.007
  22670177.038    22670173.345    -1990069.034 6  -1542809.733 4        44.000
        38.000        3956.797        3083.218
 04  3  1  1 15 30.0000000  0  9G 9G29G 8G28G21G26G18G 7G10
  23469329.845    23469325.540    -6281908.153 5  -4881683.318 1        42.000
        28.000       -2739.897       -2134.985
  20259641.675    20259637.520   -17894228.348 9 -13938482.746 8        54.000
        48.000         270.986         211.158
  22021507.868    22021504.430    -6214265.006 8  -4833136.635 3        48.000
        37.000        3347.031        2608.076
  20935045.825    20935040.716   -16178334.910 9 -12594232.784 7        54.000
        45.000         949.116         739.571
  24721656.692    24721652.377     1945801.577 3   1521134.914 1        37.000
        14.000        2180.586        1699.158
  20135238.194    20135233.698   -16624909.787 9 -13532813.004 8        54.000
        48.000        -378.320        -294.795
  24115121.017    24115116.711    -4735981.314 5  -3682126.700 1        40.000
        27.000       -2387.710       -1860.553
  24338996.961    24338993.629    -2409367.148 5  -1867444.534 1        42.000
        23.000       -2195.728       -1710.957
  22692789.651    22692786.349    -1871237.441 7  -1450213.698 3        47.000
        37.000        3965.410        3089.930
 04  3  1  1 16  0.0000000  0  9G 9G29G 8G28G21G26G18G 7G10
  23453702.046    23453699.495    -6364030.847 5  -4945674.988 1        40.000
        29.000       -2734.746       -2130.971
  20261227.047    20261222.450   -17885898.895 9 -13931992.262 8        53.000
        48.000         284.492         221.682
  22040633.678    22040629.770    -6113761.377 8  -4754822.134 4        48.000
        38.000        3353.306        2612.965
  20940515.850    20940510.937   -16149588.918 9 -12571833.306 7        53.000
        45.000         967.407         753.824
  24734144.670    24734140.420     2011427.976 4   1572272.387 1        38.000
        16.000        2194.395        1709.918
  20133118.588    20133114.367   -16636047.923 9 -13541492.064 8        54.000
        48.000        -364.058        -283.681
  24101522.268    24101516.914    -4807447.280 4  -3737814.483 1        38.000
        25.000       -2376.465       -1851.791
  24326469.774    24326465.669    -2475202.370 6  -1918744.760 1        44.000
        25.000       -2193.140       -1708.940
  22715450.876    22715448.090    -1752150.682 7  -1357418.845 3        46.000
        37.000        3973.814        3096.478
 04  3  1  1 16 30.0000000  0  9G 9G29G 8G28G21G26G18G 7G10
  23438105.328    23438101.709    -6445996.024 6  -5009543.917 1        43.000
        29.000       -2729.565       -2126.934
  20262890.075    20262885.965   -17877157.849 9 -13925181.065 8        54.000
        48.000         298.208         232.370
  22059795.006    22059790.971    -6013066.023 8  -4676358.240 3        48.000
        37.000        3359.678        2617.931
  20946091.338    20946086.248   -16120292.050 9 -12549004.574 7        54.000
        45.000         985.713         768.088
  24746716.273    24746709.405     2077480.666 4   1623741.887 1        38.000
        16.000        2208.809        1721.150
  20131081.345    20131076.983   -16646753.464 9 -13549834.059 8        54.000
        48.000        -349.648        -272.453
  24087986.957    24087981.189    -4878574.610 5  -3793238.405 1        40.000
        25.000       -2365.366       -1843.142
  24313956.663    24313953.920    -2540953.494 5  -1969979.351 1        42.000
        23.000       -2190.225       -1706.669
  22738160.780    22738157.408    -1632808.887 7  -1264425.245 3        46.000
        37.000        3982.217        3103.026
 04  3  1  1 17  0.0000000  0  9G 9G29G 8G28G21G26G18G 7G10
  23422535.777    23422532.458    -6527809.552 5  -5073294.700 1        41.000
        29.000       -2724.522       -2123.004
  20264630.710    20264626.260   -17868011.084 9 -13918053.719 8        53.000
        48.000         311.606         242.810
  22078991.631    22078987.935    -5912187.051 7  -4597751.252 4        47.000
        38.000        3365.693        2622.618
  20951769.239    20951764.236   -16090452.078 9 -12525752.631 7        53.000
        45.000        1003.691         782.097
  24759363.296    24759358.407     2143950.168 3   1675536.352 1        37.000
        16.000        2222.539        1731.849
  20129125.413    20129121.247   -16657032.259 9 -13557843.502 8        55.000
        49.000        -335.493        -261.423
  24074515.304    24074510.383    -4949367.141 5  -3848401.431 1        41.000
        24.000       -2354.126       -1834.384
  24301459.034    24301456.286    -2606624.664 4  -2021151.685 1        39.000
        23.000       -2187.661       -1704.671
  22760917.875    22760914.135    -1513221.858 7  -1171240.562 3        47.000
        37.000        3990.283        3109.311
 04  3  1  1 17 30.0000000  0  9G 9G29G 8G28G21G26G18G 7G10
  23406996.050    23406992.952    -6609471.253 6  -5136927.121 1        43.000
        28.000       -2719.302       -2118.937
  20266448.632    20266444.036   -17858458.318 9 -13910610.017 8        54.000
        48.000         325.439         253.589
  22098222.737    22098218.855    -5811126.788 7  -4519003.015 3        47.000
        37.000        3371.841        2627.408
  20957550.617    20957545.992   -16060070.425 9 -12502078.615 7        53.000
        45.000        1021.929         796.308
  24772090.088    24772086.288     2210833.111 3   1727652.902 1        36.000
        17.000        2236.538        1742.757
  20127250.725    20127246.644   -16666883.648 9 -13565519.907 8        54.000
        48.000        -321.055        -250.172
  24061109.264    24061102.754    -5019823.243 5  -3903302.262 1        40.000
        24.000       -2342.759       -1825.526
  24288978.656    24288975.119    -2672213.781 5  -2072260.093 1        42.000
        23.000       -2184.736       -1702.392
  22783720.248    22783717.078    -1393393.293 7  -1077867.656 3        45.000
        36.000        3998.520        3115.730
 04  3  1  1 18  0.0000000  0  9G 9G29G 8G28G21G26G18G 7G10
  23391487.065    23391482.531    -6690975.663 6  -5200437.058 1        43.000
        29.000       -2714.336       -2115.067
  20268344.642    20268339.973   -17848494.219 9 -13902845.787 8        54.000
        48.000         338.843         264.033
  22117489.396    22117484.987    -5709881.830 7  -4440110.850 3        45.000
        37.000        3377.773        2632.031
  20963436.177    20963430.779   -16029143.169 9 -12477979.445 7        53.000
        45.000        1039.863         810.283
  24784895.948    24784892.773     2278131.767 2   1780093.434 1        34.000
        13.000        2250.039        1753.277
  20125458.566    20125454.191   -16676302.287 9 -13572859.104 8        54.000
        48.000        -306.948        -239.180
  24047766.516    24047760.304    -5089935.162 5  -3957934.924 1        41.000
        25.000       -2331.514       -1816.764
  24276514.100    24276511.213    -2737713.801 5  -2123299.065 1        42.000
        25.000       -2181.958       -1700.227
  22806569.225    22806565.741    -1273321.603 7   -984305.326 3        47.000
        36.000        4006.265        3121.765
 04  3  1  1 18 30.0000000  0  9G 9G29G 8G28G21G26G18G 7G10
  23376007.411    23376003.928    -6772321.734 6  -5263823.539 1        43.000
        30.000       -2708.789       -2110.745
  20270319.233    20270314.911   -17838117.671 9 -13894760.163 8        53.000
        48.000         352.764         274.881
  22136790.350    22136786.401    -5608453.603 8  -4361075.873 3        48.000
        37.000        3383.989        2636.875
  20969425.055    20969419.794   -15997671.112 9 -12453455.743 7        53.000
        45.000        1058.066         824.467
  24797782.173    24797777.650     2345843.801 4   1832855.980 1        38.000
        18.000        2263.940        1764.109
  20123748.513    20123744.292   -16685286.761 9 -13579859.986 8        54.000
        48.000        -292.266        -227.739
  24034491.162    24034484.834    -5159700.791 5  -4012297.784 1        42.000
        25.000       -2319.766       -1807.610
  24264067.951    24264064.816    -2803121.622 5  -2174266.213 1        42.000
        25.000       -2178.750       -1697.727
  22829463.989    22829460.395    -1153009.230 8   -890555.437 3        48.000
        36.000        4014.409        3128.111
 04  3  1  1 19  0.0000000  0  9G 9G29G 8G28G21G26G18G 7G10
  23360557.484    23360554.948    -6853509.409 6  -5327086.584 1        44.000
        31.000       -2703.682       -2106.765
  20272372.423    20272367.820   -17827328.745 9 -13886353.208 8        53.000
        48.000         366.475         285.565
  22156125.846    22156122.094    -5506844.446 8  -4281899.917 3        48.000
        37.000        3389.873        2641.459
  20975516.835    20975512.133   -15965656.439 9 -12428509.246 7        53.000
        45.000        1076.133         838.545
  24810744.902    24810740.283     2413965.322 4   1885937.688 1        38.000
        17.000        2277.422        1774.615
  20122121.609    20122117.371   -16693837.054 9 -13586522.556 8        54.000
        48.000        -277.900        -216.546
  24021281.039    24021274.968    -5229118.570 5  -4066389.512 1        40.000
        26.000       -2308.237       -1798.626
  24251637.400    24251635.576    -2868435.705 4  -2225160.242 1        39.000
        23.000       -2175.601       -1695.273
  22852403.547    22852400.494    -1032460.009 7   -796620.987 3        46.000
        36.000        4022.168        3134.157
 04  3  1  1 19 30.0000000  0  9G 9G29G 8G28G21G26G18G 7G10
  23345138.811    23345134.649    -6934537.427 6  -5390225.270 1        44.000
        29.000       -2698.315       -2102.583
  20274503.984    20274499.563   -17816126.027 9 -13877623.823 8        53.000
        48.000         380.303         296.340
  22175495.881    22175492.444    -5405055.319 7  -4202583.735 3        47.000
        37.000        3395.898        2646.155
  20981712.482    20981706.971   -15933099.816 9 -12403140.445 7        53.000
        45.000        1094.224         852.642
  24823786.338    24823781.149     2482494.224 4   1939336.785 1        38.000
        17.000        2291.079        1785.256
  20120577.536    20120573.157   -16701951.320 9 -13592845.355 8        54.000
        49.000        -263.252        -205.131
  24008137.993    24008131.667    -5298185.498 5  -4120207.907 1        40.000
        24.000       -2296.245       -1789.282
  24239228.937    24239225.138    -2933652.975 5  -2275978.870 1        41.000
        23.000       -2172.231       -1692.648
  22875388.259    22875384.640     -911676.582 7   -702504.033 3        46.000
        36.000        4029.966        3140.233
 04  3  1  1 20  0.0000000  0  9G 9G29G 8G28G21G26G18G 7G10
  23329749.469    23329746.927    -7015403.050 7  -5453237.414 1        45.000
        29.000       -2692.715       -2098.219
  20276715.308    20276710.709   -17804507.024 9 -13868570.063 8        54.000
        48.000         394.302         307.248
  22194899.558    22194896.163    -5303086.029 7  -4123127.156 3        47.000
        36.000        3402.046        2650.945
  20988011.327    20988006.198   -15900000.054 9 -12377348.419 7        53.000
        45.000        1112.427         866.826
  24836904.394    24836899.573     2551429.737 4   1993052.750 1        38.000
        16.000        2304.707        1795.876
  20119117.022    20119112.507   -16709627.042 9 -13598826.435 8        55.000
        48.000        -248.530        -193.660
  23995061.916    23995056.109    -5366897.441 5  -4173749.722 1        41.000
        25.000       -2284.351       -1780.013
  24226836.553    24226833.920    -2998768.869 5  -2326718.593 1        41.000
        23.000       -2168.711       -1689.905
  22898416.686    22898412.996     -790660.026 7   -608205.432 3        47.000
        35.000        4037.788        3146.328
 04  3  1  1 20 30.0000000  0  9G 9G29G 8G28G21G26G18G 7G10
  23314392.471    23314388.432    -7096107.519 7  -5516123.934 1        45.000
        31.000       -2687.310       -2094.008
  20279005.066    20279000.556   -17792473.116 9 -13859192.993 8        55.000
        48.000         408.213         318.088
  22214337.352    22214333.774    -5200940.210 7  -4043533.011 3        47.000
        36.000        3407.974        2655.564
  20994412.459    20994407.111   -15866360.278 9 -12351135.603 7        53.000
        45.000        1130.498         880.908
  24850098.764    24850094.004     2620766.831 4   2047081.605 1        38.000
        16.000        2318.110        1806.320
  20117739.444    20117735.196   -16716865.399 9 -13604466.712 8        55.000
        49.000        -233.804        -182.185
  23982054.499    23982049.190    -5435253.775 5  -4227014.406 1        40.000
        25.000       -2272.427       -1770.722
  24214464.774    24214462.182    -3063783.081 4  -2377379.017 1        39.000
        25.000       -2165.269       -1687.222
  22921488.716    22921485.101     -669415.807 8   -513729.424 3        48.000
        35.000        4045.459        3152.306
 04  3  1  1 21  0.0000000  0  9G 9G29G 8G28G21G26G18G 7G10
  23299065.527    23299061.474    -7176648.051 7  -5578882.757 1        45.000
        29.000       -2682.036       -2089.898
  20281374.966    20281370.345   -17780021.361 9 -13849490.331 8        54.000
        48.000         421.938         328.783
  22233809.020    22233805.627    -5098617.285 7  -3963800.883 3        47.000
        36.000        3413.574        2659.928
  21000916.935    21000911.637   -15832179.614 9 -12324501.311 7        53.000
        45.000        1148.262         894.749
  24863368.624    24863364.979     2690505.454 3   2101423.305 1        36.000
        15.000        2331.250        1816.558
  20116445.862    20116441.215   -16723663.161 9 -13609763.674 8        55.000
        48.000        -219.385        -170.949
  23969114.455    23969110.469    -5503250.084 5  -4279998.532 1        40.000
        25.000       -2260.591       -1761.499
  24202113.991    24202110.797    -3128690.917 3  -2427956.547 1        37.000
        23.000       -2161.885       -1684.586
  22944604.362    22944600.408     -547944.470 8   -419076.441 3        48.000
        35.000        4052.651        3157.910
 04  3  1  1 21 30.0000000  0  9G 9G29G 8G28G21G26G18G 7G10
  23283770.923    23283768.024    -7257025.290 7  -5641514.334 1        45.000
        31.000       -2676.558       -2085.629
  20283823.469    20283819.173   -17767152.535 9 -13839462.672 8        53.000
        48.000         435.923         339.680
  22253313.807    22253309.960    -4996120.137 7  -3883932.991 3        46.000
        37.000        3419.351        2664.429
  21007523.651    21007518.363   -15797460.744 9 -12297447.637 7        53.000
        45.000        1166.245         908.762
  24876716.230    24876711.697     2760641.154 3   2156074.496 1        36.000
        15.000        2344.287        1826.717
  20115236.129    20115231.926   -16730021.012 9 -13614717.842 8        54.000
        49.000        -204.678        -159.489
  23956244.214    23956239.364    -5570885.277 4  -4332701.253 1        39.000
        25.000       -2248.560       -1752.124
  24189782.041    24189780.091    -3193491.176 4  -2478450.144 1        38.000
        25.000       -2158.188       -1681.705
  22967762.015    22967758.915     -426250.676 8   -324250.122 3        48.000
        35.000        4060.088        3163.705
 04  3  1  1 22  0.0000000  0  9G 9G29G 8G28G21G26G18G 7G10
  23268507.034    23268503.958    -7337235.945 6  -5704016.106 1        44.000
        30.000       -2670.986       -2081.288
  20286352.706    20286348.223   -17753863.121 9 -13829107.286 8        54.000
        48.000         449.878         350.554
  22272851.359    22272847.290    -4893447.540 7  -3803928.373 3        46.000
        35.000        3425.244        2669.021
  21014233.279    21014228.252   -15762201.815 9 -12269973.144 7        54.000
        45.000        1184.204         922.756
  24890137.443    24890133.639     2831173.751 4   2211034.904 1        38.000
        19.000        2357.603        1837.093
  20114110.854    20114106.267   -16735935.137 9 -13619326.244 8        54.000
        48.000        -189.839        -147.926
  23943443.807    23943438.086    -5638154.342 5  -4385118.735 1        41.000
        25.000       -2236.309       -1742.578
  24177473.391    24177470.054    -3258178.495 5  -2528855.916 1        40.000
        25.000       -2154.268       -1678.650
  22990961.316    22990957.983     -304334.683 7   -229250.652 3        47.000
        35.000        4067.461        3169.450
 04  3  1  1 22 30.0000000  0  9G 9G29G 8G28G21G26G18G 7G10
  23253274.617    23253270.631    -7417282.849 7  -5766390.272 1        45.000
        31.000       -2665.591       -2077.084
  20288960.741    20288956.340   -17740156.183 9 -13818426.567 8        54.000
        48.000         463.809         361.409
  22292421.576    22292417.263    -4790604.539 7  -3723790.984 3        46.000
        36.000        3430.825        2673.370
  21021044.709    21021039.665   -15726407.685 9 -12242081.604 7        54.000
        45.000        1201.948         936.583
  24903634.520    24903629.053     2902096.875 4   2266299.633 1        39.000
        18.000        2370.454        1847.107
  20113069.225    20113064.980   -16741408.267 9 -13623591.028 8        54.000
        49.000        -175.103        -136.444
  23930712.427    23930707.041    -5705058.324 5  -4437251.705 1        41.000
        27.000       -2224.072       -1733.043
  24165184.450    24165182.275    -3322754.151 4  -2579174.613 1        39.000
        25.000       -2150.708       -1675.876
  23014202.035    23014198.974     -182203.047 7   -134083.161 3        47.000
        35.000        4074.541        3174.967
 04  3  1  1 23  0.0000000  0  9G 9G29G 8G28G21G26G18G 7G10
  23238073.588    23238070.296    -7497164.572 7  -5828635.726 1        45.000
        32.000       -2659.824       -2072.590
  20291648.943    20291644.235   -17726030.354 9 -13807419.436 8        54.000
        48.000         477.910         372.397
  22312024.171    22312020.252    -4687592.221 7  -3643521.651 3        46.000
        35.000        3436.533        2677.818
  21027957.598    21027952.936   -15690078.940 9 -12213773.478 7        54.000
        45.000        1219.902         950.573
  24917204.021    24917199.314     2973408.488 4   2321867.109 1        38.000
        18.000        2383.652        1857.391
  20112111.820    20112107.754   -16746438.999 9 -13627511.070 8        54.000
        49.000        -160.225        -124.850
  23918050.223    23918045.002    -5771594.341 5  -4489097.952 1        40.000
        25.000       -2211.812       -1723.490
  24152917.739    24152915.722    -3387214.884 3  -2629403.718 1        36.000
        25.000       -2146.709       -1672.760
  23037484.261    23037480.145      -59858.270 8    -38749.570 3        48.000
        35.000        4081.719        3180.560
 04  3  1  1 23 30.0000000  0  9G 9G29G 8G28G21G26G18G 7G10
  23222905.146    23222901.967    -7576876.462 7  -5890748.816 1        46.000
        31.000       -2654.238       -2068.238
  20294417.609    20294413.304   -17711481.285 9 -13796082.498 8        54.000
        48.000         491.963         383.348
  22331659.347    22331656.239    -4584408.324 7  -3563118.638 3        46.000
        36.000        3442.246        2682.270
  21034973.048    21034968.067   -15653213.072 9 -12185046.832 7        53.000
        45.000        1237.744         964.476
  24930848.261    24930844.377     3045109.431 3   2377737.941 1        37.000
        17.000        2396.436        1867.352
  20111239.753    20111235.097   -16751022.690 9 -13631082.791 8        54.000
        49.000        -145.386        -113.288
  23905461.058    23905455.422    -5837756.131 5  -4540652.572 1        40.000
        27.000       -2199.102       -1713.586
  24140675.373    24140672.441    -3451554.443 4  -2679538.387 1        39.000
        25.000       -2142.559       -1669.526
  23060805.491    23060802.263       62700.383 8     56750.674 3        48.000
        35.000        4088.657        3185.967
 04  3  1  1 24  0.0000000  0  9G 9G29G 8G28G21G26G18G 7G10
  23207767.479    23207764.216    -7656421.231 7  -5952731.699 1        45.000
        30.000       -2648.711       -2063.931
  20297265.994    20297261.627   -17696511.765 9 -13784417.944 8        53.000
        48.000         506.060         394.332
  22351326.454    22351322.696    -4481057.925 7  -3482585.870 3        47.000
        36.000        3447.803        2686.600
  21042089.645    21042084.582   -15615814.803 9 -12155905.319 7        53.000
        45.000        1255.513         978.322
  24944564.535    24944561.378     3117193.251 1   2433907.160 1        31.000
        16.000        2409.395        1877.450
  20110452.066    20110447.702   -16755162.168 9 -13634308.350 8        54.000
        49.000        -130.503        -101.691
  23892941.775    23892936.173    -5903545.133 5  -4591916.762 1        41.000
        27.000       -2186.860       -1704.047
  24128455.055    24128451.387    -3515773.758 4  -2729579.449 1        39.000
        27.000       -2138.623       -1666.459
  23084167.456    23084164.119      185466.289 8    152412.399 3        48.000
        35.000        4095.635        3191.404
 04  3  1  1 24 30.0000000  0  9G 9G29G 8G28G21G26G18G 7G10
  23192663.333    23192660.347    -7735794.713 7  -6014581.102 1        45.000
        30.000       -2642.588       -2059.159
  20300195.288    20300190.875   -17681117.820 9 -13772422.666 8        54.000
        48.000         520.503         405.587
  22371025.276    22371021.834    -4377539.042 7  -3401921.810 3        47.000
        35.000        3453.647        2691.154
  21049307.974    21049303.594   -15577882.016 9 -12126347.296 7        53.000
        45.000        1273.545         992.373
  24958355.709    24958351.804     3189660.353 3   2490375.008 1        35.000
        14.000        2422.178        1887.411
  20109749.689    20109745.340   -16758852.910 9 -13637184.246 8        54.000
        49.000        -115.313         -89.854
  23880493.803    23880488.089    -5968955.151 4  -4642885.607 1        39.000
        25.000       -2173.721       -1693.808
  24116257.745    24116254.944    -3579866.915 4  -2779522.186 1        38.000
        26.000       -2134.111       -1662.944
  23107568.471    23107564.775      308439.821 8    248235.934 2        49.000
        34.000        4102.803        3196.989
 04  3  1  1 25  0.0000000  0  9G 9G29G 8G28G21G26G18G 7G10
  23177591.077    23177588.328    -7814998.982 7  -6076298.671 1        45.000
        31.000       -2637.603       -2055.275
  20303205.246    20303201.190   -17665301.333 9 -13760098.137 8        53.000
        48.000         533.975         416.084
  22390756.113    22390752.095    -4273855.923 7  -3321129.778 3        47.000
        35.000        3458.594        2695.008
  21056627.278    21056622.073   -15539418.548 9 -12096375.753 7        52.000
        45.000        1290.747        1005.777
  24972218.141    24972212.977     3262505.453 4   2547137.375 1        38.000
        17.000        2434.199        1896.779
  20109132.296    20109127.907   -16762096.683 9 -13639711.865 8        55.000
        49.000        -100.903         -78.626
  23868119.727    23868113.268    -6033986.543 5  -4693559.464 1        41.000
        25.000       -2161.587       -1684.353
  24104084.868    24104081.906    -3643833.929 4  -2829366.665 1        39.000
        23.000       -2130.391       -1660.045
  23131007.842    23131004.518      431615.055 8    344216.623 2        48.000
        34.000        4108.867        3201.715
 04  3  1  1 25 30.0000000  0  9G 9G29G 8G28G21G26G18G 7G10
  23162550.898    23162547.561    -7894038.262 6  -6137887.676 1        44.000
        32.000       -2631.650       -2050.637
  20306294.368    20306290.168   -17649066.552 9 -13747447.664 8        54.000
        48.000         548.296         427.244
  22410515.685    22410512.199    -4170014.813 7  -3240214.641 3        47.000
        36.000        3464.180        2699.361
  21064046.552    21064041.712   -15500430.466 9 -12065995.417 7        53.000
        45.000        1308.569        1019.664
  24986149.999    24986145.592     3335720.849 4   2604188.301 1        38.000
        16.000        2446.748        1906.557
  20108599.291    20108595.309   -16764897.700 9 -13641894.474 8        54.000
        49.000         -85.762         -66.827
  23855815.879    23855810.309    -6098641.892 5  -4743940.257 1        42.000
        27.000       -2148.735       -1674.339
  24091936.969    24091933.603    -3707677.348 5  -2879114.714 1        40.000
        27.000       -2125.845       -1656.502
  23154484.173    23154480.845      554984.177 8    440348.386 2        48.000
        34.000        4115.723        3207.057
 04  3  1  1 26  0.0000000  0  8G 9G29G 8G28G26G18G 7G10
  23147542.844    23147540.156    -7972903.364 6  -6199340.931 1        43.000
        32.000       -2625.747       -2046.037
  20309465.261    20309460.965   -17632404.633 9 -13734464.350 8        53.000
        48.000         562.588         438.380
  22430307.305    22430304.009    -4066009.211 7  -3159171.345 3        47.000
        35.000        3469.668        2703.637
  21071567.246    21071561.637   -15460910.865 9 -12035200.921 7        52.000
        45.000        1326.240        1033.434
  20108152.140    20108147.769   -16767247.018 9 -13643725.118 8        55.000
        49.000         -70.713         -55.101
  23843586.541    23843579.335    -6162910.947 6  -4794020.060 1        43.000
        27.000       -2135.776       -1664.241
  24079812.876    24079810.441    -3771386.186 4  -2928757.915 1        39.000
        26.000       -2121.362       -1653.010
  23177998.213    23177994.728      678552.434 8    536635.340 2        49.000
        34.000        4122.310        3212.189
 04  3  1  1 26 30.0000000  0  8G 9G29G 8G28G26G18G 7G10
  23132569.760    23132566.833    -8051590.772 6  -6260655.757 2        43.000
        33.000       -2620.186       -2041.703
  20312717.810    20312713.708   -17615312.326 9 -13721145.669 8        54.000
        48.000         576.729         449.399
  22450130.909    22450126.843    -3961837.766 8  -3077998.794 3        48.000
        35.000        3474.897        2707.712
  21079188.575    21079183.513   -15420858.434 9 -12003991.227 7        53.000
        45.000        1343.809        1047.124
  20107792.017    20107787.182   -16769140.848 9 -13645200.824 8        54.000
        49.000         -55.742         -43.435
  23831430.446    23831424.365    -6226788.310 6  -4843794.628 1        43.000
        28.000       -2122.915       -1654.219
  24067716.985    24067713.282    -3834955.254 4  -2978292.258 1        38.000
        26.000       -2116.812       -1649.464
  23201550.603    23201547.373      802319.387 8    633077.113 2        48.000
        34.000        4128.638        3217.120
 04  3  1  1 27  0.0000000  0  8G 9G29G 8G28G26G18G 7G10
  23117629.683    23117625.630    -8130104.075 6  -6321834.908 2        44.000
        33.000       -2614.194       -2037.035
  20316051.519    20316047.361   -17597793.053 9 -13707494.294 8        54.000
        48.000         591.094         460.593
  22469984.858    22469980.251    -3857506.064 8  -2996701.385 3        48.000
        35.000        3480.391        2711.993
  21086910.807    21086906.209   -15380278.454 9 -11972370.457 7        53.000
        45.000        1361.416        1060.844
  20107517.392    20107513.069   -16770582.664 9 -13646324.315 8        55.000
        49.000         -40.610         -31.644
  23819349.061    23819344.207    -6290275.998 5  -4893265.542 1        42.000
        27.000       -2109.736       -1643.950
  24055645.305    24055642.254    -3898386.215 4  -3027718.991 1        38.000
        25.000       -2111.992       -1645.708
  23225139.139    23225135.937      926277.779 7    729668.066 2        47.000
        34.000        4135.044        3222.112
 04  3  1  1 27 30.0000000  0  8G 9G29G 8G28G26G18G 7G10
  23102722.252    23102718.859    -8208439.788 5  -6382875.684 2        42.000
        33.000       -2608.535       -2032.625
  20319467.504    20319462.838   -17579843.744 9 -13693507.824 8        54.000
        48.000         605.171         471.562
  22489868.712    22489865.341    -3753012.884 7  -2915278.133 2        47.000
        34.000        3485.449        2715.935
  21094733.690    21094728.409   -15339169.795 9 -11940337.725 7        53.000
        45.000        1378.750        1074.351
  20107329.882    20107325.738   -16771568.929 9 -13647092.833 8        54.000
        49.000         -25.601         -19.949
  23807343.172    23807337.665    -6353368.743 5  -4942428.757 1        42.000
        27.000       -2096.870       -1633.925
  24043602.411    24043599.336    -3961673.763 6  -3077033.959 1        43.000
        26.000       -2107.432       -1642.155
  23248764.093    23248761.111     1050427.069 7    826407.752 2        47.000
        33.000        4141.187        3226.899
 04  3  1  1 28  0.0000000  0  8G 9G29G 8G28G26G18G 7G10
  23087849.021    23087844.371    -8286601.209 6  -6443780.619 1        44.000
        31.000       -2602.676       -2028.059
  20322964.209    20322959.923   -17561467.836 9 -13679188.936 8        54.000
        48.000         619.399         482.649
  22509783.227    22509779.283    -3648364.003 7  -2833733.586 2        47.000
        34.000        3490.611        2719.956
  21102655.684    21102650.480   -15297537.964 9 -11907897.333 7        53.000
        45.000        1396.260        1087.995
  20107228.125    20107224.113   -16772102.961 9 -13647508.960 8        54.000
        49.000         -10.430          -8.127
  23795410.842    23795406.201    -6416068.486 6  -4991285.675 1        43.000
        27.000       -2083.643       -1623.618
  24031585.992    24031583.136    -4024819.543 6  -3126238.468 1        43.000
        27.000       -2102.715       -1638.479
  23272423.526    23272420.422     1174760.248 7    923290.737 2        46.000
        33.000        4147.256        3231.628
 04  3  1  1 28 30.0000000  0  8G 9G29G 8G28G26G18G 7G10
  23073008.233    23073004.298    -8364587.913 6  -6504549.457 1        44.000
        32.000       -2596.646       -2023.360
  20326542.187    20326538.132   -17542665.043 9 -13664537.429 8        53.000
        48.000         633.906         493.953
  22529726.849    22529722.432    -3543561.153 7  -2752069.042 3        47.000
        35.000        3496.035        2724.183
  21110677.079    21110671.996   -15255384.620 9 -11875050.567 6        53.000
        44.000        1413.833        1101.688
  20107212.812    20107208.442   -16772184.281 9 -13647572.334 8        54.000
        49.000           4.893           3.812
  23783556.091    23783550.020    -6478373.152 6  -5039834.809 1        43.000
        27.000       -2070.161       -1613.113
  24019596.938    24019593.909    -4087821.299 5  -3175330.741 1        42.000
        26.000       -2097.583       -1634.480
  23296118.163    23296114.749     1299274.062 7   1020314.474 1        47.000
        32.000        4153.462        3236.464
 04  3  1  1 29  0.0000000  0  8G 9G29G 8G28G26G18G 7G10
  23058201.782    23058198.349    -8442396.505 6  -6565179.502 1        44.000
        32.000       -2590.610       -2018.657
  20330201.746    20330197.533   -17523432.000 9 -13649550.641 8        54.000
        48.000         648.384         505.234
  22549699.329    22549695.510    -3438602.975 7  -2670283.452 3        45.000
        35.000        3501.284        2728.273
  21118798.052    21118793.047   -15212708.358 9 -11841796.331 6        52.000
        44.000        1431.362        1115.347
  20107284.195    20107279.578   -16771809.377 9 -13647280.202 8        55.000
        49.000          20.254          15.782
  23771775.645    23771769.796    -6540277.886 5  -5088072.233 1        42.000
        26.000       -2056.665       -1602.596
  24007636.678    24007633.244    -4150673.759 6  -3224306.694 1        43.000
        26.000       -2092.393       -1630.436
  23319846.683    23319843.026     1423968.116 8   1117478.669 2        48.000
        33.000        4159.629        3241.269
 04  3  1  1 29 30.0000000  0  8G 9G29G 8G28G26G18G 7G10
  23043429.301    23043426.037    -8520023.374 6  -6625667.941 1        44.000
        32.000       -2584.629       -2013.997
  20333944.454    20333940.025   -17503765.352 9 -13634225.987 8        54.000
        48.000         662.598         516.310
  22569702.000    22569698.143    -3333488.078 7  -2588375.760 2        45.000
        34.000        3506.275        2732.162
  21127018.818    21127013.734   -15169507.527 9 -11808133.343 7        52.000
        45.000        1448.608        1128.786
  20107443.033    20107438.794   -16770974.622 9 -13646629.748 8        54.000
        49.000          35.386          27.573
  23760072.648    23760067.454    -6601777.119 6  -5135993.735 1        44.000
        28.000       -2043.379       -1592.243
  23995706.733    23995702.814    -4213371.449 6  -3273162.014 1        43.000
        27.000       -2087.490       -1626.616
  23343609.052    23343605.385     1548842.039 7   1214783.030 2        47.000
        33.000        4165.298        3245.687
 04  3  1  1 30  0.0000000  0  8G 9G29G 8G28G26G18G 7G10
  23028691.200    23028687.193    -8597475.881 6  -6686020.507 2        43.000
        34.000       -2578.833       -2009.480
  20337768.023    20337763.574   -17483672.823 9 -13618569.472 8        54.000
        48.000         676.895         527.450
  22589733.004    22589729.350    -3228226.120 7  -2506353.478 2        45.000
        34.000        3511.118        2735.936
  21135337.953    21135333.005   -15125792.028 9 -11774069.310 7        52.000
        45.000        1465.757        1142.148
  20107687.905    20107683.875   -16769687.324 9 -13645626.657 8        55.000
        49.000          50.459          39.319
  23748445.567    23748439.679    -6662876.919 6  -5183603.969 1        43.000
        27.000       -2030.015       -1581.830
  23983803.564    23983800.207    -4275920.072 5  -3321901.223 1        41.000
        27.000       -2082.437       -1622.678
  23367404.351    23367401.344     1673884.691 8   1312218.837 2        48.000
        33.000        4170.879        3250.035
 04  3  1  1 30 30.0000000  0  8G 9G29G 8G28G26G18G 7G10
  23013986.661    23013982.878    -8674747.441 6  -6746232.062 2        44.000
        34.000       -2572.715       -2004.713
  20341673.728    20341669.387   -17463147.913 9 -13602576.051 8        54.000
        48.000         691.353         538.716
  22609791.946    22609788.606    -3122812.948 6  -2424213.364 2        44.000
        34.000        3516.216        2739.909
  21143755.873    21143750.388   -15081557.529 9 -11739600.869 7        52.000
        45.000        1483.145        1155.697
  20108020.107    20108015.702   -16767941.259 9 -13644266.094 8        55.000
        49.000          65.889          51.342
  23736896.615    23736890.639    -6723569.517 6  -5230896.925 1        44.000
        27.000       -2016.225       -1571.085
  23971931.064    23971927.757    -4338311.482 6  -3370517.883 1        44.000
        27.000       -2077.109       -1618.527
  23391232.267    23391227.732     1799098.602 8   1409788.101 2        48.000
        33.000        4176.528        3254.438
 04  3  1  1 31  0.0000000  0  8G 9G29G 8G28G26G18G 7G10
  22999317.089    22999313.026    -8751838.464 7  -6806302.948 2        45.000
        34.000       -2566.528       -1999.892
  20345661.464    20345657.208   -17442191.520 9 -13586246.399 8        53.000
        48.000         705.918         550.066
  22629879.749    22629875.320    -3017251.005 7  -2341957.308 2        46.000
        33.000        3521.274        2743.850
  21152271.216    21152266.293   -15036806.676 9 -11704730.060 7        53.000
        45.000        1500.439        1169.174
  20108439.679    20108435.626   -16765736.864 9 -13642548.374 8        54.000
        49.000          81.274          63.331
  23725424.810    23725419.957    -6783853.743 6  -5277871.639 1        43.000
        28.000       -2002.407       -1560.317
  23960087.378    23960085.750    -4400544.099 5  -3419010.811 1        42.000
        27.000       -2071.621       -1614.250
  23415090.857    23415087.285     1924479.699 7   1507487.668 1        47.000
        32.000        4182.192        3258.851
 04  3  1  1 31 30.0000000  0  8G 9G29G 8G28G26G18G 7G10
  22984681.430    22984678.668    -8828746.341 7  -6866231.149 3        47.000
        35.000       -2560.615       -1995.285
  20349732.023    20349727.701   -17420800.936 9 -13569578.413 8        54.000
        48.000         720.146         561.153
  22649996.324    22649992.022    -2911539.844 7  -2259584.998 2        46.000
        34.000        3526.064        2747.583
  21160885.443    21160880.517   -14991538.916 9 -11669456.479 7        53.000
        45.000        1517.441        1182.422
  20108946.956    20108942.557   -16763071.264 9 -13640471.292 8        55.000
        49.000          96.431          75.141
  23714031.084    23714026.272    -6843724.981 7  -5324524.564 1        45.000
        29.000       -1988.892       -1549.786
  23948277.222    23948274.251    -4462613.538 6  -3467376.594 1        44.000
        28.000       -2066.328       -1610.126
  23438981.888    23438978.268     2050026.804 7   1605316.566 1        46.000
        32.000        4187.544        3263.021
 04  3  1  1 32  0.0000000  0  8G 9G29G 8G28G26G18G 7G10
  22970081.204    22970077.467    -8905472.261 7  -6926017.524 3        47.000
        35.000       -2554.556       -1990.563
  20353885.024    20353880.609   -17398977.730 9 -13552573.322 8        54.000
        48.000         734.644         572.450
  22670140.913    22670136.613    -2805682.838 7  -2177099.034 2        47.000
        34.000        3530.903        2751.353
  21169597.134    21169591.973   -14945757.662 9 -11633782.763 7        53.000
        45.000        1534.536        1195.742
  20109541.593    20109537.228   -16759945.660 9 -13638035.755 8        55.000
        49.000         111.821          87.133
  23702716.386    23702711.884    -6903183.038 7  -5370855.473 1        45.000
        29.000       -1975.073       -1539.018
  23936497.026    23936493.416    -4524519.102 6  -3515614.726 1        44.000
        27.000       -2060.835       -1605.845
  23462902.992    23462899.411     2175735.113 7   1703271.070 1        46.000
        32.000        4192.847        3267.153
 04  3  1  1 32 30.0000000  0  8G 9G29G 8G28G26G18G 7G10
  22955516.046    22955512.220    -8982012.884 7  -6985659.523 3        47.000
        35.000       -2548.057       -1985.499
  20358120.839    20358116.134   -17376718.540 9 -13535228.510 8        55.000
        48.000         749.370         583.925
  22690311.872    22690308.374    -2699678.699 7  -2094498.445 2        47.000
        34.000        3536.099        2755.402
  21178407.172    21178401.841   -14899461.964 9 -11597708.194 6        53.000
        44.000        1551.909        1209.280
  20110224.227    20110219.786   -16756356.714 9 -13635239.168 9        54.000
        50.000         127.534          99.377
  23691482.301    23691476.989    -6962223.128 7  -5416860.763 1        46.000
        28.000       -1960.874       -1527.954
  23924748.021    23924745.726    -4586255.649 6  -3563721.113 1        43.000
        27.000       -2054.893       -1601.215
  23486854.746    23486851.221     2301604.103 6   1801350.800 1        44.000
        30.000        4198.477        3271.540
 04  3  1  1 33  0.0000000  0  8G 9G29G 8G28G26G18G 7G10
  22940986.287    22940983.198    -9058367.350 8  -7045156.460 3        48.000
        35.000       -2541.938       -1980.731
  20362439.254    20362434.911   -17354023.267 9 -13517543.884 8        54.000
        48.000         763.926         595.267
  22710511.982    22710507.655    -2593529.168 7  -2011784.539 2        45.000
        34.000        3540.801        2759.065
  21187314.183    21187309.131   -14852653.220 9 -11561233.839 7        52.000
        45.000        1568.901        1222.521
  20110995.864    20110991.343   -16752303.845 9 -13632081.090 9        54.000
        50.000         142.915         111.362
  23680326.605    23680321.455    -7020843.040 6  -5462538.596 1        44.000
        28.000       -1946.924       -1517.083
  23913032.358    23913030.342    -4647820.819 6  -3611693.927 1        43.000
        28.000       -2049.209       -1596.786
  23510836.920    23510833.519     2427630.544 5   1899553.208 1        42.000
        31.000        4203.438        3275.406
 04  3  1  1 33 30.0000000  0  8G 9G29G 8G28G26G18G 7G10
  22926491.106    22926488.395    -9134537.119 7  -7104509.503 3        47.000
        35.000       -2535.830       -1975.971
  20366840.942    20366836.586   -17330893.397 9 -13499520.616 8        54.000
        48.000         778.237         606.419
  22730738.176    22730734.082    -2487237.552 7  -1928959.914 2        46.000
        33.000        3545.347        2762.608
  21196318.622    21196313.940   -14805335.236 9 -11524362.672 6        52.000
        44.000        1585.796        1235.685
  20111855.272    20111850.764   -16747788.590 9 -13628562.710 9        54.000
        50.000         158.223         123.290
  23669252.446    23669246.916    -7079042.766 7  -5507889.030 1        46.000
        28.000       -1932.998       -1506.232
  23901350.074    23901347.887    -4709214.077 7  -3659532.805 1        45.000
        29.000       -2043.540       -1592.369
  23534848.712    23534845.506     2553809.165 7   1997874.202 1        45.000
        32.000        4208.462        3279.321
 04  3  1  1 34  0.0000000  0  8G 9G29G 8G28G26G18G 7G10
  22912031.749    22912028.910    -9210519.916 7  -7163716.836 2        46.000
        34.000       -2529.634       -1971.143
  20371325.294    20371321.072   -17307327.087 9 -13481157.259 8        54.000
        48.000         792.886         617.833
  22750992.205    22750987.716    -2380803.783 7  -1846024.532 2        45.000
        34.000        3550.171        2766.367
  21205419.944    21205414.809   -14757507.638 9 -11487094.418 7        52.000
        45.000        1602.813        1248.945
  20112802.813    20112798.680   -16742808.615 9 -13624682.216 9        54.000
        50.000         173.760         135.397
  23658257.506    23658251.491    -7136818.636 7  -5552909.201 1        45.000
        28.000       -1918.726       -1495.111
  23889701.253    23889697.839    -4770431.382 6  -3707234.596 1        44.000
        28.000       -2037.598       -1587.738
  23558888.428    23558884.538     2680138.462 6   2096312.602 1        43.000
        32.000        4213.398        3283.168
 04  3  1  1 34 30.0000000  0  8G 9G29G 8G28G26G18G 7G10
  22897607.950    22897604.541    -9286317.520 7  -7222779.853 2        46.000
        33.000       -2523.604       -1966.444
  20375892.949    20375888.770   -17283325.915 9 -13462455.057 8        53.000
        48.000         807.256         629.031
  22771271.642    22771268.343    -2274231.724 6  -1762981.386 2        44.000
        33.000        3554.663        2769.867
  21214617.741    21214612.492   -14709174.778 9 -11449432.441 7        51.000
        45.000        1619.380        1261.854
  20113838.506    20113834.363   -16737365.621 9 -13620440.919 9        54.000
        50.000         189.121         147.367
  23647343.526    23647338.071    -7194170.430 7  -5597598.896 1        45.000
        28.000       -1904.722       -1484.199
  23878085.424    23878082.535    -4831472.674 6  -3754799.230 1        44.000
        28.000       -2031.836       -1583.249
  23582955.517    23582951.330     2806613.268 6   2194864.373 1        43.000
        31.000        4218.101        3286.832
 04  3  1  1 35  0.0000000  0  8G 9G29G 8G28G26G18G 7G10
  22883220.680    22883216.278    -9361926.539 7  -7281695.944 2        47.000
        33.000       -2517.026       -1961.319
  20380543.362    20380539.248   -17258887.028 9 -13443411.777 8        54.000
        48.000         822.007         640.525
  22791578.522    22791574.616    -2167520.059 7  -1679829.456 2        46.000
        33.000        3559.468        2773.611
  21223911.200    21223906.266   -14660335.598 9 -11411375.936 7        53.000
        45.000        1636.528        1275.217
  20114962.907    20114958.361   -16731456.251 9 -13615836.215 9        54.000
        50.000         204.912         159.672
  23636511.716    23636506.803    -7251093.102 7  -5641954.231 1        45.000
        28.000       -1890.034       -1472.754
  23866504.173    23866500.955    -4892332.560 6  -3802222.502 1        44.000
        28.000       -2025.464       -1578.284
  23607049.889    23607046.817     2933232.770 5   2293528.927 1        41.000
        31.000        4223.169        3290.781
 04  3  1  1 35 30.0000000  0  8G 9G29G 8G28G26G18G 7G10
  22868868.974    22868865.388    -9437343.989 8  -7340462.739 2        48.000
        34.000       -2510.679       -1956.373
  20385277.942    20385273.624   -17234007.763 9 -13424025.339 8        53.000
        48.000         836.641         651.928
  22811912.345    22811908.062    -2060668.012 7  -1596568.144 2        47.000
        33.000        3564.092        2777.214
  21233301.667    21233296.543   -14610989.508 9 -11372924.427 7        53.000
        45.000        1653.354        1288.328
  20116176.891    20116172.627   -16725077.843 9 -13610866.027 9        54.000
        50.000         220.488         171.809
  23625762.871    23625756.356    -7307582.616 7  -5685972.057 1        46.000
        29.000       -1875.698       -1461.583
  23854958.563    23854954.970    -4953006.615 7  -3849500.990 1        45.000
        29.000       -2019.297       -1573.478
  23631172.146    23631169.445     3059996.138 5   2392305.536 1        42.000
        31.000        4227.852        3294.430
 04  3  1  1 36  0.0000000  0  8G 9G29G 8G28G26G18G 7G10
  22854553.946    22854550.339    -9512568.979 7  -7399079.600 2        47.000
        34.000       -2504.067       -1951.221
  20390095.845    20390091.329   -17208687.652 9 -13404295.398 8        54.000
        48.000         851.528         663.529
  22832271.841    22832266.828    -1953677.058 7  -1513198.599 1        47.000
        32.000        3568.857        2780.928
  21242787.999    21242782.766   -14561137.740 9 -11334078.890 7        53.000
        45.000        1670.273        1301.512
  20117479.884    20117475.789   -16718229.502 9 -13605529.660 9        55.000
        50.000         236.313         184.140
  23615095.673    23615090.680    -7363636.635 7  -5729650.518 1        46.000
        29.000       -1861.055       -1450.172
  23843448.061    23843445.570    -5013492.051 7  -3896632.498 1        45.000
        29.000       -2012.803       -1568.418
  23655320.677    23655317.931     3186900.543 5   2491192.080 1        40.000
        30.000        4232.661        3298.177
 04  3  1  1 36 30.0000000  0  8G 9G29G 8G28G26G18G 7G10
  22840275.624    22840271.866    -9587604.059 7  -7457548.471 2        47.000
        34.000       -2498.013       -1946.503
  20394997.833    20394993.474   -17182929.464 9 -13384224.090 8        54.000
        48.000         865.938         674.756
  22852656.737    22852652.660    -1846551.427 7  -1429724.082 1        46.000
        32.000        3573.081        2784.219
  21252369.881    21252364.352   -14510785.332 9 -11294843.242 6        53.000
        44.000        1686.709        1314.319
  20118872.022    20118867.532   -16710913.912 9 -13599829.204 8        54.000
        49.000         251.670         196.106
  23604511.337    23604506.553    -7419256.475 7  -5772990.646 1        46.000
        30.000       -1846.704       -1438.990
  23831974.093    23831970.597    -5073789.631 7  -3943617.607 1        45.000
        28.000       -2006.753       -1563.704
  23679496.983    23679492.731     3313939.760 5   2590183.669 1        42.000
        29.000        4236.763        3301.374
 04  3  1  1 37  0.0000000  0  8G 9G29G 8G28G26G18G 7G10
  22826032.986    22826029.343    -9662446.903 7  -7515867.534 2        46.000
        34.000       -2491.626       -1941.527
  20399982.691    20399978.698   -17156731.363 9 -13363809.995 8        54.000
        48.000         880.542         686.137
  22873067.677    22873064.675    -1739291.522 7  -1346144.977 2        47.000
        33.000        3577.490        2787.655
  21262046.696    21262041.576   -14459932.688 9 -11255217.798 7        52.000
        45.000        1703.350        1327.285
  20120353.464    20120349.227   -16703128.987 9 -13593763.035 9        55.000
        50.000         267.266         208.259
  23594011.134    23594005.058    -7474438.081 7  -5815989.289 1        46.000
        30.000       -1832.148       -1427.648
  23820536.268    23820532.822    -5133895.323 6  -3990453.219 1        44.000
        29.000       -2000.366       -1558.727
  23703695.807    23703693.511     3441111.990 5   2689278.878 1        42.000
        30.000        4241.157        3304.798
 04  3  1  1 37 30.0000000  0  8G 9G29G 8G28G26G18G 7G10
  22811827.138    22811823.692    -9737096.872 7  -7574036.307 2        47.000
        34.000       -2484.971       -1936.341
  20405052.059    20405047.956   -17130093.059 9 -13343052.879 8        54.000
        48.000         895.420         697.730
  22893503.788    22893500.911    -1631898.345 7  -1262462.009 1        46.000
        32.000        3582.163        2791.296
  21271818.344    21271813.125   -14408581.326 9 -11215203.746 6        53.000
        44.000        1720.200        1340.416
  20121924.554    20121920.266   -16694874.245 9 -13587330.765 9        54.000
        50.000         283.135         220.624
  23583593.594    23583588.470    -7529179.534 7  -5858644.982 1        46.000
        30.000       -1817.202       -1416.002
  23809135.060    23809132.271    -5193806.876 7  -4037137.529 1        45.000
        30.000       -1993.584       -1553.442
  23727920.567    23727917.301     3568413.960 5   2788475.196 1        41.000
        29.000        4245.796        3308.412
 04  3  1  1 38  0.0000000  0  8G 9G29G 8G28G26G18G 7G10
  22797660.651    22797656.882    -9811547.967 7  -7632050.129 3        47.000
        35.000       -2478.418       -1931.235
  20410206.070    20410201.509   -17103008.831 9 -13321948.284 8        54.000
        48.000         910.229         709.270
  22913966.218    22913961.996    -1524368.482 7  -1178672.502 1        46.000
        31.000        3586.602        2794.754
  21281685.986    21281681.136   -14356727.869 9 -11174798.445 6        53.000
        44.000        1736.733        1353.299
  20123585.651    20123581.492   -16686143.927 9 -13580527.920 9        54.000
        50.000         298.833         232.857
  23573262.057    23573256.715    -7583473.585 7  -5900952.045 1        46.000
        29.000       -1802.417       -1404.481
  23797772.623    23797770.402    -5253516.347 7  -4083664.365 1        46.000
        30.000       -1986.953       -1548.275
  23752170.870    23752167.783     3695847.908 5   2887774.386 1        42.000
        29.000        4250.034        3311.715
 04  3  1  1 38 30.0000000  0  8G 9G29G 8G28G26G18G 7G10
  22783529.463    22783526.502    -9885804.801 7  -7689912.563 3        47.000
        35.000       -2471.694       -1925.996
  20415443.854    20415439.171   -17075483.689 9 -13300500.131 8        54.000
        48.000         925.127         720.878
  22934453.154    22934449.447    -1416708.289 7  -1094781.468 1        46.000
        32.000        3591.084        2798.247
  21291647.467    21291642.336   -14304378.942 9 -11134007.082 6        52.000
        44.000        1753.569        1366.418
  20125336.538    20125332.192   -16676942.364 9 -13573357.884 9        54.000
        50.000         314.873         245.356
  23563014.675    23563009.767    -7637323.226 7  -5942912.802 1        46.000
        30.000       -1787.295       -1392.697
  23786448.424    23786445.494    -5313026.402 7  -4130035.839 1        45.000
        29.000       -1979.971       -1542.834
  23776444.434    23776441.284     3823405.853 5   2987170.202 1        42.000
        29.000        4254.302        3315.040
 04  3  1  1 39  0.0000000  0  8G 9G29G 8G28G26G18G 7G10
  22769435.732    22769432.980    -9959866.910 7  -7747623.264 3        47.000
        36.000       -2465.537       -1921.198
  20420765.742    20420761.532   -17047517.388 9 -13278708.216 8        53.000
        48.000         939.609         732.163
  22954964.858    22954961.816    -1308919.418 7  -1010790.160 2        46.000
        33.000        3595.078        2801.360
  21301703.283    21301697.648   -14251536.459 9 -11092831.117 6        53.000
        44.000        1769.673        1378.966
  20127177.151    20127173.031   -16667269.518 9 -13565820.595 9        54.000
        50.000         330.308         257.383
  23552852.535    23552846.865    -7690726.389 7  -5984525.677 1        46.000
        30.000       -1772.578       -1381.230
  23775162.334    23775159.533    -5372334.944 7  -4176250.252 1        45.000
        29.000       -1973.540       -1537.823
  23800741.162    23800737.654     3951084.304 6   3086659.856 1        43.000
        29.000        4257.861        3317.814
 04  3  1  1 39 30.0000000  0  8G 9G29G 8G28G26G18G 7G10
  22755379.952    22755377.284   -10033728.168 7  -7805177.457 3        47.000
        35.000       -2458.838       -1915.978
  20426172.493    20426168.479   -17019104.302 9 -13256568.156 8        53.000
        48.000         954.394         743.684
  22975501.870    22975498.213    -1200997.836 7   -926695.468 1        46.000
        31.000        3599.448        2804.765
  21311853.465    21311848.441   -14198196.997 9 -11051267.893 6        52.000
        44.000        1786.030        1391.712
  20129108.611    20129104.535   -16657119.423 9 -13557911.438 9        55.000
        50.000         346.118         269.702
  23542777.110    23542771.323    -7743675.672 7  -6025784.841 1        47.000
        30.000       -1757.607       -1369.564
  23763916.099    23763913.114    -5431433.954 6  -4222301.437 1        44.000
        30.000       -1966.660       -1532.462
  23825061.005    23825057.589     4078885.547 6   3186245.248 1        44.000
        31.000        4261.782        3320.869
 04  3  1  1 40  0.0000000  0  8G 9G29G 8G28G26G18G 7G10
  22741363.477    22741359.687   -10107389.703 7  -7862576.009 3        46.000
        35.000       -2452.002       -1910.651
  20431664.283    20431660.012   -16990245.858 9 -13234081.066 8        54.000
        48.000         969.434         755.403
  22996062.939    22996059.140    -1092946.930 7   -842499.982 1        45.000
        32.000        3603.984        2808.300
  21322097.363    21322092.201   -14144364.111 9 -11009320.180 6        52.000
        44.000        1802.729        1404.724
  20131131.022    20131127.293   -16646493.379 9 -13549631.407 9        54.000
        50.000         362.236         282.262
  23532787.065    23532781.049    -7796170.743 7  -6066690.109 1        47.000
        29.000       -1742.188       -1357.549
  23752710.418    23752707.006    -5490322.949 6  -4268188.944 1        44.000
        30.000       -1959.419       -1526.820
  23849402.863    23849399.664     4206804.701 7   3285922.474 1        45.000
        28.000        4266.001        3324.156
 04  3  1  1 40 30.0000000  0  8G 9G29G 8G28G26G18G 7G10
  22727384.451    22727380.580   -10180850.409 7  -7919818.090 3        47.000
        35.000       -2445.469       -1905.560
  20437240.642    20437236.481   -16960941.461 9 -13211246.467 8        54.000
        48.000         984.102         766.832
  23016648.753    23016645.137     -984767.485 7   -758204.334 1        45.000
        31.000        3607.969        2811.404
  21332435.111    21332429.514   -14090039.335 9 -10966989.184 6        53.000
        44.000        1818.823        1417.265
  20133243.808    20133239.181   -16635390.584 9 -13540979.879 9        54.000
        51.000         377.871         294.445
  23522884.454    23522879.287    -7848209.581 7  -6107239.874 1        47.000
        31.000       -1727.016       -1345.727
  23741544.058    23741541.156    -5548999.082 6  -4313910.576 1        43.000
        30.000       -1952.471       -1521.406
  23873766.629    23873763.618     4334839.112 6   3385689.544 1        44.000
        29.000        4269.526        3326.904
 04  3  1  1 41  0.0000000  0  8G 9G29G 8G28G26G18G 7G10
  22713442.837    22713438.706   -10254112.611 7  -7976905.493 3        46.000
        35.000       -2438.677       -1900.268
  20442901.515    20442896.852   -16931194.114 9 -13188066.726 8        53.000
        48.000         999.062         778.490
  23037258.820    23037254.470     -876464.105 7   -673812.134 1        45.000
        31.000        3612.246        2814.737
  21342865.088    21342860.024   -14035227.541 9 -10924278.699 6        52.000
        44.000        1835.288        1430.095
  20135446.713    20135442.530   -16623813.397 9 -13531958.691 9        55.000
        50.000         393.896         306.932
  23513068.410    23513063.615    -7899792.704 7  -6147434.524 1        46.000
        30.000       -1711.709       -1333.799
  23730419.022    23730416.095    -5607462.782 6  -4359466.709 1        44.000
        30.000       -1945.083       -1515.649
  23898151.961    23898148.356     4462982.620 6   3485541.581 1        44.000
        28.000        4273.325        3329.864
 04  3  1  1 41 30.0000000  0  8G 9G29G 8G28G26G18G 7G10
  22699540.451    22699535.198   -10327173.420 7  -8033835.973 3        47.000
        36.000       -2432.012       -1895.074
  20448646.937    20448642.437   -16901001.185 9 -13164539.778 8        54.000
        48.000        1013.823         789.992
  23057891.488    23057888.001     -768036.103 7   -589322.792 1        46.000
        31.000        3616.294        2817.891
  21353388.417    21353383.289   -13979928.443 9 -10881188.489 6        52.000
        44.000        1851.387        1442.639
  20137740.641    20137736.501   -16611759.489 9 -13522566.039 9        55.000
        51.000         409.746         319.283
  23503339.560    23503334.688    -7950916.388 7  -6187271.152 1        46.000
        30.000       -1696.431       -1321.894
  23719334.216    23719332.391    -5665709.700 6  -4404853.882 1        43.000
        30.000       -1937.979       -1510.113
  23922557.225    23922553.754     4591234.006 6   3585477.732 1        44.000
        28.000        4276.763        3332.542
 04  3  1  1 42  0.0000000  0  8G 9G29G 8G28G26G18G 7G10
  22685674.977    22685670.874   -10400033.918 7  -8090610.346 3        46.000
        35.000       -2425.347       -1889.880
  20454476.628    20454472.533   -16870364.402 9 -13140666.957 8        54.000
        49.000        1028.623         801.524
  23078547.751    23078543.449     -659486.758 7   -504738.947 1        45.000
        30.000        3620.225        2820.954
  21364003.361    21363998.520   -13924145.455 9 -10837721.224 6        52.000
        44.000        1867.475        1455.176
  20140124.818    20140120.621   -16599230.052 9 -13512802.847 9        54.000
        51.000         425.527         331.580
  23493698.995    23493693.702    -8001580.125 7  -6226749.403 1        46.000
        31.000       -1681.221       -1310.042
  23708292.630    23708289.368    -5723739.079 5  -4450071.572 1        42.000
        30.000       -1930.791       -1504.513
  23946983.486    23946980.106     4719588.472 6   3685494.204 1        43.000
        29.000        4280.151        3335.183
 04  3  1  1 42 30.0000000  0  8G 9G29G 8G28G26G18G 7G10
  22671848.787    22671844.888   -10472691.021 7  -8147226.249 3        47.000
        36.000       -2418.379       -1884.451
  20460391.642    20460387.468   -16839280.632 9 -13116445.852 8        55.000
        48.000        1043.687         813.262
  23099227.737    23099223.299     -550814.476 7   -420059.268 1        45.000
        31.000        3624.541        2824.318
  21374710.929    21374706.080   -13867877.883 9 -10793876.360 6        53.000
        44.000        1883.760        1467.865
  20142600.330    20142595.703   -16586221.873 9 -13502666.617 9        54.000
        50.000         441.641         344.136
  23484146.543    23484141.021    -8051779.061 7  -6265865.485 1        46.000
        30.000       -1665.439       -1297.745
  23697291.763    23697288.527    -5781545.792 6  -4495115.740 1        43.000
        29.000       -1923.027       -1498.463
  23971427.865    23971423.574     4848045.769 6   3785590.784 1        44.000
        27.000        4283.599        3337.869
 04  3  1  1 43  0.0000000  0  8G 9G29G 8G28G26G18G 7G10
  22658061.316    22658057.860   -10545144.319 7  -8203683.318 3        47.000
        35.000       -2411.655       -1879.212
  20466391.966    20466387.850   -16807750.267 9 -13091876.738 8        53.000
        48.000        1058.564         824.855
  23119929.969    23119926.345     -442021.124 7   -335285.231 1        45.000
        31.000        3628.525        2827.422
  21385510.313    21385504.933   -13811128.020 9 -10749655.677 6        52.000
        44.000        1899.751        1480.325
  20145166.549    20145162.528   -16572735.130 9 -13492157.464 9        54.000
        50.000         457.715         356.661
  23474682.924    23474678.043    -8101511.696 7  -6304618.173 1        47.000
        31.000       -1649.888       -1285.627
  23686334.095    23686331.033    -5839127.927 5  -4539984.897 1        41.000
        29.000       -1915.503       -1492.600
  23995889.540    23995886.407     4976602.235 6   3885764.630 1        43.000
        26.000        4286.895        3340.437
 04  3  1  1 43 30.0000000  0  8G 9G29G 8G28G26G18G 7G10
  22644313.589    22644310.158   -10617387.221 7  -8259976.454 3        47.000
        35.000       -2404.590       -1873.706
  20472477.935    20472473.977   -16775767.118 9 -13066954.818 8        53.000
        48.000        1073.657         836.616
  23140656.218    23140653.890     -333102.295 7   -250413.466 1        45.000
        31.000        3632.671        2830.653
  21396401.889    21396396.669   -13753891.717 9 -10705055.970 6        53.000
        44.000        1915.981        1492.973
  20147825.347    20147821.065   -16558763.457 9 -13481270.455 9        54.000
        51.000         473.823         369.213
  23465309.315    23465303.684    -8150770.541 8  -6343001.706 1        48.000
        31.000       -1634.004       -1273.250
  23675421.226    23675418.507    -5896477.047 5  -4584672.526 1        41.000
        31.000       -1907.783       -1486.584
  24020373.670    24020370.348     5105260.794 7   3986018.049 1        45.000
        28.000        4290.229        3343.036
 04  3  1  1 44  0.0000000  0  8G 9G29G 8G28G26G18G 7G10
  22630605.078    22630602.005   -10689425.345 7  -8316110.030 3        47.000
        36.000       -2397.832       -1868.441
  20478649.452    20478645.163   -16743337.548 9 -13041685.025 8        53.000
        48.000        1088.428         848.125
  23161405.496    23161402.562     -224065.715 7   -165449.935 1        45.000
        31.000        3636.460        2833.605
  21407384.407    21407379.234   -13696177.427 9 -10660083.795 6        52.000
        44.000        1931.743        1505.254
  20150575.211    20150571.215   -16544312.772 9 -13470010.179 9        54.000
        50.000         489.668         381.559
  23456024.842    23456018.748    -8199559.908 7  -6381019.415 1        47.000
        30.000       -1618.501       -1261.170
  23664551.973    23664548.901    -5953597.194 5  -4629181.685 1        41.000
        30.000       -1900.220       -1480.691
  24044873.284    24044871.182     5234011.818 7   4086343.501 1        45.000
        27.000        4293.218        3345.365
 04  3  1  1 44 30.0000000  0  8G 9G29G 8G28G26G18G 7G10
  22616936.542    22616932.399   -10761255.809 7  -8372081.788 3        47.000
        37.000       -2390.874       -1863.019
  20484905.665    20484901.386   -16710459.031 9 -13016065.403 8        54.000
        48.000        1103.442         859.825
  23182178.209    23182174.598     -114910.587 7    -80394.011 1        45.000
        30.000        3640.400        2836.676
  21418457.834    21418452.965   -13637984.828 9 -10614738.903 6        52.000
        44.000        1947.617        1517.624
  20153416.696    20153412.602   -16529380.695 9 -13458374.804 9        55.000
        51.000         505.732         394.077
  23446830.380    23446824.329    -8247875.532 7  -6418667.954 1        47.000
        30.000       -1602.632       -1248.804
  23653726.658    23653723.030    -6010483.719 5  -4673508.830 1        41.000
        29.000       -1892.295       -1474.515
  24069391.440    24069388.645     5362854.327 6   4186740.258 1        44.000
        26.000        4296.260        3347.735
 04  3  1  1 45  0.0000000  0  8G 9G29G 8G28G26G18G 7G10
  22603306.414    22603303.630   -10832881.045 8  -8427893.613 3        48.000
        36.000       -2384.165       -1857.791
  20491247.169    20491242.578   -16677134.598 9 -12990098.320 8        53.000
        48.000        1118.154         871.289
  23202970.946    23202967.522       -5641.265 7      4750.892 1        45.000
        30.000        3644.087        2839.548
  21429621.999    21429617.059   -13579318.794 9 -10569025.117 6        52.000
        44.000        1963.286        1529.833
  20156349.156    20156345.193   -16513969.665 9 -13446366.210 9        55.000
        50.000         521.582         406.428
  23437726.310    23437720.612    -8295718.224 7  -6455947.984 1        47.000
        30.000       -1586.914       -1236.556
  23642946.176    23642942.696    -6067137.176 5  -4717654.376 1        41.000
        29.000       -1884.541       -1468.474
  24093925.285    24093922.992     5491782.374 6   4287203.708 1        44.000
        28.000        4298.979        3349.854
 04  3  1  1 45 30.0000000  0  8G 9G29G 8G28G26G18G 7G10
  22589715.781    22589711.863   -10904300.765 7  -8483545.308 3        47.000
        36.000       -2377.173       -1852.343
  20497673.278    20497669.261   -16643364.169 9 -12963783.703 8        53.000
        48.000        1133.223         883.031
  23223785.538    23223782.468      103740.696 6     89983.523 1        44.000
        30.000        3648.023        2842.615
  21440875.447    21440870.372   -13520181.563 9 -10522944.151 6        52.000
        44.000        1979.141        1542.188
  20159373.313    20159368.833   -16498079.669 9 -13433984.400 9        55.000
        50.000         537.725         419.006
  23428712.668    23428706.885    -8343086.657 8  -6492858.447 1        48.000
        31.000       -1570.967       -1224.130
  23632209.760    23632206.694    -6123555.543 6  -4761616.707 1        43.000
        30.000       -1876.680       -1462.348
  24118476.312    24118473.370     5620792.588 6   4387731.047 1        44.000
        27.000        4301.616        3351.909
 04  3  1  1 46  0.0000000  0  8G 9G29G 8G28G26G18G 7G10
  22576164.936    22576161.128   -10975509.878 7  -8539032.887 3        46.000
        36.000       -2369.897       -1846.673
  20504185.721    20504181.465   -16609143.367 9 -12937118.148 8        53.000
        48.000        1148.418         894.871
  23244622.545    23244619.070      213238.169 7    175306.207 1        45.000
        31.000        3652.153        2845.834
  21452218.827    21452213.831   -13460570.872 9 -10476494.253 6        52.000
        44.000        1995.117        1554.637
  20162488.920    20162484.372   -16481706.018 9 -13421225.706 9        54.000
        50.000         554.111         431.775
  23419789.257    23419785.075    -8389974.429 7  -6529394.368 1        47.000
        32.000       -1554.619       -1211.392
  23621519.638    23621516.677    -6179732.061 5  -4805390.609 1        41.000
        30.000       -1868.301       -1455.819
  24143042.562    24143038.527     5749886.155 6   4488323.439 1        44.000
        29.000        4304.697        3354.310
 04  3  1  1 46 30.0000000  0  8G 9G29G 8G28G26G18G 7G10
  22562656.252    22562651.891   -11046501.735 7  -8594351.173 3        47.000
        36.000       -2362.656       -1841.031
  20510784.381    20510780.063   -16574466.241 9 -12910097.015 8        53.000
        48.000        1163.564         906.674
  23265482.061    23265478.709      322855.430 7    260722.205 1        46.000
        31.000        3655.859        2848.722
  21463653.241    21463648.061   -13400482.605 9 -10429672.233 6        51.000
        43.000        2010.923        1566.953
  20165698.019    20165693.754   -16464842.597 9 -13408085.389 9        54.000
        51.000         570.303         444.392
  23410960.779    23410955.121    -8436373.827 8  -6565549.749 1        48.000
        31.000       -1538.486       -1198.821
  23610876.794    23610874.548    -6235658.575 5  -4848969.691 1        40.000
        30.000       -1860.166       -1449.480
  24167624.125    24167620.193     5879065.758 6   4588982.906 1        43.000
        25.000        4307.441        3356.448
 04  3  1  1 47  0.0000000  0  8G 9G29G 8G28G26G18G 7G10
  22549186.659    22549182.900   -11117281.719 7  -8649504.359 3        46.000
        37.000       -2355.830       -1835.712
  20517468.899    20517464.698   -16539338.723 9 -12882724.932 8        54.000
        48.000        1178.369         918.210
  23286362.435    23286358.697      432585.591 6    346226.201 1        44.000
        30.000        3659.463        2851.530
  21475176.893    21475171.684   -13339924.721 9 -10382484.267 6        52.000
        43.000        2026.377        1578.995
  20168999.185    20168995.226   -16447495.014 9 -13394567.787 9        54.000
        51.000         586.299         456.856
  23402223.247    23402217.823    -8482289.253 8  -6601328.027 1        48.000
        32.000       -1522.446       -1186.322
  23600281.266    23600278.536    -6291338.387 5  -4892356.526 1        42.000
        30.000       -1851.821       -1442.978
  24192220.347    24192216.958     6008322.472 6   4689702.381 1        43.000
        27.000        4309.756        3358.251
 04  3  1  1 47 30.0000000  0  8G 9G29G 8G28G26G18G 7G10
  22535758.348    22535754.398   -11187848.574 7  -8704491.485 3        46.000
        35.000       -2348.638       -1830.107
  20524239.230    20524234.808   -16503759.850 9 -12855001.136 8        53.000
        48.000        1193.535         930.027
  23307264.827    23307261.426      542427.914 6    431817.610 1        44.000
        29.000        3663.276        2854.501
  21486789.574    21486784.773   -13278898.711 9 -10334931.535 6        53.000
        43.000        2042.051        1591.208
  20172392.590    20172388.361   -16429662.175 9 -13380672.076 9        54.000
        50.000         602.612         469.568
  23393578.448    23393573.424    -8527717.454 8  -6636726.625 1        48.000
        32.000       -1506.084       -1173.572
  23589733.194    23589730.474    -6346768.613 6  -4935548.897 1        43.000
        31.000       -1843.369       -1436.391
  24216831.889    24216829.255     6137653.720 7   4790479.976 1        46.000
        28.000        4312.358        3360.279
 04  3  1  1 48  0.0000000  0  8G 9G29G 8G28G26G18G 7G10
  22522370.600    22522366.346   -11258200.902 7  -8759311.438 3        45.000
        35.000       -2341.572       -1824.602
  20531095.777    20531091.435   -16467728.847 9 -12826925.033 8        53.000
        48.000        1208.516         941.701
  23328188.913    23328184.879      652381.678 5    517495.858 1        42.000
        30.000        3666.992        2857.396
  21498491.548    21498486.316   -13217405.617 9 -10287014.838 6        52.000
        44.000        2057.515        1603.258
  20175878.222    20175874.184   -16411343.232 9 -13366397.578 9        54.000
        50.000         618.589         482.017
  23385026.852    23385021.450    -8572656.459 8  -6671744.034 1        48.000
        32.000       -1489.878       -1160.944
  23579232.999    23579230.756    -6401946.106 6  -4978544.330 1        44.000
        30.000       -1835.024       -1429.889
  24241455.531    24241452.787     6267057.537 6   4891314.111 1        43.000
        25.000        4314.497        3361.946
 04  3  1  1 48 30.0000000  0  8G 9G29G 8G28G26G18G 7G10
  22509024.235    22509020.216   -11328337.080 7  -8813962.973 3        46.000
        36.000       -2334.155       -1818.822
  20538038.565    20538033.984   -16431244.834 9 -12798495.944 8        53.000
        48.000        1223.755         953.575
  23349132.980    23349129.777      762446.571 6    603260.666 1        43.000
        30.000        3670.708        2860.292
  21510282.300    21510276.903   -13155446.520 9 -10238735.021 6        53.000
        44.000        2073.091        1615.395
  20179457.203    20179452.832   -16392536.607 9 -13351743.067 9        54.000
        50.000         635.146         494.919
  23376568.572    23376563.283    -8617103.296 7  -6706377.944 1        47.000
        31.000       -1473.242       -1147.981
  23568782.187    23568779.583    -6456867.460 6  -5021340.154 1        43.000
        30.000       -1826.235       -1423.041
  24266093.372    24266090.782     6396531.749 6   4992203.043 1        43.000
        27.000        4317.100        3363.974
 04  3  1  1 49  0.0000000  0  8G 9G29G 8G28G26G18G 7G10
  22495718.651    22495715.688   -11398255.532 6  -8868444.860 3        44.000
        36.000       -2326.885       -1813.157
  20545067.779    20545063.691   -16394306.714 9 -12769712.996 8        54.000
        48.000        1238.921         965.393
  23370098.688    23370095.574      872622.001 5    689111.616 1        40.000
        28.000        3674.380        2863.153
  21522161.013    21522156.147   -13093022.846 9 -10190093.188 6        52.000
        43.000        2088.613        1627.491
  20183129.058    20183124.779   -16373241.445 9 -13336707.879 9        53.000
        51.000         651.401         507.585
  23368205.360    23368199.859    -8661055.327 7  -6740626.284 1        47.000
        32.000       -1456.689       -1135.083
  23558379.956    23558377.050    -6511529.582 7  -5063933.995 1        45.000
        30.000       -1817.666       -1416.363
  24290745.006    24290742.334     6526073.779 6   5093144.914 1        43.000
        28.000        4319.199        3365.610
 04  3  1  1 49 30.0000000  0  8G 9G29G 8G28G26G18G 7G10
  22482456.041    22482452.539   -11467953.279 7  -8922754.760 3        46.000
        37.000       -2319.585       -1807.469
  20552183.579    20552179.341   -16356912.368 9 -12740574.550 8        54.000
        48.000        1254.067         977.195
  23391085.373    23391081.899      982908.691 5    775049.271 1        40.000
        29.000        3678.106        2866.056
  21534128.338    21534123.064   -13030134.306 9 -10141089.124 6        52.000
        44.000        2104.043        1639.514
  20186893.950    20186889.936   -16353455.305 9 -13321290.111 9        54.000
        51.000         667.720         520.301
  23359935.767    23359930.898    -8704508.638 7  -6774486.015 1        47.000
        31.000       -1440.107       -1122.162
  23548028.620    23548025.695    -6565927.900 6  -5106322.281 1        44.000
        31.000       -1808.891       -1409.526
  24315407.920    24315406.301     6655682.958 5   5194139.022 1        40.000
        25.000        4321.455        3367.368
 04  3  1  1 50  0.0000000  0  8G 9G29G 8G28G26G18G 7G10
  22469235.256    22469231.248   -11537430.531 7  -8976892.861 3        47.000
        37.000       -2312.188       -1801.705
  20559386.117    20559381.975   -16319062.430 9 -12711081.101 8        54.000
        48.000        1269.253         989.028
  23412093.751    23412090.245     1093304.969 5    861072.331 1        41.000
        29.000        3681.729        2868.879
  21546183.531    21546178.345   -12966783.589 9 -10091724.937 6        52.000
        43.000        2119.385        1651.469
  20190752.468    20190748.248   -16333178.675 9 -13305490.142 9        54.000
        51.000         684.087         533.055
  23351761.844    23351756.737    -8747461.767 8  -6807955.998 1        48.000
        31.000       -1423.442       -1109.176
  23537727.820    23537724.313    -6620060.771 6  -5148503.716 1        44.000
        31.000       -1799.990       -1402.590
  24340086.039    24340081.800     6785355.529 5   5295182.532 1        41.000
        24.000        4323.506        3368.966
 04  3  1  1 50 30.0000000  0  8G 9G29G 8G28G26G18G 7G10
  22456055.123    22456051.916   -11606690.746 7  -9030861.867 4        45.000
        38.000       -2304.917       -1796.039
  20566674.768    20566670.442   -16280761.342 9 -12681236.108 8        53.000
        48.000        1284.404        1000.835
  23433120.828    23433117.935     1203805.011 5    947176.232 1        41.000
        29.000        3685.239        2871.615
  21558325.633    21558319.897   -12902977.136 9 -10042005.622 6        52.000
        43.000        2134.614        1663.336
  20194704.015    20194699.822   -16312415.485 9 -13289311.043 9        53.000
        52.000         700.425         545.786
  23343683.258    23343678.533    -8789917.605 8  -6841038.501 1        48.000
        32.000       -1406.631       -1096.076
  23527476.531    23527473.261    -6673930.135 6  -5190479.830 1        43.000
        30.000       -1791.021       -1395.600
  24364770.239    24364767.822     6915083.809 5   5396269.579 1        41.000
        26.000        4325.342        3370.396
 04  3  1  1 51  0.0000000  0  8G 9G29G 8G28G26G18G 7G10
  22442917.610    22442913.824   -11675729.974 7  -9084658.650 4        45.000
        38.000       -2297.832       -1790.518
  20574049.543    20574045.062   -16242005.578 9 -12651036.817 8        54.000
        48.000        1299.204        1012.367
  23454168.576    23454165.596     1314410.963 5   1033362.619 1        40.000
        28.000        3688.311        2874.008
  21570554.161    21570548.965   -12838713.456 9  -9991930.015 6        52.000
        43.000        2149.448        1674.895
  20198748.030    20198744.253   -16291162.329 9 -13272750.148 9        53.000
        51.000         716.367         558.208
  23335700.129    23335695.246    -8831870.844 7  -6873729.326 1        47.000
        32.000       -1390.356       -1083.395
  23517277.005    23517273.723    -6727530.312 6  -5232246.200 1        44.000
        30.000       -1782.456       -1388.927
  24389468.479    24389466.108     7044868.595 5   5497400.498 1        40.000
        25.000        4326.792        3371.526
 04  3  1  1 51 30.0000000  0  8G 9G29G 8G28G26G18G 7G10
  22130029.225    22130025.049   -11744551.041 7  -9138285.457 4        46.000
        38.000       -2290.205       -1784.575
  20281718.545    20281714.933   -16202795.104 9 -12620483.207 8        54.000
        48.000        1314.692        1024.436
  23175444.442    23175439.997     1425123.966 5   1119632.454 1        41.000
        27.000        3692.139        2876.991
  21283077.615    21283072.508   -12773993.888 9  -9941499.191 6        52.000
        43.000        2164.888        1686.926
  19903093.436    19903089.345   -16269419.381 9 -13255807.595 9        53.000
        51.000         733.018         571.183
  23028019.556    23028013.630    -8873322.276 7  -6906029.168 1        46.000
        31.000       -1373.159       -1069.994
  23207335.463    23207333.456    -6780861.838 6  -5273803.202 1        44.000
        31.000       -1773.052       -1381.599
  24114386.105    24114381.309     7174709.660 5   5598575.344 1        41.000
        25.000        4328.828        3373.113
 04  3  1  1 52  0.0000000  0  8G 9G29G 8G28G26G18G 7G10
  22116975.642    22116972.111   -11813144.678 7  -9191735.014 3        45.000
        37.000       -2282.671       -1778.705
  20289266.965    20289262.529   -16163128.425 9 -12589574.116 8        54.000
        49.000        1329.849        1036.246
  23196532.033    23196527.650     1535939.361 5   1205982.126 1        42.000
        29.000        3695.606        2879.693
  21295479.871    21295474.462   -12708820.480 9  -9890714.709 6        52.000
        44.000        2180.059        1698.747
  19907324.784    19907320.722   -16247183.738 9 -13238481.118 9        54.000
        51.000         749.385         583.936
  23020228.544    23020223.370    -8914263.290 7  -6937931.254 1        45.000
        32.000       -1356.152       -1056.742
  23197239.902    23197237.012    -6833914.720 6  -5315143.108 1        44.000
        31.000       -1763.857       -1374.434
  24139100.845    24139098.272     7304599.275 5   5699788.077 1        41.000
        26.000        4330.459        3374.384
 04  3  1  1 52 30.0000000  0  8G 9G29G 8G28G26G18G 7G10
  22103965.444    22103961.423   -11881512.921 7  -9245008.959 3        45.000
        37.000       -2275.308       -1772.967
  20296901.857    20296898.162   -16123004.860 9 -12558309.005 8        55.000
        48.000        1344.834        1047.923
  23217638.726    23217635.532     1646859.157 5   1292413.089 1        42.000
        28.000        3698.989        2882.329
  21307968.350    21307963.399   -12643193.749 9  -9839576.994 6        52.000
        43.000        2194.946        1710.348
  19911649.488    19911645.298   -16224454.998 9 -13220770.421 9        53.000
        51.000         765.728         596.671
  23012535.313    23012529.408    -8954694.001 7  -6969435.714 1        47.000
        32.000       -1339.307       -1043.616
  23187197.848    23187193.767    -6886688.827 6  -5356265.762 1        44.000
        31.000       -1754.556       -1367.186
  24163829.081    24163824.253     7434538.465 4   5801039.361 1        39.000
        21.000        4331.924        3375.525
 04  3  1  1 53  0.0000000  0  8G 9G29G 8G28G26G18G 7G10
  22090998.791    22090994.825   -11949655.354 7  -9298106.926 3        45.000
        37.000       -2267.842       -1767.149
  20304624.210    20304620.382   -16082424.638 9 -12526688.066 8        54.000
        48.000        1360.098        1059.816
  23238766.506    23238762.972     1757881.897 6   1378924.257 1        43.000
        27.000        3702.441        2885.019
  21320541.993    21320537.076   -12577116.330 9  -9788088.095 6        52.000
        43.000        2209.878        1721.983
  19916068.805    19916064.451   -16201233.318 9 -13202675.613 9        54.000
        50.000         782.153         609.470
  23004938.946    23004933.801    -8994613.048 7  -7000541.467 1        47.000
        32.000       -1322.261       -1030.333
  23177208.021    23177204.959    -6939182.239 7  -5397169.698 1        45.000
        31.000       -1745.195       -1359.893
  24188564.151    24188560.783     7564523.866 4   5902326.691 1        39.000
        28.000        4333.359        3376.644
 04  3  1  1 53 30.0000000  0  8G 9G29G 8G28G26G18G 7G10
  22078073.662    22078069.244   -12017576.686 7  -9351032.607 3        45.000
        37.000       -2260.464       -1761.400
  20312432.408    20312428.204   -16041392.967 9 -12494715.343 8        54.000
        48.000        1375.210        1071.592
  23259911.787    23259907.414     1869000.916 6   1465510.478 1        44.000
        28.000        3705.537        2887.431
  21333200.951    21333195.553   -12510595.138 9  -9736253.399 6        52.000
        44.000        2224.658        1733.500
  19920580.610    19920576.133   -16177523.762 9 -13184200.641 9        54.000
        50.000         798.374         622.110
  22997438.698    22997433.341    -9034024.056 7  -7031251.368 1        46.000
        32.000       -1305.239       -1017.070
  23167271.685    23167268.826    -6991397.968 6  -5437857.280 1        44.000
        30.000       -1735.957       -1352.694
  24213305.786    24213303.452     7694547.147 5   6003643.508 1        40.000
        24.000        4334.707        3377.694
 04  3  1  1 54  0.0000000  0  8G 9G29G 8G28G26G18G 7G10
  22065191.983    22065187.762   -12085270.850 7  -9403781.267 4        46.000
        38.000       -2252.837       -1755.457
  20320327.394    20320323.033   -15999904.760 9 -12462386.868 8        54.000
        48.000        1390.405        1083.433
  23281075.511    23281071.505     1980220.064 6   1552174.716 1        43.000
        28.000        3708.804        2889.977
  21345944.183    21345939.243   -12443627.339 9  -9684070.689 6        52.000
        43.000        2239.546        1745.101
  19925186.023    19925181.955   -16153320.945 9 -13165341.296 9        55.000
        51.000         814.893         634.981
  22990037.005    22990031.893    -9072920.012 7  -7061559.913 1        47.000
        32.000       -1288.086       -1003.703
  23157390.080    23157386.880    -7043328.276 6  -5478322.424 1        43.000
        31.000       -1726.396       -1345.244
  24238056.312    24238053.441     7824610.620 4   6104991.639 1        39.000
        23.000        4335.962        3378.672
 04  3  1  1 54 30.0000000  0  8G 9G29G 8G28G26G18G 7G10
  22052352.988    22052349.311   -12152737.873 7  -9456352.940 4        46.000
        38.000       -2244.863       -1749.244
  20328309.238    20328304.882   -15957960.789 9 -12429703.278 8        54.000
        48.000        1406.006        1095.589
  23302257.779    23302254.584     2091537.435 5   1638915.543 1        41.000
        26.000        3712.480        2892.842
  21358772.242    21358767.174   -12376215.850 9  -9631542.250 6        52.000
        43.000        2254.722        1756.926
  19929885.320    19929881.333   -16128625.456 9 -13146098.072 9        55.000
        51.000         831.582         647.986
  22982733.913    22982728.314    -9111300.170 7  -7091466.543 1        45.000
        32.000       -1270.386        -989.911
  23147562.358    23147559.617    -7094971.609 6  -5518563.958 1        44.000
        32.000       -1716.416       -1337.467
  24262814.223    24262810.616     7954710.708 5   6206368.364 1        42.000
        26.000        4337.617        3379.961
 04  3  1  1 55  0.0000000  0  8G 9G29G 8G28G26G18G 7G10
  22039559.545    22039555.357   -12219971.213 8  -9508742.520 4        48.000
        38.000       -2237.251       -1743.313
  20336378.704    20336374.316   -15915555.212 9 -12396659.970 8        54.000
        48.000        1421.118        1107.365
  23323461.016    23323458.004     2202957.791 5   1725736.558 1        42.000
        27.000        3715.674        2895.330
  21371685.337    21371680.628   -12308356.776 9  -9578665.054 6        52.000
        43.000        2269.336        1768.314
  19934679.572    19934675.469   -16103431.208 9 -13126466.195 9        55.000
        51.000         848.032         660.804
  22975530.362    22975524.994    -9149156.641 7  -7120965.106 2        47.000
        33.000       -1253.228        -976.541
  23137791.133    23137787.520    -7146319.711 6  -5558575.436 1        43.000
        32.000       -1706.743       -1329.930
  24287577.346    24287575.527     8084849.997 4   6307775.591 1        39.000
        25.000        4338.467        3380.624
 04  3  1  1 55 30.0000000  0  8G 9G29G 8G28G26G18G 7G10
  22026809.072    22026804.967   -12286974.789 8  -9560953.065 4        48.000
        38.000       -2229.468       -1737.248
  20344535.066    20344530.782   -15872692.765 9 -12363260.676 8        54.000
        48.000        1436.382        1119.259
  23344682.440    23344679.158     2314475.231 6   1812633.224 1        43.000
        28.000        3718.941        2897.876
  21384682.681    21384677.236   -12240056.927 9  -9525444.388 6        52.000
        43.000        2284.072        1779.797
  19939568.180    19939564.276   -16077742.940 9 -13106449.370 9        54.000
        51.000         864.604         673.718
  22968425.776    22968420.528    -9186492.603 7  -7150058.067 1        47.000
        32.000       -1235.781        -962.946
  23128075.561    23128072.060    -7197374.902 7  -5598358.687 1        45.000
        31.000       -1696.865       -1322.233
  24312349.879    24312345.816     8215020.953 5   6409207.443 1        42.000
        22.000        4339.497        3381.426
 04  3  1  1 56  0.0000000  0  8G 9G29G 8G28G26G18G 7G10
  22014102.092    22014097.815   -12353751.089 8  -9612986.505 4        49.000
        38.000       -2222.095       -1731.502
  20352777.768    20352773.626   -15829376.808 9 -12329507.990 8        54.000
        48.000        1451.382        1130.947
  23365920.637    23365917.798     2426085.220 5   1899602.006 1        42.000
        27.000        3721.748        2900.063
  21397762.255    21397757.042   -12171321.543 9  -9471884.349 6        51.000
        43.000        2298.354        1790.926
  19944549.946    19944545.912   -16051563.415 9 -13086049.741 9        54.000
        52.000         880.820         686.354
  22961419.274    22961413.957    -9223309.604 7  -7178746.659 1        46.000
        32.000       -1218.569        -949.535
  23118415.709    23118412.752    -7248138.091 7  -5637914.403 1        45.000
        32.000       -1687.173       -1314.680
  24337124.732    24337121.422     8345217.154 5   6510659.042 1        41.000
        25.000        4340.303        3382.054
 04  3  1  1 56 30.0000000  0  8G 9G29G 8G28G26G18G 7G10
  22001438.789    22001435.244   -12420294.716 8  -9664838.663 4        49.000
        38.000       -2214.111       -1725.281
  20361107.749    20361104.157   -15785602.628 9 -12295398.250 8        54.000
        48.000        1466.899        1143.038
  23387177.674    23387173.818     2537791.231 6   1986645.632 1        43.000
        27.000        3725.127        2902.696
  21410925.585    21410920.718   -12102147.889 9  -9417982.806 6        52.000
        43.000        2313.169        1802.469
  19949626.183    19949621.900   -16024887.933 9 -13065263.656 9        55.000
        51.000         897.568         699.404
  22954513.023    22954507.362    -9259601.407 7  -7207025.977 1        46.000
        32.000       -1200.869        -935.742
  23108812.765    23108809.730    -7298602.197 6  -5677237.060 1        44.000
        32.000       -1677.065       -1306.804
  24361903.043    24361902.801     8475440.688 3   6612131.863 1        37.000
        23.000        4341.401        3382.910
 04  3  1  1 57  0.0000000  0  8G 9G29G 8G28G26G18G 7G10
  21988819.982    21988815.885   -12486607.699 7  -9716511.093 4        47.000
        38.000       -2206.704       -1719.510
  20369524.390    20369520.191   -15741373.085 9 -12260933.685 8        54.000
        48.000        1481.753        1154.613
  23408452.414    23408448.334     2649589.571 6   2073761.217 1        43.000
        28.000        3728.062        2904.983
  21424171.446    21424165.721   -12032541.087 9  -9363743.728 6        51.000
        43.000        2327.295        1813.477
  19954796.408    19954792.352   -15997719.086 9 -13044093.139 9        54.000
        51.000         913.696         711.971
  22947706.746    22947701.667    -9295368.675 7  -7234896.575 1        47.000
        32.000       -1183.672        -922.342
  23099266.967    23099263.815    -7348767.679 7  -5716327.036 2        45.000
        33.000       -1667.383       -1299.259
  24386690.152    24386687.181     8605685.874 5   6713621.626 1        40.000
        23.000        4341.626        3383.085
 04  3  1  1 57 30.0000000  0  8G 9G29G 8G28G26G18G 7G10
  21976245.589    21976241.968   -12552684.949 7  -9767999.828 4        47.000
        38.000       -2198.750       -1713.312
  20378028.385    20378024.475   -15696683.977 9 -12226111.010 8        54.000
        48.000        1497.173        1166.628
  23429745.559    23429741.930     2761483.368 6   2160951.129 1        44.000
        29.000        3731.309        2907.513
  21437500.029    21437494.919   -11962498.524 9  -9309165.109 6        51.000
        43.000        2341.953        1824.899
  19960060.967    19960057.047   -15970052.365 9 -13022534.656 9        55.000
        51.000         930.425         725.006
  22941001.511    22940996.367    -9330605.686 7  -7262354.000 2        46.000
        33.000       -1165.732        -908.363
  23089778.820    23089775.418    -7398627.704 7  -5755178.978 1        45.000
        32.000       -1656.963       -1291.140
  24411478.992    24411475.986     8735953.858 5   6815129.194 1        40.000
        24.000        4342.456        3383.732
 04  3  1  1 58  0.0000000  0  8G 9G29G 8G28G26G18G 7G10
  21963716.664    21963712.295   -12618526.001 7  -9819304.507 4        47.000
        38.000       -2190.747       -1707.076
  20386620.005    20386615.778   -15651535.648 9 -12190930.505 8        55.000
        48.000        1512.549        1178.609
  23451055.757    23451052.958     2873470.771 6   2248213.999 1        44.000
        28.000        3734.443        2909.956
  21450911.310    21450905.830   -11892023.115 9  -9254249.199 5        52.000
        42.000        2356.377        1836.138
  19965420.571    19965416.132   -15941888.085 9 -13000588.473 9        55.000
        51.000         947.134         738.026
  22934397.257    22934391.863    -9365310.904 7  -7289397.030 2        46.000
        34.000       -1147.974        -894.525
  23080349.238    23080345.147    -7448180.512 7  -5793791.533 1        46.000
        32.000       -1646.606       -1283.070
  24436273.133    24436269.579     8866241.496 4   6916651.928 1        38.000
        22.000        4343.159        3384.280
 04  3  1  1 58 30.0000000  0  8G 9G29G 8G28G26G18G 7G10
  21951232.700    21951228.576   -12684129.706 8  -9870424.251 4        49.000
        39.000       -2182.905       -1700.965
  20395298.884    20395294.346   -15605928.149 9 -12155392.213 8        54.000
        48.000        1527.832        1190.518
  23472383.947    23472380.684     2985551.269 6   2335549.392 1        44.000
        26.000        3737.510        2912.345
  21464404.171    21464399.087   -11821116.409 9  -9198997.221 6        52.000
        43.000        2370.669        1847.275
  19970874.812    19970870.707   -15913225.855 9 -12978254.271 9        54.000
        51.000         963.687         750.925
  22927894.333    22927889.677    -9399482.615 7  -7316024.353 1        46.000
        32.000       -1130.259        -880.721
  23070978.849    23070975.141    -7497423.375 7  -5832162.591 2        45.000
        33.000       -1636.372       -1275.095
  24461068.445    24461065.848     8996546.211 5   7018188.067 1        41.000
        26.000        4343.755        3384.744
 04  3  1  1 59  0.0000000  0  8G 9G29G 8G28G26G18G 7G10
  21938793.383    21938789.505   -12749498.205 8  -9921360.703 5        49.000
        40.000       -2174.897       -1694.725
  20404064.203    20404060.299   -15559864.141 9 -12119498.184 8        54.000
        48.000        1543.208        1202.500
  23493729.640    23493725.399     3097720.884 6   2422954.282 1        44.000
        27.000        3740.557        2914.719
  21477978.414    21477973.550   -11749783.434 9  -9143413.076 5        51.000
        42.000        2384.951        1858.404
  19976423.157    19976419.300   -15884068.246 9 -12955534.059 9        55.000
        51.000         980.288         763.861
  22921493.084    22921487.622    -9433122.196 7  -7342237.011 2        47.000
        33.000       -1112.290        -866.719
  23061666.990    23061663.266    -7546356.638 7  -5870292.384 2        45.000
        33.000       -1625.825       -1266.877
  24485866.548    24485863.641     9126862.106 4   7119732.979 1        38.000
        22.000        4344.146        3385.048
 04  3  1  1 59 30.0000000  0  8G 9G29G 8G28G26G18G 7G10
  21926400.171    21926395.498   -12814628.468 8  -9972111.558 4        48.000
        38.000       -2167.031       -1688.596
  20412917.406    20412913.654   -15513341.375 9 -12083246.694 8        54.000
        48.000        1558.433        1214.363
  23515092.000    23515087.861     3209980.643 6   2510429.381 1        44.000
        27.000        3743.491        2917.006
  21491633.574    21491628.638   -11678024.082 9  -9087496.705 5        52.000
        42.000        2399.102        1869.430
  19982066.444    19982062.359   -15854413.030 9 -12932426.111 9        54.000
        50.000         996.821         776.744
  22915193.925    22915189.127    -9466225.854 7  -7368032.072 1        47.000
        32.000       -1094.473        -852.836
  23052414.620    23052411.474    -7594975.818 7  -5908177.431 1        46.000
        32.000       -1615.376       -1258.734
  24510667.502    24510663.571     9257188.737 5   7221286.138 1        41.000
        20.000        4344.326        3385.189
 04  3  1  2  0  0.0000000  0  8G 9G29G 8G28G26G18G 7G10
  21914051.732    21914047.389   -12879516.172 9 -10022673.379 4        50.000
        38.000       -2158.701       -1682.105
  20421858.270    20421854.083   -15466356.929 9 -12046635.448 8        53.000
        48.000        1574.014        1226.504
  23536471.504    23536467.952     3322332.774 6   2597976.418 1        43.000
        26.000        3746.714        2919.517
  21505370.235    21505365.217   -11605837.031 9  -9031247.052 5        52.000
        42.000        2413.491        1880.642
  19987805.081    19987800.519   -15824256.892 9 -12908927.834 9        55.000
        50.000        1013.691         789.889
  22908996.938    22908992.089    -9498788.496 7  -7393405.564 1        47.000
        32.000       -1076.187        -838.587
  23043223.710    23043220.270    -7643275.358 6  -5945813.428 2        44.000
        33.000       -1604.424       -1250.200
  24535469.836    24535466.499     9387526.115 6   7322847.755 1        43.000
        26.000        4344.814        3385.570
 04  3  1  2  0 30.0000000  0  8G 9G29G 8G28G26G18G 7G10
  21901750.519    21901746.492   -12944160.365 9 -10073045.452 4        50.000
        39.000       -2150.728       -1675.892
  20430887.158    20430882.815   -15418910.517 9 -12009664.230 8        53.000
        48.000        1589.238        1238.367
  23557868.728    23557865.545     3434776.501 6   2685594.843 1        44.000
        27.000        3749.604        2921.770
  21519188.216    21519182.382   -11533224.033 9  -8974665.494 6        51.000
        43.000        2427.510        1891.566
  19993639.123    19993634.906   -15793599.251 9 -12885038.769 9        54.000
        51.000        1030.210         802.761
  22902904.060    22902899.509    -9530808.097 8  -7418355.908 2        48.000
        33.000       -1058.276        -824.631
  23034093.793    23034090.687    -7691252.364 7  -5983198.079 2        45.000
        34.000       -1593.867       -1241.974
  24560270.905    24560270.874     9517872.351 3   7424416.222 1        37.000
        23.000        4345.122        3385.809
 04  3  1  2  1  0.0000000  0  8G 9G29G 8G28G26G18G 7G10
  21889494.903    21889491.093   -13008563.167 8 -10123229.422 4        49.000
        39.000       -2142.700       -1669.636
  20440003.302    20439999.377   -15371004.919 9 -11972335.207 8        53.000
        48.000        1604.556        1250.303
  23579282.922    23579279.249     3547308.158 7   2773281.861 1        45.000
        27.000        3752.505        2924.030
  21533086.406    21533081.069   -11460189.949 9  -8917755.814 5        51.000
        42.000        2441.509        1902.474
  19999567.927    19999563.738   -15762442.832 9 -12860761.045 9        54.000
        51.000        1046.909         815.773
  22896914.074    22896909.163    -9562285.981 8  -7442884.128 2        48.000
        33.000       -1040.142        -810.500
  23025025.447    23025022.189    -7738907.395 7  -6020331.849 2        45.000
        33.000       -1583.110       -1233.593
  24585078.588    24585074.568     9648221.736 6   7525987.133 1        43.000
        22.000        4345.029        3385.737
 04  3  1  2  1 30.0000000  0  8G 9G29G 8G28G26G18G 7G10
  21877285.572    21877281.666   -13072723.821 9 -10173224.713 4        51.000
        39.000       -2134.805       -1663.484
  20449206.691    20449202.556   -15322640.279 9 -11934648.484 8        54.000
        48.000        1619.639        1262.056
  23600713.781    23600709.379     3659926.565 6   2861036.422 1        44.000
        27.000        3755.180        2926.115
  21547064.025    21547058.625   -11386736.924 9  -8860519.683 6        52.000
        43.000        2455.239        1913.173
  20005591.878    20005587.723   -15730787.399 9 -12836094.480 9        55.000
        51.000        1063.306         828.550
  22891028.008    22891022.565    -9593220.391 8  -7466988.866 2        48.000
        34.000       -1022.153        -796.483
  23016018.353    23016015.231    -7786237.930 7  -6057212.761 2        46.000
        33.000       -1572.378       -1225.230
  24609882.385    24609879.176     9778571.203 6   7627558.223 1        43.000
        23.000        4344.819        3385.573
 04  3  1  2  2  0.0000000  0  8G 9G29G 8G28G26G18G 7G10
  21865121.786    21865117.610   -13136644.001 9 -10223032.634 4        51.000
        39.000       -2126.426       -1656.955
  20458496.953    20458492.674   -15273819.422 9 -11896606.279 8        53.000
        48.000        1635.146        1274.140
  23622160.464    23622156.387     3772628.063 6   2948855.773 1        44.000
        27.000        3758.320        2928.561
  21561120.379    21561115.270   -11312869.773 9  -8802960.867 5        51.000
        42.000        2469.346        1924.166
  20011709.733    20011705.786   -15698635.640 9 -12811041.167 9        55.000
        50.000        1080.181         841.699
  22885244.357    22885239.447    -9623612.596 8  -7490671.096 2        48.000
        33.000       -1003.852        -782.223
  23007074.013    23007070.488    -7833244.313 7  -6093841.105 2        45.000
        34.000       -1561.279       -1216.581
  24634686.011    24634684.327     9908915.488 5   7729125.138 1        41.000
        23.000        4344.858        3385.604
 04  3  1  2  2 30.0000000  0  8G 9G29G 8G28G26G18G 7G10
  21853005.363    21853001.554   -13200315.400 9 -10272646.688 4        50.000
        39.000       -2118.477       -1650.761
  20467875.391    20467871.060   -15224535.286 9 -11858203.067 8        54.000
        48.000        1650.293        1285.943
  23643623.866    23643620.252     3885418.964 7   3036744.723 1        45.000
        27.000        3760.947        2930.608
  21575256.610    21575251.798   -11238583.074 9  -8745075.128 5        51.000
        42.000        2482.993        1934.800
  20017924.078    20017919.691   -15665980.058 9 -12785595.261 9        55.000
        50.000        1096.719         854.586
  22879565.586    22879559.892    -9653453.993 8  -7513924.147 2        48.000
        33.000        -985.762        -768.126
  22998192.327    22998188.655    -7879916.897 6  -6130209.329 2        44.000
        34.000       -1550.449       -1208.142
  24659491.509    24659487.414    10039259.173 7   7830691.614 1        45.000
        23.000        4344.551        3385.364
 04  3  1  2  3  0.0000000  0  9G 9G29G 8G28G 5G26G18G 7G10
  21840935.021    21840931.480   -13263746.903 9 -10322073.813 4        50.000
        39.000       -2110.293       -1644.384
  20477340.248    20477335.843   -15174797.294 9 -11819446.206 8        54.000
        48.000        1665.493        1297.787
  23665102.061    23665098.662     3998288.576 7   3124695.015 1        46.000
        27.000        3763.725        2932.773
  21589470.344    21589465.047   -11163888.506 9  -8686871.561 5        50.000
        42.000        2496.665        1945.453
  25069637.048    25069635.339      -43505.685 4    -24944.587 1        38.000
        22.000       -3234.658       -2520.513
  20024232.342    20024228.270   -15632830.286 9 -12759764.276 9        54.000
        51.000        1113.330         867.530
  22873989.926    22873985.015    -9682752.275 7  -7536753.981 2        47.000
        33.000        -967.490        -753.888
  22989373.070    22989369.655    -7926262.887 7  -6166323.076 2        45.000
        34.000       -1539.312       -1199.464
  24684289.464    24684288.404    10169589.557 5   7932247.815 1        41.000
        23.000        4344.199        3385.090
 04  3  1  2  3 30.0000000  0  9G 9G29G 8G28G 5G26G18G 7G10
  21828910.504    21828906.580   -13326936.325 9 -10371312.305 5        51.000
        40.000       -2102.129       -1638.023
  20486891.648    20486887.431   -15124604.617 9 -11780335.044 8        55.000
        48.000        1680.747        1309.673
  23686595.438    23686591.991     4111237.077 6   3212706.841 1        43.000
        26.000        3766.294        2934.774
  21603761.920    21603756.459   -11088787.184 9  -8628351.053 5        51.000
        42.000        2510.283        1956.065
  25051175.833    25051172.729     -140525.152 4   -100544.151 1        39.000
        21.000       -3233.018       -2519.234
  20030635.017    20030630.531   -15599185.230 9 -12733547.353 9        54.000
        51.000        1129.878         880.424
  22868518.787    22868512.844    -9711504.465 8  -7559158.304 2        48.000
        33.000        -949.106        -739.563
  22980616.217    22980613.280    -7972278.899 6  -6202179.672 2        44.000
        33.000       -1528.154       -1190.770
  24709087.846    24709087.093    10299905.190 5   8033792.387 1        41.000
        21.000        4343.701        3384.702
 04  3  1  2  4  0.0000000  0  9G 9G29G 8G28G 5G26G18G 7G10
  21816932.721    21816928.898   -13389879.321 9 -10420358.782 4        51.000
        39.000       -2094.009       -1631.695
  20496529.943    20496526.073   -15073953.893 9 -11740866.955 8        55.000
        48.000        1696.001        1321.559
  23708103.850    23708100.861     4224266.997 6   3300782.068 1        43.000
        26.000        3768.975        2936.863
  21618130.506    21618125.174   -11013277.689 9  -8569512.479 5        50.000
        42.000        2523.706        1966.524
  25032722.568    25032720.115     -237495.147 3   -176105.203 1        36.000
        21.000       -3231.431       -2517.998
  20037132.225    20037127.721   -15565041.073 9 -12706941.520 9        54.000
        51.000        1146.401         893.300
  22863152.366    22863147.687    -9739705.573 7  -7581133.194 2        47.000
        33.000        -930.835        -725.326
  22971923.993    22971920.411    -8017958.870 6  -6237774.436 2        44.000
        33.000       -1517.134       -1182.182
  24733886.539    24733882.522    10430207.082 7   8135326.324 1        45.000
        23.000        4343.096        3384.230
 04  3  1  2  4 30.0000000  0  9G 9G29G 8G28G 5G26G18G 7G10
  21805002.917    21804998.945   -13452571.307 9 -10469209.667 5        51.000
        40.000       -2085.425       -1625.006
  20506256.159    20506252.187   -15022841.488 9 -11701039.125 8        54.000
        48.000        1711.499        1333.636
  23729629.046    23729625.578     4337381.196 5   3388922.968 1        42.000
        26.000        3772.046        2939.257
  21632577.588    21632572.371   -10937358.145 9  -8510354.393 5        51.000
        42.000        2537.593        1977.345
  25014280.792    25014277.525     -334409.844 3   -251623.192 1        37.000
        22.000       -3229.448       -2516.453
  20043725.332    20043721.223   -15530394.050 9 -12679943.847 9        55.000
        50.000        1163.394         906.540
  22857891.835    22857886.805    -9767350.600 7  -7602674.778 2        46.000
        34.000        -912.100        -710.727
  22963296.462    22963292.657    -8063296.735 6  -6273102.648 2        44.000
        34.000       -1505.449       -1173.077
  24758677.402    24758675.433    10560496.228 5   8236850.318 1        42.000
        21.000        4342.769        3383.976
